     2.11           OBSERVATION DATA    M (MIXED)           RINEX VERSION / TYPE
teqc  2019Feb25                         20260317 16:18:01UTCPGM / RUN BY / DATE
Linux 2.4.21-27.ELsmp|Opteron|gcc -static|Linux 64|=+       COMMENT
BIT 2 OF LLI FLAGS DATA COLLECTED UNDER A/S CONDITION       COMMENT
-Unknown-                                                   MARKER NAME
-Unknown-           -Unknown-                               OBSERVER / AGENCY
-Unknown-           -Unknown-           -Unknown-           REC # / TYPE / VERS
-Unknown-           -Unknown-                               ANT # / TYPE
        0.0000        0.0000        0.0000                  APPROX POSITION XYZ
        0.0000        0.0000        0.0000                  ANTENNA: DELTA H/E/N
     1     1                                                WAVELENGTH FACT L1/2
     7    L1    L2    C1    P1    P2    S1    S2            # / TYPES OF OBSERV
 SNR is mapped to RINEX snr flag value [0-9]                COMMENT
  L1 & L2: min(max(int(snr_dBHz/6), 0), 9)                  COMMENT
  2025     1     1     9     0    0.0000000     GPS         TIME OF FIRST OBS
    18                                                      LEAP SECONDS
                                                            END OF HEADER
 25  1  1  9  0  0.0000000  0 23G18G08G23E29G32G24E33G10G27R19R04R12
                                R03E26R18S35R17R02S31S33E07E08E13
 108545763.773 8  84581134.81746  20655572.371    20655572.1084   20655572.9224
        48.200          40.4004
 129980530.379 4 101283527.32242  24734479.101    24734478.1764   24734477.4954
        26.800          12.1004
 107404524.748 7  83691869.92145  20438401.211    20438400.9254   20438399.9654
        46.200          35.6004
 135059356.981 6                  25700934.008
        39.500
 124085998.503 5  96690380.36341  23612812.153    23612811.5544   23612777.7624
        32.200           6.9004
 113123751.125 7  88148403.87244  21526733.789    21526733.5034   21526737.1124
        42.500          28.5004
 139080493.829 7                  26466137.965
        42.700
 117722706.645 7  91732017.60746  22401888.852    22401888.4194   22401892.5614
        46.500          39.8004
 121315645.420 6  94531691.33146  23085605.458    23085604.7564   23085609.4694
        40.500          36.6004
 114045733.573 6  88702241.256 6  21319647.714    21319646.608    21319652.443
        36.200          40.600
 116137312.384 7  90329053.161 6  21687823.657    21687823.047    21687828.955
        43.700          40.300
 126343476.399 5                  23651771.935    23651763.103
        31.300
 104461104.407 8  81247544.233 7  19514196.171    19514196.099    19514198.826
        53.800          45.200
 123116722.933 8                  23428336.301
        50.400
 102542407.663 8  79755197.735 8  19209644.034    19209643.961    19209650.443
        50.300          48.800


 110263369.540 8  85760442.628 7  20605356.123    20605355.348    20605360.442
        48.500          43.000
 114208696.428 7  88829015.535 6  21402658.495    21402657.639    21402664.765
        44.700          40.800
 198898677.103 7                  37849161.198
        42.900
 202021310.397 7                  38443385.475
        44.500
 122075534.062 7                  23230183.840
        47.600


 128533599.477 7                  24459117.721
        47.500
 25  1  1  9  0 15.0000000  0 23G18G08G23E29G32G24E33G10G27R19R04R12
                                R03E26R18S35R17R02S31S33E07E08E13
 108567853.680 8  84598347.72846  20659775.321    20659775.0804   20659776.9904
        49.000          40.6004
 129955365.295 4 101263918.19342  24729690.445    24729689.2924   24729688.6834
        24.500          12.1004
 107400440.241 7  83688687.19845  20437624.087    20437623.7924   20437623.6644
        46.400          35.6004
 135022528.865 6                  25693925.386
        38.500
 124040497.992 4  96654925.57341  23604117.982    23604116.9324   23604119.6634
        28.200           6.0004
 113105248.647 7  88133986.53144  21523213.622    21523213.3414   21523216.0894
        44.900          28.6004
 139041593.477 7                  26458735.214
        42.800
 117693211.469 7  91709034.35746  22396274.863    22396274.4394   22396279.2404
        45.400          39.0004
 121314711.312 7  94530963.52745  23085427.373    23085426.6454   23085433.2474
        43.300          35.7004
 113995533.832 6  88663197.019 6  21310261.336    21310261.603    21310267.187
        36.500          40.600
 116098395.261 7  90298784.405 6  21680557.414    21680557.510    21680561.330
        43.300          38.500
 126310892.804 5                  23645660.660    23645661.310
        34.100
 104463222.742 9  81249191.835 7  19514591.890    19514592.249    19514595.155
        54.900          46.300
 123104889.497 8                  23426084.781
        50.800
 102539269.553 8  79752756.996 8  19209057.211    19209057.043    19209062.948
        51.100          49.000


 110315022.243 8  85800616.963 7  20615008.043    20615008.078    20615014.291
        49.000          45.100
 114253183.285 7  88863616.455 6  21410995.000    21410993.705    21411002.342
        42.800          41.900
 198898676.978 7                  37849163.313
        42.700
 202021288.326 7                  38443383.055
        45.600
 122073308.109 8                  23229760.458
        48.200


 128560969.601 7                  24464325.756
        47.400
 25  1  1  9  0 30.0000000  0 23G18G08G23E29G32G24E33G10G27R19R04R12
                                R03E26R18S35R17R02S31S33E07E08E13
 108590066.745 8  84615656.59846  20664001.714    20664001.4734   20664004.0374
        48.300          40.0004


 107396409.400 7  83685546.30145  20436856.283    20436855.9704   20436856.8304
        47.200          35.7004
 134985747.981 6                  25686927.127
        40.000


 113086893.394 7  88119683.90445  21519720.334    21519720.0534   21519723.9134
        46.300          33.8004
 139002706.863 6                  26451335.772
        41.700
 117663736.949 7  91686067.16946  22390667.146    22390666.7354   22390669.2764
        45.900          36.3004
 121313918.657 6  94530345.88745  23085275.111    23085274.3834   23085283.0684
        40.900          31.4004
 113945442.124 6  88624236.807 6  21300896.494    21300897.377    21300901.776
        36.500          38.300
 116059559.827 6  90268579.150 6  21673302.195    21673302.933    21673311.627
        41.900          41.700
 126278426.340 5                  23639586.659    23639583.641
        34.000
 104465446.360 8  81250921.334 7  19515006.537    19515007.323    19515010.416
        53.900          46.900
 123093128.164 8                  23423846.325
        50.500
 102536326.827 8  79750468.219 8  19208505.198    19208505.294    19208511.284
        51.200          48.500


 110366799.961 8  85840888.520 7  20624683.700    20624683.905    20624690.569
        49.100          46.400
 114297695.379 7  88898236.993 6  21419335.166    21419335.298    21419342.978
        43.900          41.500
 198898673.289 6                  37849165.669
        40.700
 202021263.204 7                  38443377.269
        44.100
 122071165.258 8                  23229352.491
        48.100


 128588406.781 7                  24469546.738
        45.700
 25  1  1  9  0 45.0000000  0 23G18G08G23E29G32G24E33G10G27R19R04R12
                                R03E26R18S35R17R02S31S33E07E08E13
 108612409.298 8  84633066.37146  20668252.978    20668252.7244   20668255.4324
        48.000          38.1004


 107392438.668 7  83682452.22546  20436100.706    20436100.3894   20436101.1844
        47.000          36.4004
 134949021.009 6                  25679937.215
        38.200


 113068692.046 7  88105501.09746  21516256.519    21516256.2244   21516262.6224
        47.800          36.0004
 138963840.576 6                  26443939.100
        41.000
 117634289.577 7  91663121.11645  22385064.849    22385064.4874   22385062.8854
        46.100          34.1004
 121313273.881 6  94529843.52944  23085153.342    23085152.6324   23085161.2254
        41.000          29.0004
 113895465.530 5  88585366.067 6  21291554.556    21291554.230    21291559.394
        35.500          37.800
 116020812.438 6  90238442.283 7  21666065.792    21666067.808    21666075.057
        41.500          43.600


 104467781.018 8  81252737.204 7  19515442.923    19515442.581    19515447.008
        52.700          47.500
 123081445.515 8                  23421623.172
        50.600
 102533586.190 8  79748336.606 8  19207992.364    19207992.363    19207997.960
        51.300          48.300


 110418708.801 8  85881262.014 7  20634384.992    20634385.582    20634391.522
        51.300          47.400
 114342239.357 7  88932882.288 6  21427684.482    21427686.281    21427688.649
        45.900          38.700
 198898673.730 7                  37849167.400
        42.100
 202021241.248 7                  38443375.449
        45.900
 122069111.878 8                  23228961.508
        48.800
 134050884.093 5                  25509036.297
        34.800
 128615917.390 7                  24474782.170
        44.000
 25  1  1  9  1  0.0000000  0 23G18G08G23G15E29G32G24E33G10G27R19R04
                                R03E26R18S35R17R02S31S33E07E08E13
 108634876.979 8  84650573.62846  20672528.703    20672528.4444   20672530.5494
        48.100          36.9004


 107388523.766 8  83679401.65846  20435355.579    20435355.2714   20435356.0194
        48.800          38.1004
 115553909.816 5  90042090.79742  21989177.593    21989178.4064   21989193.9804
        30.600          15.0004
 134912343.578 6                  25672958.785
        40.000


 113050640.522 7  88091435.00546  21512821.077    21512820.7604   21512828.3364
        46.700          36.1004
 138924990.471 6                  26436546.475
        40.400
 117604865.105 7  91640192.96145  22379465.241    22379464.9024   22379460.8954
        46.200          31.5004
 121312772.587 6  94529452.80944  23085057.637    23085056.9094   23085064.8524
        40.000          27.4004
 113845600.129 5  88546581.875 6  21282230.771    21282229.242    21282241.530
        31.600          37.800
 115982149.053 7  90208370.687 7  21658854.683    21658851.946    21658854.062
        42.700          42.800
 104470222.275 8  81254635.947 7  19515899.246    19515898.571    19515902.952
        52.200          47.800
 123069837.304 8                  23419414.540
        50.800
 102531043.490 8  79746358.915 7  19207516.918    19207516.820    19207521.160
        52.200          47.600


 110470743.909 8  85921733.732 8  20644109.555    20644110.556    20644116.577
        52.100          48.000
 114386810.405 8  88967548.652 6  21436039.869    21436042.299    21436042.959
        48.500          39.600
 198898673.116 7                  37849166.398
        42.600
 202021218.528 7                  38443372.350
        45.800
 122067143.529 8                  23228587.118
        49.300
 134084771.676 5                  25515483.517
        35.800
 128643497.097 7                  24480031.818
        45.500
 25  1  1  9  1 15.0000000  0 24G18G08G23G15E29G32G24E33G10G27R19R04
                                R12R03E26R18S35R17R02S31S33E07E08E13
 108657469.820 8  84668178.43346  20676828.644    20676828.4034   20676829.3264
        48.900          37.1004


 107384664.872 8  83676394.73746  20434621.079    20434620.7664   20434622.0164
        48.600          39.1004
 115600197.148 5  90078158.86142  21997982.508    21997983.2144   21997998.7394
        33.300          16.0004
 134875715.957 6                  25665986.872
        37.600
 123859068.222 5  96513539.78243  23569596.412    23569596.5464   23569593.1524
        33.700          21.2004
 113032739.118 7  88077485.92045  21509415.008    21509414.6784   21509419.4354
        46.100          35.9004
 138886156.895 6                  26429156.421
        39.000
 117575463.693 7  91617282.80245  22373870.285    22373869.9414   22373864.8514
        46.000          30.7004
 121312414.802 6  94529174.01144  23084990.000    23084989.2634   23084992.9184
        37.700          26.4004
 113795846.873 5  88507884.875 6  21272931.745    21272930.293    21272939.965
        33.000          38.600
 115943569.605 6  90178364.503 7  21651651.895    21651650.836    21651648.739
        40.200          42.500
 126181760.594 6  98141404.943 5  23621493.988    23621495.924    23621498.513
        38.500          32.700
 104472770.101 8  81256617.595 7  19516376.331    19516375.635    19516378.581
        52.200          47.200
 123058303.876 8                  23417219.808
        51.100
 102528698.970 8  79744535.374 7  19207076.995    19207077.756    19207081.809
        52.200          47.000


 110522905.020 8  85962303.437 7  20653857.447    20653857.629    20653862.362
        52.100          47.500
 114431408.393 7  89002235.969 6  21444396.204    21444397.253    21444400.788
        46.900          38.100
 198898671.467 6                  37849164.699
        40.200
 202021195.207 7                  38443364.212
        44.700
 122065260.284 8                  23228228.610
        49.000
 134118697.343 6                  25521938.546
        36.200
 128671145.959 7                  24485292.191
        44.200
 25  1  1  9  1 30.0000000  0 24G18G08G23G15E29G32G24E33G10G27R19R04
                                R12R03E26R18S35R17R02S31S33E07E08E13
 108680188.420 8  84685881.23246  20681151.607    20681151.3664   20681151.7304
        49.400          36.9004


 107380862.701 8  83673432.02446  20433897.903    20433897.6084   20433898.8524
        49.200          39.9004
 115646537.585 5  90114268.44142  22006804.122    22006804.6004   22006816.3854
        34.600          15.5004
 134839139.016 5                  25659028.396
        34.400


 113014988.797 7  88063654.58845  21506037.093    21506036.7634   21506039.9884
        45.800          35.5004
 138847340.735 6                  26421770.102
        40.300
 117546085.925 7  91594390.94245  22368279.528    22368279.2154   22368274.7334
        45.500          30.2004
 121312201.150 6  94529007.58243  23084950.281    23084949.5174   23084949.8164
        37.800          22.4004
 113746206.636 5  88469275.840 6  21263650.946    21263650.760    21263660.731
        33.200          37.600
 115905074.976 5  90148424.242 7  21644445.734    21644450.276    21644460.521
        31.200          44.200
 126149781.109 5                  23615502.872    23615501.669
        35.700
 104475424.719 8  81258682.347 7  19516871.550    19516871.395    19516874.631
        50.900          47.900
 123046846.040 8                  23415039.140
        50.200
 102526553.393 8  79742866.591 7  19206674.774    19206675.520    19206679.677
        52.100          46.900


 110575192.354 8  86002971.327 7  20663627.806    20663627.700    20663632.200
        50.900          45.200
 114476033.698 7  89036944.466 5  21452757.385    21452757.985    21452759.422
        45.900          35.800
 198898670.699 6                  37849168.165
        41.400
 202021172.326 7                  38443361.296
        44.800
 122063462.707 8                  23227886.435
        49.100
 134152661.602 6                  25528399.982
        39.000
 128698864.600 7                  24490567.108
        44.400
 25  1  1  9  1 45.0000000  0 23G18G08G23G15E29G32G24E33G10G27R19R04
                                R03E26R18S35R17R02S31S33E07E08E13
 108703031.276 8  84703680.84046  20685499.001    20685498.7734   20685497.9424
        48.100          36.8004


 107377115.812 8  83670512.39446  20433184.809    20433184.5284   20433185.7584
        48.800          38.4004
 115692929.619 5  90150418.13843  22015631.670    22015631.7054   22015645.0944
        35.500          18.0004
 134802611.249 5                  25652077.398
        33.300


 112997388.328 7  88049939.96445  21502686.891    21502686.5384   21502689.7014
        45.700          34.3004
 138808540.588 6                  26414386.347
        37.400
 117516730.426 7  91571516.51145  22362692.796    22362692.4834   22362689.6724
        46.700          31.2004
 121312130.046 5  94528952.16043  23084932.055    23084931.1794   23084930.9454
        34.300          19.9004
 113696678.394 5  88430753.927 5  21254391.339    21254392.636    21254397.778
        32.500          30.200
                  90118548.726 7                  21637280.262    21637287.855
                        44.900
 104478184.637 8  81260829.016 7  19517386.431    19517385.859    19517389.879
        50.000          47.200
 123035462.486 8                  23412872.818
        49.400
 102524605.419 8  79741351.516 7  19206310.329    19206309.969    19206315.843
        51.100          47.400
 200878340.273 5                  38225868.220
        32.600
 110627604.130 8  86043735.993 7  20673422.472    20673421.895    20673426.354
        48.400          43.800
 114520684.495 7  89071672.782 5  21461124.065    21461124.498    21461125.891
        45.400          35.500
 198898667.731 6                  37849166.524
        41.200
 202021147.605 7                  38443353.440
        44.500
 122061749.299 8                  23227560.500
        48.800
 134186662.864 6                  25534870.904
        36.900
 128726651.568 7                  24495854.970
        44.100
 25  1  1  9  2  0.0000000  0 24G18G08G23G15E29G32G24E33G10G27R19R04
                                R12R03E26R18S35R17R02S31S33E07E08E13
 108725998.006 7  84721577.00246  20689868.884    20689868.6564   20689868.6494
        47.900          37.7004


 107373423.958 7  83667635.65445  20432481.917    20432481.6404   20432482.3184
        47.000          35.9004
 115739372.421 5  90186607.46943  22024468.185    22024468.2294   22024483.0064
        33.900          20.8004
 134766132.549 6                  25645137.213
        37.600
 123723633.789 5  96407982.65941  23543820.569    23543820.6984   23543811.1894
        33.400          10.0004
 112979937.597 7  88036341.99045  21499366.921    21499366.5644   21499368.9354
        45.200          35.5004
 138769756.328 6                  26407007.303
        37.100
 117487397.030 7  91548659.32045  22357110.699    22357110.4004   22357107.1874
        45.200          33.0004
 121312201.311 3  94529007.67843  23084940.932    23084939.7704   23084942.8534
        22.700          19.0004
 113647262.827 5  88392319.685 5  21245154.925    21245155.440    21245158.677
        32.000          31.000
 115828335.102 6  90088737.768 7  21630131.645    21630126.663    21630129.454
        37.800          44.200
 126086184.881 5                  23603602.449    23603597.481
        30.300
 104481049.325 8  81263057.116 7  19517920.391    19517920.102    19517925.145
        50.300          47.200
 123024153.015 8                  23410721.146
        49.900
 102522854.794 8  79739989.944 7  19205982.049    19205982.477    19205987.380
        51.400          47.200
 200878340.304 6                  38225875.607
        36.000
 110680139.384 7  86084596.700 7  20683238.831    20683238.917    20683245.264
        47.400          45.800
 114565360.367 7  89106420.594 6  21469497.337    21469496.820    21469499.871
        45.100          37.100
 198898663.072 6                  37849166.228
        41.800
 202021120.930 7                  38443348.924
        43.700
 122060119.622 8                  23227250.435
        49.500
 134220700.505 6                  25541345.317
        36.400
 128754506.394 7                  24501156.141
        45.600
 25  1  1  9  2 15.0000000  0 24G18G08G23G15E29G32G24E33G10G27R19R04
                                R12R03E26R18S35R17R02S31S33E07E08E13
 108749093.569 8  84739573.56946  20694263.554    20694263.3314   20694264.5044
        48.000          38.8004


 107369792.167 7  83664805.71145  20431791.433    20431791.1654   20431789.9144
        44.800          33.1004
 115785870.596 5  90222839.87043  22033319.268    22033319.1884   22033330.9834
        31.900          19.3004
 134729707.932 6                  25638205.187
        38.200
 123678575.313 4  96372872.27842  23535226.673    23535226.9144   23535227.4134
        27.700          13.1004
 112962641.863 7  88022864.78645  21496075.560    21496075.2254   21496077.4954
        42.800          34.4004
 138730993.169 6                  26399631.029
        38.700
 117458090.718 7  91525823.25745  22351536.005    22351535.6924   22351531.8384
        43.700          35.3004
 121312420.710 6  94529169.77844  23084987.825    23084987.6154   23084989.3274
        37.000          25.4004
 113597964.989 4  88353976.961 5  21235942.404    21235938.872    21235946.746
        29.700          34.200
 115790094.919 6  90058995.437 7  21622982.793    21622983.304    21622987.924
        38.700          44.000
 126054573.851 5                  23597675.865    23597678.452
        31.700
 104484023.965 8  81265370.745 7  19518476.621    19518476.989    19518481.442
        51.400          47.100
 123012922.805 8                  23408583.943
        50.100
 102521306.816 8  79738785.995 7  19205692.201    19205692.470    19205696.362
        51.500          46.800
 200878342.781 5                  38225877.101
        34.400
 110732802.984 7  86125557.288 7  20693079.454    20693079.210    20693087.940
        45.700          46.500
 114610066.023 7  89141191.678 6  21477873.588    21477874.391    21477878.480
        44.700          37.800
 198898661.655 7                  37849163.662
        43.800
 202021098.227 7                  38443341.049
        43.700
 122058578.615 8                  23226957.153
        49.900
 134254779.362 5                  25547824.937
        32.300
 128782434.117 7                  24506470.142
        46.200
 25  1  1  9  2 30.0000000  0 23G18G08G23G15E29G32G24E33G10G27R19R04
                                R03E26R18S35R17R02S31S33E07E08E13
 108772317.779 7  84757670.37046  20698682.743    20698682.5204   20698684.9674
        46.900          40.0004


 107366220.434 7  83662022.55845  20431113.474    20431113.1974   20431109.7314
        42.100          31.9004
 115832423.969 4  90259115.25842  22042177.337    22042176.9044   22042188.9414
        26.600          15.1004
 134693337.489 6                  25631285.213
        38.300
 123633575.813 5  96337807.80042  23526667.798    23526667.4684   23526661.6724
        32.900          14.5004
 112945501.236 7  88009508.43545  21492813.718    21492813.3924   21492814.8254
        42.700          34.9004
 138692251.242 6                  26392258.183
        38.200
 117428811.373 7  91503008.16846  22345964.740    22345964.3294   22345963.1214
        44.200          38.7004
 121312786.054 6  94529454.50244  23085057.849    23085057.8364   23085058.8344
        40.800          29.7004
 113548785.385 4  88315726.174 5  21226744.227                    21226753.796
        26.200          34.300
 115751942.797 5  90029321.612 7  21615855.628    21615855.328    21615865.564
        34.400          44.600
 104487107.783 8  81267769.294 7  19519052.506    19519052.625    19519057.320
        51.400          47.100
 123001771.913 8                  23406461.924
        50.500
 102519961.436 8  79737739.599 7  19205439.372    19205439.541    19205444.995
        51.000          47.200
 200878348.863 5                  38225885.619
        35.500
 110785594.281 8  86166617.155 7  20702945.977    20702946.731    20702952.751
        48.600          45.600
 114654801.164 7  89175985.624 6  21486258.062    21486258.491    21486264.078
        46.300          41.500
 198898663.121 7                  37849164.476
        43.700
 202021077.929 7                  38443339.323
        44.300
 122057126.087 8                  23226680.487
        49.600
 134288899.221 5                  25554319.857
        32.100
 128810434.571 7                  24511798.048
        45.700
 25  1  1  9  2 45.0000000  0 23G18G08G23G15E29G32G24E33G10G27R19R04
                                R03E26R18S35R17R02S31S33E07E08E13
 108795662.933 7  84775861.41646  20703126.733    20703126.5284   20703127.8734
        46.700          40.6004


 107362701.134 7  83659280.26545  20430442.667    20430442.3864   20430440.7274
        42.200          32.0004
 115879024.515 5  90295427.35442  22051043.358    22051042.5894   22051055.5294
        30.600          16.2004
 134657013.610 6                  25624371.881
        38.700
 123588628.026 5  96302783.60642  23518110.963    23518110.7224   23518110.2174
        35.300          17.5004
 112928508.321 6  87996267.19545  21489579.135    21489578.8274   21489581.5964
        37.700          34.8004
 138653522.987 6                  26384888.129
        37.000
 117399551.345 7  91480208.11547  22340396.627    22340396.1584   22340397.5294
        46.300          42.2004
 121313290.706 6  94529847.74344  23085154.126    23085153.9974   23085153.5344
        40.900          29.1004
 113499717.119 4  88277561.984 5  21217571.838                    21217582.883
        28.200          31.800
 115713987.487 6  89999710.328 7  21608771.786                    21608755.085
        36.400          44.100
 104490293.103 8  81270246.811 7  19519647.567    19519647.772    19519652.864
        51.200          47.900
 122990692.872 8                  23404353.273
        50.800
 102518811.046 8  79736844.878 8  19205223.955    19205223.969    19205229.856
        50.600          48.000
 200878350.215 5                  38225884.850
        32.800
 110838505.262 8  86207770.150 7  20712834.502    20712835.000    20712839.969
        49.700          44.400
 114699557.635 7  89210796.261 6  21494644.475    21494643.629    21494650.432
        43.600          41.600
 198898660.208 7                  37849162.365
        43.900
 202021053.676 7                  38443335.750
        44.600
 122055754.309 8                  23226419.725
        49.400
 134323052.202 5                  25560820.539
        34.200
 128838500.052 7                  24517138.054
        44.200
 25  1  1  9  3  0.0000000  0 23G18G08G23G15E29G32G24E33G10G27R19R04
                                R03E26R18S35R17R02S31S33E07E08E13
 108819134.042 8  84794150.60446  20707592.634    20707592.4334   20707594.0764
        48.200          40.7004


 107359239.404 7  83656582.83045  20429783.316    20429783.0574   20429783.1754
        42.600          32.4004
 115925677.130 6  90331779.96042  22059923.365    22059922.7354   22059928.2524
        36.600          17.2004
 134620741.489 6                  25617469.180
        39.500
 123543737.205 6  96267803.76743  23509570.132    23509569.7264   23509569.7134
        36.400          19.6004
 112911668.410 6  87983145.19945  21486374.814    21486374.4794   21486377.8214
        38.900          32.7004
 138614813.756 6                  26377521.492
        36.200
 117370315.770 7  91457427.07847  22334832.367    22334831.8944   22334835.9934
        46.800          44.0004
 121313939.681 6  94530353.49944  23085277.152    23085277.1744   23085276.5844
        37.800          27.6004
 113450765.759 5  88239488.535 5  21208424.889    21208421.919    21208436.948
        33.700          30.400
 115676001.030 6  89970165.528 7  21601656.661    21601653.647    21601660.538
        39.300          42.100
 104493584.526 8  81272806.799 7  19520262.922    19520263.085    19520267.220
        52.300          47.800
 122979690.892 8                  23402259.752
        50.400
 102517860.927 8  79736105.876 8  19205046.729    19205047.599    19205052.565
        52.600          48.700
 200878352.656 5                  38225875.419
        32.700
 110891540.460 8  86249019.660 7  20722745.890    20722747.026    20722750.838
        50.600          43.800
 114744340.333 7  89245627.259 6  21503036.889    21503036.243    21503040.251
        43.000          40.400
 198898658.263 7                  37849162.146
        43.600
 202021029.819 7                  38443334.239
        44.600
 122054468.320 8                  23226175.258
        49.400
 134357243.278 5                  25567327.555
        35.400
 128866635.646 7                  24522492.424
        43.200
 25  1  1  9  3 15.0000000  0 24G18G08G23G15E29G32G24E33G10G27R19R04
                                R12R03E26R18S35R17R02S31S33E07E08E13
 108842732.356 7  84812538.88646  20712082.843    20712082.6334   20712084.2244
        47.200          40.2004


 107355836.586 7  83653931.29445  20429134.802    20429134.5394   20429136.9144
        43.000          32.6004
 115972382.726 6  90368173.89342  22068810.827    22068810.1664   22068810.8264
        39.000          17.7004
 134584522.516 6                  25610576.304
        41.100
 123498904.822 6  96232869.41743  23501038.448    23501038.1044   23501038.1524
        40.200          22.6004
 112894983.031 6  87970143.63545  21483198.245    21483197.8924   21483202.7414
        37.900          32.3004
 138576124.973 6                  26370157.868
        37.300
 117341106.052 7  91434666.20047  22329273.101    22329272.6414   22329278.4864
        46.800          43.8004
 121314734.205 5  94530972.64944  23085426.686    23085426.6994   23085429.3664
        34.400          24.1004
 113401932.809 6                  21199293.228    21199294.940
        37.100
 115638101.861 7  89940688.326 6  21594584.035    21594584.879    21594582.577
        44.500          40.100


 104496983.429 8  81275450.391 8  19520898.749    19520899.687    19520901.914
        53.500          48.100
 122968767.425 8                  23400181.198
        50.300
 102517112.440 8  79735523.687 8  19204906.302    19204906.846    19204911.857
        52.000          48.600
 200878356.115 5                  38225882.010
        34.400
 110944700.907 8  86290366.613 7  20732680.536    20732681.586    20732684.910
        50.100          43.500
 114789150.526 7  89280479.674 6  21511433.896    21511433.927    21511436.988
        43.200          40.200
 198898657.699 7                  37849161.301
        43.300
 202021007.905 7                  38443329.387
        44.400
 122053269.356 8                  23225947.174
        50.100
 134391473.475 6                  25573841.343
        38.700
 128894842.623 7                  24527860.251
        43.700
 25  1  1  9  3 30.0000000  0 23G18G08G23G15E29G32G24E33G10G27R04R12
                                R03E26R18S35R17R02S31S33E07E08E13
 108866456.343 7  84831025.09146  20716597.445    20716597.2264   20716598.7744
        47.600          40.5004


 107352491.309 7  83651324.59445  20428498.885    20428498.6354   20428500.8934
        42.900          32.4004
 116019139.535 5  90404607.70142  22077706.930    22077706.2154   22077705.0054
        35.500          15.0004
 134548355.410 7                  25603694.140
        42.500
 123454129.468 6  96197979.54544  23492517.086    23492516.7204   23492517.8644
        41.900          25.5004
 112878450.985 6  87957261.57245  21480052.703    21480052.4134   21480057.3084
        38.500          32.2004
 138537455.444 6                  26362800.488
        38.300
 117311920.724 7  91411924.30647  22323719.472    22323718.9764   22323724.9014
        47.300          42.3004
 121315672.784 5  94531704.08643  23085605.196    23085604.9684   23085609.1484
        32.900          23.5004
 115600288.417 7  89911277.951 6  21587525.587    21587526.021    21587519.327
        47.300          36.700


 104500488.088 8  81278176.242 8  19521553.843    19521554.570    19521556.926
        53.500          48.600
 122957921.226 8                  23398117.658
        50.500
 102516564.297 8  79735097.355 8  19204803.473    19204803.221    19204809.211
        51.000          48.100
 200878360.254 5                  38225889.241
        35.300
 110997984.842 8  86331809.623 7  20742637.943    20742638.556    20742642.010
        49.700          43.700
 114833986.368 7  89315351.984 6  21519837.916    21519837.868    21519839.820
        44.400          41.100
 198898657.703 7                  37849162.360
        42.700
 202020986.657 7                  38443325.707
        44.200
 122052155.872 8                  23225735.104
        50.600
 134425741.206 6                  25580361.643
        39.300
 128923119.481 7                  24533241.615
        44.800
 25  1  1  9  3 45.0000000  0 24G18G08G23G15E29G32G24E33G10G27R19R04
                                R12R03E26R18S35R17R02S31S33E07E08E13
 108890301.256 7  84849605.51946  20721134.970    20721134.7474   20721136.6174
        47.400          39.8004


 107349198.923 7  83648759.10745  20427872.977    20427872.7004   20427873.8464
        44.800          32.0004
 116065942.588 5  90441077.63242  22086614.341    22086613.8594   22086609.7134
        30.800          13.3004
 134512235.516 7                  25596820.649
        42.300
 123409406.736 6  96163130.72744  23484007.077    23484006.6714   23484007.3654
        40.600          25.8004
 112862067.749 6  87944495.46945  21476932.995    21476932.7234   21476940.3864
        36.200          31.5004
 138498800.630 6                  26355444.628
        39.300
 117282755.287 7  91389197.93946  22318169.325    22318168.7894   22318173.8024
        46.900          39.6004
 121316750.630 5  94532543.94343  23085810.513    23085810.1024   23085814.4804
        34.700          22.8004
 113304615.879 5                  21181100.010    21181100.905
        35.800
 115562555.740 7  89881930.421 6  21580475.617    21580477.035    21580475.162
        45.000          37.500


 104504093.638 8  81280980.587 8  19522226.477    19522226.901    19522230.772
        52.500          49.100
 122947147.745 8                  23396067.665
        50.300
 102516212.052 8  79734823.409 7  19204736.989    19204737.412    19204742.293
        50.700          47.200
 200878360.672 5                  38225882.332
        35.000
 111051387.027 8  86373344.647 7  20752617.515    20752617.604    20752621.983
        49.300          45.500
 114878842.730 7  89350240.284 7  21528243.523    21528243.423    21528247.288
        42.900          43.200
 198898653.764 7                  37849157.424
        42.800
 202020960.619 7                  38443315.664
        44.000
 122051123.120 8                  23225538.384
        50.300
 134460041.639 6                  25586888.560
        39.900
 128951461.517 7                  24538634.696
        45.600
 25  1  1  9  4  0.0000000  0 24G18G08G23G15E29G32G24E33G10G27R19R04
                                R12R03E26R18S35R17R02S31S33E07E08E13
 108914274.892 7  84868286.25546  20725696.713    20725696.4814   20725698.7814
        46.800          38.4004


 107345967.318 7  83646240.98345  20427257.955    20427257.6784   20427258.0454
        47.200          32.2004
 116112799.630 6  90477589.66542  22095542.553    22095542.2144   22095525.1364
        36.600          13.9004
 134476170.824 7                  25589957.848
        42.900
 123364744.544 6  96128329.05744  23475508.600    23475508.2164   23475509.6774
        38.100          26.5004
 112845841.470 6  87931851.65845  21473847.215    21473847.0684   21473853.1914
        39.700          34.9004
 138460168.588 6                  26348092.977
        39.200
 117253617.547 7  91366493.18546  22312625.303    22312624.7764   22312627.1834
        46.100          36.7004
 121317975.594 6  94533498.45144  23086045.180    23086044.7204   23086048.1544
        36.700          26.8004
 113256136.066 5                  21172038.453    21172037.364
        34.300
 115524911.924 7  89852651.945 6  21573441.143    21573441.800    21573446.992
        42.500          40.000


 104507807.379 8  81283869.083 8  19522919.893    19522920.114    19522925.220
        51.400          49.500
 122936454.960 8                  23394032.830
        49.900
 102516063.481 8  79734707.853 7  19204708.963    19204709.214    19204714.104
        50.100          46.200
 200878364.052 5                  38225886.500
        34.900
 111104914.758 7  86414977.317 7  20762620.785    20762620.194    20762626.013
        47.700          46.300
 114923727.574 7  89385150.769 7  21536654.997    21536654.961    21536659.779
        44.000          44.400
 198898652.960 7                  37849159.821
        43.100
 202020938.743 7                  38443311.259
        44.300
 122050178.858 8                  23225358.581
        49.600
 134494382.416 6                  25593422.884
        38.600
 128979876.512 7                  24544042.406
        46.000
 25  1  1  9  4 15.0000000  0 23G18G08G23G15E29G32G24E33G10G27R04R12
                                R03E26R18S35R17R02S31S33E07E08E13
 108938372.350 7  84887063.48246  20730282.702    20730282.4744   20730283.9384
        46.600          36.7004


 107342791.746 8  83643766.52745  20426653.361    20426653.0894   20426652.4714
        48.500          32.4004
 116159705.538 6  90514139.67942  22104453.804    22104453.2324   22104450.9554
        39.600          15.5004
 134440156.590 7                  25583104.864
        43.600
 123320138.251 6  96093570.93944  23467020.672    23467020.2254   23467023.3964
        38.600          26.9004
 112829767.565 7  87919326.54846  21470790.476    21470790.4364   21470794.1414
        43.000          36.5004
 138421554.627 6                  26340744.737
        38.600
 117224502.737 7  91343806.27845  22307085.447    22307084.9204   22307083.2394
        45.400          32.6004
 121319342.689 6  94534563.73745  23086306.580    23086306.1384   23086309.8064
        41.900          30.6004
 115487351.978 7  89823438.612 6  21566429.114    21566431.096    21566433.096
        43.500          40.800


 104511624.832 8  81286838.221 8  19523633.279    19523633.830    19523637.916
        52.100          48.800
 122925838.234 8                  23392012.549
        48.800
 102516114.000 8  79734747.093 7  19204719.275    19204719.700    19204723.490
        50.800          46.400
 200878366.490 5                  38225892.358
        35.200
 111158562.895 7  86456703.614 7  20772646.194    20772644.047    20772652.210
        44.400          46.200
 114968635.675 7  89420079.275 7  21545072.998    21545073.197    21545075.337
        47.000          44.100
 198898651.024 7                  37849162.065
        43.700
 202020915.608 7                  38443307.060
        44.100
 122049318.202 8                  23225194.765
        49.000
 134528758.566 6                  25599964.035
        36.300
 129008359.632 7                  24549463.284
        46.300
 25  1  1  9  4 30.0000000  0 23G18G08G23G15E29G32G24E33G10G27R19R04
                                R03E26R18S35R17R02S31S33E07E08E13
 108962592.407 7  84905936.26646  20734891.393    20734891.1484   20734892.0664
        46.100          36.3004


 107339671.079 8  83641334.87045  20426059.606    20426059.3344   20426057.5444
        48.100          32.2004
 116206658.653 6  90550726.53142  22113390.639    22113390.0494   22113386.6304
        41.300          16.2004
 134404191.742 7                  25576261.457
        42.700
 123275586.887 6  96058855.61044  23458542.942    23458542.3434   23458545.9374
        37.300          26.4004
 112813845.058 6  87906919.39646  21467759.460    21467759.3714   21467763.7404
        40.200          36.7004
 138382957.786 6                  26333399.524
        37.400
 117195409.589 7  91321136.20344  22301549.098    22301548.5894   22301543.1134
        43.600          29.4004
 121320850.725 7  94535738.85245  23086592.006    23086591.5554   23086597.5964
        42.900          31.7004
 113159528.872 5  88012984.687 5  21153979.092    21153980.425    21153985.540
        33.000          35.400
 115449875.085 6  89794289.912 6  21559433.253    21559434.751    21559433.991
        41.000          40.000
 104515544.061 8  81289886.570 8  19524364.208    19524365.115    19524369.536
        50.400          48.300
 122915296.526 7                  23390006.536
        47.700
 102516362.382 8  79734940.259 7  19204765.619    19204765.825    19204770.903
        51.000          47.700
 200878366.441 5                  38225883.906
        34.200
 111212329.669 7  86498522.221 7  20782692.525    20782689.731    20782698.868
        42.200          44.500
 115013565.498 7  89455024.713 7  21553489.688    21553490.754    21553495.196
        44.200          43.300
 198898646.937 7                  37849160.219
        43.700
 202020889.860 7                  38443302.924
        44.200
 122048539.894 7                  23225046.400
        47.600
 134563168.700 6                  25606512.415
        36.500
 129036909.631 7                  24554895.730
        46.100
 25  1  1  9  4 45.0000000  0 24G18G08G23G15E29G32G24E33G10G27R19R04
                                R12R03E26R18S35R17R02S31S33E07E08E13
 108986939.334 7  84924907.90446  20739525.274    20739525.0294   20739525.2264
        45.900          36.6004
 129522600.301 5 100926700.42142  24647333.045    24647332.3884   24647332.6784
        33.800          13.4004
 107336609.762 7  83638949.45145  20425476.916    20425476.6214   20425475.0714
        47.900          32.9004
 116253663.205 7  90587353.49642  22122335.714    22122335.1154   22122332.6434
        43.400          17.6004
 134368280.781 6                  25569427.937
        41.900
 123231094.978 4  96024186.62544  23450071.645    23450070.8674   23450078.5494
        29.300          25.9004
 112798078.581 6  87894633.84246  21464760.182    21464760.0804   21464763.0894
        40.800          37.1004
 138344382.678 5                  26326059.880
        34.500
 117166342.679 6  91298486.60144  22296016.913    22296016.3864   22296011.8864
        40.400          28.4004
 121322504.004 7  94537027.18645  23086907.921    23086907.4794   23086911.4054
        42.800          30.7004
 113111405.805 5  87975555.576 5  21144982.640    21144980.238    21144989.136
        30.700          35.400
 115412485.428 6  89765209.141 6  21552445.757    21552448.695    21552450.283
        37.700          38.700
 125745343.267 6                  23539795.230    23539799.099
        36.000
 104519569.827 8  81293017.749 7  19525116.710    19525116.365    19525121.404
        49.800          47.500
 122904834.409 7                  23388015.344
        47.600
 102516813.201 8  79735290.901 8  19204850.377    19204850.598    19204855.488
        51.400          48.200
 200878368.654 5                  38225894.366
        32.200
 111266219.467 7  86540436.402 7  20792761.904    20792761.953    20792767.987
        46.000          42.600
 115058521.211 7  89489990.277 7  21561914.982    21561913.641    21561918.387
        42.700          42.100
 198898644.759 7                  37849158.072
        43.500
 202020867.127 7                  38443301.989
        45.200
 122047848.236 7                  23224915.188
        47.000
 134597617.003 6                  25613068.068
        37.900
 129065530.862 7                  24560341.979
        45.400
 25  1  1  9  5  0.0000000  0 24G18G08G23G15E29G32G24E33G10G27R19R04
                                R12R03E26R18S35R17R02S31S33E07E08E13
 109011415.163 7  84943979.97746  20744182.942    20744182.6924   20744183.3024
        44.400          36.7004
 129499696.248 5 100908853.16441  24642974.088    24642973.5524   24642975.3324
        30.900           9.1004
 107333609.916 8  83636611.93545  20424905.601    20424905.3024   20424905.4134
        48.400          34.0004
 116300721.056 7  90624022.04543  22131291.144    22131290.5104   22131290.8724
        44.700          18.7004
 134332425.884 6                  25562605.250
        40.500
 123186664.669 6  95989565.65744  23441622.471    23441621.5824   23441621.9824
        36.900          24.7004
 112782470.344 6  87882471.58846  21461790.427    21461790.3204   21461792.4344
        41.300          36.4004
 138305831.486 5                  26318722.599
        33.000
 117137304.107 6  91275859.11844  22290489.397    22290488.8304   22290488.5564
        36.900          29.8004
 121324304.451 7  94538430.17445  23087250.103    23087249.6564   23087252.4924
        43.000          30.1004
                  87938223.458 6                  21136008.992    21136016.553
                        36.100
 115375185.205 6  89736197.837 6  21545491.839    21545494.356    21545484.890
        41.700          38.200
 125715122.364 5                  23534138.393    23534141.092
        35.400
 104523703.761 8  81296233.061 7  19525888.798    19525889.580    19525893.541
        50.800          47.500
 122894454.135 7                  23386039.622
        47.900
 102517468.775 8  79735800.816 7  19204973.561    19204973.380    19204978.578
        52.100          47.900
 200878375.310 5                  38225893.775
        34.500
 111320233.756 7  86582447.489 7  20802856.847    20802857.612    20802862.201
        47.800          42.000
 115103504.677 7  89524977.374 7  21570345.597    21570345.896    21570349.229
        44.700          42.900
 198898646.754 7                  37849153.328
        43.300
 202020847.901 7                  38443293.753
        44.700
 122047245.210 7                  23224800.254
        47.800
 134632105.420 6                  25619631.573
        37.300
 129094225.354 7                  24565801.941
        44.300
 25  1  1  9  5 15.0000000  0 24G18G08G23G15E29G32G24E33G10G27R19R04
                                R12R03E26R18S35R17R02S31S33E07E08E13
 109036010.565 7  84963145.20246  20748863.206    20748862.9834   20748863.5174
        46.100          37.0004
 129476907.655 5 100891095.9284   24638637.753    24638637.4054   24638636.9154
        32.300           5.4004
 107330662.330 7  83634315.12645  20424345.130    20424344.8174   20424345.5444
        47.700          34.5004
 116347822.662 7  90660724.68543  22140254.694    22140254.0064   22140260.3394
        44.500          19.6004
 134296617.880 6                  25555790.152
        39.000
 123142287.028 6  95954985.67045  23433173.668    23433172.7744   23433176.2004
        41.300          30.0004
 112767011.360 7  87870425.64746  21458847.968    21458847.8434   21458850.1204
        43.300          37.8004
 138267295.222 4                  26311387.942
        28.900
 117108284.575 6  91253246.47545  22284968.942    22284968.3664   22284968.9734
        40.200          33.6004
 121326242.811 7  94539940.61245  23087619.187    23087618.7404   23087622.3584
        45.400          33.9004
 113015524.403 4  87900981.139 6  21127061.530    21127059.012    21127066.010
        26.600          37.900
 115337965.357 6  89707248.999 6  21538533.862    21538533.109    21538536.056
        41.400          38.200
 125685024.927 5                  23528497.506    23528499.165
        32.000
 104527936.019 8  81299524.825 8  19526681.059    19526681.630    19526684.276
        52.400          48.000
 122884146.551 8                  23384078.200
        48.400
 102518319.738 8  79736462.680 7  19205133.398    19205134.103    19205137.773
        53.300          47.400
 200878376.060 5                  38225889.062
        33.200
 111374362.565 8  86624547.616 6  20812972.666    20812973.415    20812978.236
        48.000          41.800
 115148506.450 7  89559978.730 7  21578778.593    21578779.054    21578783.246
        43.100          42.900
 198898643.497 7                  37849156.829
        43.300
 202020823.315 7                  38443292.223
        44.500
 122046721.510 7                  23224700.377
        47.700
 134666624.474 6                  25626201.026
        36.100
 129122983.768 6                  24571272.960
        41.200
 25  1  1  9  5 30.0000000  0 24G18G08G23G15E29G32G24E33G10G27R19R04
                                R12R03E26R18S35R17R02S31S33E07E08E13
 109060731.263 7  84982408.06646  20753566.293    20753566.0794   20753567.5614
        46.500          37.6004
 129454240.480 5                  24634325.125
        34.200
 107327772.883 8  83632063.61245  20423795.987    20423795.6574   20423795.9054
        48.200          34.6004
 116394973.596 7  90697465.77543  22149227.282    22149226.6034   22149241.2894
        44.000          20.9004
 134260862.639 6                  25548984.906
        37.800
 123097967.848 6  95920451.25645  23424740.684    23424739.9064   23424742.3984
        41.300          32.6004
 112751707.636 7  87858500.68146  21455936.271    21455936.1694   21455937.4844
        45.500          39.1004
 138228779.832 5                  26304062.651
        33.200
 117079289.895 7  91230653.20346  22279452.301    22279451.7024   22279454.2644
        44.900          38.3004
 121328324.794 7  94541562.95246  23088015.123    23088014.6904   23088020.7214
        44.700          36.2004
 112967763.548 4  87863833.782 6  21118134.867    21118130.635    21118137.526
        29.000          37.700
 115300831.363 7  89678367.041 6  21531593.155    21531594.872    21531605.993
        42.000          38.200


 104532272.657 8  81302897.800 8  19527490.055    19527491.159    19527494.615
        52.400          48.100
 122873917.606 8                  23382131.684
        48.900
 102519371.952 8  79737281.041 7  19205329.769    19205330.654    19205334.314
        52.400          46.400
 200878378.134 5                  38225892.174
        33.400
 111428611.621 8  86666741.298 7  20823110.568    20823110.918    20823117.462
        48.400          42.500
 115193531.910 7  89594998.531 7  21587215.783    21587214.663    21587220.518
        42.900          42.400
 198898640.851 7                  37849155.286
        42.900
 202020799.727 7                  38443288.749
        44.300
 122046282.849 8                  23224617.075
        48.400
 134701179.807 5                  25632777.459
        35.300
 129151811.927 6                  24576758.278
        37.900
 25  1  1  9  5 45.0000000  0 23G18G08G23G15E29G32G24E33G10G27R19R04
                                R03E26R18S35R17R02S31S33E07E08E13
 109085577.429 7  85001768.70446  20758295.082    20758294.9084   20758295.9004
        46.100          38.1004
 129431695.170 5 100855867.26742  24630035.312    24630035.0134   24630038.0164
        34.000          13.5004
 107324941.839 8  83629857.59445  20423257.126    20423256.8224   20423256.0194
        49.600          34.0004
 116442173.659 7  90734245.13643  22158209.298    22158208.6724   22158230.2924
        43.000          21.0004
 134225160.542 6                  25542191.012
        38.000
 123053707.578 6  95885962.75345  23416318.561    23416317.9314   23416321.2194
        40.800          31.3004
 112736559.612 7  87846697.04746  21453053.697    21453053.5994   21453054.6204
        46.400          40.6004
 138190285.764 6                  26296735.393
        37.100
 117050320.495 7  91208079.67146  22273939.340    22273938.7414   22273943.3654
        47.800          40.8004
 121330550.560 6  94543297.33045  23088438.883    23088438.4814   23088445.2264
        41.600          34.0004
 112920125.409 4  87826781.902 6  21109229.481    21109228.748    21109230.416
        28.300          36.400
 115263783.847 7  89649552.390 6  21524675.905    21524677.017    21524680.304
        44.200          37.000
 104536713.553 8  81306351.854 8  19528319.564    19528319.867    19528324.025
        51.400          48.000
 122863767.651 8                  23380200.305
        48.900
 102520625.800 8  79738256.249 7  19205563.926    19205563.952    19205568.945
        50.200          45.500
 200878380.435 5                  38225881.398
        33.600
 111482980.626 7  86709028.258 7  20833271.863    20833270.762    20833276.850
        47.300          42.400
 115238581.188 7  89630036.872 6  21595658.115    21595657.006    21595661.081
        42.300          41.700
 198898639.258 7                  37849154.428
        43.000
 202020777.578 7                  38443283.405
        44.300
 122045929.361 8                  23224549.990
        49.200
 134735771.438 6                  25639360.120
        36.800
 129180709.969 6                  24582260.000
        36.800
 25  1  1  9  6  0.0000000  0 23G18G08G23G15E29G32G24E33G10G27R19R04
                                R03E26R18S35R17R02S31S33E07E08E13
 109110549.847 8  85021227.72446  20763047.491    20763047.3224   20763048.4384
        48.200          38.9004
 129409272.727 5 100838395.24443  24625769.175    24625768.9884   24625775.3264
        35.600          19.9004
 107322170.155 8  83627697.81845  20422729.588    20422729.2934   20422726.9414
        50.000          33.0004
 116489423.417 7  90771063.25442  22167200.027    22167199.4464   22167223.6694
        44.000          16.9004
 134189512.512 6                  25535406.988
        37.800
 123009507.298 6  95851520.97544  23407905.978    23407905.3124   23407911.5014
        37.100          28.2004
 112721568.391 7  87835015.59846  21450201.129    21450201.0494   21450202.3694
        45.100          40.7004
 138151814.114 6                  26289415.350
        40.500
 117021377.236 8  91185526.51646  22268430.941    22268430.3654   22268436.2984
        48.200          41.2004
 121332920.860 7  94545144.34545  23088889.665    23088889.2814   23088893.6444
        42.200          30.5004
                  87789826.918 5                                  21100346.424
                        33.400
 115226823.794 7  89620805.744 6  21517776.278    21517775.604    21517781.181
        46.100          37.200
 104541259.424 8  81309887.514 8  19529169.500    19529169.909    19529173.700
        51.700          48.000
 122853697.776 8                  23378283.552
        48.400
 102522082.398 8  79739389.153 7  19205836.490    19205836.582    19205841.360
        50.000          44.900
 200878384.790 5                  38225891.249
        32.200
 111537469.898 7  86751408.806 6  20843452.425    20843450.366    20843459.401
        42.400          41.900
 115283654.969 7  89665094.194 7  21604106.799    21604106.950    21604109.193
        47.500          42.700
 198898639.387 7                  37849155.049
        42.800
 202020756.921 7                  38443281.885
        44.100
 122045661.873 8                  23224499.242
        49.300
 134770400.128 6                  25645949.905
        39.100
 129209678.819 6                  24587774.911
        40.300
 25  1  1  9  6 15.0000000  0 23G18G08G23G15E29G32G24E33G10G27R19R04
                                R03E26R18S35R17R02S31S33E07E08E13
 109135641.715 7  85040779.81646  20767822.356    20767822.1464   20767823.3534
        47.600          39.6004
 129386966.679 5 100821013.90643  24621523.631    24621523.4534   24621532.1674
        35.700          21.9004
 107319451.129 8  83625579.08445  20422212.075    20422211.7804   20422208.8734
        49.800          32.9004
 116536715.964 7  90807914.74542  22176198.212    22176197.6804   22176224.0614
        42.400          17.9004
 134153911.993 6                  25528633.114
        40.000
 122965360.304 4  95817120.72844  23399502.978    23399502.3304   23399511.9434
        27.800          24.7004
 112706727.446 7  87823451.26346  21447376.967    21447376.8654   21447378.8034
        44.500          40.4004
 138113358.302 7                  26282098.205
        42.600
 116992453.432 7  91162988.54746  22262927.542    22262927.0064   22262931.8154
        45.900          39.6004
 121335428.895 6  94547098.66244  23089365.128    23089364.6994   23089367.3414
        41.300          28.0004
                  87752963.556 5                                  21091485.367
                        31.300
 115189943.955 7  89592121.499 6  21510891.040    21510887.383    21510895.114
        43.400          38.800
 104545903.186 8  81313499.329 7  19530035.872    19530036.179    19530040.556
        50.600          47.500
 122843701.378 7                  23376381.316
        47.200
 102523734.998 8  79740674.509 7  19206147.762    19206147.789    19206151.494
        51.100          45.500
 200878384.621 5                  38225894.182
        32.000
 111592072.587 7  86793877.493 6  20853655.633    20853657.283    20853662.262
        45.500          41.000
 115328745.820 7  89700164.875 7  21612556.023    21612555.603    21612560.501
        46.000          44.500
 198898634.681 7                  37849154.177
        43.100
 202020730.867 7                  38443273.009
        43.800
 122045473.536 8                  23224463.075
        48.500
 134805058.943 6                  25652545.004
        40.700
 129238711.653 7                  24593299.446
        42.500
 25  1  1  9  6 30.0000000  0 24G18G08G23G15E29G32G24E33G10G27R19R04
                                R12R03E26R18S35R17R02S31S33E07E08E13
 109160858.357 8  85060429.14446  20772621.518    20772621.2954   20772621.7354
        48.400          40.1004
 129364782.443 5 100803727.48443  24617301.768    24617301.4474   24617311.5774
        34.000          19.5004
 107316790.229 8  83623505.66945  20421705.810    20421705.5204   20421703.1104
        50.000          33.9004
 116584056.555 6  90844803.62643  22185205.962    22185205.4754   22185227.4814
        39.500          19.8004
 134118364.397 7                  25521869.188
        42.200
 122921272.266 6  95782766.42744  23391119.164    23391118.4184   23391123.1124
        36.000          25.0004
 112692042.411 7  87812008.44746  21444582.470    21444582.3184   21444584.4234
        43.600          39.3004
 138074923.872 6                  26274783.649
        41.900
 116963554.539 7  91140469.98546  22257428.951    22257428.4514   22257430.8304
        44.300          37.1004
 121338080.040 5  94549164.46944  23089870.341    23089869.8414   23089872.3264
        35.900          27.8004
                  87716196.826 5                                  21082649.964
                        33.400
 115153150.229 7  89563504.136 6  21504017.994    21504015.818    21504025.719
        44.600          38.800
 125536524.427 5                  23500694.652    23500694.098
        30.300
 104550649.970 8  81317191.266 7  19530922.778    19530923.004    19530927.480
        50.900          46.800
 122833784.059 7                  23374494.649
        46.800
 102525589.042 8  79742116.572 7  19206493.962    19206494.555    19206498.653
        50.700          45.400
 200878384.488 5                  38225892.496
        31.400
 111646793.406 7  86836438.135 6  20863880.981    20863884.045    20863888.938
        46.200          41.400
 115373859.372 7  89735253.251 7  21621007.210    21621008.270    21621015.087
        44.500          44.900
 198898630.349 7                  37849154.441
        43.200
 202020706.241 7                  38443269.606
        43.900
 122045369.714 8                  23224443.198
        48.500
 134839753.133 6                  25659146.646
        40.600
 129267813.860 7                  24598836.039
        43.800
 25  1  1  9  6 45.0000000  0 24G18G08G23G15E29G32G24E33G10G27R19R04
                                R12R03E26R18S35R17R02S31S33E07E08E13
 109186200.151 8  85080175.98246  20777443.898    20777443.6754   20777444.0634
        48.800          40.3004
 129342720.726 4 100786536.61642  24613103.324    24613103.1644   24613113.4394
        25.900          12.1004
 107314188.012 8  83621477.98945  20421210.256    20421209.9704   20421209.0224
        49.800          34.6004
 116631445.224 6  90881729.93843  22194224.721    22194224.2304   22194236.6604
        39.400          21.7004
 134082870.352 7                  25515115.201
        42.600
 122877243.821 6  95748458.56344  23382740.734    23382739.8454   23382744.6154
        36.700          26.1004
 112677513.977 6  87800687.64446  21441817.293    21441817.1284   21441819.5394
        40.900          37.0004
 138036511.538 6                  26267473.569
        40.800
 116934681.130 7  91117971.29245  22251933.774    22251933.2784   22251934.0344
        42.100          35.1004
 121340874.584 6  94551342.05845  23090403.377    23090402.8454   23090405.1834
        39.500          30.9004
                  87679527.215 5                                  21073838.301
                        33.600
 115116443.068 7  89534954.016 6  21497161.701    21497161.509    21497171.866
        44.500          39.500
 125507209.032 5                  23495210.026    23495207.140
        32.500
 104555500.355 8  81320963.782 7  19531829.529    19531828.959    19531833.614
        51.100          46.500
 122823946.426 7                  23372622.545
        47.500
 102527645.178 8  79743715.788 7  19206878.531    19206878.841    19206883.079
        49.600          44.600
 200878385.601 5                  38225893.927
        33.000
 111701632.375 7  86879090.647 6  20874129.038    20874130.397    20874136.547
        44.300          41.100
 115418996.067 7  89770359.550 7  21629466.796    21629467.963    21629472.880
        44.500          44.000
 198898627.172 7                  37849153.037
        42.100
 202020681.845 7                  38443264.531
        44.200
 122045350.765 8                  23224439.737
        48.600
 134874482.955 7                  25665755.321
        42.000
 129296985.831 7                  24604386.361
        45.000
 25  1  1  9  7  0.0000000  0 23G18G08G23G15E29G32G24E33G10G27R19R04
                                R03E26R18S35R17R02S31S33E07E08E13
 109211667.099 8  85100020.33646  20782289.523    20782289.3004   20782290.3364
        49.700          40.8004


 107311644.574 8  83619496.11045  20420726.609    20420726.3234   20420725.4484
        48.400          34.8004
 116678881.769 6  90918693.58443  22203254.206    22203253.6974   22203258.1774
        36.200          22.6004
 134047430.009 7                  25508371.458
        42.200
 122833275.103 6  95714197.30144  23374374.923    23374373.9984   23374375.1824
        38.400          26.9004
 112663142.399 6  87789489.08045  21439082.016    21439081.7844   21439084.1314
        37.900          33.9004
 137998121.560 6                  26260168.279
        40.600
 116905833.261 6  91095492.49245  22246444.408    22246443.8994   22246443.6734
        38.200          34.6004
 121343812.555 7  94553631.39545  23090963.049    23090962.4594   23090963.5634
        43.500          35.1004
                  87642955.043 5                                  21065045.240
                        35.100
 115079822.647 8  89506471.486 6  21490324.545    21490324.403    21490332.032
        48.100          39.100
 104560453.878 8  81324816.536 7  19532754.565    19532754.652    19532759.302
        52.200          47.000
 122814188.663 7                  23370765.457
        47.100
 102529903.502 8  79745472.254 7  19207302.603    19207302.559    19207306.939
        50.200          45.800
 200878387.687 4                  38225881.223
        28.000
 111756589.250 6  86921834.953 6  20884402.295    20884398.034    20884407.310
        40.000          41.800
 115464155.080 7  89805483.219 7  21637930.928    21637930.361    21637935.792
        45.000          44.000
 198898624.669 6                  37849151.101
        41.300
 202020659.298 7                  38443264.620
        44.700
 122045416.676 7                  23224452.084
        47.900
 134909248.328 6                  25672370.208
        41.700
 129326227.558 7                  24609950.077
        44.100
 25  1  1  9  7 15.0000000  0 24G18G08G23G15E29G32G24E33G10G27R19R04
                                R12R03E26R18S35R17R02S31S33E07E08E13
 109237259.763 7  85119962.64946  20787158.891    20787158.6684   20787160.4074
        47.900          39.0004


 107309160.624 8  83617560.58645  20420253.520    20420253.2434   20420253.0214
        48.100          34.9004
 116726366.598 5  90955694.76743  22212288.194    22212287.6984   22212291.1544
        34.800          22.7004
 134012044.101 6                  25501637.192
        40.700
 122789366.982 6  95679983.29844  23366017.812    23366016.9324   23366017.1694
        41.800          29.4004
 112648928.514 6  87778413.37645  21436376.309    21436375.9704   21436378.4374
        36.800          32.9004
 137959754.748 6                  26252867.510
        41.000
 116877011.651 6  91073034.16745  22240958.934    22240958.3844   22240959.6974
        40.000          34.9004
 121346894.537 7  94556032.96846  23091549.890    23091549.2874   23091549.4134
        44.300          38.3004
                  87606481.489 6                                  21056280.395
                        38.000
 115043289.614 8  89478056.939 6  21483500.852    21483503.841    21483510.827
        48.400          39.000
                                                  23484294.136

 104565511.084 8  81328749.969 7  19533699.264    19533699.113    19533703.351
        51.400          46.600
 122804511.589 8                  23368924.092
        48.200
 102532364.881 8  79747386.670 7  19207763.806    19207763.955    19207768.433
        50.600          46.800


 111811664.436 7  86964671.190 6  20894693.517    20894691.351    20894698.981
        42.700          41.400
 115509337.057 7  89840624.797 7  21646397.832    21646397.665    21646402.353
        45.600          42.800
 198898623.773 6                  37849152.147
        41.600
 202020637.839 7                  38443255.730
        44.200
 122045568.061 7                  23224480.535
        47.900
 134944049.696 6                  25678992.411
        40.200
 129355539.698 7                  24615527.224
        42.100
 25  1  1  9  7 30.0000000  0 24G18G08G23G15E29G32G24E33G10G27R19R04
                                R12R03E26R18S35R17R02S31S33E07E08E13
 109262976.044 7  85140001.29246  20792052.392    20792052.1564   20792053.4664
        46.400          37.3004
 129277302.146 6 100735603.34542  24600651.715    24600651.3584   24600664.1244
        36.700          14.5004
 107306734.212 8  83615669.88345  20419791.106    20419790.8294   20419791.2184
        48.300          35.5004
 116773897.538 6  90992731.88544  22221336.567    22221336.1834   22221335.2704
        36.300          25.1004
 133976710.760 6                  25494914.293
        38.300
 122745517.540 6  95645814.98045  23357672.450    23357671.5964   23357672.4204
        41.200          31.4004
 112634870.499 6  87767459.13846  21433701.939    21433701.6004   21433703.2494
        40.100          36.5004
 137921409.335 6                  26245570.161
        38.700
 116848214.241 6  91050594.64546  22235478.217    22235477.6364   22235480.3954
        40.000          37.8004
 121350118.385 7  94558545.09146  23092163.328    23092162.7434   23092162.9424
        45.100          40.4004
                  87570105.204 6                                  21047540.783
                        40.900
 115006841.848 8  89449708.691 6  21476694.977    21476696.248    21476701.493
        48.300          36.700


 104570669.802 8  81332762.331 7  19534663.130    19534662.578    19534667.160
        50.800          46.900
 122794913.358 8                  23367097.827
        49.200
 102535027.200 8  79749457.359 7  19208262.328    19208262.447    19208267.739
        51.200          47.400


 111866855.124 7  87007597.239 6  20905006.672    20905005.712    20905012.327
        42.500          41.200
 115554540.053 7  89875782.664 7  21654868.542    21654868.743    21654874.066
        46.000          42.900
 198898623.173 7                  37849149.961
        42.500
 202020616.524 7                  38443251.532
        43.800
 122045802.786 8                  23224525.797
        48.400
 134978884.892 6                  25685620.618
        37.100
 129384920.177 6                  24621118.904
        41.900
 25  1  1  9  7 45.0000000  0 24G18G08G23G15E29G32G24E33G10G27R19R04
                                R12R03E26R18S35R17R02S31S33E07E08E13
 109288815.651 7  85160136.04746  20796969.789    20796969.5394   20796970.0744
        45.900          36.7004
 129255730.243 6 100718793.99541  24596546.295    24596545.4374   24596561.3574
        37.700          10.9004
 107304365.208 8  83613823.89146  20419340.382    20419340.1054   20419340.2824
        48.700          36.5004
 116821473.980 5  91029804.43743  22230384.546    22230384.3184   22230387.8334
        33.100          23.2004
 133941429.875 6                  25488200.050
        38.800
 122701726.777 6  95611692.35045  23349337.670    23349336.9104   23349340.1374
        40.600          32.4004
 112620968.412 7  87756626.38846  21431056.861    21431056.5624   21431058.4414
        46.200          40.4004
 137883085.338 6                  26238278.254
        37.700
 116819440.876 7  91028173.83047  22230003.883    22230003.4184   22230005.9754
        44.600          42.1004
 121353483.856 7  94561167.55146  23092803.348    23092802.7814   23092804.2224
        44.500          41.4004
                  87533826.645 6                                  21038821.159
                        41.300
 114970479.301 7  89421426.786 5  21469901.814    21469904.323    21469907.976
        46.300          34.400
 125391278.867 6                  23473503.356    23473505.555
        36.300
 104575929.877 8  81336853.510 7  19535646.404    19535645.901    19535650.094
        51.200          47.100
 122785393.952 8                  23365285.898
        49.100
 102537890.434 8  79751684.351 8  19208799.467    19208799.296    19208803.936
        51.100          48.000


 111922160.838 7  87050612.805 6  20915343.012    20915340.432    20915347.875
        43.200          40.600
 115599763.442 7  89910956.407 7  21663344.114    21663345.320    21663347.907
        46.600          42.100
 198898622.215 7                  37849149.589
        42.800
 202020594.993 7                  38443246.599
        43.900
 122046120.613 8                  23224586.251
        48.500
 135013753.583 5                  25692255.507
        34.400
 129414368.774 6                  24626722.530
        40.200
 25  1  1  9  8  0.0000000  0 24G18G08G23G15E29G32G24E33G10G27R19R04
                                R12R03E26R18S35R17R02S31S33E07E08E13
 109314779.674 7  85180367.75446  20801911.795    20801911.5634   20801911.2574
        47.000          37.9004
 129234281.386 5 100702080.71641  24592464.169    24592463.0204   24592478.3054
        34.000           7.0004
 107302054.785 8  83612023.55246  20418901.094    20418900.8224   20418901.0304
        48.700          37.9004


 133906202.601 6                  25481494.901
        40.800
 122657996.028 6  95577616.46445  23341018.363    23341017.6704   23341018.6354
        39.400          31.0004
 112607223.531 7  87745916.13547  21428440.540    21428440.2634   21428442.9304
        46.800          42.0004
 137844784.039 6                  26230989.538
        38.100
 116790692.837 7  91005772.74647  22224532.915    22224532.4644   22224536.6264
        46.500          45.6004
 121356991.972 7  94563901.16646  23093470.464    23093469.9104   23093472.5864
        42.600          41.2004
 112496944.096 5  87497647.120 6  21030118.905    21030118.524    21030120.893
        34.200          39.000
 114934203.173 6  89393212.129 5  21463126.230    21463126.747    21463131.747
        41.600          35.200
                                                  23468143.986

 104581291.761 8  81341023.825 7  19536647.215    19536648.112    19536652.252
        52.700          47.500
 122775954.599 8                  23363489.785
        48.600
 102540955.699 8  79754068.448 8  19209372.593    19209373.046    19209378.763
        50.400          48.700


 111977582.392 7  87093718.390 6  20925699.060    20925701.209    20925706.044
        47.600          41.000
 115645007.928 7  89946146.504 6  21671823.972    21671824.500    21671827.288
        46.800          41.900
 198898621.187 7                  37849152.268
        43.100
 202020574.139 7                  38443245.942
        43.900
 122046522.546 8                  23224662.642
        48.700
 135048656.648 4                  25698897.474
        29.300
 129443886.517 6                  24632339.982
        38.700
 25  1  1  9  8 15.0000000  0 24G18G08G23G15E29G32G24E33G10G27R19R04
                                R12R03E26R18S35R17R02S31S33E07E08E13
 109340866.000 8  85200694.76546  20806875.168    20806874.9324   20806875.8584
        49.400          39.9004
 129212953.663 4 100685461.78841  24588400.253    24588398.7384   24588419.4904
        25.800           8.4004
 107299800.985 8  83610267.34646  20418472.405    20418472.1334   20418472.7524
        48.400          38.3004


 133871027.038 7                  25474801.349
        42.300
 122614323.373 5  95543585.83244  23332705.835    23332705.1334   23332707.4454
        34.400          29.8004
 112593634.025 7  87735326.95047  21425855.064    21425854.8194   21425857.1664
        47.300          42.8004
 137806503.544 6                  26223705.255
        39.600
 116761968.087 7  90983389.82447  22219067.141    22219066.6764   22219071.2394
        47.400          46.0004
 121360640.572 7  94566744.25046  23094166.189    23094165.6444   23094167.3024
        42.200          40.1004
 112450553.188 5  87461565.365 6  21021445.335    21021445.830    21021446.169
        34.000          37.400
 114898011.422 6  89365063.071 6  21456375.993    21456370.376    21456377.267
        40.100          37.400
                  97482091.805 5                                  23462808.508
                        33.900
 104586753.396 8  81345271.772 7  19537667.599    19537668.563    19537672.220
        52.600          47.100
 122766593.414 8                  23361708.374
        48.600
 102544220.955 8  79756608.118 8  19209983.638    19209983.369    19209990.101
        48.400          48.700


 112033117.086 8  87136911.994 6  20936079.585    20936081.070    20936083.446
        48.700          40.000
 115690271.201 7  89981351.284 6  21680304.219    21680305.322    21680310.001
        45.000          41.800
 198898619.492 7                  37849150.426
        42.700
 202020551.144 7                  38443236.654
        43.500
 122047006.464 8                  23224754.428
        48.200
 135083591.970 4                  25705545.958
        28.000
 129473471.359 6                  24637969.653
        39.200
 25  1  1  9  8 30.0000000  0 23G18G08G23G15E29G32G24E33G10G27R19R04
                                R03E26R18S35R17R02S31S33E07E08E13
 109367075.997 8  85221118.13146  20811862.158    20811861.9354   20811863.5684
        50.200          40.5004


 107297605.371 7  83608556.49446  20418054.470    20418054.1934   20418055.2944
        46.600          37.7004


 133835904.834 7                  25468118.141
        42.400
 122570710.403 6  95509601.71645  23324408.869    23324408.1184   23324408.1004
        40.700          33.5004
 112580201.618 7  87724860.16947  21423299.374    21423299.1204   21423301.3654
        47.600          44.0004
 137768245.588 6                  26216425.760
        40.900
 116733268.233 7  90961026.32447  22213605.502    22213605.0294   22213609.5954
        46.100          45.0004
 121364431.044 7  94569697.89546  23094887.092    23094886.5514   23094888.4814
        42.800          39.5004
 112404289.907 5  87425582.851 6  21012796.303    21012795.995    21012799.929
        32.900          39.300
 114861905.596 6  89336980.830 6  21449630.591    21449627.388    21449634.091
        41.100          38.300
 104592315.914 8  81349598.195 7  19538706.889    19538706.601    19538711.676
        51.800          47.400
 122757312.085 8                  23359942.239
        48.600
 102547687.985 8  79759304.693 8  19210634.085    19210634.602    19210639.747
        49.800          48.800
 200878415.886 5                  38225891.446
        35.100
 112088766.129 7  87180194.549 6  20946477.797    20946479.462    20946482.870
        47.500          39.400
 115735554.956 7  90016571.988 6  21688792.184    21688792.036    21688796.756
        46.400          41.600
 198898617.700 7                  37849152.679
        42.700
 202020530.324 7                  38443232.572
        43.400
 122047573.791 7                  23224862.297
        47.300
 135118560.628 5                  25712201.107
        30.200
 129503124.711 6                  24643612.390
        39.300
 25  1  1  9  8 45.0000000  0 23G18G08G23G15E29G32G24E33G10G27R19R04
                                R03E26R18S35R17R02S31S33E07E08E13
 109393405.815 8  85241634.85746  20816872.841    20816872.6184   20816873.9014
        49.600          40.7004
 129170697.919 5                  24580363.907
        34.300
 107295464.177 7  83606888.04246  20417647.199    20417646.9134   20417647.5904
        46.300          36.2004
 117012228.559 5  91178371.19042  22266685.830    22266685.3614   22266686.3094
        32.100          15.7004
 133800832.235 6                  25461444.375
        41.500
 122527153.456 7  95475661.27745  23316118.937    23316118.1914   23316119.7734
        42.600          35.8004
 112566922.707 7  87714512.99647  21420772.056    21420771.8024   21420775.0864
        47.800          44.7004
 137730006.595 7                  26209149.782
        43.900
 116704589.446 7  90938679.23147  22208147.406    22208146.9244   22208150.7014
        45.900          42.9004
 121368359.561 7  94572759.11846  23095634.785    23095634.2224   23095635.8644
        42.300          38.4004
 112358151.265 5  87389697.264 6  21004170.429    21004170.101    21004177.702
        33.200          41.300
 114825881.694 6  89308962.278 6  21442904.071    21442900.243    21442907.555
        40.100          40.100
 104597975.320 8  81353999.965 7  19539764.188    19539764.748    19539768.522
        52.700          47.100
 122748106.958 8                  23358190.477
        48.700
 102551352.835 8  79762155.140 8  19211320.791    19211321.618    19211325.927
        50.900          48.600
 200878414.033 5                  38225892.282
        34.300
 112144525.255 7  87223562.766 6  20956894.799    20956895.212    20956901.510
        42.500          37.900
 115780854.608 7  90051805.071 7  21697278.094    21697279.368    21697286.650
        44.100          42.100
 198898611.744 7                  37849156.337
        42.900
 202020503.937 7                  38443227.139
        43.800
 122048220.662 7                  23224985.746
        47.500
 135153558.930 5                  25718858.566
        32.800
 129532842.803 7                  24649268.088
        42.000
 25  1  1  9  9  0.0000000  0 23G18G08G23G15E29G32G24E33G10G27R19R04
                                R03E26R18S35R17R02S31S33E07E08E13
 109419862.663 8  85262250.57146  20821907.885    20821907.6624   20821908.5774
        50.400          41.0004
 129149738.428 6                  24576367.090
        37.300
 107293384.793 7  83605267.76445  20417251.050    20417250.7464   20417251.4174
        45.100          34.6004


 133765816.671 6                  25454781.459
        41.000
 122483660.089 7  95441770.38146  23307843.070    23307842.3684   23307844.4014
        45.600          38.4004
 112553804.794 7  87704291.27847  21418275.089    21418274.8214   21418278.6284
        45.900          43.4004
 137691794.035 7                  26201877.717
        45.100
 116675939.142 7  90916354.33746  22202694.766    22202694.2934   22202696.8064
        44.600          41.2004
 121372433.295 6  94575933.49946  23096409.518    23096408.9554   23096411.0874
        40.000          36.4004
 112312144.845 5  87353914.499 7  20995570.272    20995569.959    20995578.329
        35.100          42.100
 114789947.477 7  89281013.491 6  21436190.492    21436190.650    21436196.418
        43.800          41.000
 104603738.821 8  81358482.706 8  19540840.709    19540842.123    19540845.834
        52.600          48.000
 122738985.509 8                  23356454.845
        48.600
 102555223.099 8  79765165.356 8  19212045.814    19212046.795    19212051.000
        51.500          48.700
 200878417.450 5                  38225899.790
        32.700
 112200401.423 7  87267021.921 6  20967336.629    20967337.238    20967343.218
        42.200          38.600
 115826177.478 7  90087056.201 6  21705773.473    21705773.479    21705778.431
        44.900          41.200
 198898610.243 7                  37849152.272
        42.900
 202020481.808 7                  38443227.210
        44.400
 122048954.298 7                  23225125.334
        47.600
 135188593.921 5                  25725526.015
        35.700
 129562632.845 7                  24654937.127
        45.000
 25  1  1  9  9 15.0000000  0 24G18G08G23G15E29G32G24E33G10G27R19R04
                                R12R03E26R18S35R17R02S31S33E07E08E13
 109446439.942 8  85282960.12346  20826964.873    20826964.6454   20826966.1524
        49.400          40.8004
 129128899.387 5 100619970.90241  24572401.499    24572401.0084   24572424.8494
        35.900          10.7004
 107291360.798 7  83603690.64145  20416865.271    20416864.9674   20416866.3034
        44.000          33.6004


 133730851.720 6                  25448126.914
        41.100
 122440223.887 7  95407924.04746  23299577.104    23299576.4704   23299580.0784
        44.900          39.2004
 112540841.557 7  87694190.08546  21415808.446    21415808.1784   21415810.7274
        43.200          41.1004
 137653601.617 7                  26194610.225
        45.500
 116647310.857 7  90894046.62246  22197247.379    22197246.9194   22197247.6774
        44.300          40.6004
 121376645.646 6  94579215.87245  23097211.324    23097210.7074   23097212.5404
        36.000          33.1004
 112266264.598 6  87318229.849 6  20986995.510    20986994.201    20986999.834
        36.200          40.300
 114754096.125 7  89253129.079 7  21429496.877    21429497.910    21429502.248
        45.600          42.700
                  97394419.367 5                                  23441702.884
                        32.300
 104609599.722 8  81363041.220 8  19541934.468    19541935.810    19541940.577
        51.700          48.100
 122729941.356 8                  23354733.774
        48.200
 102559292.110 8  79768330.109 8  19212807.211    19212807.972    19212813.287
        50.300          48.900
 200878416.680 5                  38225903.819
        31.300
 112256387.523 7  87310566.538 6  20977803.433    20977803.674    20977805.773
        43.600          39.500
 115871517.109 7  90122320.440 6  21714267.439    21714268.842    21714274.295
        43.800          40.300
 198898605.590 7                  37849148.221
        42.200
 202020457.349 7                  38443222.645
        44.300
 122049768.139 8                  23225280.370
        48.200
 135223658.991 6                  25732200.240
        36.200
 129592488.336 7                  24660618.752
        46.000
 25  1  1  9  9 30.0000000  0 24G18G08G23G15E29G32G24E33G10G27R19R04
                                R12R03E26R18S35R17R02S31S33E07E08E13
 109473146.344 8  85303770.30146  20832047.180    20832046.9444   20832048.4414
        49.000          40.4004
 129108189.398 5 100603833.30941  24568453.828    24568453.3904   24568486.2174
        30.400           8.8004
 107289400.997 7  83602163.55045  20416493.058    20416492.7954   20416493.7414
        44.500          33.4004


 133695946.275 7                  25441484.387
        42.400
 122396853.841 7  95374129.23146  23291324.394    23291323.8094   23291327.9664
        42.100          36.7004
 112528042.008 6  87684216.43046  21413372.779    21413372.5344   21413374.3994
        41.500          38.3004
 137615438.292 7                  26187348.028
        45.800
 116618713.407 7  90871762.92847  22191806.168    22191805.7174   22191805.5704
        46.000          42.1004
 121381005.297 6  94582613.04345  23098041.502    23098040.8904   23098041.8384
        39.500          33.0004
 112220519.956 5  87282650.762 6  20978441.081    20978440.944    20978445.929
        35.100          39.400
 114718336.738 7  89225316.287 7  21422817.920    21422819.206    21422825.574
        43.500          44.600
                  97372769.073 5                                  23436492.750
                        32.000
 104615566.851 8  81367682.385 8  19543048.684    19543048.601    19543054.350
        49.800          48.400
 122720983.450 8                  23353029.347
        48.900
 102563569.014 8  79771656.587 8  19213609.187    19213609.399    19213615.089
        50.200          49.500
 200878421.605 5                  38225896.825
        33.600
 112312492.251 6  87354203.554 6  20988288.498    20988287.478    20988291.611
        41.600          41.100
 115916881.789 7  90157604.053 6  21722769.753    21722770.693    21722776.146
        45.300          40.600
 198898606.498 7                  37849149.907
        42.600
 202020438.243 7                  38443217.534
        44.400
 122050670.837 8                  23225452.194
        49.100
 135258762.668 6                  25738880.505
        36.300
 129622417.967 7                  24666314.085
        46.500
 25  1  1  9  9 45.0000000  0 24G18G08G23G15E29G32G24E33G10G27R19R04
                                R12R03E26R18S35R17R02S31S33E07E08E13
 109499970.827 8  85324672.50046  20837152.014    20837151.7554   20837153.3224
        49.200          40.2004
 129087597.834 5 100587787.6914   24564540.538    24564539.9214   24564565.4364
        32.300           5.1004
 107287494.545 7  83600678.02445  20416130.351    20416130.0924   20416130.9094
        43.800          33.1004
 117203700.159 6  91327574.32843  22303120.817    22303120.5004   22303125.8174
        36.900          20.6004
 133661089.449 7                  25434850.940
        42.300
 122353539.110 6  95340377.53945  23283082.362    23283081.7904   23283084.4234
        41.600          35.1004
 112515395.325 6  87674361.91345  21410966.319    21410966.0204   21410967.1374
        37.500          35.1004
 137577293.344 7                  26180089.597
        45.400
 116590135.960 7  90849494.83347  22186368.568    22186368.1034   22186368.0774
        46.600          43.9004
 121385501.180 6  94586116.38845  23098894.264    23098893.6434   23098897.2334
        38.700          32.0004
 112174900.537 6  87247169.049 6  20969914.019    20969913.251    20969917.051
        36.800          39.200
 114682658.054 6  89197566.222 7  21416150.993    21416150.362    21416163.053
        39.400          44.900
 125165852.292 5  97351221.046 5  23431311.482                    23431310.149
        35.500          33.300
 104621628.363 8  81372396.923 7  19544181.553    19544180.328    19544185.756
        48.900          47.900
 122712100.980 8                  23351339.011
        49.100
 102568042.622 8  79775136.052 8  19214447.312    19214447.372    19214453.787
        50.600          49.600
 200878423.525 5                  38225892.626
        33.900
 112368703.525 5  87397923.634 7  20998787.224    20998782.059    20998797.188
        32.300          42.300
 115962260.196 7  90192898.389 7  21731274.910    21731274.727    21731281.383
        45.300          42.200
 198898603.112 7                  37849148.168
        43.300
 202020415.157 7                  38443212.405
        44.500
 122051651.389 8                  23225638.444
        49.100
 135293893.854 5                  25745566.321
        35.500
 129652410.772 7                  24672021.606
        47.600
 25  1  1  9 10  0.0000000  0 24G18G08G23G15E29G32G24E33G10G27R19R04
                                R12R03E26R18S35R17R02S31S33E07E08E13
 109526922.012 8  85345673.44246  20842280.626    20842280.3674   20842281.7904
        50.300          40.1004
 129067133.538 5 100571841.3074   24560648.639    24560647.7994   24560668.9404
        33.200           2.2004
 107285650.201 7  83599240.87545  20415779.601    20415779.3334   20415779.3954
        43.500          32.7004
 117251679.331 5  91364960.64443  22312250.561    22312250.8744   22312254.7554
        35.900          18.3004
 133626290.048 6                  25428229.455
        41.600
 122310288.551 7  95306675.86345  23274852.479    23274851.9614   23274852.0274
        44.200          34.4004
 112502910.406 6  87664633.44745  21408591.831    21408591.4964   21408590.5724
        38.500          33.6004
 137539175.672 7                  26172835.993
        43.700
 116561587.269 7  90827249.14447  22180936.315    22180935.8554   22180936.2674
        46.900          44.5004


 112129415.300 5  87211791.711 6  20961410.795    20961409.392    20961415.835
        34.700          40.900
 114647069.082 6  89169885.959 7  21409510.745    21409504.699    21409515.333
        37.300          44.000
 125138288.286 6  97329782.499 5  23426159.641    23426160.731    23426148.251
        36.500          32.500
 104627793.651 8  81377192.166 8  19545333.086    19545332.504    19545338.035
        50.200          48.400
 122703302.839 8                  23349664.793
        48.700
 102572721.784 8  79778775.398 8  19215323.585    19215323.797    19215328.754
        50.200          48.400
 200878427.181 5                  38225898.350
        33.900
 112425030.664 6  87441733.505 7  21009315.194    21009318.543    21009322.435
        40.900          42.100
 116007661.192 7  90228210.325 7  21739783.257    21739783.272    21739789.329
        47.000          42.200
 198898603.811 7                  37849148.561
        43.100
 202020395.207 7                  38443210.008
        44.600
 122052718.395 8                  23225841.760
        48.600
 135329061.057 6                  25752258.191
        36.300
 129682475.372 7                  24677741.905
        47.000
 25  1  1  9 10 15.0000000  0 24G18G08G23G15E29G32G24E33G10G27R19R04
                                R12R03E26R18S35R17R02S31S33E07E08E13
 109553993.757 8  85366768.32546  20847431.856    20847431.5974   20847433.0904
        50.800          40.2004
 129046790.703 4 100555989.7284   24556774.843    24556774.0304   24556797.0654
        26.300           2.6004
 107283861.956 7  83597847.43145  20415438.973    20415438.6834   20415438.9714
        44.000          33.4004
 117299699.317 5  91402378.79942  22321388.994    22321389.0654   22321392.4444
        33.200          15.9004
 133591542.181 6                  25421617.914
        40.000
 122267096.244 7  95273019.59345  23266632.580    23266632.0664   23266631.6914
        46.500          35.8004
 112490581.485 6  87655026.52945  21406244.201    21406243.8484   21406245.1704
        36.700          34.2004
 137501079.445 6                  26165587.072
        41.500
 116533061.319 7  90805021.15047  22175507.049    22175506.5494   22175508.8044
        45.600          44.0004


 112084058.923 5  87176514.610 6  20952933.399    20952930.351    20952936.727
        34.200          41.300
 114611563.779 7  89142270.733 7  21402878.745    21402877.849    21402884.172
        42.100          43.400
 125110859.343 5  97308448.959 5  23420999.685    23421002.285    23421009.078
        33.100          31.500
 104634055.703 8  81382062.654 8  19546504.127    19546503.349    19546507.655
        51.500          48.400
 122694583.111 8                  23348005.402
        49.100
 102577600.523 8  79782569.966 8  19216237.512    19216237.984    19216243.187
        50.200          48.500
 200878429.530 5                  38225907.239
        33.700
 112481466.236 7  87485627.790 6  21019861.119    21019863.416    21019868.958
        43.500          41.700
 116053078.198 8  90263534.686 6  21748295.892    21748296.812    21748300.235
        49.500          41.500
 198898601.117 7                  37849147.850
        43.200
 202020373.116 7                  38443203.144
        44.400
 122053865.754 8                  23226059.947
        48.200
 135364258.126 6                  25758955.524
        36.100
 129712605.702 7                  24683475.548
        45.800
 25  1  1  9 10 30.0000000  0 24G18G08G23G15E29G32G24E33G10G27R19R04
                                R12R03E26R18S35R17R02S31S33E07E08E13
 109581186.652 8  85387957.58946  20852606.474    20852606.2244   20852607.1474
        50.300          39.2004


 107282130.548 7  83596498.27145  20415110.115    20415109.8254   20415110.1364
        44.300          34.8004


 133556846.550 6                  25415016.404
        40.200
 122223963.055 7  95239409.37146  23258425.203    23258424.6984   23258424.6054
        46.200          37.8004
 112478409.318 6  87645541.71845  21403926.483    21403926.2064   21403930.3504
        36.600          34.1004
 137463005.529 6                  26158341.695
        38.900
 116504558.840 7  90782811.42146  22170083.041    22170082.4874   22170085.9914
        42.200          41.7004
 121399840.053 6  94597289.59544  23101624.984    23101624.2244   23101627.8384
        39.800          29.6004
 112038832.795 5  87141338.705 6  20944476.789    20944477.566    20944481.005
        35.300          40.400
 114576142.864 7  89114721.106 7  21396264.964    21396266.358    21396270.352
        46.700          43.600
 125083566.861 5  97287221.515 5  23415897.710    23415895.907    23415900.929
        34.800          32.800
 104640415.174 8  81387008.911 8  19547693.039    19547692.381    19547695.702
        52.500          48.400
 122685942.612 8                  23346360.791
        49.300
 102582679.528 8  79786520.275 8  19217189.163    19217189.398    19217194.588
        50.000          48.500
 200878430.252 5                  38225901.833
        34.000
 112538011.067 7  87529607.067 6  21030431.287    21030431.483    21030435.433
        45.300          41.400
 116098511.748 8  90298871.883 6  21756811.118    21756811.828    21756814.553
        50.300          41.200
 198898597.584 7                  37849147.032
        42.800
 202020349.619 7                  38443201.865
        44.200
 122055094.032 7                  23226293.788
        47.900
 135399485.490 5                  25765658.467
        32.500
 129742802.367 7                  24689222.256
        45.500
 25  1  1  9 10 45.0000000  0 24G18G08G23G15E29G32G24E33G10G27R19R04
                                R12R03E26R18S35R17R02S31S33E07E08E13
 109608504.487 8  85409244.20046  20857804.824    20857804.5834   20857804.9164
        50.500          38.6004


 107280459.937 7  83595196.48545  20414792.249    20414791.9864   20414793.0364
        45.900          35.7004


 133522207.193 6                  25408424.326
        41.800
 122180893.029 7  95205848.33546  23250230.829    23250230.3564   23250229.8564
        43.700          36.3004
 112466397.964 6  87636182.22845  21401638.739    21401638.4534   21401645.8214
        36.200          32.6004
 137424958.042 5                  26151099.935
        31.900
 116476083.729 7  90760623.02446  22164663.880    22164663.1964   22164668.0574
        42.300          40.5004
 121404901.818 6  94601233.82344  23102586.134    23102585.3704   23102589.9264
        39.400          29.1004
 111993741.144 6  87106267.442 6  20936049.778    20936049.502    20936052.269
        36.000          40.400
 114540810.121 6  89087240.221 7  21389662.672    21389664.692    21389671.489
        41.100          42.500
 125056414.984 6  97266103.459 5  23410818.563    23410817.450    23410819.466
        38.600          32.000
 104646875.780 8  81392033.861 8  19548898.865    19548899.576    19548902.294
        53.000          48.100
 122677385.404 8                  23344732.451
        49.100
 102587962.787 8  79790629.486 8  19218179.262    19218179.084    19218184.247
        49.400          48.600
 200878433.071 5                  38225907.669
        32.400
 112594668.173 7  87573673.736 6  21041017.906    21041017.697    21041022.729
        46.700          39.800
 116143965.451 8  90334224.765 6  21765328.519    21765328.731    21765332.135
        48.500          39.500
 198898596.932 7                  37849146.213
        42.400
 202020328.061 7                  38443197.649
        44.100
 122056407.046 8                  23226543.921
        48.000
 135434746.993 4                  25772368.356
        29.300
 129773069.215 7                  24694981.679
        45.000
 25  1  1  9 11  0.0000000  0 24G18G08G23G15E29G32G24E33G10G27R19R04
                                R12R03E26R18S35R17R02S31S33E07E08E13
 109635943.182 8  85430624.97146  20863026.733    20863026.4974   20863026.3724
        50.300          38.6004


 107278846.199 7  83593939.03445  20414484.727    20414484.4594   20414486.3094
        46.500          35.0004


 133487620.165 7                  25401841.679
        42.600
 122137882.394 6  95172333.53945  23242043.089    23242042.6074   23242045.9954
        36.800          32.5004
 112454543.676 6  87626945.13145  21399382.444    21399382.1854   21399390.8664
        36.800          33.0004
 137386933.196 5                  26143861.885
        30.600
 116447632.116 7  90738452.96446  22159249.556    22159248.8684   22159254.1704
        43.800          41.7004
 121410102.553 6  94605286.33244  23103576.879    23103576.0844   23103579.1204
        40.100          28.5004
 111948780.415 5  87071298.049 6  20927641.222    20927643.200    20927647.197
        34.700          40.400
 114505561.678 6  89059824.807 7  21383088.730    21383084.931    21383089.015
        40.400          42.100
 125029400.045 6                  23405756.254    23405755.989
        36.400
 104653433.330 8  81397134.210 7  19550123.317    19550123.741    19550127.304
        51.900          47.800
 122668907.614 8                  23343119.036
        48.900
 102593446.319 8  79794894.471 8  19219206.369    19219205.970    19219210.923
        49.900          48.500
 200878433.951 5                  38225901.033
        33.800
 112651433.381 7  87617824.534 6  21051624.619    21051624.546    21051633.500
        45.400          40.600
 116189435.167 7  90369590.130 6  21773848.821    21773847.561    21773852.893
        44.300          38.700
 198898593.047 7                  37849147.412
        43.300
 202020305.407 7                  38443193.293
        44.800
 122057800.710 7                  23226809.013
        47.900
 135470038.466 4                  25779085.948
        28.300
 129803402.235 7                  24700753.916
        44.500
 25  1  1  9 11 15.0000000  0 24G18G08G23G15E29G32G24E33G10G27R19R04
                                R12R03E26R18S35R17R02S31S33E07E08E13
 109663506.070 8  85452102.51546  20868272.237    20868272.0054   20868272.1484
        50.800          39.2004


 107277292.831 7  83592728.63545  20414189.190    20414188.9134   20414189.5144
        45.000          31.9004


 133453089.009 6                  25395270.980
        41.400
 122094934.571 6  95138867.68845  23233870.971    23233870.4394   23233873.6184
        38.900          30.3004
 112442850.116 6  87617833.30745  21397163.283    21397163.0334   21397165.9354
        37.700          33.9004
 137348934.503 6                  26136641.445
        36.900
 116419207.474 7  90716303.91047  22153841.288    22153840.6404   22153844.9334
        46.600          42.7004
 121415445.592 7  94609449.72944  23104593.733    23104592.9384   23104596.3034
        42.800          29.6004
 111903954.784 5  87036433.606 6  20919266.472    20919266.921    20919266.048
        34.700          38.600
 114470401.275 7  89032477.816 7  21376521.742    21376524.940    21376523.376
        45.600          42.400
 125002526.073 5                  23400726.063    23400723.137
        35.000
 104660091.000 8  81402312.415 7  19551366.687    19551367.089    19551370.768
        51.300          47.800
 122660512.851 8                  23341522.085
        49.500
 102599133.574 8  79799317.898 8  19220272.023    19220272.206    19220276.985
        50.600          49.200
 200878437.487 5                  38225907.409
        32.900
 112708309.647 7  87662061.644 6  21062250.732    21062251.389    21062259.869
        42.600          39.100
 116234924.085 6  90404970.391 6  21782372.066    21782369.633    21782377.719
        40.800          36.400
 198898592.077 7                  37849145.637
        43.200
 202020284.379 7                  38443189.287
        44.400
 122059278.394 8                  23227089.896
        48.100
 135505362.887 5                  25785805.401
        31.000
 129833804.810 7                  24706538.919
        44.600
 25  1  1  9 11 30.0000000  0 24G18G08G23G15E29G32G24E33G10G27R19R04
                                R12R03E26R18S35R17R02S31S33E07E08E13
 109691190.681 8  85473674.92346  20873540.288    20873540.0564   20873540.9004
        51.400          40.1004


 107275797.527 7  83591563.49944  20413904.944    20413904.6404   20413902.3834
        45.700          28.4004
 117540451.438 5  91589975.97443  22367209.348    22367208.9954   22367207.5534
        34.100          19.8004
 133418611.449 7                  25388710.261
        42.700
 122052047.368 7  95105449.07745  23225709.579    23225709.0564   23225712.0394
        44.100          31.2004
 112431315.005 6  87608844.97246  21394964.996    21394964.7374   21394970.3414
        40.600          37.2004
 137310959.804 6                  26129403.202
        36.600
 116390807.433 7  90694174.03146  22148436.502    22148435.8454   22148440.0204
        46.600          41.8004
 121420928.379 7  94613722.07144  23105637.287    23105636.4784   23105638.8304
        45.100          29.0004
 111859262.219 5  87001672.793 6  20910904.541    20910906.744    20910910.455
        30.200          37.300
 114435325.975 7  89005197.100 7  21369980.814    21369982.031    21369971.416
        46.100          42.500
 124975791.099 5                  23395724.058    23395721.798
        34.500
 104666846.367 8  81407566.597 8  19552628.658    19552628.703    19552633.000
        50.600          48.300
 122652198.859 8                  23339940.194
        49.400
 102605022.237 8  79803897.968 8  19221375.716    19221375.807    19221380.366
        51.400          50.200
 200878439.406 5                  38225903.680
        34.000
 112765294.066 7  87706382.795 6  21072900.154    21072899.453    21072905.872
        43.600          38.000
 116280429.577 5  90440363.575 5  21790897.263    21790895.210    21790905.309
        35.900          35.300
 198898590.529 7                  37849148.713
        43.600
 202020263.137 7                  38443185.669
        44.100
 122060837.601 7                  23227386.077
        46.800
 135540717.921 5                  25792533.188
        34.500
 129864274.442 7                  24712336.426
        43.800
 25  1  1  9 11 45.0000000  0 24G18G08G23G15E29G32G24E33G10G27R19R04
                                R12R03E26R18S35R17R02S31S33E07E08E13
 109718999.891 8  85495344.41846  20878831.850    20878831.6224   20878833.0704
        51.400          40.8004


 107274363.324 7  83590445.96944  20413630.977    20413630.6204   20413627.0654
        45.300          26.0004
 117588727.678 5  91627593.78243  22376395.647    22376394.7534   22376391.2604
        33.800          18.9004
 133384190.593 7                  25382159.960
        42.800
 122009223.986 7  95072080.18545  23217560.258    23217559.7084   23217561.4784
        42.400          30.2004
 112419941.517 7  87599982.53546  21392801.696    21392801.4014   21392805.2134
        43.700          40.9004
 137273012.388 6                  26122183.110
        37.100
 116362435.022 7  90672065.64846  22143038.590    22143037.8974   22143039.9374
        43.900          40.1004
 121426553.824 7  94618105.70144  23106707.573    23106706.8454   23106704.7094
        44.200          29.0004
 111814706.161 4  86967018.092 6  20902579.924    20902575.847    20902581.995
        28.900          37.200
 114400339.179 7  88977985.226 7  21363431.512    21363429.682    21363438.876
        42.000          43.500
 124949198.600 6                  23390744.067    23390744.587
        37.000
 104673702.284 8  81412898.985 8  19553909.695    19553909.412    19553913.910
        50.400          48.600
 122643968.791 8                  23338374.169
        50.000
 102611115.323 8  79808637.049 8  19222516.115    19222516.711    19222522.580
        51.300          50.800
 200878444.820 5                  38225899.785
        33.400
 112822389.365 8  87750790.104 6  21083570.934    21083572.738    21083578.392
        48.700          40.900
 116325954.491 6  90475771.780 6  21799429.767    21799428.582    21799435.815
        38.600          37.900
 198898590.883 7                  37849145.932
        43.000
 202020244.352 7                  38443180.254
        44.100
 122062481.253 7                  23227698.908
        46.600
 135576106.438 6                  25799267.268
        37.200
 129894814.109 7                  24718148.288
        42.500
 25  1  1  9 12  0.0000000  0 24G18G08G23G15E29G32G24E33G10G27R19R04
                                R12R03E26R18S35R17R02S31S33E07E08E13
 109746925.600 8  85517104.69446  20884146.221    20884145.9984   20884146.9814
        51.200          41.3004


 107272982.260 7  83589369.85844  20413368.470    20413368.1084   20413363.2304
        45.000          25.1004
 117637039.618 5  91665239.38843  22385585.162    22385584.6394   22385581.6874
        33.400          18.1004
 133349818.456 7                  25375619.207
        43.200
 121966456.566 6  95038754.90744  23209424.359    23209423.8324   23209421.8914
        40.100          27.1004
 112408721.805 7  87591239.95047  21390666.654    21390666.3864   21390669.8124
        43.700          43.1004
 137235084.372 6                  26114966.022
        37.600
 116334082.315 7  90649972.62046  22137643.946    22137643.2624   22137643.7704
        44.700          39.2004
 121432313.780 7  94622594.08945  23107802.876    23107802.2104   23107801.1684
        42.100          30.4004
 111770279.219 5  86932463.736 6  20894277.682    20894277.093    20894277.316
        34.500          36.900
 114365432.751 7  88950835.840 7  21356915.502    21356914.837    21356921.446
        42.500          45.000


 104680650.142 8  81418302.895 8  19555208.124    19555207.533    19555211.731
        50.200          48.600
 122635814.793 8                  23336822.462
        50.500
 102617404.782 8  79813528.865 8  19223694.461    19223694.371    19223700.593
        50.600          50.600
 200878443.669 5                  38225904.883
        32.600
 112879586.929 8  87795277.039 7  21094259.868    21094261.065    21094267.551
        49.400          42.600
 116371490.291 6  90511188.526 6  21807963.689    21807963.273    21807970.693
        39.900          40.700
 198898585.581 7                  37849143.486
        42.600
 202020219.814 7                  38443175.192
        44.500
 122064201.229 7                  23228025.840
        45.900
 135611520.202 6                  25806006.736
        37.900
 129925415.749 7                  24723972.373
        43.600
 25  1  1  9 12 15.0000000  0 24G18G08G23G15E29G32G24E33G10G27R19R04
                                R12R03E26R18S35R17R02S31S33E07E08E13
 109774971.920 8  85538958.94247  20889483.209    20889482.9864   20889483.5944
        51.500          42.2004
 128888442.201 5 100432648.99443  24526657.317    24526657.2154   24526678.7204
        34.600          19.4004
 107271658.672 7  83588338.54544  20413116.358    20413115.9964   20413112.4034
        46.400          26.7004
 117685391.265 6  91702915.97743  22394788.466    22394788.1624   22394780.7814
        36.600          19.2004
 133315499.349 6                  25369087.332
        41.000
 121923749.429 6  95005476.74343  23201294.633    23201294.1014   23201294.4094
        36.400          21.0004
 112397660.282 7  87582620.61447  21388562.171    21388561.9034   21388565.1404
        46.200          44.4004
 137197180.215 6                  26107754.619
        37.900
 116305753.657 7  90627898.34646  22132251.896    22132251.2174   22132252.9484
        44.700          38.7004
 121438212.358 6  94627190.44044  23108924.126    23108923.5004   23108925.7104
        36.500          28.4004
 111725986.079 5  86898013.515 6  20885992.412    20885994.816    20885998.129
        34.400          37.600
 114330611.042 7  88923752.329 7  21350413.277    21350412.364    21350418.576
        45.300          45.400


 104687693.838 8  81423781.352 8  19556523.493    19556523.880    19556527.810
        50.900          48.700
 122627741.244 8                  23335286.067
        50.500
 102623894.977 8  79818576.810 8  19224910.985    19224910.969    19224915.658
        50.900          50.300
 200878441.767 5                  38225908.330
        32.200
 112936890.444 8  87839846.458 7  21104968.994    21104968.602    21104976.054
        48.900          42.800
 116417041.305 6  90546617.119 7  21816500.126    21816500.741    21816508.219
        41.200          42.900
 198898579.901 7                  37849142.989
        42.100
 202020193.767 7                  38443172.612
        44.200
 122066001.686 7                  23228368.243
        45.200
 135646963.212 6                  25812751.593
        37.400
 129956083.531 7                  24729807.965
        44.100
 25  1  1  9 12 30.0000000  0 24G18G08G23G15E29G32G24E33G10G27R19R04
                                R12R03E26R18S35R17R02S31S33E07E08E13
 109803144.687 8  85560911.72047  20894844.136    20894843.9134   20894844.2074
        51.500          42.0004
 128869218.502 5 100417669.50843  24522996.645    24522996.4534   24523012.8264
        35.300          20.5004
 107270398.520 7  83587356.62644  20412876.461    20412876.0994   20412874.2454
        47.500          29.1004
 117733788.347 6  91740627.99142  22403995.954    22403995.5394   22403990.0834
        37.200          17.2004
 133281239.389 6                  25362567.468
        38.100
 121881108.660 7  94972250.35643  23193181.946    23193181.4234   23193178.8394
        42.100          19.1004
 112386763.081 7  87574129.32047  21386488.320    21386488.0434   21386491.6174
        47.200          45.1004
 137159306.071 6                  26100547.968
        37.400
 116277455.074 7  90605847.56746  22126866.759    22126866.1204   22126868.2064
        45.700          38.5004
 121444255.385 5  94631899.32644  23110075.584    23110074.8424   23110077.4664
        31.500          24.6004
 111681833.297 5  86863672.433 6  20877738.595    20877738.148    20877745.249
        33.200          36.600
 114295880.085 7  88896739.420 7  21343928.420    21343926.343    21343932.814
        44.400          45.500
 124870249.599 4                  23375972.709    23375968.879
        29.300
 104694839.684 8  81429339.284 8  19557858.308    19557858.141    19557863.108
        50.800          48.600
 122619754.217 8                  23333765.933
        50.100
 102630591.866 8  79823785.527 8  19226164.720    19226164.629    19226170.633
        50.300          50.100
 200878444.320 4                  38225891.088
        29.600
 112994305.638 7  87884502.791 7  21115697.310    21115697.264    21115707.098
        47.900          43.400
 116462613.129 7  90582061.846 7  21825041.414    21825042.215    21825049.103
        43.600          44.200
 198898577.730 7                  37849143.262
        42.000
 202020173.113 7                  38443168.158
        44.400
 122067888.458 7                  23228727.520
        45.900
 135682441.303 5                  25819502.685
        35.300
 129986823.340 7                  24735657.975
        44.200
 25  1  1  9 12 45.0000000  0 23G18G08G23G15E29G32G24E33G10G27R19R04
                                R03E26R18S35R17R02S31S33E07E08E13
 109831438.779 8  85582959.04646  20900227.880    20900227.6524   20900227.8884
        51.000          41.8004
 128850119.329 5 100402787.04042  24519360.043    24519359.7304   24519375.4024
        32.200          13.3004
 107269196.875 7  83586420.27745  20412647.884    20412647.5314   20412646.7064
        46.500          30.1004
 117782225.576 6  91778371.24342  22413222.210    22413221.5714   22413207.0314
        37.200          16.5004
 133247033.643 5                  25356058.256
        32.300
 121838529.412 7  94939071.78844  23185079.489    23185078.9354   23185078.7094
        43.200          24.6004
 112376025.303 8  87565762.25247  21384444.540    21384444.2684   21384447.5544
        48.000          45.9004
 137121457.037 6                  26093345.294
        38.000
 116249181.556 7  90583816.31846  22121485.440    22121484.8014   22121488.2014
        45.600          38.5004
 121450437.785 5  94636716.74244  23111258.372    23111257.5854   23111253.0554
        34.500          25.2004
 111637816.382 5  86829437.070 6  20869512.166    20869510.014    20869516.609
        31.700          36.400
 114261234.763 7  88869793.099 7  21337457.210    21337456.280    21337462.635
        45.400          45.000
 104702081.948 8  81434972.219 8  19559209.800    19559211.004    19559215.859
        51.600          48.100
 122611848.843 8                  23332261.697
        50.100
 102637490.372 8  79829151.037 8  19227456.519    19227456.557    19227462.744
        49.800          49.200


 113051827.028 7  87929241.667 6  21126446.070    21126445.891    21126455.488
        46.700          41.900
 116508200.684 7  90617518.820 7  21833586.918    21833587.070    21833591.172
        44.300          43.800
 198898575.517 6                  37849144.800
        41.900
 202020151.032 7                  38443166.057
        44.200
 122069856.447 7                  23229101.978
        46.500
 135717949.315 5                  25826259.931
        34.600
 130017630.119 7                  24741520.588
        44.300
 25  1  1  9 13  0.0000000  0 24G18G08G23G15E29G32G24E33G10G27R19R04
                                R12R03E26R18S35R17R02S31S33E07E08E13
 109859856.890 8  85605103.02046  20905635.292    20905635.0694   20905635.5024
        49.600          41.5004
 128831147.661 5 100388003.81142  24515750.282    24515750.2474   24515764.3934
        34.000          12.3004
 107268056.551 7  83585531.72745  20412431.797    20412431.4494   20412430.8834
        46.700          32.5004
 117830705.172 5  91816147.60342  22422427.866    22422427.1824   22422432.6694
        32.900          15.1004
 133212884.938 6                  25349561.259
        36.700
 121796014.583 6  94905943.35644  23176987.919    23176987.3564   23176989.4994
        40.800          26.4004
 112365449.940 8  87557521.74847  21382432.399    21382432.1404   21382434.0544
        48.200          45.4004
 137083636.174 6                  26086147.517
        36.300
 116220935.920 7  90561806.79346  22116110.840    22116110.2464   22116113.4674
        44.600          37.2004


 111593938.512 4  86795309.964 5  20861309.179    20861307.292    20861310.703
        29.500          34.800
 114226677.870 7  88842915.524 7  21331004.976    21331005.603    21331009.945
        44.600          45.700
 124818305.954 5                  23366253.081    23366263.670
        35.100
 104709423.638 8  81440682.458 7  19560582.744    19560583.425    19560586.662
        53.400          46.500
 122604028.052 8                  23330773.345
        49.500
 102644593.384 8  79834675.588 8  19228788.453    19228788.582    19228792.506
        50.700          48.200


 113109456.904 7  87974064.908 6  21137214.698    21137214.908    21137223.357
        45.800          39.700
 116553806.209 6  90652989.844 7  21842130.611    21842129.599    21842137.623
        38.700          42.700
 198898576.387 7                  37849145.324
        42.700
 202020131.795 7                  38443159.349
        44.200
 122071908.370 7                  23229492.322
        46.200
 135753489.855 6                  25833024.640
        36.200
 130048506.606 7                  24747396.166
        44.700
 25  1  1  9 13 15.0000000  0 23G18G08G23G15E29G32G24E33G10G27R19R04
                                R03E26R18S35R17R02S31S33E07E08E13
 109888394.038 7  85627339.76546  20911066.212    20911065.9844   20911066.3554
        46.100          40.0004
 128812298.778 5 100373316.38242  24512165.349    24512165.2734   24512176.1394
        34.500          15.3004
 107266972.813 8  83584687.28245  20412225.127    20412224.7794   20412225.2164
        48.200          32.9004
 117879222.390 5  91853953.27342  22431665.221    22431664.4344   22431665.6214
        34.300          14.0004
 133178788.526 6                  25343071.016
        38.200
 121753559.494 6  94872861.47644  23168909.475    23168908.9524   23168912.2644
        40.700          27.9004
 112355032.318 8  87549404.16447  21380450.373    21380450.1054   21380450.9794
        48.000          44.4004
 137045838.881 5                  26078955.618
        35.300
 116192713.354 7  90539815.21845  22110740.419    22110739.7624   22110742.7314
        43.500          35.0004


 111550195.321 5  86761287.526 5  20853133.080    20853132.719    20853132.844
        33.600          34.400
 114192204.716 7  88816103.087 7  21324565.856    21324565.648    21324572.946
        42.500          46.400
 104716859.382 8  81446465.849 7  19561973.021    19561972.664    19561976.169
        53.700          46.000
 122596287.177 8                  23329300.234
        49.300
 102651896.076 8  79840355.461 7  19230156.057    19230156.657    19230160.129
        50.700          47.200


 113167190.059 7  88018968.400 6  21148002.689    21148004.231    21148009.747
        45.900          38.700
 116599424.876 5  90688471.059 6  21850682.122    21850677.759    21850686.914
        35.700          40.800
 198898573.797 7                  37849143.589
        43.500
 202020111.240 7                  38443157.230
        44.900
 122074039.264 7                  23229897.856
        46.200
 135789057.887 6                  25839792.743
        36.900
 130079447.884 7                  24753282.265
        42.400
 25  1  1  9 13 30.0000000  0 24G18G08G23G15E29G32G24E33G10R13G27R19
                                R04R03E26R18S35R17R02S31S33E07E08E13
 109917051.205 7  85649670.05346  20916520.473    20916520.2324   20916519.8564
        46.200          39.1004
 128793573.894 4 100358725.60442  24508600.842    24508600.6504   24508611.5324
        28.200          15.2004
 107265946.782 8  83583887.79645  20412029.726    20412029.3874   20412029.1174
        48.200          31.9004
 117927777.835 6  91891788.68842  22440909.226    22440908.1584   22440905.8314
        36.300          13.5004
 133144745.514 6                  25336594.414
        41.200
 121711165.376 6  94839827.10244  23160841.447    23160840.8574   23160845.5384
        41.400          28.5004
 112344773.672 7  87541410.45747  21378497.221    21378496.9494   21378497.9844
        47.500          43.0004
 137008066.352 5                  26071768.940
        35.100
 116164515.009 7  90517842.51245  22105375.277    22105374.6254   22105375.5634
        42.700          35.2004
 128065979.104 5                  23982644.258
        32.200


 111506588.382 5  86727371.095 6  20844981.068    20844982.118    20844982.292
        34.500          36.400
 114157816.070 6  88789356.447 7  21318142.819    21318141.702    21318149.246
        36.000          45.400
 104724390.033 9  81452323.002 7  19563379.530    19563379.893    19563381.448
        54.300          44.800
 122588627.422 8                  23327842.542
        49.100
 102659399.378 8  79846191.351 7  19231561.253    19231561.189    19231566.236
        50.200          47.300


 113225026.895 7  88063952.525 6  21158814.193    21158814.652    21158819.295
        47.900          40.500
 116645057.514 6  90723963.025 6  21859233.467    21859232.992    21859233.938
        40.000          36.500
 198898570.744 7                  37849142.618
        43.300
 202020088.217 7                  38443149.766
        44.700
 122076250.115 7                  23230318.795
        46.800
 135824654.298 6                  25846565.900
        37.700
 130110454.971 6                  24759179.519
        36.600
 25  1  1  9 13 45.0000000  0 25G18G08G23G15E29G32G24E33G10R13G27R19
                                R04R12R03E26R18S35R17R02S31S33E07E08
                                E13
 109945830.089 8  85672095.19446  20921996.216    20921995.9664   20921996.2124
        48.500          39.7004
 128774974.959 5 100344232.99543  24505061.421    24505061.0594   24505071.1964
        30.600          18.8004
 107264980.337 7  83583134.72245  20411845.984    20411845.6314   20411843.7954
        47.900          31.1004
 117976373.229 6  91929655.14742  22450174.002    22450172.6214   22450153.7194
        37.400          12.5004
 133110757.879 7                  25330126.640
        43.300
 121668834.141 6  94806841.69344  23152785.462    23152784.7834   23152790.1334
        40.500          29.1004
 112334675.911 7  87533542.12447  21376575.230    21376574.9714   21376575.7724
        47.200          42.3004
 136970320.598 5                  26064584.368
        34.200
 116136342.747 7  90495890.12346  22100014.184    22100013.5414   22100013.9894
        44.700          36.0004
 128015558.648 4                  23973200.277
        29.600


 111463120.063 5  86693562.469 6  20836866.072    20836860.802    20836858.163
        34.700          38.900
 114123514.249 7  88762677.176 7  21311745.990    21311745.354    21311742.582
        44.100          43.600
 124741468.690 5                  23351866.253    23351865.041
        35.000
 104732017.236 9  81458255.288 7  19564803.873    19564804.905    19564805.848
        54.000          44.000
 122581050.693 8                  23326400.671
        48.900
 102667105.288 8  79852184.838 7  19233005.045    19233005.273    19233009.805
        51.000          47.200


 113282968.919 8  88109018.549 7  21169642.256    21169643.960    21169649.390
        49.000          42.700
 116690705.708 7  90759467.082 5  21867789.810    21867789.125    21867786.256
        42.200          33.700
 198898567.929 7                  37849142.314
        43.800
 202020066.113 7                  38443145.469
        44.500
 122078542.640 7                  23230755.064
        47.200
 135860280.693 6                  25853343.902
        37.900
 130141529.591 5                  24765096.444
        33.600
 25  1  1  9 14  0.0000000  0 24G18G08G23G15E29G32G24E33G10G27R19R04
                                R12R03E26R18S35R17R02S31S33E07E08E13
 109974732.806 8  85694616.82346  20927495.461    20927495.2114   20927496.3264
        49.300          40.4004
 128756504.270 5 100329840.24044  24501548.218    24501547.8834   24501555.8484
        34.600          26.5004
 107264075.724 7  83582429.83645  20411674.002    20411673.6494   20411670.9004
        47.000          30.7004
 118025010.265 6  91967554.15043  22459405.480    22459404.0184   22459410.3494
        38.400          19.0004
 133076827.850 7                  25323669.940
        42.900
 121626568.200 6  94773907.15744  23144743.288    23144742.5064   23144746.6194
        36.400          28.4004
 112324741.457 7  87525801.04747  21374685.250    21374684.9914   21374686.1994
        45.500          43.3004
 136932604.084 5                  26057408.710
        31.800
 116108198.886 7  90473959.87546  22094659.551    22094658.9304   22094658.7694
        45.000          36.8004


 111419793.135 4  86659863.727 6  20828756.792    20828749.355    20828758.892
        27.300          40.800
 114089301.060 7  88736066.990 7  21305349.492    21305354.323    21305353.617
        45.200          43.500
 124716153.245 5  97001505.229 5  23347126.846    23347124.298    23347135.526
        34.400          34.300
 104739742.794 8  81464264.096 7  19566246.974    19566247.527    19566249.037
        52.600          44.100
 122573559.379 8                  23324975.101
        48.700
 102675015.936 8  79858337.565 7  19234486.413    19234486.927    19234492.050
        51.800          47.600


 113341017.840 8  88154167.752 7  21180489.343    21180490.771    21180496.268
        48.800          43.000
 116736371.433 6  90794984.931 6  21876345.209    21876343.719    21876346.685
        39.100          36.900
 198898567.587 7                  37849141.406
        43.100
 202020047.131 7                  38443142.491
        45.000
 122080918.964 7                  23231207.693
        47.200
 135895939.199 6                  25860130.760
        37.400
 130172673.941 6                  24771025.168
        38.900
 25  1  1  9 14 15.0000000  0 23G18G08G23G15E29G32G24E33G10G27R04R12
                                R03E26R18S35R17R02S31S33E07E08E13
 110003752.759 8  85717229.78946  20933017.669    20933017.4334   20933018.7574
        49.600          39.8004
 128738155.541 5 100315542.56344  24498057.049    24498056.7324   24498064.3074
        35.400          28.5004
 107263226.582 7  83581768.18045  20411512.625    20411512.2774   20411509.8194
        47.100          31.7004
 118073682.443 6  92005480.52342  22468672.521    22468671.1224   22468673.4404
        38.800          16.2004
 133042949.127 7                  25317223.257
        43.700
 121584361.132 6  94741018.52944  23136711.811    23136710.9804   23136714.5744
        39.600          29.2004
 112314963.986 7  87518182.28347  21372825.596    21372825.3284   21372827.1494
        47.200          44.7004
 136894910.486 5                  26050236.640
        34.200
 116080076.966 7  90452046.71946  22089307.182    22089306.5744   22089309.0234
        47.500          38.9004


 114055170.177 7  88709520.761 7  21298976.412    21298978.984    21298981.086
        47.000          44.100
 124690977.900 6  96981924.433 5  23342416.327    23342419.369    23342417.893
        39.200          31.000
 104747560.495 8  81470344.533 7  19567707.353    19567707.811    19567709.921
        52.200          44.700
 122566147.157 8                  23323564.382
        48.500
 102683124.868 8  79864644.494 8  19236005.813    19236006.036    19236011.574
        52.200          48.200


 113399166.875 7  88199394.800 7  21191356.542    21191355.020    21191362.601
        47.800          43.100
 116782047.911 6  90830511.083 6  21884905.070    21884901.783    21884908.684
        38.300          39.600
 198898563.871 7                  37849141.102
        42.800
 202020023.991 7                  38443141.230
        45.700
 122083372.505 8                  23231674.682
        48.900
 135931623.144 6                  25866921.815
        37.900
 130203881.467 7                  24776962.904
        42.800
 25  1  1  9 14 30.0000000  0 23G18G08G23G15E29G32G24E33G10G27R04R12
                                R03E26R18S35R17R02S31S33E07E08E13
 110032894.476 7  85739937.61946  20938563.663    20938563.4224   20938563.6994
        47.000          38.2004
 128719933.619 5 100301343.65444  24494590.049    24494589.7054   24494596.7824
        34.400          26.5004
 107262437.620 7  83581153.41045  20411362.031    20411361.6784   20411360.5254
        46.200          32.4004
 118122394.177 5  92043437.72641  22477940.509    22477939.1324   22477943.4984
        34.500           8.7004
 133009126.402 7                  25310786.428
        42.600
 121542217.835 7  94708179.57145  23128691.249    23128690.4134   23128693.3734
        42.200          31.2004
 112305348.317 7  87510689.57247  21370995.598    21370995.3214   21370998.0314
        46.700          45.4004
 136857244.711 5                  26043065.677
        35.000
 116051981.747 8  90430154.36846  22083960.672    22083960.0694   22083964.6784
        48.600          40.1004
 121497619.732 6  94673479.28044  23120230.334    23120229.8694   23120232.5034
        36.700          29.7004
 114021126.326 7  88683042.286 7  21292615.364    21292618.172    21292624.173
        46.600          44.000
 124665947.768 6                  23337745.497    23337745.638
        39.400
 104755474.547 8  81476499.941 7  19569184.860    19569185.763    19569188.937
        52.300          46.100
 122558818.813 8                  23322170.142
        48.400
 102691436.688 8  79871109.263 8  19237563.084    19237563.659    19237568.897
        52.500          48.300


 113457420.088 7  88244702.900 7  21202242.108    21202241.293    21202248.020
        47.500          42.700
 116827739.695 6  90866049.171 6  21893464.427    21893464.707    21893471.560
        41.300          41.400
 198898561.148 7                  37849141.885
        43.400
 202020001.890 7                  38443137.277
        45.300
 122085907.845 8                  23232156.989
        49.800
 135967337.044 6                  25873717.409
        36.700
 130235156.790 7                  24782914.219
        44.000
 25  1  1  9 14 45.0000000  0 23G18G08G23G15E29G32G24E33G10G27R04R12
                                R03E26R18S35R17R02S31S33E07E08E13
 110062156.560 7  85762739.22546  20944133.180    20944132.9444   20944130.9054
        47.300          36.0004


 107261707.565 7  83580584.55745  20411223.647    20411223.2764   20411222.0344
        44.300          32.9004
 118171143.794 4  92081424.3234   22487221.397    22487219.9844   22487220.7294
        27.800           2.6004
 132975358.482 6                  25304360.812
        40.800
 121500137.101 7  94675389.42045  23120684.094    23120683.2944   23120685.8284
        42.500          33.2004
 112295893.313 7  87503322.04547  21369196.090    21369195.8184   21369198.3964
        47.300          45.3004
 136819605.645 6                  26035902.822
        38.000
 116023911.944 8  90408281.82546  22078618.516    22078617.9354   22078624.7344
        49.000          38.9004
 121504913.351 6  94679162.67944  23121619.093    23121618.3384   23121620.5894
        38.600          29.0004
 113987168.201 7  88656630.476 7  21286275.883    21286275.386    21286280.949
        44.400          43.100
 124641062.249 5                  23333085.244    23333078.990
        35.600
 104763483.229 8  81482728.934 7  19570681.866    19570683.206    19570686.233
        52.600          46.900
 122551573.184 8                  23320791.581
        49.900
 102699950.248 8  79877730.921 8  19239158.200    19239158.561    19239163.514
        52.400          48.000


 113515775.796 8  88290090.645 7  21213147.371    21213148.466    21213153.091
        48.900          42.100
 116873445.222 7  90901597.894 7  21902032.595    21902032.993    21902036.322
        42.300          42.100
 198898557.905 7                  37849143.808
        43.500
 202019979.361 7                  38443132.850
        45.200
 122088523.581 8                  23232654.468
        49.600
 136003079.396 5                  25880519.013
        35.800
 130266498.558 7                  24788878.011
        45.400
 25  1  1  9 15  0.0000000  0 23G18G08G23G15E29G32G24E33G10G27R19R04
                                R03E26R18S35R17R02S31S33E07E08E13
 110091541.525 7  85785636.57545  20949724.647    20949724.4024   20949721.7124
        47.000          35.4004


 107261039.183 7  83580063.76645  20411096.454    20411096.0884   20411094.9604
        44.100          32.9004
 118219933.659 4  92119442.1824   22496510.114    22496508.7734   22496505.2044
        28.300           3.8004
 132941648.063 6                  25297946.583
        39.400
 121458121.650 6  94642650.14045  23112689.315    23112688.5964   23112691.0284
        40.500          33.5004
 112286601.705 7  87496081.84347  21367427.655    21367427.3784   21367429.2214
        47.800          44.9004
 136781996.109 6                  26028746.518
        38.700
 115995870.281 7  90386431.27945  22073282.666    22073282.1344   22073285.9654
        47.600          35.8004
 121512347.694 6  94684955.74544  23123033.125    23123032.4554   23123031.7974
        38.300          25.0004
 111247883.114 5  86526147.481 7  20796616.322    20796614.455    20796620.965
        32.300          43.500
 113953298.550 7  88630287.417 7  21279951.705    21279952.136    21279955.651
        46.700          43.000
 104771589.197 8  81489033.605 7  19572195.019    19572195.666    19572200.789
        50.900          47.500
 122544413.055 8                  23319429.145
        50.900
 102708668.033 8  79884511.428 7  19240790.682    19240791.321    19240796.711
        51.300          47.500


 113574235.998 8  88335559.667 7  21224074.045    21224075.171    21224078.343
        49.100          42.200
 116919166.964 6  90937159.231 7  21910596.233    21910596.933    21910605.194
        38.500          43.200
 198898557.069 7                  37849140.973
        43.000
 202019959.317 7                  38443128.750
        44.800
 122091222.228 8                  23233168.389
        49.400
 136038852.646 5                  25887327.210
        35.700
 130297909.289 7                  24794854.920
        46.100
 25  1  1  9 15 15.0000000  0 24G18G08G23G15E29G32G24E33G10G27R19R04
                                R12R03E26R18S35R17R02S31S33E07E08E13
 110121046.029 7  85808627.09146  20955339.062    20955338.8174   20955336.8044
        47.500          36.5004


 107260429.260 7  83579588.51845  20410980.641    20410980.2664   20410979.0464
        44.600          33.1004
 118268760.235 5  92157488.82241  22505797.341    22505796.1344   22505796.6544
        31.900          10.2004
 132907992.003 6                  25291541.015
        39.600
 121416168.454 7  94609959.36845  23104706.938    23104706.2634   23104707.5764
        43.300          34.1004
 112277470.447 8  87488966.59547  21365690.224    21365689.9564   21365690.4574
        48.300          45.0004
 136744413.072 6                  26021595.926
        39.500
 115967853.573 8  90364600.21646  22067951.766    22067951.2664   22067950.5864
        48.400          37.7004
 121519919.334 6  94690855.75643  23124475.559    23124474.8664   23124468.4494
        40.300          22.8004
 111205255.077 5  86492992.389 7  20788648.073    20788645.094    20788651.327
        32.400          42.200
 113919513.862 7  88604010.497 7  21273639.895    21273642.180    21273648.248
        47.900          45.500
 124591730.527 5                  23323833.265    23323836.835
        30.300
 104779788.894 8  81495411.140 8  19573727.205    19573728.721    19573732.942
        51.800          48.200
 122537335.334 8                  23318082.203
        50.500
 102717586.847 8  79891448.307 7  19242461.949    19242462.353    19242466.187
        51.700          46.600


 113632797.082 7  88381107.171 6  21235017.527    21235016.475    21235020.868
        46.400          41.700
 116964901.562 7  90972730.580 7  21919170.000    21919170.880    21919176.311
        42.400          44.600
 198898554.569 6                  37849134.542
        40.900
 202019938.647 7                  38443127.708
        44.900
 122094000.502 8                  23233697.260
        48.900
 136074653.428 5                  25894143.130
        35.700
 130329385.744 7                  24800843.500
        43.000
 25  1  1  9 15 30.0000000  0 23G18G08G23G15E29G32G24E33G10G27R19R04
                                R03E26R18S35R17R02S31S33E07E08E13
 110150669.023 7  85831709.93646  20960975.992    20960975.7734   20960974.6804
        47.100          37.5004


 107259876.902 7  83579158.13945  20410874.181    20410873.7754   20410874.1424
        44.900          33.1004
 118317622.650 5  92195563.45142  22515096.565    22515095.3054   22515094.7054
        33.700          12.2004
 132874389.441 6                  25285146.794
        39.100
 121374276.681 7  94577316.49745  23096734.204    23096733.5164   23096736.6504
        45.800          35.5004
 112268498.693 7  87481975.65347  21363982.499    21363982.2404   21363982.9504
        47.800          45.1004
 136706855.801 6                  26014448.816
        39.600
 115939860.923 7  90342787.83846  22062624.929    22062624.4474   22062623.5654
        46.200          38.6004
 121527627.268 6  94696861.96142  23125941.945    23125941.3284   23125933.6164
        38.700          17.1004
 111162766.651 5  86459945.852 7  20780704.679    20780705.880    20780708.813
        34.500          42.600
 113885813.325 7  88577799.056 7  21267346.053    21267346.806    21267354.462
        44.400          45.600
 104788081.179 8  81501860.714 7  19575275.205    19575276.636    19575281.630
        50.700          47.800
 122530339.200 8                  23316751.134
        51.100
 102726705.654 8  79898540.744 7  19244170.608    19244171.505    19244175.447
        52.200          47.600


 113691457.588 6  88426732.222 7  21245973.753    21245972.107    21245983.529
        37.200          42.900
 117010647.474 7  91008310.731 7  21927745.112    21927746.214    21927749.793
        43.500          45.100
 198898551.067 7                  37849138.115
        42.400
 202019915.974 7                  38443118.550
        44.700
 122096857.335 8                  23234240.679
        48.800
 136110480.591 5                  25900960.748
        33.600
 130360926.851 6                  24806846.496
        40.900
 25  1  1  9 15 45.0000000  0 24G18G08G23G15E29G32G24E33G10G27R19R04
                                R12R03E26R18S35R17R02S31S33E07E08E13
 110180411.838 7  85854886.15846  20966635.265    20966635.0694   20966635.7234
        47.100          38.2004


 107259383.666 7  83578773.80745  20410780.147    20410779.7324   20410780.3544
        43.900          32.2004
 118366521.936 5  92233666.74341  22524399.959    22524398.4354   22524399.7584
        32.300           9.9004
 132840841.942 6                  25278761.789
        39.700
 121332447.962 6  94544722.71945  23088774.397    23088773.7314   23088777.8594
        41.700          34.6004
 112259688.134 7  87475110.32247  21362305.818    21362305.5504   21362306.8434
        46.600          44.2004
 136669325.998 6                  26007306.890
        39.800
 115911893.876 7  90320995.38746  22057302.249    22057301.7764   22057304.3284
        46.500          40.3004
 121535472.865 6  94702975.30541  23127431.212    23127430.5284   23127424.9744
        36.000           7.0004
 111120420.461 5  86427009.901 6  20772788.544    20772790.259    20772791.018
        35.200          41.200
 113852198.608 7  88551654.299 7  21261071.325    21261071.367    21261076.796
        46.200          45.500
                  96866840.805 5                                  23314711.796
                        34.300
 104796467.388 8  81508383.318 7  19576843.115    19576843.019    19576848.084
        50.800          47.600
 122523426.299 8                  23315435.429
        51.300
 102736026.020 8  79905789.900 8  19245916.284    19245916.610    19245922.215
        51.200          48.700


 113750219.087 7  88472435.491 7  21256957.769    21256959.072    21256965.025
        47.000          43.500
 117056406.344 7  91043900.903 7  21936323.619    21936325.201    21936324.916
        45.000          44.200
 198898547.686 7                  37849142.095
        43.600
 202019892.748 7                  38443117.714
        44.900
 122099794.098 8                  23234799.363
        49.000
 136146335.523 6                  25907785.896
        36.000
 130392534.088 6                  24812861.222
        40.400
 25  1  1  9 16  0.0000000  0 24G18G08G23G15E29G32G24E33G10G27R19R04
                                R12R03E26R18S35R17R02S31S33E07E08E13
 110210277.226 7  85878157.89846  20972317.729    20972317.5334   20972320.0724
        47.400          39.3004


 107258952.513 7  83578437.87145  20410698.345    20410697.9124   20410698.4034
        44.100          32.0004
 118415460.714 4  92271800.81342  22533712.635    22533711.0574   22533712.7214
        29.600          13.0004
 132807352.447 6                  25272388.851
        39.400
 121290685.314 6  94512180.45745  23080827.103    23080826.5364   23080831.5494
        39.900          32.0004
 112251041.747 7  87468372.91147  21360660.366    21360660.0714   21360661.8674
        44.400          43.1004
 136631826.705 6                  26000171.362
        39.200
 115883955.356 7  90299225.14546  22051985.291    22051984.8184   22051989.7244
        46.400          41.8004
 121543458.779 5  94709198.10741  23128950.694    23128950.2124   23128943.0814
        34.800           7.4004
 111078218.947 4  86394186.574 6  20764895.927    20764896.257    20764900.585
        29.500          39.300
 113818672.574 7  88525578.516 7  21254811.416    21254812.352    21254816.591
        47.200          45.300
 124518866.871 5  96848054.242 5  23310189.351    23310187.990    23310191.021
        34.700          34.500
 104804949.740 8  81514980.739 8  19578427.847    19578427.976    19578433.087
        51.100          48.400
 122516599.627 8                  23314136.106
        50.300
 102745550.869 8  79913198.100 8  19247701.311    19247701.664    19247706.254
        51.800          49.000


 113809083.432 8  88518218.908 7  21267964.101    21267964.419    21267966.084
        48.700          44.100
 117102180.905 7  91079503.297 6  21944901.721    21944903.655    21944901.690
        45.000          41.200
 198898545.378 7                  37849140.230
        42.900
 202019872.131 7                  38443113.895
        44.500
 122102813.605 8                  23235373.944
        48.900
 136182220.949 5                  25914614.884
        35.000
 130424210.228 6                  24818890.015
        41.400
 25  1  1  9 16 15.0000000  0 24G18G08G23G15E29G32G24E33G10G27R19R04
                                R12R03E26R18S35R17R02S31S33E07E08E13
 110240263.881 7  85901524.12746  20978024.142    20978023.9464   20978026.8064
        47.200          39.0004


 107258582.309 7  83578149.41245  20410628.593    20410628.1374   20410627.5814
        43.300          31.2004
 118464437.439 5  92309964.52741  22543034.078    22543032.4644   22543033.1164
        30.100           7.6004
 132773919.862 6                  25266027.091
        40.700
 121248987.662 6  94479688.85144  23072891.929    23072891.2724   23072894.9514
        38.000          27.2004
 112242558.508 7  87461762.63147  21359046.916    21359046.6174   21359047.6344
        43.500          42.7004
 136594356.929 6                  25993041.829
        40.500
 115856044.250 7  90277476.27146  22046674.437    22046673.9464   22046679.4044
        44.900          41.4004
 121551583.647 6  94715529.13842  23130498.169    23130497.7454   23130488.3714
        39.700          14.8004
 111036162.306 5  86361475.890 6  20757031.990    20757033.249    20757039.169
        30.100          39.300
 113785233.936 8  88499570.705 7  21248567.101    21248569.238    21248571.389
        48.300          44.700
 124494860.973 5  96829383.152 5  23305689.078    23305689.095    23305696.750
        32.700          35.600
 104813527.421 8  81521652.289 8  19580029.837    19580029.121    19580034.880
        50.200          48.200
 122509858.158 8                  23312853.121
        49.800
 102755278.947 8  79920764.395 8  19249522.298    19249522.942    19249528.655
        50.400          48.800
 200878490.995 5                  38225903.255
        33.900
 113868049.152 8  88564081.162 7  21278978.350    21278979.997    21278984.073
        48.900          43.600
 117147969.332 6  91115116.596 6  21953479.368    21953478.546    21953480.878
        38.800          38.300
 198898545.347 7                  37849138.388
        43.400
 202019853.045 7                  38443106.472
        44.300
 122105914.563 8                  23235964.106
        48.000
 136218135.388 6                  25921448.084
        36.500
 130455954.036 7                  24824929.748
        43.000
 25  1  1  9 16 30.0000000  0 24G18G08G23G15E29G32G24E33G10G27R19R04
                                R12R03E26R18S35R17R02S31S33E07E08E13
 110270368.476 7  85924982.26246  20983753.871    20983753.6664   20983754.9864
        46.100          38.0004


 107258269.905 6  83577905.99044  20410568.781    20410568.3304   20410567.8274
        41.800          29.5004
 118513448.626 5  92348155.09242  22552370.177    22552368.5194   22552360.0984
        34.500          15.2004
 132740541.102 7                  25259676.489
        42.400
 121207352.012 6  94447245.51644  23064969.467    23064968.8064   23064967.5204
        41.500          25.5004
 112234235.337 7  87455277.08147  21357463.629    21357463.3304   21357464.3534
        44.600          44.2004
 136556913.719 6                  25985917.099
        41.400
 115828157.416 7  90255746.32146  22041368.879    22041368.3564   22041372.5544
        43.400          40.6004
 121559844.194 6  94721965.90143  23132066.642    23132066.2004   23132062.1994
        37.600          18.3004
 110994246.998 4  86328875.162 6  20749201.533    20749197.907    20749202.248
        26.900          38.000
 113751879.558 8  88473628.460 7  21242339.296    21242339.329    21242343.170
        48.300          45.200


 104822196.614 8  81528394.990 7  19581649.214    19581649.436    19581653.353
        51.000          47.600
 122503198.822 8                  23311585.857
        49.200
 102765206.963 8  79928486.177 8  19251382.746    19251382.569    19251387.897
        50.000          48.500
 200878492.428 5                  38225907.360
        33.600
 113927112.503 8  88610019.298 6  21290015.145    21290016.127    21290019.778
        48.300          41.800
                  91150738.309 5                  21962059.514    21962062.377
                        35.200
 198898543.591 7                  37849137.042
        43.200
 202019832.693 7                  38443101.205
        44.200
 122109093.664 7                  23236569.422
        47.500
 136254075.485 5                  25928287.447
        34.300
 130487762.277 7                  24830983.049
        42.900
 25  1  1  9 16 45.0000000  0 24G18G08G23G15E29G32G24E33G10G27R19R04
                                R12R03E26R18S35R17R02S31S33E07E08E13
 110300592.891 7  85948533.75546  20989505.852    20989505.6424   20989505.4614
        46.700          38.0004
 128561727.089 5                  24464478.395
        34.500
 107258017.417 6  83577709.24144  20410520.088    20410519.6374   20410520.0664
        40.100          27.9004
 118562495.997 5  92386373.86343  22561697.866    22561696.2254   22561693.1354
        35.900          18.5004
 132707218.193 7                  25253334.124
        43.100
 121165780.430 7  94414852.10644  23057057.574    23057056.9264   23057055.9184
        42.600          27.5004
 112226074.375 7  87448917.93447  21355910.215    21355909.9474   21355912.6824
        46.900          47.0004
 136519499.226 7                  25978796.833
        42.800
 115800296.931 7  90234036.90846  22036067.433    22036066.8974   22036069.2544
        44.500          39.3004
 121568242.208 6  94728509.83443  23133667.823    23133667.3504   23133664.9494
        38.800          22.8004
 110952476.171 5  86296386.744 6  20741395.417    20741391.782    20741395.511
        32.600          37.900
 113718611.322 7  88447753.225 7  21236125.735    21236126.590    21236131.653
        47.500          46.300
 124447215.434 5  96792382.535 5  23296781.381    23296781.743    23296790.700
        34.300          31.800
 104830959.279 8  81535210.422 8  19583286.085    19583286.394    19583290.624
        51.200          48.000
 122496623.732 8                  23310334.585
        49.500
 102775336.911 8  79936365.032 8  19253280.367    19253280.496    19253285.614
        50.400          48.000
 200878494.440 5                  38225903.313
        33.400
 113986275.087 7  88656034.615 6  21301071.767    21301071.445    21301073.919
        47.100          40.600
 117239827.838 6  91186369.513 6  21970689.481                    21970649.731
        36.800          36.100
 198898541.601 7                  37849132.253
        42.600
 202019810.965 7                  38443099.935
        44.000
 122112352.821 7                  23237189.274
        46.900
 136290043.098 5                  25935131.777
        32.800
 130519636.856 7                  24837049.272
        43.500
 25  1  1  9 17  0.0000000  0 24G18G08G23G15E29G32G24E33G10G27R19R04
                                R12R03E26R18S35R17R02S31S33E07E08E13
 110330938.731 8  85972179.85246  20995280.271    20995280.0974   20995279.0644
        49.200          38.1004
 128544771.875 5 100164759.42441  24461240.424    24461240.7724   24461253.4944
        35.800          11.3004
 107257826.571 6  83577560.53144  20410484.095    20410483.6224   20410484.6104
        40.200          27.9004
 118611581.149 5  92424622.06543  22571038.388    22571036.8064   22571032.5614
        35.400          18.4004
 132673952.967 7                  25247004.497
        43.200
 121124274.722 6  94382510.07544  23049156.760    23049156.0944   23049159.8474
        39.500          26.7004
 112218077.456 7  87442686.62348  21354387.771    21354387.4994   21354392.1254
        47.600          48.2004
 136482115.400 7                  25971682.901
        43.300
 115772464.550 7  90212349.38046  22030770.146    22030769.6054   22030770.4804
        46.600          38.8004
 121576779.290 6  94735162.10743  23135293.248    23135292.8104   23135291.7084
        39.500          23.9004
 110910851.635 6  86264012.136 6  20733612.916    20733612.849    20733614.418
        36.000          38.200
 113685431.135 7  88421946.450 7  21229927.339    21229928.242    21229934.816
        46.700          46.200
 124423653.253 5                  23292377.357    23292372.679
        34.300
 104839816.886 8  81542099.705 8  19584940.688    19584940.667    19584945.540
        50.500          48.500
 122490134.773 8                  23309099.550
        49.500
 102785670.545 8  79944402.315 8  19255216.058    19255216.561    19255221.786
        50.400          48.100
 200878497.705 5                  38225909.001
        34.300
 114045538.237 7  88702128.121 6  21312146.000    21312145.673    21312150.079
        45.400          41.800
                  91222011.773 6                  21979236.921    21979239.427
                        36.600
 198898541.250 7                  37849133.984
        42.500
 202019792.082 7                  38443095.566
        44.000
 122115693.619 7                  23237824.638
        46.900
 136326039.948 5                  25941979.651
        34.300
 130551579.417 7                  24843127.895
        45.200
 25  1  1  9 17 15.0000000  0 24G18G08G23G15E29G32G24E33G10G27R19R04
                                R12R03E26R18S35R17R02S31S33E07E08E13
 110361401.559 8  85995917.10446  21001076.499    21001076.3394   21001075.3604
        48.800          37.2004
 128527941.265 6 100151644.64942  24458036.708    24458036.8864   24458041.8184
        36.600          16.7004
 107257693.129 6  83577456.56744  20410457.150    20410456.7214   20410459.9044
        39.500          28.7004
 118660699.348 5  92462896.01042  22580381.696    22580380.1274   22580378.2524
        33.900          16.2004
 132640741.173 7                  25240684.321
        43.800
 121082830.750 6  94350216.12944  23041271.950    23041271.3694   23041275.4424
        40.000          28.6004
 112210240.434 8  87436579.91447  21352896.603    21352896.3584   21352901.1034
        48.000          47.4004
 136444758.122 7                  25964573.398
        43.100
 115744656.048 7  90190680.43546  22025477.111    22025476.5884   22025477.6354
        45.300          38.4004
 121585450.961 5  94741919.33643  23136941.549    23136941.0804   23136939.2864
        35.100          18.9004
 110869369.741 6  86231748.525 6  20725857.776    20725859.060    20725859.082
        36.500          38.200
 113652334.589 7  88396204.783 7  21223747.016    21223745.897    21223754.756
        43.600          46.200
 124400237.238 5                  23287994.683    23287992.286
        32.900
 104848764.798 8  81549059.201 8  19586613.060    19586612.687    19586617.082
        50.900          48.700
 122483727.784 8                  23307879.949
        49.000
 102796203.370 8  79952594.534 7  19257189.635    19257190.277    19257194.975
        51.100          47.900
 200878498.777 5                  38225905.057
        33.300
 114104897.121 7  88748296.154 7  21323238.077    21323238.883    21323244.604
        44.800          43.400
 117331488.856 6  91257661.317 6  21987827.680    21987829.023    21987828.466
        41.800          36.600
 198898539.210 7                  37849136.859
        43.200
 202019771.381 7                  38443088.371
        43.900
 122119111.686 7                  23238474.678
        46.600
 136362061.256 6                  25948832.588
        37.200
 130583585.605 7                  24849218.357
        46.100
 25  1  1  9 17 30.0000000  0 24G18G08G23G15E29G32G24E33G10G27R19R04
                                R12R03E26R18S35R17R02S31S33E07E08E13
 110391984.697 8  86019748.11745  21006895.863    21006895.7034   21006895.0824
        48.000          35.6004
 128511238.860 6 100138629.78942  24454852.523    24454852.5064   24454859.7364
        38.000          17.6004
 107257620.641 6  83577400.10044  20410444.478    20410444.0634   20410446.2534
        41.700          29.2004
 118709854.205 4  92501198.50142  22589735.302    22589733.7204   22589731.3804
        27.700          14.6004
 132607586.376 7                  25234375.795
        43.700
 121041452.132 6  94317973.13944  23033398.148    23033397.5854   23033402.3634
        39.600          29.7004
 112202566.912 7  87430600.59447  21351435.662    21351435.4174   21351440.1704
        45.100          45.1004
 136407431.083 6                  25957469.614
        41.000
 115716874.950 6  90169032.85246  22020191.454    22020190.9544   22020191.4304
        41.700          38.0004
 121594260.577 5  94748784.01342  23138618.212    23138617.8064   23138614.4814
        34.700          14.4004
 110828034.639 5  86199599.068 6  20718132.452    20718132.821    20718133.213
        35.500          39.900
 113619325.284 7  88370530.895 7  21217584.515    21217583.764    21217590.003
        46.700          45.500
 124376971.350 5                  23283642.641    23283642.153
        34.200
 104857806.435 8  81556091.613 8  19588302.116    19588301.042    19588305.848
        50.100          48.700
 122477406.334 8                  23306677.034
        48.700
 102806939.150 8  79960944.582 8  19259201.292    19259201.792    19259206.400
        51.600          48.200
 200878501.152 5                  38225904.100
        35.000
 114164354.789 7  88794541.045 7  21334349.113    21334348.773    21334356.627
        42.000          44.400
 117377336.879 6  91293320.903 5  21996416.170    21996417.480    21996419.669
        37.700          35.600
 198898538.057 7                  37849135.428
        43.600
 202019750.531 7                  38443086.211
        44.500
 122122610.385 7                  23239140.419
        46.700
 136398110.450 6                  25955693.095
        40.000
 130615658.826 7                  24855321.412
        46.700
 25  1  1  9 17 45.0000000  0 24G18G08G23G15E29G32G24E33G10G27R19R04
                                R12R03E26R18S35R17R02S31S33E07E08E13
 110422683.382 7  86043669.17645  21012737.405    21012737.2314   21012737.2934
        46.600          33.0004
 128494660.098 6 100125711.27942  24451699.972    24451699.8924   24451703.4464
        39.100          16.5004
 107257604.486 7  83577387.53645  20410442.170    20410441.7594   20410442.0584
        43.400          30.1004
 118759040.593 4  92539525.51242  22599096.393    22599094.9004   22599091.0044
        28.200          14.5004
 132574483.998 7                  25228077.498
        43.100
 121000134.353 6  94285777.55744  23025536.995    23025536.4954   23025539.4674
        38.300          28.5004
 112195052.354 7  87424745.13246  21350007.454    21350007.1644   21350008.5714
        43.800          41.9004
 136370129.835 6                  25950371.877
        40.100
 115689116.684 6  90147403.08046  22014909.462    22014909.0294   22014910.0644
        40.800          36.8004
 121603203.276 6  94755752.35742  23140319.438    23140319.0814   23140316.0944
        36.800          15.0004
 110786841.796 5  86167560.232 6  20710431.941    20710433.809    20710434.291
        31.600          41.600
 113586398.267 7  88344921.025 7  21211435.162    21211434.581    21211440.319
        47.100          44.300
 124353851.272 5  96719719.584 5  23279320.654    23279318.483    23279312.827
        33.800          30.800
 104866936.738 8  81563192.960 8  19590007.906    19590007.234    19590011.710
        51.000          48.500
 122471165.902 8                  23305489.758
        48.400
 102817872.850 8  79969448.595 7  19261248.711    19261248.740    19261254.278
        50.100          47.500
 200878499.531 5                  38225905.674
        34.100
 114223905.960 7  88840858.623 7  21345479.428    21345477.045    21345484.930
        42.200          44.800
 117423192.603 5  91328986.383 6  22005018.893    22005019.903    22005016.140
        35.500          36.400
 198898532.823 7                  37849133.702
        43.700
 202019726.918 7                  38443081.793
        44.700
 122126184.956 7                  23239821.115
        46.400
 136434182.713 6                  25962556.875
        40.000
 130647794.349 7                  24861436.012
        46.100
 25  1  1  9 18  0.0000000  0 24G18G08G23G15E29G32G24E33G10G27R19R04
                                R12R03E26R18S35R17R02S31S33E07E08E13
 110453506.368 7  86067687.10045  21018602.788    21018602.6054   21018603.0164
        46.300          31.0004
 128478213.947 6 100112896.21641  24448570.247    24448570.1984   24448572.8184
        36.000           8.4004
 107257653.679 7  83577425.90145  20410453.019    20410452.6264   20410450.9344
        46.500          31.5004
 118808267.074 5  92577883.75242  22608465.102    22608463.5914   22608458.3694
        32.300          16.3004
 132541443.062 6                  25221790.228
        41.900
 120958886.367 6  94253636.38344  23017688.366    23017687.8934   23017690.1954
        40.200          28.6004
 112187705.780 7  87419020.58046  21348608.590    21348608.2694   21348609.0834
        44.800          40.1004
 136332863.447 6                  25943280.204
        38.800
 115661390.206 6  90125798.06245  22009633.957    22009633.5514   22009634.4894
        40.000          35.7004
 121612287.902 6  94762831.27843  23142050.794    23142050.4814   23142046.9304
        39.500          21.8004
 110745800.899 4  86135639.670 7  20702764.974    20702764.601    20702763.357
        25.800          42.800
 113553562.650 7  88319382.256 6  21205305.042    21205302.069    21205307.833
        46.500          41.900
                  96701858.038 4                                  23275010.562
                        29.200
 104876164.582 8  81570370.198 7  19591730.578    19591730.714    19591735.185
        50.900          47.700
 122465015.551 8                  23304319.846
        48.900
 102829013.548 8  79978113.615 7  19263335.242    19263335.092    19263341.909
        48.500          47.900
 200878503.402 5                  38225909.019
        35.000
 114283559.287 7  88887255.640 7  21356627.583    21356625.766    21356632.269
        42.400          44.500
                  91364664.829 5                                  22013610.594
                        34.000
 198898533.143 7                  37849138.240
        43.800
 202019708.576 7                  38443077.304
        44.500
 122129844.182 7                  23240517.962
        46.800
 136470286.835 6                  25969426.340
        39.600
 130680001.010 7                  24867564.789
        45.700
 25  1  1  9 18 15.0000000  0 23G18G08G23G15E29G32G24E33G10G27R19R04
                                R03E26R18S35R17R02S31S33E07E08E13
 110484443.874 7  86091794.25145  21024488.964    21024488.7684   21024490.1394
        46.300          30.3004
 128461890.926 5 100100177.2554   24445464.205    24445464.1884   24445466.6464
        32.000           5.9004
 107257758.607 7  83577507.68545  20410472.461    20410472.0724   20410471.3564
        46.400          31.1004
 118857523.856 5  92616265.60943  22617836.139    22617834.6284   22617832.2144
        33.900          19.3004
 132508453.966 6                  25215512.315
        41.400
 120917698.729 6  94221542.18544  23009851.172    23009850.6584   23009851.6334
        40.100          28.2004
 112180517.667 6  87413419.50546  21347240.731    21347240.3834   21347241.1784
        41.100          38.5004
 136295622.431 6                  25936193.993
        38.300
 115633685.925 6  90104210.35945  22004360.910    22004360.4414   22004362.0484
        39.700          35.1004
 121621504.485 5  94770013.09043  23143806.534    23143806.2084   23143804.0004
        34.100          21.3004
                  86103830.094 7                                  20695117.790
                        44.000
 113520808.733 7  88293907.024 6  21199188.399    21199185.314    21199188.744
        45.500          37.800
 104885479.806 8  81577615.369 7  19593470.956    19593471.749    19593475.330
        52.000          47.100
 122458945.757 8                  23303164.665
        49.500
 102840351.364 7  79986931.975 7  19265456.456    19265456.541    19265466.323
        45.500          47.900
 200878502.438 5                  38225908.648
        33.700
 114343304.603 7  88933724.154 7  21367791.877    21367792.874    21367797.137
        43.100          44.500
 117514944.758 5  91400348.625 4  22022256.992                    22022202.486
        31.100          29.400
 198898529.753 7                  37849137.552
        44.400
 202019686.135 7                  38443074.572
        45.300
 122133578.331 7                  23241228.668
        47.800
 136506412.972 6                  25976301.665
        40.100
 130712269.081 7                  24873704.629
        44.400
 25  1  1  9 18 30.0000000  0 23G18G08G23G15E29G32G24E33G10G27R19R04
                                R12R03E26R18S35R17S31S33E07E08E13
 110515501.631 7  86115995.07445  21030399.405    21030399.2094   21030401.1064
        44.500          30.3004
 128445696.974 4 100087558.6184   24442377.403    24442377.5504   24442385.2334
        26.800           3.6004
 107257925.228 7  83577637.54944  20410503.101    20410502.6904   20410502.7294
        45.700          29.5004
 118906816.607 6  92654675.50043  22627213.643    22627212.2174   22627213.6244
        37.100          20.4004
 132475522.654 6                  25209245.539
        40.500
 120876577.488 6  94189499.72544  23002025.896    23002025.3334   23002025.3684
        40.300          28.6004
 112173494.030 6  87407946.59146  21345903.864    21345903.4894   21345905.8934
        40.400          37.5004
 136258412.946 6                  25929113.799
        38.600
 115606009.754 7  90082644.55146  21999095.067    21999094.5944   21999094.6824
        44.400          37.4004
 121630858.915 6  94777302.25243  23145579.013    23145578.7184   23145584.5294
        36.400          18.9004
                  86072136.282 7                                  20687500.412
                        44.400
 113488142.515 7  88268500.064 5  21193087.858    21193085.761    21193087.108
        46.800          33.700
 124285444.421 5                  23266496.359    23266496.151
        34.400
 104894888.463 8  81584933.241 7  19595227.977    19595229.074    19595232.029
        51.400          45.900
 122452962.502 8                  23302025.992
        50.100
 102851892.325 7  79995908.265 7  19267621.390    19267620.999    19267627.382
        47.800          46.800
 200878503.849 5                  38225901.605
        32.400
 114403147.342 6  88980268.501 7  21378978.497    21378980.807    21378979.386
        39.800          43.800
 198898526.608 7                  37849135.008
        43.700
 202019664.629 7                  38443071.316
        44.800
 122137393.156 8                  23241954.515
        48.400
 136542566.812 6                  25983181.943
        39.200
 130744604.346 6                  24879857.454
        41.200
 25  1  1  9 18 45.0000000  0 23G18G08G23G15E29G32G24E33G10G27R19R04
                                R12R03E26R18S35R17S31S33E07E08E13
 110546677.566 7  86140288.00045  21036333.924    21036333.6834   21036334.6274
        43.900          31.7004


 107258151.660 7  83577814.03344  20410545.919    20410545.4994   20410544.5434
        43.700          28.1004
 118956142.983 5  92693111.61343  22636599.261    22636597.8444   22636599.6814
        35.700          19.9004
 132442647.233 5                  25202986.895
        35.700
 120835520.721 6  94157507.50544  22994213.492    22994212.8664   22994210.7164
        37.000          27.9004
 112166633.011 6  87402600.38146  21344597.837    21344597.4484   21344601.2444
        38.700          36.2004
 136221233.216 6                  25922037.407
        40.300
 115578359.789 7  90061099.15146  21993832.116    21993831.6164   21993833.1074
        45.900          40.3004
 121640348.977 6  94784697.19543  23147388.296    23147387.9124   23147388.4494
        39.900          19.6004
                  86040557.515 7                                  20679909.498
                        43.700
 113455562.135 8  88243159.689 5  21187004.490    21187005.334    21187000.939
        51.200          32.900
 124262927.421 4  96648949.605 5  23262282.939    23262277.130    23262282.907
        29.800          32.300
 104904387.998 8  81592321.778 7  19597004.025    19597004.689    19597006.669
        52.000          44.700
 122447063.981 8                  23300903.288
        49.800
 102863634.359 8  80005040.989 7  19269823.167    19269822.441    19269826.280
        49.600          45.700
 200878504.013 5                  38225904.583
        32.700
                  89026886.665 7                  21390229.433    21390179.473
                        43.400
 198898523.892 7                  37849132.803
        43.800
 202019643.285 7                  38443067.082
        44.900
 122141286.616 8                  23242694.989
        48.500
 136578746.205 6                  25990067.943
        37.600
 130777004.809 6                  24886023.682
        41.800
 25  1  1  9 19  0.0000000  0 22G18G08G23G15E29G32G24E33G10G27R04R12
                                R03E26R18S35R17S31S33E07E08E13
 110577973.840 8  86164674.70445  21042290.252    21042289.9894   21042290.0194
        48.300          34.6004
 128413637.487 5 100062606.64343  24436304.656    24436304.7944   24436309.8004
        34.900          19.3004
 107258440.224 7  83578038.91944  20410602.522    20410602.0894   20410598.6504
        44.600          28.9004
 119005505.115 5  92731575.57943  22645992.114    22645990.7424   22645992.6594
        35.800          18.1004
 132409830.165 4                  25196741.705
        29.200
 120794530.890 5  94125567.45344  22986409.738    22986409.0504   22986409.6444
        33.300          28.1004
 112159937.017 6  87397382.74745  21343324.544    21343324.1604   21343326.5954
        41.100          35.7004
 136184085.707 6                  25914967.980
        40.800
 115550738.442 7  90039576.04447  21988577.180    21988576.6894   21988578.3294
        45.900          42.9004
 121649976.820 6  94792199.50143  23149221.529    23149221.0114   23149219.8964
        40.700          23.1004
 113423069.650 8  88217887.846 6  21180935.699    21180937.414    21180937.821
        50.600          38.300
 124240563.487 4  96631555.793 5  23258094.125    23258093.628    23258096.208
        27.100          30.700
 104913980.831 8  81599782.902 7  19598795.261    19598796.513    19598798.466
        51.300          44.200
 122441252.611 8                  23299797.513
        49.900
 102875579.561 8  80014331.712 7  19272059.474    19272059.536    19272064.891
        49.100          45.700
 200878507.144 5                  38225915.767
        33.400
                  89073580.151 7                                  21401399.896
                        44.200
 198898523.450 7                  37849132.843
        44.300
 202019623.644 7                  38443062.431
        44.700
 122145260.878 8                  23243451.104
        48.600
 136614953.315 5                  25996956.382
        35.100
 130809472.696 6                  24892202.119
        41.800
 25  1  1  9 19 15.0000000  0 23G18G08G23G15E29G32G24E33G10G27R19R04
                                R12R03E26R18S35R17S31S33E07E08E13
 110609386.528 8  86189152.13146  21048267.142    21048266.8794   21048267.0274
        50.600          37.4004
 128397826.163 5 100050286.16541  24433302.460    24433302.8844   24433300.8054
        30.300          10.8004
 107258787.243 7  83578309.33845  20410668.317    20410667.8754   20410665.1614
        45.400          31.0004
 119054898.849 5  92770064.16942  22655392.645    22655391.3004   22655390.2664
        33.000          15.1004
 132377067.524 5                  25190508.326
        35.200
 120753604.330 6  94093676.73145  22978624.424    22978623.8484   22978622.5374
        41.600          31.0004
 112153402.398 7  87392290.86046  21342079.932    21342079.5754   21342083.3404
        42.300          37.2004
 136146966.849 6                  25907904.882
        39.300
 115523141.955 7  90018072.31247  21983325.678    21983325.2364   21983328.6444
        47.300          44.7004
 121659738.512 6  94799806.05044  23151079.002    23151078.4754   23151078.3654
        41.500          24.4004
                  85977748.210 6                                  20664811.230
                        40.200
 113390661.173 7  88192681.348 7  21174882.899    21174882.627    21174889.433
        45.500          42.000


 104923662.350 8  81607312.942 7  19600604.650    19600605.673    19600606.920
        52.000          44.400
 122435524.751 8                  23298707.610
        50.200
 102887724.183 8  80023777.534 7  19274334.759    19274334.595    19274339.637
        48.600          45.600
 200878507.334 5                  38225906.488
        31.600
 114583246.999 6  89120345.604 7  21412623.775    21412628.993    21412636.230
        39.000          44.000
 198898520.399 7                  37849128.506
        43.500
 202019603.000 7                  38443059.265
        44.800
 122149312.082 7                  23244221.985
        47.900
 136651184.187 5                  26003851.002
        32.700
 130842004.195 6                  24898393.302
        39.800
 25  1  1  9 19 30.0000000  0 24G18G08G23G15E29G32G24E33G10G27R19R04
                                R12R03E26R18S35R17R02S31S33E07E08E13
 110640916.126 8  86213720.66046  21054266.709    21054266.4464   21054266.6204
        50.700          39.4004
 128382141.269 6 100038064.51541  24430309.302    24430309.6154   24430319.7944
        36.200          11.4004
 107259193.368 7  83578625.79545  20410745.493    20410745.0734   20410743.4594
        46.600          34.1004
 119104324.701 5  92808577.78041  22664800.034    22664798.9084   22664793.9104
        33.600          11.3004
 132344360.242 6                  25184284.758
        39.700
 120712741.751 6  94061835.83345  22970849.994    22970849.3774   22970848.2364
        41.700          31.7004
 112147029.911 7  87387325.32346  21340867.232    21340866.8524   21340871.8894
        42.600          38.0004
 136109877.520 6                  25900846.925
        38.200
 115495571.050 7  89996588.50747  21978079.480    21978079.0514   21978083.0914
        47.100          44.6004
 121669634.556 6  94807517.23943  23152962.214    23152961.7184   23152959.3794
        40.700          20.5004
                  85946516.239 6                                  20657305.589
                        40.200
 113358337.675 7  88167540.784 7  21168847.386    21168847.810    21168852.389
        44.900          43.000
                                                  23249819.033

 104933433.665 8  81614912.843 7  19602429.679    19602430.873    19602431.834
        51.700          44.900
 122429881.176 8                  23297633.500
        50.000
 102900068.865 8  80033378.933 7  19276647.775    19276647.555    19276651.273
        48.300          44.800
 200878506.107 5                  38225907.771
        33.500
 114643466.568 5  89167183.201 7  21423879.323    21423877.959    21423890.418
        33.000          43.300
 117744368.228 6                  22065233.309    22065226.460
        40.800
 198898516.420 7                  37849128.483
        43.300
 202019579.317 7                  38443055.827
        45.200
 122153440.745 7                  23245007.501
        47.800
 136687439.354 5                  26010752.296
        31.300
 130874599.761 6                  24904596.154
        40.600
 25  1  1  9 19 45.0000000  0 24G18G08G23G15E29G32G24E33G10G27R19R04
                                R12R03E26R18S35R17R02S31S33E07E08E13
 110672565.059 8  86238382.17246  21060289.318    21060289.0554   21060289.7714
        49.400          39.7004
 128366586.088 6 100025943.55942  24427337.235    24427337.7404   24427363.3224
        37.400          15.6004
 107259661.280 7  83578990.39646  20410833.461    20410833.0594   20410833.6204
        47.600          36.3004
 119153784.907 5  92847118.32141  22674210.751    22674209.6344   22674204.2964
        35.800           6.5004
 132311710.843 7                  25178072.833
        42.300
 120671945.926 6  94030046.91044  22963083.228    22963082.6024   22963086.2604
        37.300          29.4004
 112140822.228 6  87382488.22346  21339685.553    21339685.1114   21339690.4724
        41.200          37.1004
 136072820.511 6                  25893794.764
        37.400
 115468028.398 7  89975126.71547  21972838.365    21972837.9504   21972841.0354
        46.000          42.6004
 121679667.296 6  94815334.89942  23154870.454    23154869.9854   23154865.4494
        39.000          17.1004
                  85915401.860 6                                  20649825.651
                        38.800
 113326101.477 7  88142468.171 7  21162824.931    21162825.858    21162832.002
        43.600          42.600
 124174713.209 5                  23245705.999    23245715.349
        30.500
 104943296.779 8  81622584.197 7  19604271.216    19604272.632    19604275.081
        51.000          45.800
 122424324.554 8                  23296576.430
        49.700
 102912616.048 7  80043137.857 7  19278997.656    19278997.938    19279002.739
        47.600          45.900
 200878507.330 5                  38225908.813
        33.100
 114703781.233 7  89214094.554 6  21435165.142    21435165.398    21435160.146
        42.400          40.400
 117790310.243 6                  22073842.632    22073843.656
        38.500
 198898514.328 7                  37849132.083
        43.100
 202019558.992 7                  38443051.113
        44.600
 122157649.326 8                  23245808.299
        48.100
 136723721.114 5                  26017658.268
        31.200
 130907261.953 7                  24910811.445
        42.200
 25  1  1  9 20  0.0000000  0 23G18G08G23G15E29G32G24E33G10G27R19R04
                                R03E26R18S35R17R02S31S33E07E08E13
 110704333.347 7  86263136.69346  21066334.570    21066334.3294   21066335.5924
        47.300          39.0004
 128351160.520 6 100013923.67643  24424405.809    24424406.2694   24424430.2874
        38.100          19.1004
 107260191.207 7  83579403.33046  20410934.285    20410933.8834   20410935.3774
        46.600          37.7004
 119203279.383 6  92885685.6904   22683624.295    22683623.0524   22683621.5824
        36.000           4.1004
 132279119.613 7                  25171872.630
        43.500
 120631217.175 5  93998310.21944  22955330.740    22955330.2354   22955336.7774
        35.700          26.6004
 112134779.633 6  87377779.75445  21338535.682    21338535.1594   21338539.8214
        39.300          35.6004
 136035796.163 5                  25886749.258
        35.600
 115440514.144 7  89953687.03446  21967602.901    21967602.4774   21967602.9274
        45.300          40.9004
 121689836.716 5  94823259.15542  23156805.261    23156804.8324   23156801.9664
        34.700          14.9004
                  85884405.683 6                                  20642373.375
                        36.400
 113293952.886 7  88117463.727 7  21156823.608    21156823.348    21156827.709
        44.400          42.500
 104953251.839 8  81630327.072 7  19606131.168    19606132.031    19606135.750
        50.700          46.700
 122418855.222 8                  23295535.603
        49.300
 102925366.056 7  80053054.563 7  19281384.055    19281384.291    19281392.025
        45.000          46.800
 200878509.499 5                  38225905.227
        32.800
 114764190.316 7  89261079.429 6  21446447.841    21446449.069    21446446.919
        45.900          36.000
 117836263.344 4                  22082432.446    22082435.244
        28.100
 198898513.166 7                  37849130.133
        43.000
 202019539.377 7                  38443048.940
        44.800
 122161937.907 7                  23246624.097
        47.400
 136760029.650 4                  26024567.839
        28.400
 130939990.923 7                  24917039.214
        43.100
 25  1  1  9 20 15.0000000  0 23G18G08G23G15E29G32G24E33G10G27R04R12
                                R03E26R18S35R17R02S31S33E07E08E13
 110736219.367 7  86287982.95746  21072402.333    21072402.1014   21072403.3254
        46.700          37.8004
 128335863.123 6 100002003.65243  24421493.933    24421494.3224   24421523.6434
        38.400          19.5004
 107260781.701 7  83579863.46546  20411047.117    20411046.7204   20411048.2544
        47.500          38.6004
 119252806.212 5  92924277.98942  22693053.527    22693052.4054   22693045.4514
        35.500          12.1004
 132246585.130 6                  25165680.664
        41.600
 120590554.034 6  93966624.65544  22947591.953    22947591.0904   22947599.9134
        36.000          26.9004
 112128900.694 7  87373198.82545  21337418.199    21337417.6814   21337420.6814
        42.900          35.9004
 135998803.171 6                  25879709.656
        36.700
 115413026.911 8  89932268.42846  21962371.251    21962370.7864   21962370.7484
        48.200          40.9004
 121700141.189 5  94831288.61442  23158767.769    23158767.3804   23158765.0484
        35.500          14.4004
 113261890.328 7  88092526.170 7  21150836.911    21150837.022    21150840.179
        44.700          42.000


 104963296.791 8  81638139.820 7  19608008.373    19608008.507    19608012.705
        50.900          47.500
 122413471.788 8                  23294511.427
        49.100
 102938317.097 7  80063127.586 7  19283810.822    19283811.153    19283817.787
        45.500          47.000
 200878511.549 5                  38225913.115
        33.600
 114824692.051 7  89308136.262 4  21457750.937    21457751.112    21457746.200
        44.500          29.300
 117882226.047 5  91686118.774 5  22091059.220    22091057.861    22091064.324
        35.600          33.800
 198898512.412 7                  37849129.485
        43.900
 202019519.928 7                  38443043.534
        44.700
 122166304.876 7                  23247455.865
        46.600
 136796363.050 4                  26031479.395
        28.500
 130972785.014 7                  24923279.769
        44.600
 25  1  1  9 20 30.0000000  0 23G18G08G23G15E29G32G24E33G10G27R04R12
                                R03E26R18S35R17R02S31S33E07E08E13
 110768224.101 7  86312921.73046  21078491.964    21078491.7414   21078493.3314
        46.200          36.8004
 128320695.169 6  99990184.40242  24418607.498    24418607.8734   24418639.5134
        39.400          15.8004
 107261433.940 8  83580371.70646  20411170.803    20411170.4064   20411172.1364
        48.600          39.2004
 119302366.485 5  92962896.43742  22702478.179    22702477.2054   22702476.1924
        31.200          12.0004
 132214108.546 6                  25159503.155
        38.800
 120549957.793 6  93934991.22445  22939869.785    22939868.7354   22939875.2304
        37.900          31.2004
 112123186.694 7  87368746.40046  21336329.691    21336329.1774   21336333.1024
        44.300          37.4004
 135961842.834 6                  25872676.325
        39.000
 115385567.857 7  89910871.79247  21957145.276    21957144.7764   21957145.3894
        47.200          42.1004
 121710581.586 5  94839424.03242  23160754.277    23160753.9154   23160752.9664
        33.800          14.0004
 113229915.048 7  88067656.525 6  21144868.172    21144869.302    21144868.846
        44.700          41.600
                  96529702.988 5                                  23233580.613
                        33.300
 104973432.789 8  81646023.401 7  19609901.247    19609901.524    19609906.267
        51.400          47.800
 122408175.521 8                  23293503.430
        48.900
 102951470.326 7  80073357.865 7  19286276.848    19286277.776    19286281.695
        46.900          46.700
 200878514.710 5                  38225918.673
        32.800
 114885286.773 7                  21469075.611    21469072.062
        42.000
 117928199.077 6  91721875.612 5  22099672.878    22099672.607    22099681.127
        38.900          34.700
 198898512.617 7                  37849128.680
        43.400
 202019501.389 7                  38443038.763
        44.500
 122170751.228 7                  23248302.427
        47.900
 136832722.315 5                  26038405.121
        31.000
 131005645.291 7                  24929532.657
        45.400
 25  1  1  9 20 45.0000000  0 23G18G08G23E29G32G24E33G10G27R19R04R12
                                R03E26R18S35R17R02S31S33E07E08E13
 110800342.250 7  86337948.86546  21084604.017    21084603.8344   21084604.5724
        47.500          36.8004
 128305651.689 5  99978462.27641  24415743.148    24415743.5454   24415777.8274
        33.500           7.5004
 107262142.888 8  83580924.13746  20411305.579    20411305.1824   20411306.0254
        48.900          39.5004
 132181684.909 5                  25153333.951
        34.800
 120509423.356 6  93903406.00145  22932157.613    22932156.5584   22932161.9274
        40.500          32.8004
 112117632.622 7  87364418.58346  21335274.504    21335274.0314   21335275.4564
        44.500          37.3004
 135924910.263 6                  25865648.656
        41.500
 115358131.942 7  89889493.18947  21951925.485    21951925.0074   21951925.6424
        47.400          42.9004
 121721152.727 6  94847661.38942  23162765.899    23162765.4884   23162765.1344
        38.500          12.6004
                  85792121.532 5                                  20620190.469
                        34.400
 113198021.574 7  88042850.519 7  21138910.736    21138911.070    21138912.936
        44.700          42.500
 124088386.683 6  96513138.033 5  23229588.213    23229586.958    23229592.413
        37.000          30.900
 104983654.257 8  81653973.441 7  19611811.211    19611811.197    19611815.596
        51.500          47.600
 122402961.402 8                  23292511.371
        48.900
 102964820.399 7  80083741.272 7  19288775.430    19288776.147    19288782.133
        45.400          46.500
 200878514.083 5                  38225909.296
        33.900
 114945969.128 6  89402462.764 6  21480412.113    21480409.879    21480421.820
        39.300          36.800
 117974176.957 6  91757636.239 5  22108289.184    22108287.510    22108295.744
        38.900          32.800
 198898508.734 7                  37849128.814
        42.900
 202019479.515 7                  38443034.922
        44.700
 122175271.756 8                  23249162.538
        49.500
 136869102.407 3                  26045315.566
        23.400
 131038566.573 7                  24935797.389
        46.100
 25  1  1  9 21  0.0000000  0 23G18G08G23E29G32G24E33G10G27R19R04R12
                                R03E26R18S35R17R02S31S33E07E08E13
 110832581.132 8  86363070.07446  21090738.421    21090738.2434   21090738.7444
        48.600          36.9004
 128290740.230 5  99966843.1644   24412905.043    24412905.1954   24412941.4684
        32.000           4.7004
 107262916.030 8  83581526.58346  20411453.225    20411452.8414   20411452.3904
        48.400          39.5004
 132149321.397 4                  25147185.229
        26.100
 120468958.367 7  93871874.91845  22924456.869    22924455.8054   22924458.4034
        43.200          32.3004
 112112246.017 7  87360221.22245  21334248.359    21334247.9084   21334248.8484
        42.500          35.5004
 135888013.093 6                  25858627.588
        41.600
 115330726.696 7  89868138.50447  21946710.120    21946709.6424   21946711.5204
        47.500          43.1004
 121731861.882 6  94856006.26842  23164803.847    23164803.4414   23164803.7024
        40.700          16.0004
                  85761597.668 6                                  20612854.924
                        36.200
 113166217.925 7  88018114.355 7  21132972.297    21132974.786    21132975.457
        47.400          44.400
 124067246.362 6                  23225631.543    23225632.304
        38.500
 104993968.560 8  81661995.704 8  19613738.003    19613737.509    19613742.660
        51.200          48.200
 122397837.021 8                  23291536.038
        49.200
 102978374.939 7  80094283.705 7  19291315.437    19291316.248    19291320.892
        46.400          45.700
 200878516.784 5                  38225912.386
        30.200
 115006746.127 6  89449733.796 6  21491766.195    21491767.622    21491781.025
        37.500          38.700
 118020167.026 6  91793406.413 4  22116904.181    22116905.681    22116912.239
        40.000          27.400
 198898509.111 7                  37849132.119
        42.700
 202019461.174 7                  38443037.623
        46.100
 122179873.777 8                  23250037.881
        49.600
 136905510.291 4                  26052245.013
        28.000
 131071556.214 7                  24942075.513
        45.700
 25  1  1  9 21 15.0000000  0 24G18G08G23G15E29G32G24E33G10G27R19R04
                                R12R03E26R18S35R17R02S31S33E07E08E13
 110864933.915 7  86388280.03946  21096894.346    21096894.1634   21096895.3144
        44.800          36.0004
 128275954.015 5  99955321.3184   24410091.259    24410091.2764   24410129.0994
        30.500           4.1004
 107263746.736 7  83582173.92246  20411611.342    20411610.9624   20411610.4044
        47.500          38.6004
 119451140.452 5  93078841.45341  22730811.649    22730811.0684   22730803.9354
        34.200          11.8004


 120428556.283 7  93840392.84345  22916768.914    22916767.8824   22916767.5344
        45.900          33.9004
 112107020.204 7  87356149.13445  21333253.892    21333253.4234   21333254.8024
        42.800          34.2004
 135851144.825 7                  25851611.973
        42.600
 115303345.418 8  89846802.47647  21941498.689    21941498.1984   21941500.9884
        49.400          42.9004
 121742702.198 7  94864453.46644  23166867.918    23166867.4984   23166866.0454
        42.900          25.8004
                  85731190.191 6                                  20605547.140
                        36.200
 113134496.837 7  87993442.471 7  21127042.952    21127045.839    21127052.131
        45.500          44.700
 124046257.315 6                  23221704.509    23221706.922
        37.500
 105004368.601 8  81670084.610 7  19615681.281    19615681.959    19615685.401
        52.600          47.600
 122392795.774 8                  23290576.543
        49.200
 102992126.820 7  80104979.641 7  19293892.251    19293891.576    19293897.611
        45.900          46.700


 115067610.458 6  89497072.842 6  21503140.133    21503140.760    21503150.944
        39.100          37.300
 118066162.654 6                  22125527.373    22125528.660
        40.100
 198898505.651 7                  37849135.933
        42.900
 202019438.429 7                  38443028.438
        46.300
 122184550.483 7                  23250927.361
        47.800


 131104607.440 7                  24948365.046
        45.900
 25  1  1  9 21 30.0000000  0 22G18G08G23G15E29G32G24E33G10G27R04R12
                                R03E26R18S35R17S31S33E07E08E13
 110897407.235 7  86413583.92245  21103074.233    21103074.0234   21103074.7434
        43.800          34.6004
 128261299.975 6  99943990.91841  24407306.610    24407306.4904   24407344.9104
        38.000           7.6004
 107264641.911 8  83582871.43446  20411781.598    20411781.2184   20411781.0774
        48.900          38.9004
 119500827.441 5  93117558.58142  22740261.721    22740261.1004   22740260.7774
        31.800          12.8004
 132084804.569 5                  25134901.070
        31.800
 120388223.965 7  93808965.11845  22909093.517    22909092.4854   22909092.5174
        46.100          34.9004
 112101962.176 6  87352207.77845  21332290.411    21332289.9604   21332291.6464
        41.800          32.5004
 135814312.470 7                  25844602.159
        42.100
 115275995.031 8  89825490.52647  21936294.165    21936293.6784   21936296.3194
        49.000          44.1004
 121753680.218 7  94873007.71944  23168958.405    23168958.0124   23168957.5084
        42.300          29.6004
 113102865.516 8  87968840.382 7  21121139.340    21121140.547    21121145.198
        48.000          44.300
 124025426.586 5                  23217803.357    23217802.654
        32.000
 105014861.313 8  81678245.635 8  19617640.340    19617640.454    19617645.837
        51.300          48.100
 122387844.639 7                  23289633.892
        46.900
 103006083.023 7  80115834.477 7  19296505.939    19296505.960    19296511.896
        45.900          46.000


                  89544484.813 6                  21514531.503    21514543.542
                        36.400
 198898505.757 7                  37849139.493
        45.100
 202019420.758 7                  38443023.139
        46.000
 122189308.573 7                  23251833.210
        47.700


 131137726.988 7                  24954666.919
        45.100
 25  1  1  9 21 45.0000000  0 23G18G08G23G15E29G32G24E33G10G27R19R04
                                R12R03E26R18S35R17S31S33E07E08E13
 110929994.410 7  86438976.52245  21109277.124    21109276.8834   21109276.4864
        43.100          34.5004
 128246771.825 5  99932669.98341  24404538.195    24404537.5474   24404576.8694
        30.600          11.3004
 107265595.076 7  83583614.13946  20411961.463    20411961.0834   20411963.1084
        45.000          37.2004
 119550542.370 5  93156297.59143  22749726.567    22749725.7004   22749724.6354
        35.300          18.0004
 132052609.772 5                  25128754.515
        34.100
 120347955.031 7  93777586.78545  22901429.225    22901428.2244   22901430.3704
        43.900          35.3004
 112097065.473 7  87348392.18445  21331358.766    21331358.3284   21331359.3974
        43.800          32.5004
 135777509.714 7                  25837599.790
        44.900
 115248669.075 8  89804197.61247  21931094.508    21931094.0304   21931096.4714
        49.300          44.1004
 121764789.299 7  94881664.09244  23171071.986    23171071.6024   23171071.8754
        44.100          29.7004
 110148059.966 5  85670736.461 7  20591014.469    20591015.552    20591021.159
        35.300          42.300
 113071316.883 8  87944302.658 7  21115247.818    21115247.570    21115253.849
        48.800          43.400
 124004748.340 4  96448067.642 4  23213927.394    23213930.064    23213927.698
        29.100          29.300
 105025439.975 8  81686473.507 8  19619617.007    19619616.209    19619622.531
        50.200          49.200
 122382977.201 7                  23288707.781
        47.200
 103020236.790 7  80126843.015 7  19299158.216    19299158.499    19299163.926
        46.600          46.000


 115189613.746 6  89591964.258 5  21525941.337    21525941.684    21525946.403
        39.800          30.600
 198898503.093 7                  37849132.821
        43.200
 202019399.701 7                  38443022.571
        45.300
 122194141.423 8                  23252753.046
        48.300


 131170908.243 7                  24960980.937
        44.700
 25  1  1  9 22  0.0000000  0 24G18G08G23G15E29G32G24E33G10G27R19R04
                                R12R03E26R18S35R17R02S31S33E07E08E13
 110962697.725 7  86464459.63346  21115499.043    21115498.7534   21115499.9294
        45.600          36.3004
 128232371.814 5  99921449.18441  24401800.819    24401800.2474   24401835.9294
        31.800          11.9004
 107266608.670 7  83584403.97745  20412155.225    20412154.8594   20412156.2374
        44.400          35.0004


 132020471.793 5                  25122640.807
        34.600
 120307751.991 7  93746259.76645  22893780.531    22893779.5704   22893779.9074
        44.100          34.9004
 112092332.565 7  87344704.24045  21330457.653    21330457.2024   21330457.6594
        43.600          32.8004
 135740739.150 7                  25830602.185
        45.700
 115221370.006 8  89782925.67447  21925899.465    21925898.9924   21925901.0004
        49.200          43.8004
 121776031.618 6  94890424.34944  23173209.779    23173209.3904   23173210.4824
        41.400          28.7004
 110109425.923 5  85640687.799 7  20583793.716    20583793.645    20583800.016
        35.400          43.200
 113039853.773 8  87919831.413 6  21109372.323    21109373.151    21109376.576
        49.100          41.400


 105036106.454 8  81694769.653 8  19621608.811    19621609.546    19621615.251
        51.100          49.600
 122378195.942 7                  23287798.010
        47.100
 103034590.605 8  80138007.106 7  19301846.543    19301847.300    19301852.252
        48.100          45.000


 115250747.439 6                  21537366.959    21537365.982
        38.400
 118204202.900 7                  22151392.679    22151395.579
        42.200
 198898499.970 7                  37849127.808
        43.100
 202019378.060 7                  38443019.428
        44.700
 122199051.320 8                  23253687.020
        48.400


 131204153.503 7                  24967306.831
        44.200
 25  1  1  9 22 15.0000000  0 24G18G08G23G15E29G32G24E33G10G27R19R04
                                R12R03E26R18S35R17R02S31S33E07E08E13
 110995521.089 7  86490036.27746  21121745.467    21121745.1594   21121746.0704
        46.300          38.3004
 128218104.155 6  99910331.58342  24399088.112    24399087.6704   24399124.9014
        37.000          13.6004
 107267686.896 7  83585244.19245  20412359.661    20412359.2864   20412361.6374
        44.900          34.8004


 131988394.617 6                  25116539.197
        38.200
 120267619.087 7  93714987.45945  22886142.638    22886141.6864   22886143.4394
        43.300          35.5004
 112087767.668 7  87341147.22945  21329590.042    21329589.6004   21329588.6624
        44.700          34.5004
 135704005.100 7                  25823611.871
        44.800
 115194101.967 8  89761677.89347  21920710.040    21920709.5584   21920711.2574
        48.900          43.6004
 121787411.075 6  94899291.46544  23175375.157    23175374.7734   23175374.3094
        39.900          26.9004
 110070950.251 5  85610762.300 7  20576600.717    20576601.460    20576606.517
        34.900          42.400
 113008480.213 7  87895429.851 7  21103512.376    21103513.653    21103519.484
        47.900          42.000
 123963802.081 4  96416244.556 5  23206270.288                    23206273.604
        28.800          32.400
 105046864.266 8  81703136.873 8  19623618.551    19623618.324    19623624.289
        49.900          49.500
 122373505.105 8                  23286905.444
        49.100
 103049148.498 8  80149329.944 7  19304575.023    19304575.499    19304579.003
        48.600          44.000


 115311973.646 6                  21548808.685    21548806.678
        39.100
 118250234.286 7  91972375.798 5  22160022.280    22160023.575    22160033.571
        45.700          34.400
 198898500.859 7                  37849127.544
        43.600
 202019360.087 7                  38443018.757
        45.600
 122204042.232 7                  23254636.138
        47.100


 131237466.823 6                  24973646.366
        41.300
 25  1  1  9 22 30.0000000  0 24G18G08G23G15E29G32G24E33G10G27R19R04
                                R12R03E26R18S35R17R02S31S33E07E08E13
 111028457.093 8  86515700.73346  21128013.486    21128013.1964   21128013.5104
        49.500          40.2004
 128203961.810 5  99899311.64241  24396396.471    24396396.0964   24396436.0924
        31.900          11.6004
 107268822.517 7  83586129.14145  20412575.811    20412575.4544   20412577.3124
        45.900          34.7004


 131956371.029 6                  25110444.446
        41.400
 120227549.131 7  93683764.15446  22878517.502    22878516.6354   22878518.3574
        45.100          36.2004
 112083363.559 7  87337715.51146  21328752.547    21328752.1364   21328752.5134
        45.200          38.3004
 135667300.441 7                  25816627.784
        45.900
 115166857.772 7  89740448.68747  21915525.565    21915525.0654   21915526.6834
        46.800          43.8004
 121798920.207 6  94908259.58644  23177565.786    23177565.3754   23177562.8694
        41.000          26.2004
 110032625.961 5  85580954.579 7  20569435.922    20569434.817    20569442.629
        33.600          42.200
 112977188.903 7  87871092.190 6  21097667.978    21097670.534    21097675.807
        47.800          41.600
 123943590.873 5  96400524.612 4  23202492.671                    23202484.861
        32.200          28.200
 105057706.523 8  81711569.742 8  19625644.173    19625643.746    19625649.683
        48.900          49.200
 122368897.538 8                  23286028.007
        48.500
 103063902.860 8  80160805.601 7  19307339.414    19307339.042    19307342.788
        48.600          43.500


 115373284.298 7  89734925.746 5  21560269.134    21560270.519    21560285.674
        42.500          33.300
 118296269.473 7  92008180.989 5  22168649.690    22168649.348    22168660.332
        45.200          34.800
 198898497.751 6                  37849126.918
        41.600
 202019338.518 7                  38443008.834
        45.200
 122209106.773 7                  23255599.979
        46.600


 131270840.825 6                  24979997.236
        40.300
 25  1  1  9 22 45.0000000  0 24G18G08G23G15E29G32G24E33G10G27R19R04
                                R12R03E26R18S35R17R02S31S33E07E08E13
 111061514.061 8  86541459.43446  21134303.842    21134303.5434   21134304.2474
        49.900          40.7004
 128189953.267 5  99888396.22541  24393731.531    24393731.2364   24393771.2964
        34.800           6.4004
 107270024.106 7  83587065.48345  20412805.089    20412804.7234   20412804.8374
        45.500          34.2004


 131924409.662 7                  25104363.492
        42.400
 120187550.753 7  93652596.64146  22870906.844    22870905.9864   22870907.3784
        44.800          37.5004
 112079128.845 7  87334415.78046  21327946.698    21327946.3094   21327948.4844
        47.200          40.3004
 135630633.912 7                  25809650.566
        45.400
 115139645.979 7  89719244.73047  21910348.385    21910347.8674   21910348.3794
        47.100          44.0004
 121810567.303 5  94917335.25644  23179781.800    23179781.3534   23179780.3964
        35.800          28.4004
 109994462.355 5  85551271.786 7  20562303.851    20562300.648    20562308.249
        31.900          42.000
 112945988.324 7  87846825.050 7  21091842.345    21091843.796    21091849.864
        47.400          42.100
                  96384930.203 4                  23198736.935    23198734.457
                        29.800
 105068641.409 8  81720074.654 8  19627685.815    19627686.235    19627691.856
        49.200          48.600
 122364381.878 8                  23285169.006
        48.600
 103078862.330 7  80172440.741 7  19310141.023    19310140.380    19310144.939
        46.400          43.300


 115434687.442 6  89782683.782 6  21571740.180    21571740.687    21571758.664
        41.400          36.400
 118342317.081 6  92043995.897 5  22177275.938    22177276.449    22177287.197
        38.900          34.700
 198898499.775 7                  37849129.829
        42.800
 202019322.009 7                  38443006.956
        45.700
 122214253.342 7                  23256579.644
        45.400
 137161021.559 5                  26100875.999
        33.100
 131304283.886 6                  24986361.811
        41.000
 25  1  1  9 23  0.0000000  0 24G18G08G23G15E29G32G24E33G10G27R19R04
                                R12R03E26R18S35R17R02S31S33E07E08E13
 111094684.672 8  86567306.68247  21140616.108    21140615.8094   21140616.8144
        51.400          42.3004
 128176071.488 5  99877579.0714   24391087.958    24391087.6544   24391129.6404
        33.200           3.8004
 107271284.553 7  83588047.71345  20413045.191    20413044.8074   20413043.8954
        46.100          34.6004


 131892503.378 6                  25098291.601
        40.500
 120147616.953 6  93621479.42946  22863307.374    22863306.5834   22863308.7734
        41.800          36.9004
 112075056.482 7  87331242.54547  21327171.436    21327171.0474   21327174.5984
        47.600          42.0004
 135593998.605 7                  25802678.746
        43.000
 115112459.498 8  89698060.49347  21905175.570    21905175.0474   21905175.5754
        48.500          46.2004
 121822345.110 6  94926512.74144  23182022.597    23182022.2004   23182025.1774
        36.400          29.5004
 109956452.307 5  85521708.361 6  20555197.098    20555198.164    20555203.485
        35.600          41.600
 112914871.221 7  87822622.867 6  21086032.894    21086033.423    21086036.290
        46.200          39.300
 123903645.324 5                  23195011.112    23195010.271
        33.600
 105079661.381 8  81728645.729 7  19629745.609    19629745.355    19629749.468
        49.500          47.100
 122359951.088 8                  23284326.074
        49.000
 103094019.501 8  80184229.632 7  19312980.851    19312981.162    19312985.837
        48.800          44.400


 115496175.512 6  89830507.986 6  21583233.406    21583231.934    21583240.910
        40.200          37.100
 118388369.353 6  92079814.416 6  22185909.423    22185908.273    22185917.732
        39.200          36.300
 198898498.905 7                  37849133.255
        43.900
 202019303.441 7                  38443002.096
        45.000
 122219474.678 7                  23257572.923
        45.100
 137197618.065 5                  26107839.063
        32.100
 131337788.837 7                  24992737.771
        43.700
 25  1  1  9 23 15.0000000  0 24G18G08G23G15E29G32G24E33G10G27R19R04
                                R12R03E26R18S35R17R02S31S33E07E08E13
 111127966.571 8  86593240.63547  21146949.451    21146949.1564   21146950.1884
        52.200          42.7004
 128162314.299 5  99866859.2664   24388470.159    24388470.0124   24388511.3084
        31.400           1.1004
 107272601.721 7  83589074.12045  20413296.388    20413296.0174   20413294.7934
        47.500          35.9004


 131860649.986 6                  25092230.564
        39.900
 120107745.569 6  93590410.86045  22855718.869    22855718.1634   22855721.0514
        38.700          35.4004
 112071144.293 7  87328194.11047  21326426.989    21326426.6004   21326430.2754
        47.700          42.9004
 135557392.456 6                  25795712.853
        40.300
 115085296.203 8  89676894.32348  21900005.817    21900005.2814   21900007.3904
        50.100          48.1004
 121834251.175 6  94935790.20945  23184289.584    23184289.1334   23184293.4704
        39.300          30.2004
 109918594.612 6  85492263.495 6  20548120.969    20548123.614    20548125.246
        36.400          41.800
 112883835.474 7  87798483.972 6  21080239.709    21080238.960    21080240.571
        45.900          39.700
 123883902.567 6                  23191314.047    23191315.499
        36.000
 105090764.005 8  81737281.117 7  19631818.894    19631818.873    19631824.019
        49.700          46.600
 122355603.041 8                  23283498.693
        48.800
 103109372.164 8  80196170.592 7  19315856.516    19315857.220    19315861.533
        49.300          44.100


 115557745.670 6  89878395.894 6  21594737.771    21594735.796    21594745.822
        38.700          39.500
 118434423.922 5  92115634.738 6  22194539.373    22194534.010    22194549.158
        30.700          36.100
 198898494.370 7                  37849130.844
        43.500
 202019279.702 7                  38442996.680
        44.400
 122224768.417 7                  23258580.561
        45.200
 137234232.952 5                  26114804.222
        33.100
 131371353.366 7                  24999124.207
        44.500
 25  1  1  9 23 30.0000000  0 24G18G08G23G15E29G32G24E33G10G27R19R04
                                R12R03E26R18S35R17R02S31S33E07E08E13
 111161365.606 8  86619265.85747  21153304.960    21153304.6744   21153305.6254
        51.900          42.7004
 128148687.803 4                  24385873.007
        28.000
 107273981.714 8  83590149.47646  20413559.170    20413558.8044   20413558.1404
        48.100          36.9004


 131828855.651 6                  25086180.649
        38.700
 120067942.729 7  93559395.66846  22848146.729    22848146.0194   22848146.3014
        43.200          36.1004
 112067398.404 7  87325275.27147  21325714.320    21325713.9184   21325717.0244
        47.700          42.8004
 135520821.660 6                  25788753.011
        38.100
 115058162.144 8  89655750.92248  21894842.331    21894841.8084   21894844.6514
        50.700          49.2004
 121846291.294 6  94945172.15645  23186580.237    23186579.7724   23186584.6674
        39.800          31.4004
 109880895.278 5  85462941.821 6  20541069.476    20541070.734    20541075.053
        33.800          40.800
 112852887.133 7  87774413.049 6  21074459.952    21074459.151    21074464.146
        42.200          40.600
 123864318.973 6                  23187647.878    23187648.563
        36.900
 105101955.027 8  81745985.254 7  19633909.162    19633909.397    19633913.859
        50.000          45.800
 122351343.881 8                  23282688.292
        49.000
 103124926.270 8  80208268.215 7  19318772.376    19318773.084    19318774.563
        50.600          42.800
 200878553.763 5                  38225914.644
        33.400
 115619403.928 6  89926352.328 6  21606260.928    21606259.623    21606268.210
        37.700          40.000
                  92151461.611 5                                  22203176.688
                        34.300
 198898490.920 7                  37849126.243
        42.800
 202019257.612 7                  38442994.597
        44.300
 122230140.492 7                  23259602.739
        46.200
 137270872.007 4                  26121773.249
        29.800
 131404983.394 7                  25005523.841
        44.900
 25  1  1  9 23 45.0000000  0 23G18G08G23G15E29G32G24E33G10G27R19R04
                                R12R03E26R18S35R17S31S33E07E08E13
 111194881.717 8  86645382.30147  21159683.054    21159682.7734   21159683.3614
        51.600          42.3004
 128135192.114 4                  24383310.851
        29.100
 107275424.667 7  83591273.87146  20413833.708    20413833.3464   20413833.5304
        47.700          37.2004
 119949486.503 5  93467139.11942  22825630.417    22825630.2074   22825623.8154
        35.300          16.3004
 131797120.468 6                  25080141.848
        40.400
 120028208.696 7  93528434.12746  22840583.504    22840582.8294   22840584.6714
        44.900          37.2004
 112063818.989 7  87322486.16347  21325032.601    21325032.1954   21325035.4284
        44.800          42.1004
 135484286.561 6                  25781800.281
        38.900
 115031057.489 8  89634630.42848  21889684.116    21889683.6024   21889687.0774
        50.700          48.3004
 121858465.413 6  94954658.52044  23188897.705    23188897.3084   23188901.2634
        40.300          29.2004
 109843354.857 5  85433743.752 6  20534052.567    20534051.785    20534057.164
        31.900          40.100
 112822025.938 6  87750410.022 6  21068690.569    21068690.754    21068697.645
        39.800          39.800
 123844894.725 5                  23184004.484    23184004.651
        34.100
 105113234.609 8  81754758.322 7  19636016.583    19636016.967    19636020.861
        50.700          44.500
 122347173.854 8                  23281894.775
        49.300
 103140681.636 8  80220522.391 7  19321723.178    19321723.658    19321725.230
        49.200          42.100
 200878554.016 5                  38225914.090
        33.400
 115681149.556 5  89974376.685 6  21617801.651    21617796.812    21617803.963
        34.800          38.100
 198898488.555 7                  37849123.806
        42.900
 202019237.561 7                  38442990.322
        44.100
 122235590.888 7                  23260640.124
        46.700
 137307535.210 4                  26128752.118
        28.300
 131438678.973 7                  25011936.220
        45.400
 25  1  1  9 24  0.0000000  0 24G18G08G23G15E29G32G24E33G10R13G27R19
                                R04R03E26R18S35R17R02S31S33E07E08E13
 111228511.870 8  86671587.59646  21166082.605    21166082.3154   21166082.9154
        50.300          41.6004
 128121824.562 5                  24380765.138
        30.300
 107276927.775 7  83592445.12446  20414120.018    20414119.6744   20414119.9154
        47.300          36.3004
 119999468.587 5  93506086.15842  22835140.488    22835139.9924   22835131.6564
        34.000          16.9004
 131765441.637 6                  25074113.887
        40.300
 119988540.634 7  93497523.96946  22833034.253    22833033.6414   22833036.1384
        44.400          37.1004
 112060403.210 7  87319824.55246  21324382.705    21324382.3124   21324384.8164
        45.400          40.9004
 135447784.472 6                  25774852.940
        39.700
 115003979.466 8  89613530.68847  21884531.469    21884530.9514   21884533.5504
        49.100          45.9004
 125981884.352 4                  23592355.587
        28.000
 121870770.416 6  94964246.76844  23191238.236    23191237.7944   23191240.2934
        41.500          24.4004
 109805971.489 5  85404667.857 6  20527064.189    20527063.082    20527069.695
        31.000          40.200
 112791249.440 7  87726472.752 6  21062950.074    21062948.233    21062951.552
        42.900          40.400
 105124599.233 8  81763597.463 7  19638139.729    19638140.500    19638143.115
        51.400          44.200
 122343090.161 8                  23281117.773
        50.000
 103156635.377 8  80232930.872 7  19324711.215    19324711.489    19324713.969
        48.100          42.300
 200878553.296 5                  38225916.938
        32.800
 115742979.073 5  90022466.415 6  21629348.046    21629346.713    21629357.643
        33.600          37.800
 118572578.945 5  92223131.974 5  22220444.138    22220444.926    22220447.150
        33.200          34.700
 198898485.388 6                  37849120.537
        41.800
 202019216.062 7                  38442984.862
        43.500
 122241116.587 7                  23261691.725
        47.200
 137344219.463 4                  26135732.803
        28.700
 131472437.062 7                  25018360.250
        45.900
 25  1  1  9 24 15.0000000  0 24G18G08G23G15E29G32G24E33G10G27R19R04
                                R12R03E26R18S35R17R02S31S33E07E08E13
 111262261.295 8  86697885.83846  21172505.115    21172504.8294   21172505.2924
        49.600          41.1004
 128108590.602 6  99825005.75241  24378248.622    24378248.1354   24378284.4714
        36.100           7.6004
 107278496.499 7  83593667.50645  20414418.908    20414418.5734   20414418.3374
        46.900          35.7004
 120049483.318 5  93545058.63142  22844652.021    22844651.1544   22844647.8104
        33.100          15.5004
 131733824.696 6                  25068097.771
        40.100
 119948944.089 7  93466669.55345  22825500.363    22825499.7244   22825501.0794
        42.200          35.3004
 112057156.543 7  87317294.72446  21323763.984    21323763.5874   21323766.1044
        44.900          40.6004
 135411321.010 6                  25767914.116
        40.300
 114976933.501 7  89592455.92047  21879384.254    21879383.7494   21879385.6304
        47.200          44.4004
 121883211.562 6  94973941.04844  23193605.034    23193604.6054   23193601.2064
        40.100          24.1004
 109768750.777 4  85375718.439 6  20520105.736    20520103.936    20520111.591
        29.400          40.100
 112760562.647 7  87702605.379 7  21057219.563    21057218.113    21057221.449
        46.100          42.500
 123806522.564 5                  23176825.238    23176826.821
        35.600
 105136054.495 8  81772507.108 7  19640279.923    19640280.422    19640283.739
        51.400          45.500
 122339098.343 8                  23280358.091
        50.300
 103172792.837 7  80245497.865 7  19327736.220    19327737.628    19327741.463
        46.400          43.600
 200878557.368 4                  38225917.502
        28.400
                  90070625.361 6                  21640934.310    21640929.277
                        38.300
 118618665.486 6  92258977.149 5  22229080.857    22229082.111    22229082.524
        36.800          35.600
 198898486.862 7                  37849124.177
        42.200
 202019198.931 7                  38442983.203
        45.100
 122246722.870 8                  23262758.966
        48.400
 137380930.065 4                  26142717.338
        28.100
 131506263.013 7                  25024797.629
        46.100
 25  1  1  9 24 30.0000000  0 23G18G08G23G15E29G32G24E33G10G27R19R04
                                R03E26R18S35R17R02S31S33E07E08E13
 111296121.793 8  86724270.65746  21178947.868    21178947.5784   21178948.8954
        48.700          40.4004
 128095482.331 5  99814791.7154   24375752.944    24375752.2564   24375794.9174
        34.500           2.2004
 107280122.851 7  83594934.77545  20414727.648    20414727.3044   20414727.6174
        46.400          34.4004
 120099522.352 5  93584050.04442  22854171.262    22854169.7694   22854169.4464
        35.200          14.2004
 131702261.549 6                  25062091.651
        38.800
 119909411.120 7  93435864.70646  22817977.802    22817977.1054   22817978.6564
        42.100          36.1004
 112054071.064 7  87314890.49746  21323177.186    21323176.7934   21323178.7524
        42.200          39.6004
 135374888.342 6                  25760982.070
        41.500
 114949911.658 7  89571399.98047  21874242.619    21874242.1104   21874242.9204
        46.600          42.3004
 121895780.566 6  94983735.05044  23195998.318    23195997.8274   23195995.2914
        41.100          29.1004
 109731684.936 5  85346889.454 6  20513176.398    20513175.434    20513183.053
        30.400          40.900
 112729957.834 8  87678801.673 7  21051504.586    21051505.977    21051506.649
        50.100          43.600
 105147591.765 8  81781480.563 7  19642434.880    19642435.400    19642439.902
        52.100          46.400
 122335190.454 8                  23279614.690
        50.500
 103189145.762 7  80258216.846 7  19330799.939    19330801.258    19330806.684
        46.400          46.100
 200878556.625 5                  38225917.918
        31.100
                  90118847.075 6                  21652510.693    21652518.421
                        39.800
 118664754.012 5  92294823.822 5  22237718.859    22237719.761    22237719.128
        34.000          34.800
 198898483.229 7                  37849123.059
        42.300
 202019177.183 7                  38442975.047
        44.400
 122252401.597 8                  23263838.926
        48.300
 137417658.761 4                  26149708.581
        26.600
 131540148.693 7                  25031246.425
        46.100
 25  1  1  9 24 45.0000000  0 23G18G08G23G15E29G32G24E33G10G27R19R04
                                R03E26R18S35R17R02S31S33E07E08E13
 111330099.660 7  86750746.93846  21185413.507    21185413.2264   21185415.2024
        47.200          39.1004
 128082506.169 5  99804680.3734   24373289.913    24373288.9574   24373325.6564
        32.400           3.8004
 107281813.355 7  83596252.04645  20415048.843    20415048.4994   20415049.5434
        45.600          33.4004
 120149592.012 6  93623065.35943  22863702.659    22863701.0504   22863696.4704
        39.600          20.0004
 131670758.817 6                  25056097.501
        36.800
 119869948.283 7  93405114.49446  22810469.626    22810468.9424   22810469.5674
        44.300          37.5004
 112051153.280 6  87312616.93646  21322622.125    21322621.7324   21322623.7884
        40.900          38.5004
 135338493.119 7                  25754056.768
        42.000
 114922920.410 7  89550367.88146  21869106.096    21869105.5824   21869105.9604
        46.000          41.1004
 121908483.726 6  94993633.65445  23198415.707    23198415.1754   23198414.8374
        41.500          33.8004
 109694781.091 5  85318186.470 6  20506281.851    20506280.407    20506283.509
        32.100          40.900
 112699441.099 8  87655066.422 7  21045802.474    21045804.274    21045806.586
        49.600          43.500
 105159217.531 8  81790522.812 7  19644606.184    19644607.405    19644611.541
        52.600          46.600
 122331373.098 8                  23278888.213
        50.400
 103205700.623 8  80271092.850 7  19333902.492    19333902.967    19333908.376
        48.100          46.800
 200878558.209 5                  38225915.065
        33.000
 115928983.199 7  90167136.075 6  21664116.088    21664116.494    21664121.535
        42.700          40.400
                  92330677.005 6                                  22246360.297
                        36.100
 198898483.077 7                  37849126.109
        43.300
 202019159.422 7                  38442973.195
        44.600
 122258159.105 7                  23264934.451
        47.400
 137454411.985 4                  26156710.883
        26.900
 131574100.486 7                  25037706.775
        45.200
 25  1  1  9 25  0.0000000  0 22G18G08G23G15E29G32G24E33G10G27R19R04
                                R03E26R18S35R17S31S33E07E08E13
 111364190.077 7  86777310.93546  21191901.013    21191900.7364   21191902.5204
        47.200          37.1004
 128069657.735 5                  24370842.148
        32.500
 107283563.445 7  83597615.76345  20415381.897    20415381.5584   20415383.1084
        44.900          32.3004
 120199687.227 6  93662100.61943  22873229.969    22873228.3064   22873227.7614
        37.000          21.9004
 131639311.844 5                  25050112.794
        35.500
 119830551.063 7  93374415.40946  22802971.901    22802971.2224   22802972.1414
        45.600          37.6004
 112048398.595 6  87310470.49146  21322098.948    21322098.5424   21322100.5064
        41.800          37.1004
 135302130.893 7                  25747137.450
        42.300
 114895955.215 7  89529356.07146  21863974.604    21863974.0504   21863973.8434
        45.900          40.7004
 121921316.197 6  95003633.02345  23200856.192    23200855.6074   23200858.7174
        38.000          35.5004
 109658034.849 5  85289606.070 6  20499410.166    20499410.389    20499412.964
        34.100          39.500
 112669007.855 7  87631396.184 7  21040119.006    21040118.248    21040125.046
        45.000          44.500
 105170926.601 8  81799629.889 7  19646794.255    19646794.946    19646799.197
        52.900          47.300
 122327641.705 8                  23278178.091
        50.500
 103222452.401 7  80284122.057 7  19337039.373    19337039.323    19337045.568
        46.300          46.400


 115991150.162 6  90215488.300 6  21675732.267    21675729.343    21675738.122
        37.900          41.400
 198898480.899 7                  37849124.347
        43.000
 202019138.726 7                  38442971.693
        45.700
 122263990.625 7                  23266043.620
        46.200


 131608113.631 7                  25044179.207
        45.200
 25  1  1  9 25 15.0000000  0 23G18G08G23G15E29G32G24E33G10G27R19R04
                                R12R03E26R18S35R17S31S33E07E08E13
 111398396.111 7  86803965.01145  21198410.536    21198410.2324   21198410.6044
        45.800          34.2004
 128056940.016 4  99784749.54641  24368418.909    24368418.8784   24368452.9474
        26.600           8.8004
 107285376.406 7  83599028.47145  20415726.371    20415726.0274   20415727.8124
        44.000          30.5004
 120249811.175 6  93701158.24043  22882769.141    22882767.6444   22882764.7394
        38.000          21.5004
 131607923.971 6                  25044141.982
        37.900
 119791222.825 7  93343770.07246  22795488.326    22795487.6244   22795487.9424
        44.600          36.6004
 112045810.380 6  87308453.73945  21321605.479    21321604.9924   21321608.8194
        40.100          35.4004
 135265805.075 7                  25740224.860
        42.600
 114869019.375 7  89508367.13246  21858848.805    21858848.2424   21858847.6964
        47.900          41.8004
 121934281.017 6  95013735.50345  23203323.553    23203323.0354   23203327.7374
        37.300          33.9004
 109621449.976 5  85261151.227 6  20492570.369    20492568.570    20492576.189
        32.300          40.600
 112638661.553 6  87607793.523 7  21034452.014    21034449.335    21034457.635
        41.500          43.800
                                                  23162823.832

 105182722.089 8  81808804.183 8  19648998.757    19648998.575    19649002.862
        53.000          48.300
 122323999.680 8                  23277485.102
        50.700
 103239404.387 7  80297306.963 7  19340215.454    19340215.651    19340220.438
        46.900          45.800


 116053401.443 6  90263906.021 6  21687363.879    21687360.494    21687371.934
        37.500          41.300
 198898479.726 7                  37849128.000
        43.300
 202019118.693 7                  38442970.034
        46.900
 122269899.313 7                  23267168.033
        45.000


 131642191.281 7                  25050663.166
        44.700
 25  1  1  9 25 30.0000000  0 23G18G08G23G15E29G32G24E33G10G27R19R04
                                R03E26R18S35R17R02S31S33E07E08E13
 111432714.780 7  86830706.84545  21204941.710    21204941.3894   21204939.3344
        45.300          31.6004
 128044350.124 5  99774939.3784   24366025.469    24366025.2644   24366052.6344
        32.700           5.3004
 107287249.485 7  83600488.04745  20416083.059    20416082.7294   20416083.9324
        44.500          30.2004
 120299960.688 5  93740235.78743  22892313.408    22892312.0634   22892308.3494
        35.000          18.5004
 131576592.492 5                  25038175.181
        32.400
 119751960.851 7  93313176.35645  22788014.993    22788014.2834   22788016.9694
        42.200          35.9004
 112043385.789 7  87306564.46746  21321143.393    21321142.8844   21321146.7184
        44.100          36.1004
 135229513.076 7                  25733318.960
        44.000
 114842110.154 8  89487398.93647  21853728.614    21853728.0874   21853727.8674
        51.000          45.8004
 121947375.118 6  95023938.73745  23205814.401    23205813.9594   23205819.7144
        36.900          31.4004
 109585024.405 5  85232820.184 7  20485762.674    20485761.933    20485767.795
        34.700          42.300
 112608399.240 7  87584256.201 6  21028800.943    21028799.436    21028803.823
        43.100          40.400
 105194601.272 8  81818043.575 8  19651217.075    19651217.564    19651222.129
        53.400          48.700
 122320444.289 8                  23276808.485
        50.200
 103256553.583 7  80310645.242 7  19343427.843    19343428.937    19343433.965
        46.700          46.300


 116115733.580 6  90312386.543 6  21699011.428    21699009.679    21699019.343
        36.200          39.800
 118849111.338 5  92438257.467 4  22272271.114    22272269.761    22272293.794
        32.900          29.300
 198898476.329 7                  37849124.678
        43.100
 202019098.172 7                  38442962.687
        45.900
 122275882.140 7                  23268306.450
        44.300


 131676330.535 7                  25057159.170
        43.000
 25  1  1  9 25 45.0000000  0 23G18G08G23G15E29G32G24E33G10G27R19R04
                                R03E26R18S35R17R02S31S33E07E08E13
 111467151.668 7  86857540.76345  21211493.899    21211493.5694   21211490.5654
        45.900          30.2004


 107289188.524 7  83601999.04044  20416451.569    20416451.2344   20416452.1924
        42.600          28.2004
 120350141.293 5  93779337.47342  22901865.239    22901864.0724   22901858.4644
        30.900          12.5004
 131545323.026 5                  25032225.364
        34.500
 119712770.960 7  93282638.85246  22780558.130    22780557.4204   22780559.2644
        46.000          37.3004
 112041130.663 7  87304807.24346  21320715.017    21320714.5304   21320715.4924
        43.900          37.3004
 135193260.879 7                  25726420.337
        44.300
 114815233.360 8  89466456.00148  21848613.923    21848613.4274   21848614.9654
        51.700          48.2004
 121960603.967 5  95034246.98945  23208330.223    23208329.7584   23208335.1054
        35.000          30.1004
 109548763.843 5  85204617.527 7  20478981.173    20478983.436    20478989.392
        35.100          42.000
 112578226.790 7  87560788.821 6  21023166.228    21023167.137    21023168.304
        45.300          40.200
 105206569.263 9  81827352.050 8  19653452.802    19653454.296    19653457.524
        54.200          48.500
 122316981.386 8                  23276149.323
        50.800
 103273905.752 7  80324141.370 7  19346679.438    19346680.329    19346685.394
        46.900          47.000


 116178151.916 7  90360934.132 6  21710683.360    21710686.373    21710682.104
        42.000          36.700
 118895230.846 5                  22280913.036    22280910.304
        30.500
 198898477.808 7                  37849128.461
        43.700
 202019080.557 7                  38442960.599
        45.300
 122281944.845 7                  23269460.450
        45.700


 131710537.083 7                  25063668.408
        42.400
 25  1  1  9 26  0.0000000  0 24G18G08G23G15E29G32G24E33G10G27R19R04
                                R12R03E26R18S35R17R02S31S33E07E08E13
 111501702.712 7  86884463.63445  21218068.365    21218068.0444   21218065.4784
        46.000          30.9004


 107291189.678 6  83603558.44344  20416833.383    20416833.0034   20416831.8964
        38.100          25.9004
 120400348.985 4  93818459.9304   22911423.744    22911422.7924   22911412.2294
        29.400           3.0004
 131514111.848 7                  25026287.479
        42.000
 119673649.473 7  93252154.61946  22773112.472    22773111.7704   22773113.2214
        45.600          37.5004
 112039041.221 7  87303179.16246  21320317.914    21320317.4584   21320316.3784
        43.300          36.6004
 135157044.788 7                  25719528.480
        44.200
 114788385.173 8  89445535.35548  21843504.810    21843504.3414   21843507.5854
        50.800          48.9004
 121973963.740 6  95044657.23845  23210874.883    23210874.3604   23210875.2644
        39.000          32.4004
 109512665.253 6  85176540.864 6  20472234.541    20472235.159    20472240.390
        36.500          40.000
 112548139.991 7  87537388.001 7  21017547.467    21017548.945    21017552.836
        46.800          42.200


 105218622.239 9  81836726.610 8  19655705.939    19655706.630    19655708.910
        55.000          48.400
 122313607.233 8                  23275507.169
        49.800
 103291456.781 7  80337792.182 7  19349966.031    19349966.261    19349973.011
        45.300          46.800


 116240651.811 6  90409545.193 5  21722362.334    21722358.806    21722359.375
        37.300          32.300
 118941355.595 7  92509953.653 6  22289565.111    22289564.875    22289563.871
        42.800          36.800
 198898479.586 7                  37849124.884
        44.200
 202019063.952 7                  38442956.709
        44.800
 122288083.372 7                  23270628.541
        46.100


 131744806.934 6                  25070190.506
        41.800
 25  1  1  9 26 15.0000000  0 24G18G08G23G15E29G32G24E33G10G27R19R04
                                R12R03E26R18S35R17R02S31S33E07E08E13
 111536364.318 7  86911472.69045  21224664.052    21224663.7534   21224663.0004
        47.500          33.7004
 128007319.093 5  99746078.17542  24358982.616    24358982.2774   24359001.3954
        32.400          12.9004
 107293249.576 7  83605163.63344  20417225.371    20417225.0454   20417222.9884
        42.500          26.0004
 120450580.031 5  93857600.71641  22920983.049    22920982.0394   22920970.6314
        32.400           7.1004
 131482955.663 7                  25020356.637
        42.300
 119634592.906 7  93221720.96546  22765680.549    22765679.9064   22765679.3144
        46.200          37.5004
 112037114.041 7  87301677.49546  21319950.902    21319950.4334   21319950.5814
        44.900          37.9004
 135120861.543 7                  25712642.746
        44.500
 114761562.246 8  89424634.38748  21838400.627    21838400.1764   21838404.3814
        50.000          48.4004
 121987450.613 7  95055166.47845  23213442.438    23213441.9024   23213440.6344
        42.000          35.5004
 109476725.462 6  85148587.665 6  20465515.820    20465516.778    20465522.144
        38.400          39.000
 112518135.610 7  87514051.230 7  21011943.467    21011945.613    21011950.143
        45.300          43.100
 123659286.409 6                  23149289.293    23149288.311
        37.600
 105230756.147 9  81846164.113 8  19657972.048    19657972.576    19657975.312
        54.200          48.300
 122310318.490 8                  23274881.265
        49.300
 103309203.083 7  80351594.831 7  19353292.253    19353293.157    19353296.965
        47.700          46.200


 116303229.271 6                  21734045.716    21734049.845
        38.000
 118987481.697 7  92545829.454 6  22298207.553    22298209.277    22298209.288
        42.200          38.800
 198898477.595 7                  37849123.270
        43.600
 202019044.660 7                  38442951.732
        45.300
 122294294.187 7                  23271810.991
        46.500


 131779136.563 7                  25076723.632
        42.800
 25  1  1  9 26 30.0000000  0 24G18G08G23G15E29G32G24E33G10G27R19R04
                                R12R03E26R18S35R17R02S31S33E07E08E13
 111571140.256 8  86938570.84845  21231281.685    21231281.4044   21231282.4054
        48.000          35.3004
 127995250.542 5  99736674.02943  24356684.059    24356683.7824   24356696.4434
        35.400          19.1004
 107295372.277 6  83606817.73844  20417627.884    20417627.5044   20417627.7104
        39.900          26.6004
 120500838.040 5  93896762.83441  22930545.281    22930544.4184   22930533.8224
        34.800          10.1004
 131451858.403 6                  25014441.476
        40.000
 119595605.442 7  93191341.15046  22758261.777    22758261.1384   22758260.0834
        44.400          36.7004
 112035353.202 7  87300305.41046  21319615.273    21319614.7774   21319617.4054
        42.600          38.7004
 135084715.295 7                  25705762.907
        43.100
 114734768.568 8  89403756.20347  21833301.822    21833301.3624   21833306.0034
        48.700          47.1004
 122001068.419 6  95065777.73446  23216033.257    23216032.7394   23216032.5604
        40.400          36.3004
 109440949.145 6  85120761.697 6  20458829.455    20458828.076    20458834.148
        38.400          38.100
 112488217.228 6  87490781.493 7  21006351.208    21006352.664    21006363.799
        40.800          43.700


 105242974.952 8  81855667.640 8  19660254.651    19660254.914    19660257.650
        53.500          48.200
 122307119.211 8                  23274272.834
        48.500
 103327148.461 7  80365552.343 7  19356652.141    19356652.415    19356657.797
        45.600          44.700


 116365888.322 6                  21745767.533    21745767.186
        38.000
 119033613.106 6  92581709.437 6  22306854.911    22306856.850    22306855.108
        41.200          39.500
 198898476.164 7                  37849124.240
        43.800
 202019024.912 7                  38442948.999
        45.100
 122300581.108 7                  23273007.329
        46.700


 131813529.855 7                  25083268.185
        44.000
 25  1  1  9 26 45.0000000  0 25G18G08G23G15E29G32G24E33G10R13G27R19
                                R04R12R03E26R18S35R17R02S31S33E07E08
                                E13
 111606025.725 7  86965754.35245  21237920.894    21237920.6084   21237921.6514
        46.900          35.6004
 127983308.118 5  99727368.22143  24354411.518    24354411.4074   24354419.7844
        33.500          18.5004
 107297553.210 6  83608517.20144  20418044.609    20418044.2124   20418044.2204
        37.800          27.5004
 120551118.211 5  93935942.13141  22940109.335    22940108.6874   22940101.5924
        32.300          10.7004
 131420815.582 5                  25008533.906
        34.300
 119556682.542 7  93161011.64846  22750855.451    22750854.8254   22750854.8444
        43.900          36.8004
 112033754.085 7  87299059.33846  21319311.056    21319310.5874   21319313.2904
        46.300          40.5004
 135048601.678 7                  25698891.481
        43.100
 114707999.696 7  89382897.33847  21828208.604    21828208.1394   21828211.7424
        44.700          44.9004
 125450201.235 5                  23492796.152
        31.300
 122014812.261 6  95076487.19746  23218649.005    23218648.5004   23218648.9474
        41.800          36.0004
 109405331.795 6  85093059.349 5  20452171.145    20452171.252    20452171.171
        40.000          34.600
 112458380.427 6  87467575.073 7  21000784.742    21000782.516    21000791.285
        41.100          43.100
                                                  23142726.268

 105255273.882 8  81865233.483 8  19662551.597    19662551.933    19662555.425
        52.300          48.500
 122304004.904 8                  23273680.332
        48.900
 103345288.240 7  80379661.036 7  19360052.083    19360051.411    19360055.233
        46.200          43.400


 116428623.564 6  90555687.286 5  21757489.957    21757490.337    21757494.546
        39.600          34.300
 119079744.717 6  92617589.537 6  22315497.463    22315495.720    22315500.225
        38.000          39.000
 198898471.572 7                  37849120.774
        42.800
 202019001.893 7                  38442945.118
        45.100
 122306939.399 7                  23274217.378
        47.200


 131847982.099 7                  25089823.569
        44.200
 25  1  1  9 27  0.0000000  0 24G18G08G23G15E29G32G24E33G10R13G27R19
                                R04R03E26R18S35R17R02S31S33E07E08E13
 111641029.949 7  86993030.36445  21244582.816    21244582.5304   21244583.0454
        46.700          35.6004
 127971501.179 5  99718168.09842  24352163.059    24352162.6124   24352170.9964
        31.400          13.3004
 107299801.769 6  83610269.36745  20418472.657    20418472.2284   20418473.5274
        41.500          30.0004
 120601429.608 5  93975145.84841  22949681.622    22949680.9744   22949675.6224
        31.200           7.4004


 119517833.638 7  93130739.80046  22743462.002    22743461.3724   22743464.2894
        44.700          38.0004
 112032326.073 7  87297946.61847  21319038.556    21319038.1324   21319041.2104
        46.100          42.4004
 135012530.249 6                  25692027.311
        41.900
 114681264.941 7  89362065.04947  21823121.002    21823120.5244   21823123.5724
        44.700          43.3004
 125402222.998 5                  23483809.340
        30.800
 122028691.374 6  95087302.07645  23221290.250    23221289.7854   23221290.4514
        41.400          34.6004
 109369883.601 6  85065488.522 5  20445544.926    20445544.379    20445546.480
        39.700          34.400
 112428634.750 6  87444439.490 7  20995227.669    20995227.710    20995235.612
        39.300          42.100
 105267661.977 8  81874868.673 8  19664865.431    19664866.132    19664869.762
        51.900          49.000
 122300985.047 8                  23273105.624
        49.700
 103363631.598 7  80393928.092 7  19363488.388    19363487.894    19363491.384
        45.600          43.000


 116491443.819 6  90604547.517 6  21769224.713    21769226.007    21769235.994
        37.900          36.000
                  92653477.235 6                                  22324146.282
                        36.300
 198898472.193 7                  37849123.712
        43.400
 202018984.560 7                  38442942.829
        45.500
 122313378.334 8                  23275442.760
        48.500


 131882502.555 7                  25096393.572
        44.500
 25  1  1  9 27 15.0000000  0 25G18G08G23G15E29G32G24E33G10R13G27R19
                                R04R12R03E26R18S35R17R02S31S33E07E08
                                E13
 111676145.641 8  87020393.21045  21251264.116    21251263.8354   21251265.1974
        48.300          35.1004
 127959822.688 4  99709068.1114   24349938.226    24349937.6544   24349948.5064
        25.900           4.9004
 107302110.990 6  83612068.77145  20418911.493    20418911.1404   20418913.4454
        40.400          30.8004
 120651764.950 4  94014368.3854   22959255.152    22959254.6474   22959254.1864
        26.800           2.4004


 119479051.782 7  93100520.20146  22736082.157    22736081.5764   22736085.9204
        43.300          38.3004
 112031062.151 7  87296961.76947  21318798.862    21318798.4734   21318801.4154
        47.000          43.5004
 134976494.141 6                  25685169.344
        40.000
 114654557.373 7  89341253.96147  21818037.717    21818037.1674   21818040.2724
        47.900          43.0004
 125354304.331 5                  23474836.878
        30.600
 122042698.421 6  95098216.59545  23223955.028    23223954.5554   23223955.6544
        40.200          31.5004
 109334597.361 6  85038043.692 6  20438946.658    20438947.336    20438952.804
        39.100          37.800
 112398972.812 6  87421369.100 6  20989691.350    20989686.632    20989695.558
        36.100          41.600
 123589683.663 4                  23136257.959
        28.400
 105280131.880 8  81884567.508 8  19667194.945    19667194.823    19667199.670
        50.800          49.300
 122298052.671 8                  23272547.305
        50.200
 103382171.293 6  80408347.876 7  19366958.790    19366958.526    19366965.280
        41.700          43.200


 116554341.574 4  90653468.066 5  21780982.854    21780979.327    21780984.417
        27.900          32.600
                  92689366.746 5                                  22332790.165
                        32.200
 198898470.885 7                  37849125.157
        44.400
 202018965.821 7                  38442936.908
        45.600
 122319890.661 8                  23276682.080
        48.500


 131917084.088 7                  25102974.145
        45.400
 25  1  1  9 27 30.0000000  0 23G18G08G23E29G32G24E33G10R13G27R19R04
                                R03E26R18S35R17R02S31S33E07E08E13
 111711375.571 8  87047845.07445  21257967.617    21257967.3184   21257968.2314
        49.100          35.3004


 107304483.854 7  83613917.75045  20419361.950    20419361.6114   20419364.7574
        42.000          30.2004
 131327972.996 5                  24990879.932
        35.100
 119440339.965 7  93070355.17646  22728715.588    22728715.0794   22728719.8384
        44.600          39.0004
 112029965.306 7  87296107.12047  21318589.679    21318589.2904   21318592.8454
        47.900          44.4004
 134940496.514 5                  25678319.708
        35.900
 114627879.951 8  89320466.36947  21812960.588    21812960.0344   21812961.9264
        49.600          43.6004
 125306448.562 5                  23465885.356
        31.600
 122056836.047 6  95109232.84444  23226644.957    23226644.4844   23226645.9484
        40.000          29.8004
 109299476.972 6  85010727.952 6  20432381.742    20432380.446    20432385.516
        36.200          37.900
 112369397.617 4  87398366.248 6  20984165.712    20984163.548    20984173.855
        28.200          41.200
 105292686.486 8  81894332.221 8  19669541.286    19669539.885    19669545.309
        50.300          50.100
 122295210.816 8                  23272006.535
        50.300
 103400910.289 6  80422922.674 7  19370469.634    19370468.816    19370475.307
        39.900          43.300


                  90702450.762 5                                  21792754.658
                        30.800
 119218197.565 6                  22341438.337    22341436.783
        36.300
 198898471.737 7                  37849125.376
        43.600
 202018948.185 7                  38442933.572
        44.600
 122326479.243 8                  23277935.642
        48.700


 131951729.493 7                  25109567.145
        47.000
 25  1  1  9 27 45.0000000  0 22G18G08G23G15E29G32G24E33G10G27R19R04
                                R03E26R18S35R02S31S33E07E08E13
 111746718.966 8  87075385.36845  21264693.231    21264692.9274   21264693.4974
        48.700          35.8004
 127936875.013 5  99691107.38743  24345576.910    24345576.0924   24345585.8254
        34.800          19.0004
 107306919.826 6  83615815.90944  20419826.328    20419825.9534   20419827.7534
        41.900          29.3004
 120752760.237 5                  22978466.964
        33.600
 131297169.667 6                  24985018.737
        39.400
 119401697.767 7  93040244.40646  22721362.968    22721362.4774   22721366.1614
        45.200          40.1004
 112029035.035 7  87295382.25947  21318413.436    21318413.0474   21318414.7534
        46.500          44.3004
 134904536.910 5                  25671477.034
        35.600
 114601232.167 8  89299701.87247  21807889.917    21807889.4084   21807889.5734
        49.500          44.1004
 122071103.471 5  95120350.27544  23229358.434    23229357.8264   23229360.4114
        30.300          24.6004
 109264521.971 5  84983540.754 6  20425846.593    20425845.438    20425852.203
        35.700          40.100
                  87375430.397 6                  20978657.871    20978666.091
                        39.900
 105305325.022 8  81904162.203 8  19671901.907    19671901.533    19671906.513
        51.900          50.200
 122292458.992 8                  23271482.555
        50.000
 103419847.670 7  80437651.760 7  19374019.550    19374019.880    19374023.585
        45.900          44.300


 119264350.369 5                  22350078.289    22350080.796
        32.400
 198898472.703 7                  37849126.628
        44.100
 202018931.587 7                  38442929.369
        44.700
 122333143.323 8                  23279203.479
        49.000


 131986438.080 7                  25116171.721
        47.300
 25  1  1  9 28  0.0000000  0 22G18G08G23E29G32G24E33G10G27R19R04R03
                                E26R18S35R17R02S31S33E07E08E13
 111782171.508 8  87103010.73746  21271440.383    21271440.1024   21271440.4564
        48.400          36.6004
 127925585.768 5  99682310.56843  24343425.259    24343424.3034   24343435.5384
        35.600          22.5004
 107309414.787 7  83617760.01844  20420300.896    20420300.4944   20420301.4954
        42.400          28.8004
 131266421.518 6                  24979168.227
        40.400
 119363121.096 7  93010184.71046  22714022.148    22714021.6754   22714025.0274
        46.200          41.5004
 112028267.168 8  87294783.93547  21318267.772    21318267.3924   21318268.0174
        48.100          45.7004
 134868611.408 5                  25664640.334
        34.900
 114574609.946 8  89278957.32347  21802824.852    21802824.3614   21802823.1484
        51.000          45.0004
 122085496.288 4  95131565.47043  23232098.327    23232097.6084   23232098.8594
        29.300          22.2004
 109229729.050 6  84956479.620 6  20419343.095    20419343.216    20419349.922
        36.700          41.500
 112310501.822 7  87352558.254 6  20973178.060    20973180.800    20973175.443
        44.700          39.900
 105318042.447 8  81914053.567 8  19674277.309    19674277.122    19674281.732
        52.100          50.600
 122289793.133 8                  23270975.260
        49.400
 103438978.960 7  80452531.694 7  19377602.169    19377603.903    19377608.453
        47.100          45.300


 116743640.471 6                  21816331.225    21816331.881
        40.700
 119310503.265 5                  22358763.502    22358753.280
        35.800
 198898470.371 7                  37849126.243
        43.100
 202018911.165 7                  38442925.380
        44.600
 122339878.601 8                  23280484.968
        48.300


 132021205.619 7                  25122787.012
        46.200
 25  1  1  9 28 15.0000000  0 23G18G08G23E29G32G24E33G10G27R19R04R12
                                R03E26R18S35R17R02S31S33E07E08E13
 111817737.647 8  87130724.63846  21278207.668    21278207.3874   21278208.5384
        49.100          36.1004
 127914428.331 4  99673616.47443  24341303.049    24341301.6634   24341309.8814
        28.700          21.0004
 107311973.470 7  83619753.76844  20420788.810    20420788.4574   20420787.0824
        43.200          29.1004
 131235733.205 6                  24973326.197
        38.500
 119324614.654 7  92980179.73247  22706694.292    22706693.8324   22706697.2624
        46.300          42.5004
 112027666.399 7  87294315.82147  21318152.468    21318152.0844   21318154.4514
        47.800          46.7004
 134832724.848 6                  25657809.997
        37.000
 114548017.950 8  89258236.30147  21797764.315    21797763.8014   21797763.4984
        49.500          45.4004
 122100018.970 6  95142881.88343  23234860.224    23234859.5054   23234861.7634
        36.200          22.6004
 109195103.164 6  84929548.393 6  20412870.016    20412871.096    20412876.520
        38.400          41.600
                  87329753.396 6                                  20967700.161
                        40.800
 123522597.249 6                  23123690.970    23123687.705
        38.200
 105330844.168 8  81924010.465 8  19676669.657    19676669.458    19676672.937
        52.400          50.500
 122287217.965 8                  23270485.132
        49.400
 103458308.850 7  80467566.050 7  19381223.806    19381224.947    19381228.603
        47.500          45.000


 116806849.731 7                  21828141.404    21828142.210
        42.600
                  92832974.123 5                                  22367392.743
                        35.000
 198898469.570 7                  37849124.575
        43.100
 202018891.734 7                  38442921.208
        44.200
 122346689.612 8                  23281781.423
        48.900


 132056036.600 7                  25129414.576
        45.500
 25  1  1  9 28 30.0000000  0 23G18G08G23E29G32G24E33G10G27R19R04R12
                                R03E26R18S35R17R02S31S33E07E08E13
 111853416.947 8  87158526.71046  21284996.305    21284996.0284   21284998.1524
        49.000          36.5004
 127903402.216 4  99665024.62243  24339206.444    24339205.1844   24339210.6874
        28.500          20.9004
 107314595.690 7  83621797.05044  20421286.730    20421286.3864   20421286.0884
        43.900          29.7004
 131205104.517 6                  24967500.125
        36.200
 119286178.375 7  92950229.41647  22699379.975    22699379.5334   22699382.6364
        46.200          42.1004
 112027232.555 7  87293977.79947  21318070.264    21318069.8984   21318072.7104
        47.200          47.0004
 134796877.183 6                  25650988.609
        39.000
 114521456.092 7  89237538.76847  21792710.268    21792709.7324   21792710.4224
        47.100          46.2004
 122114671.085 6  95154299.16044  23237649.321    23237648.5264   23237649.4754
        36.800          26.1004
 109160644.481 6  84902747.198 6  20406428.143    20406428.454    20406432.111
        37.100          39.900
 112251946.829 5  87307015.680 6  20962233.588    20962228.965    20962240.368
        34.200          41.200
 123506234.849 6                  23120616.739    23120617.288
        37.000
 105343728.970 8  81934032.000 8  19679076.228    19679076.332    19679079.702
        52.400          50.800
 122284733.425 8                  23270012.615
        50.300
 103477836.936 7  80482754.546 7  19384882.421    19384882.913    19384886.717
        47.100          44.700


 116870136.775 7                  21839969.469    21839969.044
        42.400
                  92868877.595 6                                  22376041.259
                        36.900
 198898469.420 7                  37849126.722
        43.900
 202018874.813 7                  38442918.118
        44.200
 122353576.039 8                  23283091.798
        48.700


 132090930.698 7                  25136054.356
        44.300
 25  1  1  9 28 45.0000000  0 24G18G08G23E29G32G24E33G10R13G27R19R04
                                R12R03E26R18S35R17R02S31S33E07E08E13
 111889205.385 8  87186413.80846  21291806.135    21291805.9034   21291808.8134
        48.300          36.1004


 107317277.687 6  83623886.93344  20421796.763    20421796.4424   20421796.7254
        41.400          28.0004
 131174531.750 6                  24961681.839
        39.000
 119247808.509 7  92920330.86446  22692078.145    22692077.7164   22692080.4814
        47.400          41.4004
 112026961.852 7  87293766.91047  21318018.332    21318017.9934   21318021.8414
        47.400          46.8004
 134761064.844 6                  25644174.953
        40.800
 114494920.582 7  89216861.75647  21787661.262    21787660.7214   21787662.1124
        46.700          46.4004
 125068071.302 5                  23421241.795    23421243.421
        35.700
 122129448.631 6  95165814.16644  23240463.359    23240462.5684   23240461.4424
        40.000          28.4004
 109126349.529 5  84876073.431 6  20400017.815    20400016.823    20400019.156
        35.600          38.100
 112222795.053 5  87284342.221 6  20956781.593    20956782.765    20956796.597
        32.400          40.500
 123490033.678 6                  23117586.907    23117586.775
        40.200
 105356693.169 8  81944115.297 8  19681497.237    19681498.457    19681502.240
        52.400          51.200
 122282335.758 8                  23269556.125
        50.600
 103497559.204 8  80498094.121 7  19388578.312    19388578.544    19388581.878
        48.800          45.200


 116933497.080 6                  21851809.664    21851808.134
        41.300
                  92904780.898 6                                  22384692.315
                        38.400
 198898466.382 7                  37849121.289
        42.800
 202018853.641 7                  38442914.841
        44.200
 122360533.887 8                  23284416.240
        49.600


 132125884.019 7                  25142706.583
        43.800
 25  1  1  9 29  0.0000000  0 24G18G08G23E29G32G24E33G10R13G27R19R04
                                R12R03E26R18S35R17R02S31S33E07E08E13
 111925107.905 7  87214389.80345  21298637.726    21298637.5164   21298640.9564
        46.800          34.4004


 107320024.643 6  83626027.45444  20422320.364    20422320.0254   20422318.5324
        41.000          25.0004
 131144019.964 7                  24955874.182
        42.500
 119209510.241 7  92890488.09646  22684790.103    22684789.7014   22684790.9404
        46.900          40.1004
 112026859.414 7  87293687.12247  21317997.762    21317997.4234   21318002.3634
        45.700          45.2004
 134725293.060 6                  25637367.143
        41.400
 114468416.620 7  89196209.32447  21782616.607    21782616.0714   21782619.1374
        47.100          46.4004
 125020596.367 5                  23412346.855    23412344.802
        32.300
 122144356.452 7  95177430.67745  23243300.024    23243299.2374   23243298.6864
        43.300          31.8004
 109092223.625 6  84849531.102 6  20393639.123    20393638.675    20393640.883
        36.200          39.100
 112193730.871 5  87261736.803 6  20951363.311    20951359.456    20951367.506
        33.000          39.900
 123473999.352 6  96035328.825 5  23114582.761    23114582.735    23114589.876
        39.600          32.100
 105369741.214 8  81954263.805 8  19683933.371    19683934.705    19683939.654
        50.600          51.100
 122280030.172 8                  23269117.726
        50.900
 103517480.615 7  80513588.627 7  19392306.490    19392307.305    19392314.256
        45.900          45.500


 116996935.380 5                  21863666.376    21863661.448
        34.900
 119495018.133 6  92940688.024 6  22393336.237    22393340.843    22393345.271
        41.300          37.900
 198898466.054 7                  37849123.238
        43.900
 202018834.968 7                  38442911.791
        45.200
 122367568.148 8                  23285754.456
        49.900


 132160901.542 7                  25149370.998
        45.900
 25  1  1  9 29 15.0000000  0 25G18G08G23G15E29G32G24E33G10R13G27R19
                                R04R12R03E26R18S35R17R02S31S33E07E08
                                E13
 111961121.574 7  87242452.42245  21305492.385    21305492.2074   21305493.7224
        44.800          33.4004
 127871066.807 6                  24333058.409
        38.000
 107322833.875 6  83628216.51544  20422854.941    20422854.5444   20422852.3104
        40.700          24.6004
 121055335.942 5  94328826.19842  23036063.637    23036063.1774   23036058.4674
        35.600          16.9004
 131113566.506 7                  24950080.328
        45.100
 119171280.986 7  92860699.12146  22677515.823    22677515.4394   22677514.3854
        44.200          38.7004
 112026922.548 7  87293736.35347  21318009.844    21318009.4784   21318013.9404
        45.300          44.0004
 134689559.408 6                  25630567.374
        41.900
 114441941.508 8  89175579.37347  21777577.935    21777577.4034   21777580.7994
        48.200          46.3004
 124973186.554 4                  23403466.364    23403458.718
        26.900
 122159391.584 7  95189146.37545  23246161.151    23246160.3914   23246160.6374
        43.600          32.8004
 109058264.890 6  84823118.788 6  20387290.305    20387291.408    20387292.628
        36.200          40.100
 112164751.344 5  87239197.196 6  20945953.918    20945949.339    20945958.171
        35.400          40.800
 123458129.209 5  96022985.438 4  23111612.665    23111609.374    23111613.318
        33.500          28.900
 105382870.543 8  81964475.542 8  19686385.828    19686387.037    19686391.794
        50.300          50.300
 122277814.051 8                  23268695.834
        50.300
 103537598.202 7  80529235.678 7  19396076.588    19396075.774    19396082.417
        44.400          45.200


                  91046994.374 6                                  21875539.466
                        36.600
 119541186.549 6  92976596.782 5  22401986.664    22401988.755    22401995.496
        41.600          31.600
 198898465.266 7                  37849121.870
        43.500
 202018816.240 7                  38442912.220
        45.600
 122374675.995 8                  23287107.108
        50.000
 138119496.888 5                  26283264.685
        35.900
 132195980.477 7                  25156046.393
        47.200
 25  1  1  9 29 30.0000000  0 24G18G08G23G15E29G32G24E33G10G27R19R04
                                R12R03E26R18S35R17R02S31S33E07E08E13
 111997246.453 7  87270601.71045  21312367.470    21312367.3184   21312367.1074
        47.200          33.8004
 127860561.180 6                  24331060.786
        39.100
 107325705.693 6  83630454.37144  20423402.177    20423401.7394   20423399.0864
        39.900          25.3004
 121105890.672 5  94368219.43643  23045681.035    23045680.6874   23045675.3624
        31.900          18.5004
 131083171.719 7                  24944297.007
        45.600
 119133120.978 7  92830964.09846  22670255.142    22670254.7894   22670252.4484
        44.800          38.7004
 112027151.441 7  87293914.76346  21318053.666    21318053.3134   21318057.4094
        44.200          41.6004
 134653864.199 6                  25623775.253
        40.800
 114415495.581 7  89154972.17347  21772544.762    21772544.2394   21772547.4294
        46.500          45.2004
 122174553.926 7  95200961.17845  23249045.498    23249044.7614   23249046.3714
        43.900          33.9004
 109024473.619 6  84796836.699 6  20380973.024    20380975.840    20380975.969
        36.000          41.100
 112135856.800 6  87216723.652 6  20940555.618    20940553.074    20940561.347
        40.500          41.200
 123442423.776 6                  23108674.950    23108673.477
        38.100
 105396080.810 8  81974750.185 8  19688855.115    19688856.378    19688859.096
        51.300          49.700
 122275687.667 8                  23268291.027
        49.600
 103557912.024 7  80545035.351 7  19399882.135    19399881.259    19399887.513
        45.100          45.000


 117123921.990 6  91096451.462 6  21887425.368    21887439.279    21887421.461
        38.500          38.500
 119587356.821 7                  22410640.782    22410640.835
        42.300
 198898463.893 7                  37849119.625
        43.100
 202018797.946 7                  38442906.515
        46.300
 122381857.448 8                  23288473.514
        49.300
 138156632.769 6                  26290330.921
        37.600
 132231120.935 7                  25162733.601
        47.200
 25  1  1  9 29 45.0000000  0 24G18G08G23G15E29G32G24E33G10G27R19R04
                                R12R03E26R18S35R17R02S31S33E07E08E13
 112033483.838 8  87298838.64545  21319263.308    21319263.1484   21319262.6664
        49.600          35.4004
 127850187.456 6  99623565.41242  24329085.414    24329085.9234   24329100.4604
        39.000          14.1004
 107328641.658 6  83632742.15944  20423960.470    20423959.9834   20423959.1934
        37.700          26.2004
 121156469.753 4  94407631.67042  23055310.154    23055310.4754   23055299.5504
        26.900          15.8004
 131052837.102 7                  24938524.530
        44.600
 119095031.837 7  92801284.28646  22663005.856    22663005.4994   22663005.3114
        46.600          39.1004
 112027547.708 6  87294223.59846  21318129.400    21318129.0164   21318132.4744
        40.800          38.4004
 134618209.221 6                  25616990.514
        40.700
 114389080.357 7  89134388.90447  21767518.606    21767518.0884   21767519.8544
        46.900          44.5004
 122189844.868 7  95212876.16345  23251955.167    23251954.4614   23251956.7994
        44.300          34.7004
 108990852.016 5  84770686.538 7  20374684.874    20374686.230    20374691.573
        34.600          42.400
 112107048.660 7  87194317.268 7  20935176.926    20935177.312    20935181.699
        47.300          42.000
 123426884.923 6                  23105765.448    23105766.815
        41.700
 105409373.729 8  81985089.135 8  19691337.935    19691339.913    19691342.452
        51.500          49.600
 122273652.663 8                  23267903.862
        49.300
 103578423.528 7  80560988.795 7  19403722.486    19403722.257    19403730.577
        43.900          45.400


 117187585.233 6  91145967.247 6  21899319.382    21899318.055    21899317.453
        39.200          38.800
 119633530.555 7                  22419293.978    22419295.164
        44.400
 198898463.959 7                  37849120.622
        43.000
 202018779.369 7                  38442902.034
        45.300
 122389113.948 8                  23289854.657
        49.100
 138193788.449 6                  26297400.778
        37.200
 132266324.339 7                  25169431.993
        46.600
 25  1  1  9 30  0.0000000  0 25G18G08G23G15E29G32G24E33G10R13G27R19
                                R04R12R03E26R18S35R17R02S31S33E07E08
                                E13
 112069830.735 8  87327160.90946  21326180.103    21326179.9384   21326179.2604
        50.600          36.4004
 127839942.780 5  99615582.35842  24327135.621    24327136.0054   24327159.5844
        35.100          12.2004
 107331639.038 6  83635077.80444  20424529.458    20424528.9764   20424530.9614
        41.300          27.3004


 131022559.982 6                  24932761.792
        40.700
 119057010.888 7  92771657.60646  22655770.755    22655770.3934   22655770.9644
        46.200          38.9004
 112028108.534 6  87294660.64245  21318238.906    21318238.5444   21318237.9824
        38.800          33.3004
 134582591.871 6                  25610212.283
        39.700
 114362693.189 8  89113827.49747  21762497.517    21762497.0034   21762498.1414
        48.000          44.8004
 124831441.960 5                  23376917.751
        32.500
 122205261.349 7  95224888.95645  23254888.541    23254887.8714   23254890.0354
        43.200          33.5004
 108957397.757 5  84744666.557 7  20368431.737    20368431.723    20368438.117
        34.700          43.500
 112078324.019 7  87171975.949 7  20929811.643    20929813.207    20929819.217
        46.600          42.900
 123411510.046 6                  23102881.291    23102882.278
        37.500
 105422745.914 8  81995489.728 8  19693834.958    19693836.322    19693840.140
        50.500          49.400
 122271706.380 8                  23267533.375
        49.300
 103599129.718 7  80577093.583 7  19407601.705    19407601.645    19407608.632
        45.100          45.200


 117251320.763 7  91195539.303 6  21911226.235    21911227.895    21911227.910
        42.700          37.200
 119679704.792 7                  22427949.750    22427951.362
        42.600
 198898462.524 7                  37849119.491
        43.100
 202018760.476 7                  38442898.264
        44.800
 122396442.545 8                  23291249.022
        49.000
 138230961.012 5                  26304475.053
        35.600
 132301587.787 7                  25176142.316
        46.200
 25  1  1  9 30 15.0000000  0 22G18G08G23G15E29G32G24E33G10G27R19R04
                                R03E26R18S35R17S31S33E07E08E13
 112106286.651 8  87355568.11346  21333117.447    21333117.3004   21333117.0144
        50.700          37.2004
 127829826.925 5  99607699.73842  24325211.034    24325211.2574   24325232.2974
        35.900          16.9004
 107334697.580 7  83637461.08445  20425110.909    20425110.4044   20425113.5204
        43.900          31.4004


 130992339.942 6                  24927011.581
        39.000
 119019057.903 7  92742083.86846  22648548.172    22648547.8064   22648548.3104
        46.600          38.1004
 112028833.672 6  87295225.76045  21318376.399    21318375.9974   21318374.8364
        38.200          31.8004
 134547012.027 6                  25603442.056
        38.400
 114336333.824 7  89093287.75747  21757481.746    21757481.2554   21757482.6844
        47.700          45.5004
 122220802.821 7  95236999.16945  23257846.417    23257845.7784   23257846.5614
        42.700          32.8004
 108924110.723 6  84718776.681 7  20362210.364    20362210.238    20362215.796
        37.100          44.400
 112049682.503 7  87149699.215 6  20924463.062    20924463.389    20924471.362
        45.900          41.400
 105436196.896 8  82005951.609 8  19696348.226    19696349.096    19696353.482
        51.000          49.800
 122269848.564 8                  23267179.994
        48.900
 103620029.987 8  80593349.362 7  19411519.629    19411519.515    19411523.980
        48.500          45.600


 117315127.601 7  91245166.911 5  21923152.033    21923154.589    21923150.361
        42.200          35.400
 198898459.406 7                  37849119.375
        42.800
 202018739.634 7                  38442892.389
        45.200
 122403842.818 8                  23292657.184
        49.200
 138268150.020 5                  26311553.305
        35.100
 132336910.848 7                  25182863.701
        45.500
 25  1  1  9 30 30.0000000  0 22G18G08G23E29G32G24E33G10G27R19R04R12
                                R03E26R18S35R17S31S33E07E08E13
 112142856.253 8  87384063.90246  21340075.726    21340075.5974   21340076.3164
        49.100          36.3004
 127819844.731 5  99599921.39842  24323311.266    24323311.2044   24323326.8984
        35.900          14.7004
 107337822.197 7  83639895.85045  20425706.450    20425705.9684   20425707.5974
        46.600          34.5004
 130962181.985 6                  24921271.688
        38.100
 118981177.854 7  92712566.95446  22641339.946    22641339.5224   22641339.6074
        47.400          38.5004
 112029727.947 6  87295922.70145  21318546.234    21318545.8014   21318545.4424
        40.200          32.6004
 134511474.784 6                  25596680.070
        38.700
 114310007.193 8  89072773.52947  21752472.687    21752472.2184   21752473.8054
        48.300          46.6004
 122236473.924 6  95249210.41945  23260827.821    23260827.2364   23260829.6834
        40.900          32.4004
 108890996.283 6  84693021.014 7  20356018.949    20356019.384    20356025.577
        38.600          44.900
 112021128.984 7  87127490.833 6  20919132.030    20919133.287    20919140.272
        47.900          41.500
 123381257.711 4                  23097215.792
        27.200
 105449731.591 8  82016478.597 8  19698877.321    19698877.830    19698882.230
        50.800          49.500
 122268084.187 8                  23266844.667
        49.000
 103641129.225 8  80609759.869 7  19415471.528    19415471.549    19415477.999
        48.000          46.400


 117379010.527 6  91294853.612 5  21935084.710    21935084.994    21935089.405
        40.900          33.800
 198898459.431 7                  37849118.252
        42.500
 202018722.185 7                  38442889.947
        44.700
 122411319.504 8                  23294079.862
        48.900
 138305360.043 5                  26318633.292
        33.600
 132372298.295 7                  25189597.809
        44.500
 25  1  1  9 30 45.0000000  0 22G18G08G23E29G32G24E33G10G27R19R04R03
                                E26R18S35R17R02S31S33E07E08E13
 112179533.477 7  87412643.55045  21347055.042    21347054.9314   21347055.6974
        45.900          33.7004
 127809990.396 6  99592242.74742  24321435.276    24321435.1654   24321448.6114
        36.700          15.0004
 107341007.084 7  83642377.57246  20426312.839    20426312.3744   20426313.0244
        46.500          36.1004
 130932080.277 6                  24915542.825
        38.700
 118943364.946 7  92683102.36646  22634143.351    22634142.9224   22634143.9444
        45.900          37.0004
 112030785.627 6  87296746.90445  21318745.440    21318744.9934   21318747.8274
        39.500          33.5004
 134475974.383 6                  25589923.811
        40.300
 114283707.446 8  89052280.24747  21747467.407    21747466.9344   21747469.7914
        50.000          47.1004
 122252268.523 6  95261517.92245  23263833.107    23263832.5664   23263835.9644
        38.900          31.5004
 108858049.136 6  84667395.450 7  20349861.437    20349861.258    20349866.024
        40.000          45.000
 111992657.405 8  87105346.297 6  20913815.298    20913816.984    20913820.946
        48.100          40.100
 105463343.456 8  82027065.643 8  19701420.070    19701420.480    19701424.705
        51.000          48.800
 122266407.486 8                  23266525.477
        49.600
 103662421.086 7  80626320.225 7  19419460.130    19419460.075    19419466.128
        47.100          46.200


 117442962.681 5  91344594.151 5  21947031.642    21947030.760    21947038.368
        34.400          30.900
 119818235.902 5                  22453916.789    22453917.287
        34.800
 198898456.357 7                  37849118.091
        42.900
 202018701.407 7                  38442887.573
        45.200
 122418866.575 8                  23295515.597
        48.400
 138342585.188 5                  26325719.672
        33.500
 132407744.113 7                  25196342.838
        44.300
 25  1  1  9 31  0.0000000  0 23G18G08G23E29G32G24E33G10G27R19R04R12
                                R03E26R18S35R17R02S31S33E07E08E13
 112216325.055 7  87441312.32745  21354056.653    21354056.4974   21354056.7374
        42.100          30.6004
 127800270.906 6  99584669.12343  24319585.251    24319585.1224   24319591.8814
        37.700          23.2004
 107344259.257 8  83644911.72946  20426931.987    20426931.5454   20426931.5704
        49.300          37.4004
 130902041.828 6                  24909827.196
        40.900
 118905626.224 7  92653695.57045  22626962.010    22626961.5994   22626961.3194
        44.100          35.2004
 112032013.558 6  87297703.76445  21318978.924    21318978.4644   21318980.5584
        41.300          34.0004
 134440518.041 7                  25583176.400
        42.300
 114257441.697 8  89031813.45847  21742468.907    21742468.4204   21742471.6934
        51.000          47.0004
 122268193.426 6  95273926.94845  23266862.511    23266861.9844   23266867.0934
        40.200          31.6004
 108825276.771 6  84641905.837 7  20343733.341    20343734.160    20343739.217
        40.200          45.200
 111964275.165 7  87083271.254 6  20908514.760    20908516.143    20908519.426
        47.200          37.300
 123351598.468 6  95940165.794 6  23091681.092    23091683.918    23091689.396
        40.200          36.400
 105477039.340 8  82037718.004 7  19703978.717    19703978.386    19703982.831
        50.900          47.600
 122264825.499 8                  23266224.479
        49.100
 103683912.704 7  80643035.897 7  19423486.751    19423487.370    19423491.460
        46.800          45.400


 117506990.898 5                  21959008.600    21959007.920
        30.500
 119864418.981 6                  22462559.132    22462561.716
        36.900
 198898457.518 7                  37849117.725
        42.400
 202018684.789 7                  38442883.566
        45.500
 122426490.872 8                  23296966.419
        48.500
 138379832.179 5                  26332809.111
        33.400
 132443255.235 7                  25203101.049
        45.200
 25  1  1  9 31 15.0000000  0 23G18G08G23E29G32G24E33G10G27R19R04R12
                                R03E26R18S35R17R02S31S33E07E08E13
 112253224.250 7  87470064.98845  21361079.222    21361079.0444   21361078.3614
        42.400          30.4004
 127790679.651 6  99577195.37344  24317759.673    24317759.4994   24317762.3394
        39.200          26.9004
 107347572.223 8  83647493.24546  20427562.180    20427561.7514   20427561.7204
        48.600          37.4004
 130872060.105 7                  24904122.724
        42.500
 118867955.214 6  92624341.56745  22619794.230    22619793.8154   22619792.7994
        40.600          33.7004
 112033405.243 6  87298788.20845  21319244.396    21319243.9544   21319243.8784
        40.100          34.0004
 134405099.407 7                  25576436.392
        43.800
 114231203.401 8  89011368.04047  21737475.996    21737475.5054   21737478.7964
        49.600          46.6004
 122284241.745 6  95286432.12145  23269917.427    23269916.9004   23269921.4844
        40.700          34.0004
 108792672.607 6  84616547.052 7  20337639.136    20337639.902    20337644.485
        41.600          45.600
 111935975.198 7  87061260.158 5  20903232.739    20903233.444    20903228.861
        46.800          31.400
 123337055.766 6  95928854.884 5  23088969.244    23088963.200    23088964.098
        37.300          35.700
 105490812.611 8  82048430.592 7  19706551.257    19706551.819    19706555.986
        51.000          47.000
 122263331.777 8                  23265939.979
        49.000
 103705597.005 7  80659901.474 7  19427547.468    19427547.219    19427553.460
        43.300          44.800


                                                  21970986.565

 119910600.596 6                  22471214.502    22471216.989
        39.300
 198898456.583 7                  37849121.713
        43.800
 202018666.017 7                  38442882.296
        45.100
 122434185.699 8                  23298430.608
        49.000
 138417094.316 4                  26339899.559
        26.600
 132478824.940 7                  25209869.140
        45.600
 25  1  1  9 31 30.0000000  0 23G18G08G23G15E29G32G24E33G10G27R19R04
                                R12R03E26R18S35R17S31S33E07E08E13
 112290234.344 7  87498904.07745  21368121.432    21368121.2804   21368121.6454
        46.700          34.1004
 127781220.167 6  99569824.31445  24315959.403    24315959.2344   24315961.3984
        38.800          30.2004
 107350949.521 8  83650124.90546  20428205.047    20428204.6234   20428204.7214
        48.700          37.3004
 121511125.678 5  94683947.30842  23122795.362    23122795.5224   23122789.8304
        30.700          14.1004
 130842138.614 7                  24898428.785
        44.300
 118830355.486 6  92595043.12845  22612639.983    22612639.5944   22612639.0034
        41.600          35.4004
 112034964.153 6  87300002.95745  21319541.764    21319541.3404   21319539.6404
        40.700          33.4004
 134369722.155 7                  25569704.854
        44.600
 114204996.129 8  88990946.79947  21732489.230    21732488.7484   21732492.5834
        49.500          46.5004
 122300416.732 6  95299036.02545  23272996.880    23272996.3844   23272999.0164
        40.600          35.7004
 108760240.925 6  84591322.411 7  20331575.422    20331576.324    20331581.139
        40.600          44.500
 111907761.073 7                  20897957.924    20897960.369
        43.000
                  95917674.756 5                  23086275.325    23086270.639
                        32.600
 105504666.345 8  82059205.694 7  19709139.923    19709141.036    19709143.374
        52.100          46.100
 122261929.864 8                  23265672.995
        49.100
 103727477.362 7  80676919.545 7  19431647.879    19431646.991    19431652.373
        44.100          45.100


 117635257.321 6                  21982973.589    21982971.422
        36.800
 198898456.058 7                  37849119.943
        43.400
 202018648.064 7                  38442878.017
        45.400
 122441954.407 8                  23299908.688
        48.600
 138454374.641 4                  26346993.487
        28.800
 132514456.618 7                  25216649.375
        44.600
 25  1  1  9 31 45.0000000  0 23G18G08G23G15E29G32G24E33G10G27R19R04
                                R12R03E26R18S35R02S31S33E07E08E13
 112327350.531 8  87527825.82446  21375184.751    21375184.6134   21375185.0554
        49.400          36.1004
 127771887.908 6  99562552.43945  24314183.534    24314183.3784   24314185.8644
        37.400          31.3004
 107354386.588 8  83652803.12446  20428858.355    20428857.9264   20428859.3364
        48.300          36.5004
 121561878.206 5  94723494.76542  23132451.956    23132452.3134   23132448.6284
        30.000          15.0004
 130812272.798 7                  24892745.464
        43.500
 118792822.484 7  92565796.66546  22605496.898    22605496.5544   22605497.5944
        45.300          37.2004
 112036685.649 6  87301344.40245  21319868.419    21319867.9684   21319868.0944
        41.600          35.2004
 134334381.855 7                  25562980.364
        46.500
 114178815.295 7  88970546.16747  21727507.308    21727506.7994   21727511.0894
        46.800          45.1004
 122316713.560 6  95311734.85845  23276097.641    23276097.1144   23276099.8004
        40.000          34.9004
 108727977.198 6  84566228.436 7  20325544.719    20325543.966    20325550.239
        40.200          45.200
 111879628.282 6                  20892703.473    20892703.444
        39.200
 123308470.254 6  95906622.037 4  23083603.710    23083607.654    23083609.880
        36.700          29.900
 105518595.598 8  82070039.573 7  19711742.543    19711743.404    19711744.870
        52.300          45.000
 122260615.243 8                  23265423.207
        48.900
 103749548.868 7  80694086.296 7  19435782.284    19435781.985    19435787.698
        45.900          45.900


 120002964.790 6  93335738.125 5  22488525.418    22488525.209    22488533.756
        40.900          32.900
 198898451.856 7                  37849114.648
        42.700
 202018626.838 7                  38442871.851
        46.200
 122449792.235 8                  23301400.532
        48.000
 138491668.859 4                  26354087.497
        25.900
 132550145.510 7                  25223441.104
        44.800
 25  1  1  9 32  0.0000000  0 24G18G08G23G15E29G32G24E33G10G27R19R04
                                R12R03E26R18S35R17R02S31S33E07E08E13
 112364579.165 8  87556835.17045  21382269.185    21382269.0564   21382268.9424
        49.800          35.8004
 127762689.401 5  99555384.79145  24312433.141    24312432.9814   24312436.0294
        35.500          31.4004
 107357890.046 7  83655533.06745  20429525.460    20429525.0274   20429526.0904
        47.500          35.0004
 121612654.901 5  94763061.06642  23142113.987    23142113.9434   23142111.2324
        31.500          14.2004
 130782469.270 7                  24887074.332
        42.800
 118755362.865 7  92536607.39646  22598367.778    22598367.4164   22598369.3044
        44.100          36.4004
 112038576.364 6  87302817.71846  21320228.718    21320228.3074   21320229.5314
        39.600          36.9004
 134299085.270 7                  25556263.490
        46.500
 114152667.609 7  88950171.36747  21722532.284    21722531.7794   21722535.1974
        47.900          45.0004
 122333138.500 6  95324533.56545  23279223.001    23279222.4834   23279224.8074
        41.900          34.6004
 108695888.689 6  84541270.740 7  20319544.683    20319544.618    20319550.789
        39.300          44.500
 111851583.154 7  86995780.944 7  20887469.437    20887469.705    20887476.037
        45.000          42.000
 123294430.353 6  95895702.216 4  23080984.712    23080984.824    23080986.107
        40.500          28.100
 105532607.080 8  82080937.443 7  19714359.564    19714360.256    19714362.370
        52.100          44.900
 122259394.578 8                  23265190.985
        49.100
 103771818.073 7  80711406.808 7  19439953.799    19439954.344    19439959.543
        45.600          46.200


 117763801.418 5                  22006986.117    22006987.813
        35.400
 120049149.284 6  93371659.409 5  22497181.232    22497184.873    22497202.569
        38.100          30.600
 198898450.751 7                  37849118.825
        42.900
 202018608.259 7                  38442866.082
        45.400
 122457705.614 8                  23302906.406
        48.200


 132585898.066 7                  25230245.617
        45.300
 25  1  1  9 32 15.0000000  0 24G18G08G23G15E29G32G24E33G10G27R19R04
                                R12R03E26R18S35R17R02S31S33E07E08E13
 112401913.641 8  87585926.96645  21389373.588    21389373.4594   21389372.4944
        49.600          35.3004
 127753618.244 6  99548316.40945  24310709.035    24310708.8704   24310709.8804
        36.700          30.3004
 107361453.570 7  83658309.81345  20430203.180    20430202.7024   20430203.3404
        46.000          32.5004
 121663449.063 4  94802641.00842  23151778.514    23151778.3764   23151776.8774
        27.100          13.9004
 130752721.651 6                  24881412.683
        40.900
 118717970.342 6  92507470.40945  22591251.895    22591251.5334   22591253.4914
        41.200          34.7004
 112040629.846 6  87304417.85445  21320620.985    21320620.6234   21320620.9954
        36.700          35.3004
 134263826.184 7                  25549553.995
        47.200
 114126546.663 8  88929817.41247  21717560.014    21717559.4784   21717563.9914
        49.300          45.3004
 122349684.934 7  95337426.94145  23282371.630    23282371.1254   23282372.4224
        42.900          35.8004
 108663969.265 6  84516444.531 7  20313578.962    20313577.507    20313582.626
        38.800          43.500
 111823619.188 7  86974031.126 7  20882247.614    20882248.853    20882254.810
        47.500          45.300
 123280554.906 5                  23078379.507    23078381.677
        32.900
 105546693.881 8  82091893.837 7  19716991.443    19716991.725    19716993.656
        52.200          45.100
 122258261.538 8                  23264975.403
        50.400
 103794278.212 7  80728875.794 7  19444160.766    19444162.436    19444167.738
        45.900          46.500


 117828175.982 6  91644197.699 5  22019016.809    22019019.568    22019027.771
        40.500          34.000
 120095330.706 5                  22505839.105    22505838.236
        35.100
 198898446.648 7                  37849121.749
        43.800
 202018586.551 7                  38442864.083
        44.900
 122465688.014 8                  23304425.072
        48.100


 132621707.760 7                  25237059.723
        45.600
 25  1  1  9 32 30.0000000  0 23G18G08G23E29G32G24E33G10G27R19R04R12
                                R03E26R18S35R17R02S31S33E07E08E13
 112439360.285 8  87615106.14545  21396499.212    21396499.0874   21396497.4444
        50.800          35.4004
 127744680.986 6  99541352.32144  24309008.338    24309008.2004   24309007.0594
        37.300          29.2004
 107365083.729 7  83661138.50145  20430894.482    20430893.9954   20430893.2314
        45.600          31.9004
 130723036.494 6                  24875764.430
        39.100
 118680651.488 6  92478390.79545  22584150.607    22584150.2684   22584151.6914
        41.000          33.1004
 112042852.652 6  87306149.93645  21321043.340    21321042.9604   21321043.7244
        37.100          34.5004
 134228611.366 7                  25542852.483
        47.500
 114100459.091 8  88909489.46647  21712595.771    21712595.2394   21712598.8314
        50.400          45.8004
 122366359.156 7  95350419.90945  23285544.368    23285543.8994   23285545.3164
        42.100          35.2004
 108632226.167 6  84491755.459 7  20307645.057    20307644.428    20307649.029
        38.300          43.500
 111795743.073 8  86952349.663 7  20877042.630    20877044.681    20877047.892
        49.000          45.100


 105560862.344 8  82102913.778 7  19719638.188    19719637.942    19719640.280
        51.300          45.700
 122257222.762 8                  23264777.395
        50.900
 103816935.775 7  80746498.340 7  19448406.392    19448406.592    19448411.209
        45.600          45.700


 117892622.456 7  91694322.614 5  22031073.851    22031069.956    22031069.407
        42.800          33.700
 120141515.435 6                  22514496.520    22514493.839
        36.300
 198898445.077 7                  37849121.611
        43.000
 202018567.746 7                  38442857.510
        44.200
 122473745.810 7                  23305958.564
        47.200


 132657581.088 7                  25243886.108
        46.100
 25  1  1  9 32 45.0000000  0 22G18G08G23E29G32G24E33G10G27R19R04R12
                                R03E26R18S35R17S31S33E07E08E13
 112476918.213 8  87644372.04645  21403645.778    21403645.6444   21403644.4964
        48.500          35.6004
 127735877.058 6  99534492.13444  24307333.168    24307332.9904   24307331.0014
        37.000          28.0004
 107368779.905 7  83664018.65745  20431597.831    20431597.3494   20431595.6204
        45.700          31.9004
 130693413.226 6                  24870126.984
        39.400
 118643405.747 6  92449368.14845  22577062.838    22577062.4674   22577064.3884
        41.100          33.5004
 112045244.164 6  87308013.46645  21321497.623    21321497.2174   21321499.0794
        36.400          34.1004
 134193440.316 7                  25536159.519
        47.100
 114074404.341 8  88889187.09947  21707637.596    21707637.0514   21707640.1464
        50.300          46.3004
 122383160.203 7  95363511.65945  23288742.438    23288742.0364   23288741.7844
        43.300          33.4004
 108600658.592 6  84467202.932 7  20301743.778    20301742.781    20301747.516
        38.000          43.500
 111767954.062 8  86930735.980 7  20871852.798    20871853.578    20871859.003
        49.900          45.900


 105575111.628 8  82113996.542 7  19722300.475    19722300.270    19722302.071
        51.800          46.100
 122256277.675 8                  23264597.592
        50.500
 103839789.846 7  80764273.753 7  19452687.755    19452687.585    19452693.535
        46.600          45.600


 117957139.721 7  91744502.646 5  22043124.839    22043125.468    22043122.058
        43.000          32.200
 198898446.722 7                  37849117.586
        42.900
 202018551.168 7                  38442858.136
        45.200
 122481878.206 7                  23307505.814
        46.000


 132693517.211 7                  25250724.676
        45.000
 25  1  1  9 33  0.0000000  0 22G18G08G23E29G32G24E33G10G27R19R04R12
                                R03E26R18S35R17S31S33E07E08E13
 112514583.504 7  87673721.62545  21410813.662    21410813.4934   21410812.6644
        46.100          35.1004
 127727202.669 6  99527732.87244  24305680.981    24305680.6684   24305681.3884
        36.900          29.2004
 107372538.506 7  83666947.45545  20432313.288    20432312.8234   20432310.4674
        47.600          33.3004
 130663848.189 6                  24864499.636
        39.700
 118606229.497 7  92420399.63045  22569988.543    22569988.1504   22569990.5014
        42.700          35.9004
 112047800.644 5  87310005.53945  21321983.376    21321982.9294   21321985.6234
        34.100          34.4004
 134158309.542 7                  25529474.457
        47.000
 114048378.728 8  88868907.45147  21702685.237    21702684.6964   21702687.3904
        51.100          47.1004
 122400084.171 6  95376699.16544  23291962.258    23291961.8964   23291960.8564
        41.100          28.9004
 108569263.748 6  84442784.738 7  20295875.612    20295875.256    20295878.372
        38.700          42.600
 111740248.343 8  86909187.028 7  20866679.337    20866680.287    20866684.540
        50.700          45.200
                  95853321.708 5                                  23070784.619
                        34.300
 105589437.936 8  82125139.267 7  19724976.274    19724976.066    19724979.138
        51.200          47.000
 122255422.669 8                  23264434.939
        50.400
 103862836.453 7  80782198.923 7  19457004.239    19457005.433    19457010.090
        45.500          45.100


 118021723.537 6  91794734.483 5  22055189.846    22055192.848    22055193.136
        39.600          33.900
 198898446.402 7                  37849117.412
        43.100
 202018533.698 7                  38442854.885
        45.300
 122490081.379 7                  23309066.999
        46.500


 132729512.348 7                  25257573.688
        46.000
 25  1  1  9 33 15.0000000  0 23G18G08G23E29G32G24E33G10G27R19R04R12
                                R03E26R18S35R17R02S31S33E07E08E13
 112552359.004 7  87703157.09145  21418001.976    21418001.7934   21418001.6604
        45.800          34.7004
 127718660.924 6  99521076.95844  24304057.173    24304056.7984   24304057.5954
        36.000          28.7004
 107376362.565 8  83669927.26945  20433040.457    20433040.0064   20433038.6394
        48.800          35.1004
 130634344.411 6                  24858885.309
        40.900
 118569125.855 7  92391487.72645  22562929.364    22562928.9444   22562929.5004
        43.100          35.4004
 112050525.069 5  87312128.49045  21322502.431    21322501.9804   21322503.9334
        33.700          34.0004
 134123222.276 7                  25522797.676
        46.500
 114022385.363 8  88848652.91647  21697738.660    21697738.1284   21697740.8554
        50.600          46.6004
 122417133.856 6  95389984.51844  23295208.239    23295207.8594   23295204.7724
        39.400          25.6004
 108538044.914 6  84418503.435 7  20290040.656    20290040.124    20290042.570
        39.100          43.300
 111712628.728 8  86887705.054 7  20861522.028    20861523.594    20861526.487
        49.700          43.000


 105603843.660 8  82136343.783 7  19727667.473    19727667.026    19727670.174
        51.200          46.700
 122254660.841 8                  23264290.239
        50.700
 103886078.413 7  80800276.050 7  19461357.147    19461357.949    19461363.372
        45.600          43.500


 118086376.600 5  91845020.274 5  22067269.535    22067271.483    22067276.399
        34.400          35.900
                                                  22540455.101

 198898448.191 7                  37849119.334
        43.000
 202018518.228 7                  38442853.888
        45.300
 122498358.212 7                  23310641.904
        46.400


 132765569.404 7                  25264434.553
        45.600
 25  1  1  9 33 30.0000000  0 22G18G08G23E29G32G24E33G10G27R19R04R12
                                R03E26R18S35R17S31S33E07E08E13
 112590240.656 7  87732675.28145  21425209.584    21425209.3884   21425210.7794
        47.000          35.7004
 127710247.977 5  99514521.42544  24302454.518    24302454.1034   24302456.8304
        32.300          25.2004
 107380248.343 8  83672955.16546  20433779.780    20433779.3474   20433778.6174
        50.100          36.6004
 130604898.078 6                  24853282.001
        41.900
 118532091.045 7  92362629.44246  22555881.782    22555881.3134   22555881.5304
        45.900          37.0004
 112053413.637 5  87314379.33145  21323052.060    21323051.5954   21323054.2294
        35.500          35.3004
 134088174.910 7                  25516128.696
        45.300
 113996420.489 8  88828420.56947  21692797.342    21692796.8014   21692800.1904
        49.400          45.6004
 122434305.149 6  95403364.66544  23298475.703    23298475.3504   23298475.4964
        41.700          27.3004
 108506998.391 6  84394356.166 7  20284234.741    20284234.885    20284239.718
        37.400          43.600
 111685091.418 8  86866287.035 6  20856378.063    20856379.573    20856384.309
        48.100          40.900
                  95832926.535 5                                  23065882.504
                        30.700
 105618324.981 8  82147607.033 7  19730372.825    19730373.132    19730375.331
        52.100          46.400
 122253988.449 8                  23264162.131
        50.900
 103909511.661 8  80818501.904 7  19465749.938    19465750.617    19465752.104
        49.000          42.600


 118151094.498 5  91895356.515 5  22079364.099    22079356.660    22079370.484
        30.300          35.400
 198898447.873 7                  37849121.906
        43.900
 202018500.176 7                  38442847.592
        44.800
 122506704.714 7                  23312230.485
        47.200


 132801684.463 7                  25271306.608
        44.300
 25  1  1  9 33 45.0000000  0 23G18G08G23E29G32G24E33G10G27R19R04R12
                                R03E26R18S35R17R02S31S33E07E08E13
 112628230.454 8  87762277.73446  21432439.209    21432439.0174   21432439.6444
        48.400          36.5004
 127701966.121 5  99508068.06043  24300878.424    24300878.0404   24300880.5654
        31.500          22.8004
 107384198.087 8  83676032.90446  20434531.404    20434530.9754   20434530.8474
        50.100          37.4004
 130575511.442 7                  24847690.182
        43.000
 118495127.353 7  92333826.56946  22548847.971    22548847.5024   22548847.7794
        45.000          38.1004
 112056468.484 6  87316759.74346  21323632.988    21323632.4384   21323635.7544
        40.700          37.5004
 134053169.836 7                  25509467.255
        44.700
 113970486.411 8  88808212.21647  21687861.992    21687861.4384   21687865.7104
        48.300          44.5004
 122451599.997 7  95416841.13345  23301765.870    23301765.5174   23301770.4514
        43.400          31.0004
 108476127.176 6  84370345.263 7  20278463.473    20278462.749    20278469.528
        37.300          43.900
 111657638.744 8  86844934.793 6  20851252.867    20851254.642    20851261.001
        48.100          40.000
 123200945.494 5  95822926.178 5  23063474.378                    23063483.157
        34.400          30.000
 105632883.801 8  82158930.581 7  19733092.929    19733093.492    19733094.543
        53.000          45.600
 122253407.787 8                  23264051.345
        51.100
 103933138.107 8  80836878.009 7  19470175.480    19470176.816    19470178.210
        50.500          42.400


                  91945744.420 5                                  22091475.864
                        34.900
 120372445.743 6                  22557764.789    22557764.747
        39.000
 198898447.205 7                  37849120.712
        43.500
 202018482.067 7                  38442844.118
        44.900
 122515122.977 7                  23313832.541
        47.200


 132837859.578 7                  25278191.208
        43.400
 25  1  1  9 34  0.0000000  0 23G18G08G23E29G32G24E33G10G27R19R04R12
                                R03E26R18S35R17R02S31S33E07E08E13
 112666330.097 8  87791965.77146  21439689.201    21439688.9874   21439689.5934
        49.400          37.8004
 127693817.174 5  99501718.29243  24299328.215    24299327.7194   24299329.5384
        31.800          20.7004
 107388213.742 8  83679161.99946  20435295.516    20435295.0924   20435295.0924
        49.900          37.7004
 130546186.385 7                  24842109.838
        43.800
 118458236.756 7  92305080.67146  22541827.517    22541827.0354   22541827.6404
        44.600          37.3004
 112059691.517 6  87319271.21546  21324245.664    21324245.1504   21324248.5684
        41.100          37.7004
 134018209.154 7                  25502814.565
        43.600
 113944585.094 7  88788029.39247  21682933.706    21682933.1254   21682937.1684
        45.100          42.2004
 122469020.037 7  95430415.21545  23305080.479    23305080.0994   23305086.5354
        43.700          33.9004
 108445433.321 6  84346472.287 7  20272725.040    20272725.886    20272730.263
        38.300          43.000
 111630272.296 7  86823649.672 6  20846140.068    20846141.910    20846150.639
        45.400          38.200
 123188259.444 6                  23061091.144    23061091.809
        37.200
 105647521.714 8  82170315.632 7  19735826.901    19735827.925    19735829.472
        52.800          45.200
 122252920.816 8                  23263958.740
        50.700
 103956959.684 8  80855405.858 6  19474639.401    19474640.466    19474639.843
        51.000          41.600


 118280853.899 6  91996185.025 6  22103604.832    22103608.242    22103595.123
        39.100          36.200
 120418631.449 6  93659135.993 5  22566421.842    22566421.674    22566447.290
        41.100          30.000
 198898448.807 7                  37849117.179
        42.900
 202018465.939 7                  38442842.942
        45.000
 122523614.748 7                  23315448.719
        46.400


 132874096.482 7                  25285086.389
        42.700
 25  1  1  9 34 15.0000000  0 24G18G08G23G15E29G32G24E33G10G27R19R04
                                R12R03E26R18S35R17R02S31S33E07E08E13
 112704533.372 8  87821734.54246  21446959.059    21446958.8494   21446960.1384
        49.200          38.8004


 107392289.376 8  83682337.81946  20436070.969    20436070.5494   20436070.7044
        51.000          38.0004
 122070583.155 5  95119946.90541  23229256.971    23229256.2964   23229256.4224
        33.500           8.0004
 130516917.014 7                  24836540.828
        43.400
 118421413.337 6  92276387.08245  22534819.074    22534818.6054   22534820.5274
        38.800          34.3004
 112063076.805 7  87321909.14346  21324892.362    21324891.8444   21324892.3124
        43.200          37.5004
 133983287.048 7                  25496169.128
        43.500
 113918710.607 7  88767867.45546  21678009.706    21678009.0944   21678012.9234
        43.900          39.5004
 122486559.013 7  95444081.96045  23308418.486    23308418.1064   23308423.7164
        42.600          35.6004
 108414911.576 6  84322733.159 7  20267019.372    20267020.444    20267024.374
        38.000          42.100
 111602985.995 7  86802427.046 6  20841047.183    20841046.670    20841051.286
        44.000          36.200


 105662232.436 8  82181757.307 7  19738575.894    19738576.404    19738576.470
        52.800          44.500
 122252521.644 8                  23263882.809
        50.800
 103980969.945 8  80874080.524 7  19479134.790    19479135.610    19479139.489
        48.000          43.000


 118345767.612 5  92046673.436 6  22115732.367    22115732.823    22115724.735
        35.700          36.000
 120464812.119 7                  22575078.467    22575079.187
        42.600
 198898446.165 7                  37849118.373
        43.000
 202018446.918 7                  38442836.364
        44.900
 122532173.885 7                  23317077.957
        46.900


 132910389.106 6                  25291993.199
        40.300
