     2.11           OBSERVATION DATA    M (MIXED)           RINEX VERSION / TYPE
teqc  2019Feb25                         20260317 16:18:01UTCPGM / RUN BY / DATE
Linux 2.4.21-27.ELsmp|Opteron|gcc -static|Linux 64|=+       COMMENT
BIT 2 OF LLI FLAGS DATA COLLECTED UNDER A/S CONDITION       COMMENT
-Unknown-                                                   MARKER NAME
-Unknown-           -Unknown-                               OBSERVER / AGENCY
-Unknown-           -Unknown-           -Unknown-           REC # / TYPE / VERS
-Unknown-           -Unknown-                               ANT # / TYPE
        0.0000        0.0000        0.0000                  APPROX POSITION XYZ
        0.0000        0.0000        0.0000                  ANTENNA: DELTA H/E/N
     1     1                                                WAVELENGTH FACT L1/2
     7    L1    L2    C1    P1    P2    S1    S2            # / TYPES OF OBSERV
 SNR is mapped to RINEX snr flag value [0-9]                COMMENT
  L1 & L2: min(max(int(snr_dBHz/6), 0), 9)                  COMMENT
  2025     1     1    10     0    0.0000000     GPS         TIME OF FIRST OBS
    18                                                      LEAP SECONDS
                                                            END OF HEADER
 25  1  1 10  0  0.0000000  0 23G18G08G23E29G32G24E33G10G27R19R04R03
                                R13E26R18S35R05R17S31S33E07E08E13
 117173612.595 7  91304147.03045  22297395.472    22297395.2624   22297398.4014
        43.600          30.6004
 127556526.497 6  99394651.45542  24273177.956    24273178.0004   24273182.1904
        39.900          15.7004
 108167857.073 8  84286676.89145  20583656.290    20583655.9774   20583654.5874
        49.500          34.5004
 127827982.577 7                  24324852.348
        47.600
 115023253.692 8  89628472.11147  21888169.797    21888169.4004   21888171.4514
        48.200          45.6004
 113291776.819 6  88279338.51145  21558703.145    21558702.8104   21558702.5904
        37.800          33.5004
 130654018.067 7                  24862628.004
        45.900
 111436643.959 8  86833790.71547  21205688.317    21205687.8354   21205689.9134
        48.600          47.2004
 124900044.989 5  97324639.75143  23767654.698    23767653.9924   23767675.6204
        35.300          22.4004
 106280510.701 6  82662644.714 8  19868016.015    19868015.736    19868020.654
        41.200          48.000
 109233329.306 7  84959363.675 7  20398528.310    20398527.844    20398533.725
        44.800          45.400
 107548270.150 8  83648675.667 8  20090901.957    20090902.367    20090905.590
        52.500          48.100
 119818124.931 5                  22438088.171    22438087.027
        33.300
 122717446.859 8                  23352354.236
        48.500
 107434398.840 8  83560079.660 7  20126080.281    20126080.685    20126084.899
        51.100          42.900


 127974599.656 6  99535833.931 5  23940298.365    23940294.466    23940299.512
        38.200          30.200
 125291306.580 5                  23413680.773    23413678.106
        35.300
 198898489.993 7                  37849125.335
        42.900
 202016834.742 7                  38442528.121
        44.000
 123770682.406 7                  23552757.156
        45.700


 136946325.435 6                  26060010.747
        38.500
 25  1  1 10  0 15.0000000  0 25G18G08G23E29G32G24E33G10G27R19R04R12
                                R03R13E26R18S35R05R17R02S31S33E07E08
                                E13
 117221734.781 7  91341644.78844  22306554.599    22306554.3714   22306554.5944
        43.700          29.0004
 127561921.723 6  99398855.43242  24274203.241    24274203.0004   24274207.4804
        38.900          17.5004
 108178964.458 8  84295331.99345  20585769.833    20585769.5294   20585768.9944
        49.400          34.7004
 127805074.937 8                  24320492.811
        48.100
 114994191.637 7  89605826.34947  21882638.527    21882638.0804   21882641.0424
        46.800          46.7004
 113312058.797 6  88295142.64345  21562560.966    21562560.6134   21562563.7834
        37.800          32.6004
 130624677.187 7                  24857045.004
        45.100
 111414513.612 7  86816546.26647  21201477.118    21201476.6314   21201479.3174
        47.000          45.6004
 124928814.002 6  97347057.27842  23773126.340    23773125.7414   23773148.8864
        36.300          16.0004
 106270136.008 6  82654575.490 7  19866076.104    19866076.367    19866080.914
        41.400          47.400
 109214471.760 7  84944696.702 7  20395001.712    20395004.026    20395012.071
        42.000          45.400
 122838659.548 5  95541176.330 5  22995645.110                    22995657.449
        31.400          34.500
 107569794.149 8  83665416.570 8  20094923.307    20094923.469    20094928.177
        52.800          49.800
 119783111.691 6                  22431534.764    22431534.164
        38.900
 122726976.579 8                  23354167.521
        48.300
 107476833.043 8  83593084.003 7  20134030.001    20134030.657    20134033.996
        50.700          42.400


 127931687.545 6  99502457.874 5  23932270.834    23932268.905    23932274.975
        40.600          33.100
 125360376.004 5                  23426583.278    23426584.890
        33.200
 125236977.309 5                  23469369.512    23469366.455
        34.700
 198898493.205 7                  37849128.872
        43.200
 202016822.902 7                  38442526.096
        44.100
 123785913.302 7                  23555655.333
        46.800


 136988162.253 6                  26067972.540
        38.300
 25  1  1 10  0 30.0000000  0 26G18G08G23E29G32G24E33G10G27R19R04R12
                                R03R13E26R18S35R05R17R02S31S33E07E08
                                R14E13
 117269938.560 7  91379206.12844  22315727.275    22315727.0164   22315725.4994
        42.900          27.1004
 127567441.245 6  99403156.32442  24275255.418    24275255.3834   24275262.5594
        39.300          17.8004
 108190142.831 8  84304042.40745  20587896.770    20587896.4624   20587897.1874
        50.200          35.0004
 127782229.033 7                  24316144.731
        47.500
 114965206.473 7  89583240.51048  21877123.960    21877123.5454   21877125.2694
        47.600          48.0004
 113332496.035 5  88311067.75345  21566448.458    21566448.0964   21566454.3494
        35.600          32.8004
 130595400.913 7                  24851474.636
        44.600
 111392425.098 7  86799334.41447  21197272.889    21197272.4024   21197276.5374
        46.600          44.0004
 124957674.139 6  97369545.83542  23778618.526    23778617.9144   23778638.6924
        38.500          17.2004
 106259968.488 6  82646667.432 7  19864176.156    19864174.255    19864179.169
        39.100          46.300
 109195691.048 7  84930089.420 7  20391496.551    20391497.644    20391505.394
        43.200          46.400
 122844928.358 5  95546051.961 5  22996835.730    22996830.352    22996830.745
        32.800          35.300
 107591372.859 8  83682200.011 8  20098954.882    20098954.972    20098959.671
        53.000          50.700
 119748231.239 5                  22424988.494    22424990.714
        30.300
 122736604.019 7                  23355999.911
        47.800
 107519424.854 8  83626210.938 7  20142008.546    20142008.832    20142013.002
        49.600          42.600


 127888812.383 6  99469110.592 5  23924248.390    23924249.367    23924258.590
        40.200          34.700
 125429460.003 4                  23439491.641    23439492.162
        29.900
 125282353.636 5                  23477874.193    23477877.714
        31.900
 198898496.710 7                  37849126.239
        43.100
 202016812.187 7                  38442526.950
        44.600
 123801200.701 7                  23558564.712
        47.600


 129487304.621 5                  24291487.678    24291487.254
        31.000
 137030045.048 6                  26075943.702
        40.000
 25  1  1 10  0 45.0000000  0 24G18G08G23E29G32G24E33G10G27R19R04R12
                                R03R13E26R18S35R05R17S31S33E07E08E13
 117318222.571 7  91416829.98144  22324914.233    22324913.9294   22324912.6484
        42.200          25.5004
 127573083.890 6  99407553.40541  24276328.368    24276328.1944   24276340.3374
        40.400          11.3004
 108201391.326 8  84312807.46145  20590037.321    20590036.9914   20590038.2804
        48.000          34.6004
 127759443.763 7                  24311809.197
        45.500
 114936297.079 8  89560713.69348  21871622.793    21871622.3914   21871624.2844
        48.300          49.6004
 113353087.246 6  88327112.88945  21570369.723    21570369.3794   21570373.2664
        38.400          35.5004
 130566188.417 7                  24845915.226
        45.000
 111370377.458 7  86782154.41546  21193076.805    21193076.2734   21193080.8404
        46.300          41.7004
 124986624.043 6  97392104.29943  23784128.117    23784127.6034   23784141.2564
        38.100          22.8004
 106250007.620 6  82638920.112 7  19862314.018    19862310.885    19862317.413
        37.200          46.100
 109176986.087 7  84915541.070 7  20388007.173    20388005.217    20388014.076
        42.500          46.200
 122851379.213 5  95551069.003 5  22998022.706    22998024.878    22998034.023
        32.600          33.400
 107613004.816 8  83699024.883 8  20102995.134    20102995.092    20102999.487
        52.100          50.000
 119713483.170 5                  22418486.464    22418486.797
        32.500
 122746328.094 7                  23357850.735
        47.800
 107562172.682 7  83659459.257 7  20150015.596    20150015.398    20150021.307
        46.800          44.200


 127845972.493 6  99435790.673 6  23916233.869    23916232.777    23916244.164
        38.100          36.700
 125498557.072 4                  23452402.718    23452402.438
        29.000
 198898498.957 7                  37849130.522
        43.100
 202016798.725 7                  38442523.873
        44.500
 123816543.353 7                  23561484.029
        47.000


 137071972.619 6                  26083921.130
        40.700
 25  1  1 10  1  0.0000000  0 23G18G08G23E29G32G24E33G10G27R19R04R12
                                R03R13E26R18S35R05S31S33E07E08E13
 117366587.702 7  91454517.04744  22334116.427    22334116.0564   22334116.2944
        43.100          25.3004
 127578850.684 7  99412047.09843  24277425.647    24277425.4914   24277441.1254
        43.100          19.1004
 108212711.184 7  84321628.13845  20592192.181    20592191.8424   20592192.1134
        46.500          33.7004
 127736720.329 7                  24307485.057
        45.500
 114907464.708 8  89538246.89848  21866136.312    21866135.9104   21866138.0544
        48.300          50.4004
 113373833.429 6  88343278.74446  21574317.425    21574317.0504   21574321.4364
        38.000          36.8004
 130537041.052 7                  24840368.587
        46.000
 111348372.011 8  86765007.30746  21188890.061    21188889.5074   21188891.5614
        48.000          39.9004
 125015664.544 6  97414733.26343  23789654.123    23789653.7124   23789664.6584
        38.000          23.4004
 106240254.445 6  82631334.279 7  19860491.694    19860489.432    19860494.498
        39.400          46.700
 109158357.878 7  84901052.437 7  20384528.603    20384527.856    20384533.611
        45.200          44.400
 122858013.564 6  95556228.910 5  22999272.159    22999267.493    22999275.488
        36.000          30.100
 107634691.264 8  83715892.111 8  20107046.871    20107046.167    20107051.068
        52.000          50.100
 119678868.854 4                  22412004.550    22412002.318
        29.800
 122756150.016 8                  23359720.157
        49.500
 107605077.297 7  83692829.561 7  20158051.755    20158050.975    20158060.431
        43.400          46.300


 127803169.473 6  99402499.418 5  23908228.811    23908227.365    23908231.485
        38.800          34.900
 198898501.094 7                  37849129.700
        43.400
 202016786.540 7                  38442521.477
        44.300
 123831942.315 7                  23564414.889
        46.800


 137113945.982 6                  26091907.814
        40.700
 25  1  1 10  1 15.0000000  0 24G18G08G23E29G32G24E33G10G27R19R04R12
                                R03E26R18S35R05R17R02S31S33E07E08E13
 117415031.428 6  91492265.35144  22343333.040    22343332.6074   22343335.9754
        40.600          24.0004
 127584739.336 7  99416635.68343  24278546.284    24278546.0744   24278565.8094
        43.400          20.4004
 108224100.201 7  84330502.70445  20594359.264    20594358.9074   20594359.0664
        47.400          34.2004
 127714056.458 7                  24303172.134
        45.400
 114878707.131 8  89515838.38948  21860663.640    21860663.2564   21860665.6784
        49.700          51.2004
 113394732.143 6  88359563.48046  21578294.410    21578294.1424   21578298.1714
        38.900          37.5004
 130507956.872 7                  24834833.852
        46.100
 111326406.601 8  86747891.44446  21184710.394    21184709.8404   21184708.1394
        49.400          39.2004
 125044793.042 6  97437430.75943  23795196.770    23795196.4224   23795209.1534
        38.300          19.7004
 106230706.771 6  82623908.288 7  19858706.655    19858705.899    19858710.021
        40.400          46.400
 109139804.009 7  84886621.702 6  20381063.654    20381062.192    20381065.461
        45.500          41.100
 122864829.076 5  95561529.557 5  23000549.959    23000548.278    23000555.629
        34.400          30.800
 107656429.334 8  83732799.492 8  20111106.936    20111107.246    20111111.815
        52.200          49.300
 122766067.583 8                  23361607.414
        49.800
 107648136.183 7  83726319.813 7  20166118.750    20166118.426    20166125.860
        44.600          46.500


 127760400.883 6  99369235.073 5  23900225.853    23900229.586    23900229.414
        39.100          35.000
 125636789.617 4  97717590.877 5  23478250.716                    23478256.320
        26.400          33.100
 125418398.121 5                  23503360.230
        31.800
 198898500.983 7                  37849128.635
        43.300
 202016772.330 7                  38442517.483
        44.200
 123847395.190 7                  23567355.794
        47.100


 137155962.738 6                  26099902.926
        38.600
 25  1  1 10  1 30.0000000  0 24G18G08G23E29G32G24E33G10G27R19R04R12
                                R03E26R18S35R05R17R02S31S33E07E08E13
 117463558.696 6  91530078.78443  22352568.996    22352568.6254   22352570.7124
        36.200          22.7004
 127590754.873 6  99421323.16643  24279690.679    24279690.4114   24279710.5724
        39.000          20.8004
 108235563.665 7  84339435.27645  20596540.573    20596540.2204   20596540.4444
        46.300          34.5004
 127691457.401 7                  24298871.379
        45.800
 114850029.593 8  89493492.26748  21855206.045    21855205.6704   21855208.2644
        49.700          51.6004
 113415788.427 6  88375970.98646  21582301.454    21582301.2094   21582304.1414
        40.000          37.7004
 130478941.160 7                  24829312.837
        46.000
 111304486.613 8  86730810.97546  21180539.286    21180538.7364   21180535.9544
        49.400          40.7004
 125074014.438 6  97460200.43242  23800757.264    23800756.8584   23800768.2254
        36.200          15.1004
 106221370.326 6  82616646.603 7  19856961.331    19856960.741    19856964.237
        40.500          45.900
 109121329.653 7  84872252.828 6  20377611.705    20377610.278    20377616.047
        44.700          41.300
 122871830.820 5  95566975.098 5  23001858.239    23001857.976    23001868.614
        33.000          31.400
 107678224.750 8  83749751.468 8  20115178.395    20115178.685    20115182.780
        52.100          48.500
 122776086.024 8                  23363513.718
        49.700
 107691353.858 7  83759933.569 7  20174215.112    20174213.275    20174221.358
        43.700          46.300


 127717672.038 6  99336001.573 6  23892245.033    23892247.382    23892238.151
        39.000          38.000
 125705927.483 4  97771364.673 5  23491178.668                    23491168.514
        29.500          32.700
 125463721.397 6  97582926.334 5  23511857.401    23511853.881    23511856.767
        37.100          34.200
 198898504.273 7                  37849127.066
        43.200
 202016760.441 7                  38442515.748
        44.100
 123862907.080 8                  23570307.284
        48.500


 137198027.954 6                  26107908.833
        36.200
 25  1  1 10  1 45.0000000  0 24G18G08G23E29G32G24E33G10G27R19R04R12
                                R03E26R18S35R05R17R02S31S33E07E08E13
 117512164.009 6  91567953.03443  22361819.197    22361818.8264   22361819.9324
        38.600          22.6004
 127596891.887 6  99426105.41343  24280858.632    24280858.3514   24280876.9414
        39.700          19.0004
 108247096.374 7  84348421.80545  20598735.337    20598734.9934   20598734.2274
        46.300          33.8004
 127668917.889 7                  24294582.369
        45.000
 114821426.880 8  89471204.45948  21849763.784    21849763.4094   21849764.7304
        49.400          51.1004
 113436996.803 6  88392497.01246  21586337.280    21586336.9994   21586339.1194
        41.100          38.3004
 130449988.978 7                  24823803.229
        46.100
 111282606.965 8  86713761.92047  21176376.101    21176375.5514   21176374.0134
        48.700          43.2004
 125103323.154 5  97483038.33043  23806336.189    23806335.7074   23806337.7784
        34.500          23.5004
 106212239.683 6  82609545.009 7  19855254.091    19855252.778    19855255.966
        39.900          44.600
 109102929.652 8  84857941.689 7  20374176.421    20374176.577    20374180.450
        48.500          42.600
 122879013.629 6  95572561.561 5  23003209.830    23003207.574    23003208.365
        38.500          31.100
 107700071.533 8  83766743.400 8  20119259.337    20119260.230    20119264.737
        52.200          48.500
 122786200.135 8                  23365438.302
        49.100
 107734724.944 8  83793666.614 7  20182341.367    20182341.222    20182345.697
        48.000          45.900


 127674977.852 5  99302795.076 6  23884253.749    23884256.405    23884250.983
        34.400          38.300
 125775075.264 4  97825146.320 5  23504092.081                    23504089.836
        29.900          34.100
 125509029.236 5  97618165.719 4  23520356.765    23520355.902    23520348.011
        32.100          29.700
 198898505.157 7                  37849128.063
        43.400
 202016747.013 7                  38442514.769
        44.300
 123878472.579 8                  23573268.933
        48.900


 137240136.272 5                  26115923.294
        35.200
 25  1  1 10  2  0.0000000  0 25G18G08G23E29G32G24E33G10G27R19R04R12
                                R03R13E26R18S35R05R17R02S31S33E07E08
                                E13
 117560850.242 6  91605890.33844  22371084.535    22371084.0974   22371085.0674
        40.200          24.4004
 127603153.473 6  99430984.78444  24282049.307    24282049.0444   24282058.0804
        37.300          24.7004
 108258701.577 7  84357464.82045  20600943.350    20600943.0154   20600941.2954
        46.700          33.3004
 127646441.157 7                  24290305.545
        44.200
 114792902.217 8  89448977.46848  21844336.002    21844335.6454   21844335.9524
        49.100          51.1004
 113458360.324 7  88409143.92046  21590403.304    21590403.0234   21590404.5794
        43.800          41.1004
 130421103.755 7                  24818306.868
        45.100
 111260770.957 8  86696746.85547  21172221.382    21172220.8504   21172221.0834
        49.500          46.1004
 125132721.992 6  97505946.51544  23811930.370    23811929.8654   23811929.8154
        39.200          28.7004
 106203318.302 6  82602606.124 7  19853586.870    19853585.672    19853587.456
        40.500          43.700
 109084606.928 8  84843690.684 7  20370755.434    20370755.187    20370758.179
        50.500          43.100
 122886380.226 4  95578291.460 5  23004612.889                    23004590.826
        25.700          32.600
 107721972.999 8  83783777.859 8  20123350.529    20123351.894    20123356.343
        51.900          48.100
 119541763.204 5                  22386336.499    22386343.034
        34.500
 122796413.070 8                  23367381.823
        48.800
 107778252.100 8  83827521.061 7  20190494.759    20190495.861    20190500.174
        48.000          46.100


 127632321.417 5  99269617.977 6  23876281.201    23876276.956    23876273.072
        31.300          39.500
 125844235.964 5  97878937.935 5  23517012.170                    23517012.387
        32.800          33.800
 125554324.732 4                  23528822.064    23528827.131
        29.200
 198898506.925 7                  37849128.564
        43.200
 202016734.330 7                  38442513.137
        44.100
 123894094.761 7                  23576242.086
        47.700


 137282290.709 6                  26123943.894
        37.100
 25  1  1 10  2 15.0000000  0 26G18G08G23G15E29G32G24E33G10G27R19R04
                                R12R03R13E26R18S35R05R17R02S31S33E07
                                E08E13
 117609612.517 7  91643886.87244  22380363.490    22380362.9994   22380364.8694
        43.600          25.5004
 127609534.903 6  99435957.37944  24283263.734    24283263.4894   24283266.2814
        37.200          24.9004
 108270374.738 7  84366560.79945  20603163.554    20603163.2154   20603162.6134
        46.100          33.1004
 127849335.298 5                  24328920.535
        33.600
 127624022.537 7                  24286038.984
        43.300
 114764451.041 8  89426807.74948  21838922.256    21838921.9214   21838921.6494
        50.400          50.8004
 113479874.149 7  88425907.93447  21594497.944    21594497.6674   21594499.0214
        43.700          42.7004
 130392281.084 7                  24812822.490
        44.700
 111238974.105 8  86679762.30148  21168073.495    21168072.9454   21168075.3264
        50.100          48.1004
 125162206.072 6  97528921.10844  23817540.558    23817540.0624   23817541.4514
        38.500          28.9004
 106194601.524 6  82595826.441 7  19851956.507    19851956.589    19851958.408
        40.900          43.600
 109066356.854 8  84829496.173 7  20367347.647    20367348.150    20367349.935
        51.600          43.400
 122893926.414 4                  23006003.669
        29.500
 107743924.006 8  83800850.840 7  20127452.085    20127452.153    20127456.566
        51.400          47.200
 119507821.662 6                  22379977.270    22379975.663
        36.600
 122806720.258 8                  23369342.666
        48.000
 107821930.100 7  83861492.839 7  20198678.326    20198678.059    20198683.324
        47.800          46.700


 127589698.039 4  99236466.515 6  23868314.137    23868310.577    23868296.855
        27.700          38.000
 125913404.309 5  97932735.480 5  23529937.489    23529935.312    23529936.467
        35.900          31.400
 125599602.922 5                  23537321.464    23537318.300
        34.800
 198898505.482 7                  37849129.172
        43.300
 202016718.255 7                  38442507.588
        44.100
 123909768.853 7                  23579225.194
        47.800


 137324486.461 6                  26131971.986
        38.500
 25  1  1 10  2 30.0000000  0 25G18G08G23G15E29G32G24E33G10G27R19R04
                                R12R03R13E26R18S35R05R17S31S33E07E08
                                E13
 117658457.789 7  91681948.08744  22389656.957    22389656.4074   22389660.8224
        43.100          25.7004
 127616043.208 6  99441028.80843  24284503.061    24284502.8074   24284501.2854
        36.500          22.2004
 108282123.196 7  84375715.45145  20605399.136    20605398.8014   20605399.3374
        45.700          33.3004
 127901168.065 5                  24338779.067
        34.200
 127601669.311 6                  24281785.126
        41.900
 114736080.615 8  89404700.96148  21833522.859    21833522.5064   21833523.2654
        50.300          50.4004
 113501545.320 7  88442794.55247  21598621.333    21598621.0744   21598622.7334
        44.900          43.0004
 130363528.387 7                  24807350.439
        44.300
 111217223.779 8  86662814.00148  21163934.611    21163934.0664   21163937.5324
        51.000          49.0004
 125191782.173 6  97551967.42544  23823168.572    23823168.1164   23823170.1374
        36.700          25.5004
 106186097.304 6  82589212.062 7  19850366.626    19850367.186    19850370.343
        41.500          44.900
 109048186.623 8  84815363.765 7  20363954.735    20363954.291    20363957.954
        51.900          44.400


 107765932.230 8  83817968.354 7  20131563.196    20131562.943    20131567.302
        51.100          46.600
 119474020.520 5                  22373639.755    22373640.653
        35.000
 122817128.984 8                  23371323.255
        48.300
 107865765.887 7  83895587.369 7  20206889.353    20206889.442    20206895.352
        47.500          47.000


                  99203346.742 6                  23860347.815    23860329.850
                        37.300
 125982587.352 6                  23542862.862    23542862.544
        37.000
 198898507.655 7                  37849127.741
        42.700
 202016705.849 7                  38442505.200
        44.000
 123925501.947 8                  23582218.818
        48.300


 137366730.670 6                  26140010.818
        40.300
 25  1  1 10  2 45.0000000  0 25G18G08G23G15E29G32G24E33G10G27R19R04
                                R12R03R13E26R18S35R05R17S31S33E07E08
                                E13
 117707382.298 7  91720071.03244  22398967.981    22398967.4494   22398971.4074
        43.200          25.4004
 127622674.741 5  99446196.25942  24285763.285    24285763.0044   24285761.8894
        31.100          16.8004
 108293943.501 7  84384926.09645  20607648.833    20607648.5124   20607649.3374
        45.400          33.6004
 127952998.702 5  99703659.50941  24348641.126    24348641.2104   24348650.3884
        33.300           9.5004
 127579377.980 6                  24277543.687
        41.100
 114707787.434 8  89382654.36248  21828138.192    21828137.8124   21828139.6554
        48.800          49.8004
 113523370.165 7  88459800.91047  21602774.782    21602774.5234   21602775.1764
        45.100          43.0004
 130334842.396 7                  24801892.031
        43.800
 111195516.612 8  86645899.32748  21159803.212    21159802.6584   21159806.6344
        51.500          48.7004
 125221446.485 5  97575082.44543  23828811.588    23828811.0254   23828814.6714
        30.500          19.8004
 106177801.861 6  82582760.069 7  19848814.453    19848814.321    19848820.563
        40.000          46.200
 109030092.533 8  84801290.603 7  20360574.547    20360574.277    20360579.058
        50.100          44.600
 122909575.707 5  95596368.332 5  23008926.291    23008928.689    23008931.815
        35.500          33.200
 107787993.373 8  83835126.989 7  20135684.830    20135684.880    20135687.526
        52.100          46.200
 119440356.683 6                  22367342.242    22367340.678
        38.300
 122827635.758 7                  23373322.087
        47.400
 107909755.545 7  83929801.551 7  20215129.227    20215130.254    20215136.257
        47.300          46.700


 127504569.516 5  99170255.486 6  23852394.963    23852394.279    23852371.136
        33.000          40.100
 126051780.879 6                  23555792.623    23555794.329
        37.600
 198898509.642 7                  37849129.530
        43.200
 202016693.173 7                  38442501.551
        44.300
 123941290.399 8                  23585223.277
        48.100


 137409019.688 6                  26148058.668
        40.600
 25  1  1 10  3  0.0000000  0 26G18G08G23G15E29G32G24E33G10G27R19R04
                                R12R03R13E26R18S35R05R17R02S31S33E07
                                E08E13
 117756384.802 7  91758254.74344  22408292.505    22408291.9784   22408294.8204
        45.100          25.1004
 127629428.431 4  99451458.81741  24287047.474    24287047.2464   24287045.3974
        29.300          10.6004
 108305834.733 7  84394192.00645  20609912.263    20609911.9464   20609912.6844
        45.900          34.3004
 128004826.049 4  99744044.35941  24358501.024    24358500.6184   24358509.6634
        29.800           8.5004
 127557147.547 7                  24273313.042
        42.400
 114679570.541 8  89360667.21248  21822768.962    21822768.6094   21822769.7464
        48.700          48.6004
 113545347.436 7  88476926.05547  21606956.704    21606956.4594   21606956.6304
        45.100          42.6004
 130306222.405 7                  24796446.593
        43.300
 111173851.811 8  86629017.65747  21155680.844    21155680.2904   21155682.5154
        50.700          47.8004
 125251197.741 6  97598265.23843  23834475.820    23834475.1944   23834475.4774
        37.500          23.4004
 106169714.907 6  82576470.186 7  19847302.857    19847303.137    19847309.057
        40.200          46.500
 109012073.783 8  84787275.987 7  20357211.090    20357209.967    20357212.194
        50.100          43.600
 122917674.420 5  95602667.176 5  23010449.730    23010444.346    23010445.893
        33.900          31.900
 107810106.403 8  83852326.006 7  20139815.017    20139814.982    20139819.167
        51.000          46.600
 119406829.831 6                  22361060.565    22361062.645
        38.900
 122838239.605 7                  23375340.443
        46.600
 107953897.569 7  83964134.225 7  20223398.569    20223399.782    20223403.894
        47.400          45.000


 127462059.515 4  99137192.273 6  23844443.046    23844443.680    23844419.540
        25.000          41.200
 126120983.580 6                  23568729.772    23568730.894
        38.200
 125735366.389 4                  23562748.843    23562746.481
        24.100
 198898510.949 7                  37849127.620
        42.700
 202016680.059 7                  38442502.016
        44.300
 123957133.093 8                  23588238.121
        48.300


 137451352.410 6                  26156111.350
        37.400
 25  1  1 10  3 15.0000000  0 26G18G08G23G15E29G32G24E33G10G27R19R04
                                R12R03R13E26R18S35R05R17R02S31S33E07
                                E08E13
 117805466.177 7  91796499.90744  22417632.346    22417631.8684   22417632.7804
        45.400          27.0004


 108317798.240 7  84403514.22845  20612189.293    20612188.9764   20612188.9594
        45.300          35.0004
 128056650.932 5  99784427.37841  24368365.583    24368364.8864   24368369.4664
        31.600           7.6004
 127534979.274 6                  24269094.806
        40.700
 114651431.202 7  89338740.48347  21817413.017    21817412.6374   21817414.3654
        46.600          46.6004
 113567478.195 7  88494170.81446  21611168.520    21611168.2704   21611167.1064
        44.300          41.6004
 130277669.756 7                  24791012.698
        43.700
 111152230.715 8  86612170.04048  21151566.815    21151566.2614   21151567.2724
        50.800          48.0004
 125281036.852 6  97621516.50744  23840154.263    23840153.6204   23840154.4464
        38.900          25.8004
 106161837.472 6  82570343.286 7  19845829.497    19845831.029    19845835.402
        41.200          46.000
 108994131.293 8  84773320.737 7  20353859.711    20353858.262    20353861.321
        48.900          44.400


 107832272.659 8  83869566.446 7  20143955.599    20143954.627    20143961.128
        50.600          47.800
 119373441.527 5                  22354804.876    22354804.278
        32.000
 122848941.790 7                  23377377.165
        46.600
 107998192.911 7  83998586.128 7  20231697.805    20231698.586    20231703.538
        45.400          45.100


                  99104158.083 6                                  23836473.440
                        40.600
 126190196.474 5                  23581663.473    23581667.714
        33.600
                  97829393.245 5                                  23571240.742
                        35.100
 198898512.954 7                  37849130.657
        43.000
 202016667.679 7                  38442500.625
        46.000
 123973031.115 8                  23591263.645
        48.600


 137493729.825 6                  26164179.835
        37.300
 25  1  1 10  3 30.0000000  0 26G18G08G23G15E29G32G24E33G10G27R19R04
                                R12R03R13E26R18S35R05R17R02S31S33E07
                                E08E13
 117854624.295 7  91834804.89244  22426987.345    22426986.9124   22426987.6424
        45.900          29.3004


 108329832.168 7  84412891.32645  20614479.787    20614479.4394   20614478.4884
        45.600          35.4004
 128108471.672 4  99824807.0454   24378225.766    24378224.9264   24378228.8794
        29.900           4.9004
 127512871.222 7                  24264887.689
        42.200
 114623367.526 7  89316872.70447  21812072.866    21812072.4914   21812073.8264
        47.200          46.7004
 113589760.338 7  88511533.50646  21615408.332    21615408.0784   21615406.1734
        44.900          40.8004
 130249182.846 7                  24785590.173
        42.800
 111130651.532 8  86595355.08748  21147460.100    21147459.5594   21147460.9944
        50.900          48.4004
 125310961.572 6  97644834.47044  23845848.054    23845847.4244   23845850.6634
        40.900          28.7004
 106154167.457 6  82564377.728 7  19844396.567    19844397.490    19844401.000
        41.700          45.700
 108976263.173 8  84759423.296 7  20350523.283    20350522.830    20350526.072
        50.200          46.000
 122934334.437 4  95615692.026 6  23013575.792    23013587.311    23013582.481
        29.700          36.100
 107854489.918 8  83886846.522 7  20148106.070    20148105.487    20148110.293
        51.400          47.500
 119340190.529 5                  22348576.052    22348575.952
        32.700
 122859740.414 7                  23379432.270
        46.900
 108042638.969 7  84033155.248 7  20240022.769    20240023.200    20240030.236
        44.400          45.200


 127377149.563 5  99071151.460 7  23828527.125                    23828536.051
        30.900          42.000
 126259416.648 5                  23594591.832    23594594.460
        33.300
                  97864557.816 5                                  23579708.975
                        33.000
 198898513.406 7                  37849131.408
        42.600
 202016653.375 7                  38442498.506
        45.900
 123988982.456 8                  23594298.857
        49.400


 137536150.000 6                  26172252.699
        36.900
 25  1  1 10  3 45.0000000  0 25G18G08G23E29G32G24E33G10G27R19R04R12
                                R03R13E26R18S35R05R02S31S33E07E08R14
                                E13
 117903858.053 7  91873168.81045  22436356.331    22436355.9024   22436358.1964
        46.300          30.5004


 108341935.797 7  84422322.74546  20616782.251    20616781.9074   20616781.8754
        45.400          36.2004
 127490822.643 7                  24260691.821
        44.100
 114595378.752 8  89295063.29447  21806746.973    21806746.6114   21806747.9004
        48.400          47.4004
 113612192.886 7  88529013.40446  21619676.460    21619676.1974   21619674.3014
        45.500          40.5004
 130220761.068 6                  24780182.365
        40.400
 111109113.654 8  86578572.31447  21143361.398    21143360.8624   21143362.7524
        50.200          47.5004
 125340970.687 7  97668218.19844  23851558.097    23851557.4134   23851562.2314
        42.200          29.4004
 106146704.448 6  82558573.196 7  19843001.157    19843002.254    19843006.332
        41.600          46.400
 108958468.362 8  84745582.876 7  20347200.277    20347201.089    20347203.835
        51.300          46.800
 122942979.023 5  95622415.722 5  23015206.743    23015204.303    23015197.269
        33.500          34.100
 107876757.223 8  83904165.515 8  20152265.890    20152266.001    20152270.570
        52.600          48.400
 119307076.446 5                  22342377.210    22342375.028
        31.500
 122870634.724 8                  23381504.950
        48.000
 108087234.614 7  84067840.741 7  20248376.941    20248376.602    20248385.481
        43.400          45.600


 127334746.930 5  99038171.596 6  23820595.498                    23820603.933
        31.400          41.900
                  97899709.401 5                                  23588177.848
                        30.700
 198898511.295 7                  37849132.003
        43.700
 202016637.015 7                  38442493.529
        44.800
 124004986.160 8                  23597343.902
        49.400


 128738659.118 5                  24151044.554    24151043.033
        35.500
 137578611.918 6                  26180332.447
        38.400
 25  1  1 10  4  0.0000000  0 26G18G08G23E29G32G24E33G10G27R19R04R12
                                R03R13E26R18S35R05R17R02S31S33E07E08
                                R14E13
 117953178.524 7  91911600.32145  22445742.019    22445741.5814   22445745.5894
        46.500          31.8004


 108354120.498 7  84431817.31946  20619099.800    20619099.4834   20619101.1444
        45.800          36.5004
 127468844.779 7                  24256509.673
        43.600
 114567476.223 8  89273321.09147  21801437.318    21801436.9704   21801438.2554
        49.000          47.8004
 113634786.898 7  88546619.12046  21623975.396    21623975.1514   21623974.0074
        45.400          39.8004
 130192415.919 6                  24774788.536
        41.900
 111087628.568 8  86561830.67447  21139272.551    21139272.0374   21139274.0434
        48.800          44.7004
 125371075.233 6  97691676.34444  23857287.669    23857287.0174   23857289.4364
        39.300          25.8004
 106139460.007 6  82552938.646 7  19841646.949    19841646.852    19841652.892
        40.000          46.900
 108940758.393 8  84731808.455 7  20343892.951    20343894.798    20343896.087
        52.200          47.000
 122951815.515 5  95629288.787 5  23016866.343    23016863.266    23016852.288
        32.000          34.300
 107899085.648 8  83921532.059 8  20156437.373    20156437.712    20156442.375
        53.400          48.800
 119274111.267 5                  22336206.320    22336205.150
        32.100
 122881636.033 7                  23383598.293
        47.800
 108131990.906 7  84102651.199 7  20256761.931    20256761.029    20256768.830
        43.000          44.500


 127292390.472 5  99005227.667 6  23812677.015                    23812680.012
        32.300          41.000
 126397886.699 5                  23620471.197    23620472.137
        35.700
 125916179.357 6                  23596642.868    23596646.303
        38.100
 198898518.879 7                  37849131.918
        43.400
 202016630.008 7                  38442491.637
        44.000
 124021053.393 8                  23600401.263
        49.500


 128680906.109 5                  24140209.380    24140208.555
        34.000
 137621126.792 6                  26188422.049
        38.600
 25  1  1 10  4 15.0000000  0 27G18G08G23E29G32G24E33G10G27R19R04R12
                                R03R13E26R18S35R05R17R02S31G21S33E07
                                E08R14E13
 118002570.747 7  91950087.75045  22455141.567    22455141.1614   22455145.9824
        47.400          32.6004


 108366371.694 7  84441363.72145  20621430.777    20621430.4784   20621432.5054
        42.400          34.9004
 127446923.044 7                  24252338.726
        44.600
 114539645.323 8  89251634.71648  21796141.390    21796141.0284   21796141.9764
        48.700          48.2004
 113657527.556 7  88564339.11146  21628302.465    21628302.2244   21628302.5784
        43.600          39.4004
 130164132.961 7                  24769406.158
        43.900
 111066181.690 8  86545118.80047  21135191.181    21135190.6854   21135191.4614
        48.900          42.4004
 125401260.111 6  97715197.16643  23863032.623    23863031.9714   23863034.1924
        37.200          20.5004
 106132419.607 6  82547462.772 7  19840331.526    19840330.737    19840336.366
        39.800          46.400
 108923118.230 8  84718088.315 7  20340597.665    20340599.418    20340600.327
        50.900          45.700
 122960829.894 4  95636300.218 5  23018545.795    23018545.473    23018541.935
        27.300          34.000
 107921460.517 9  83938934.723 8  20160618.016    20160618.093    20160622.515
        54.100          49.500
 119241280.425 5                  22330061.185    22330059.088
        34.800
 122892729.712 7                  23385709.314
        46.300
 108176892.479 7  84137574.628 7  20265173.403    20265172.938    20265179.268
        43.300          43.800


 127250064.813 5  98972307.783 6  23804757.510                    23804761.033
        34.000          40.100
 126467132.390 5                  23633412.484    23633413.644
        34.000
 125961350.026 5                  23605114.466    23605111.644
        32.700
 198898520.205 7                  37849131.546
        43.000
 132194473.087 5                  25155770.132
        31.600
 202016616.959 7                  38442487.631
        44.300
 124037169.394 8                  23603468.045
        49.700


 128623125.234 5                  24129374.219    24129377.901
        33.300
 137663679.813 6                  26196518.710
        38.700
 25  1  1 10  4 30.0000000  0 26G18G08G23E29G32G24E33G10G27R19R04R12
                                R03R13E26R18S35R05R02S31G21S33E07E08
                                R14E13
 118052038.922 8  91988634.34445  22464555.215    22464554.8224   22464559.3514
        49.000          31.7004


 108378693.938 7  84450965.50045  20623777.378    20623777.0974   20623776.7944
        42.600          33.0004
 127425061.888 7                  24248178.788
        44.700
 114511890.548 8  89230007.66548  21790860.357    21790860.0004   21790860.3284
        50.000          48.2004
 113680419.089 7  88582176.68146  21632659.263    21632659.0444   21632660.4614
        42.600          38.6004
 130135916.879 7                  24764037.005
        45.200
 111044777.665 8  86528440.31946  21131118.015    21131117.5244   21131116.0154
        50.000          40.3004
 125431529.577 6  97738783.86943  23868792.408    23868791.6844   23868801.7494
        36.100          19.1004
 106125587.695 6  82542149.098 7  19839053.747    19839054.228    19839059.369
        40.800          46.900
 108905552.436 8  84704426.058 7  20337317.684    20337316.939    20337319.976
        48.200          45.700
                  95643452.723 5                                  23020267.132
                        33.200
 107943885.925 8  83956376.736 8  20164807.601    20164807.355    20164811.294
        53.500          49.500
 119208588.940 6                  22323941.168    22323944.417
        36.600
 122903920.250 7                  23387839.913
        46.100
 108221943.383 7  84172614.207 7  20273612.665    20273611.440    20273617.452
        42.100          42.800


 127207775.156 5  98939415.843 6  23796844.772    23796846.531    23796851.864
        33.200          41.100
 126006505.301 4                  23613571.715    23613571.243
        26.500
 198898520.609 7                  37849131.233
        43.000
 132150949.368 5                  25147488.817
        30.900
 202016603.429 7                  38442486.625
        44.800
 124053338.469 8                  23606545.128
        50.000


 128565321.667 5                  24118536.253    24118537.574
        34.400
 137706275.297 6                  26204623.056
        36.200
 25  1  1 10  4 45.0000000  0 25G18G08G23E29G32G24E33G10G27R19R04R12
                                R03R13E26R18S35R05R17S31G21S33E07E08
                                E13
 118101587.254 7  92027243.38744  22473983.331    22473982.9254   22473985.4464
        47.400          29.2004


 108391091.781 7  84460626.19245  20626137.554    20626137.2824   20626135.3024
        44.500          33.9004
 127403265.800 7                  24244030.591
        44.200
 114484216.375 8  89208443.43148  21785593.884    21785593.5004   21785594.2284
        50.800          48.8004
 113703465.794 7  88600135.15646  21637045.250    21637045.0314   21637047.9004
        43.100          38.4004
 130107772.433 7                  24758681.577
        45.800
 111023421.132 8  86511798.86246  21127054.004    21127053.5354   21127050.3354
        50.100          39.8004
 125461887.652 6  97762439.94842  23874569.157    23874568.3624   23874583.5264
        37.500          14.4004
 106118969.251 6  82537001.430 7  19837817.590    19837817.699    19837822.935
        41.500          47.700
 108888065.350 8  84690825.002 7  20334051.752    20334052.011    20334055.280
        48.500          46.700
                  95650750.401 5                                  23022020.585
                        31.000
 107966366.437 8  83973861.587 8  20169006.496    20169006.329    20169010.192
        52.600          49.000
 119176041.957 5                  22317838.527    22317839.226
        33.100
 122915212.162 7                  23389988.712
        47.300
 108267147.931 7  84207773.260 7  20282081.548    20282081.337    20282086.325
        44.000          43.000


                  98906555.260 6                                  23788947.301
                        40.300
 126605646.029 5                  23659304.051    23659302.129
        32.500
 198898524.769 7                  37849132.056
        43.500
 132107470.267 4 102940935.5294   25139212.287    25139212.0734   25139227.9574
        26.000           1.8004
 202016592.856 7                  38442486.526
        44.200
 124069564.959 8                  23609632.876
        50.600


 137748917.548 5                  26212738.505
        30.200
 25  1  1 10  5  0.0000000  0 24G18G08G23E29G32G24E33G10G27R19R04R12
                                R03R13E26R18S35R05R17S31S33E07E08E13
 118151210.188 7  92065910.53844  22483426.150    22483425.7614   22483425.5514
        44.500          27.1004


 108403560.106 7  84470341.79545  20628510.151    20628509.8704   20628507.8244
        46.100          35.2004
 127381529.522 7                  24239894.260
        45.300
 114456617.618 8  89186937.94948  21780341.997    21780341.6134   21780342.5574
        51.000          49.4004
 113726662.200 7  88618210.27846  21641459.323    21641459.0954   21641462.4834
        43.400          36.6004
 130079694.597 7                  24753339.164
        46.300
 111002106.964 8  86495190.43246  21122998.082    21122997.6314   21122994.8604
        49.900          40.6004
 125492328.839 6  97786160.50443  23880361.308    23880360.4814   23880376.1464
        40.900          23.3004
 106112559.060 6  82532015.736 7  19836618.150    19836618.575    19836623.874
        40.300          47.200
 108870651.660 8  84677281.015 7  20330798.849    20330800.323    20330804.003
        49.200          47.700
 122989058.419 6                  23023812.062    23023815.092
        37.100
 107988896.462 8  83991384.926 8  20173215.837    20173215.512    20173219.317
        52.400          49.100
 119143634.514 4                  22311768.678    22311764.746
        27.600
 122926600.203 7                  23392155.414
        47.700
 108312500.164 7  84243047.191 7  20290578.263    20290578.913    20290583.495
        44.600          44.000


 127123311.673 4  98873721.953 6  23781061.921                    23781049.682
        24.700          38.400
 126674912.336 5                  23672242.374    23672240.966
        30.200
 198898526.899 7                  37849133.219
        43.300
 202016580.582 7                  38442484.800
        45.400
 124085843.499 8                  23612730.675
        50.700


 137791601.332 5                  26220862.380
        31.700
 25  1  1 10  5 15.0000000  0 25G18G08G23E29G32G24E33G10G27R19R04R12
                                R03R13E26R18S35R05R17S31S33E07E08R14
                                E13
 118200910.548 7  92104638.03744  22492883.097    22492882.7264   22492883.3244
        42.200          25.4004
 127695609.366 6  99503076.34742  24299667.749    24299667.9144   24299666.1004
        38.000          17.1004
 108416102.045 7  84480114.74445  20630895.872    20630895.5954   20630894.9014
        47.200          35.8004
 127359856.133 7                  24235770.314
        46.600
 114429097.374 8  89165493.64748  21775105.352    21775104.9684   21775106.0504
        50.400          49.9004
 113750011.199 7  88636404.30545  21645902.348    21645902.1344   21645905.2284
        42.500          35.0004
 130051686.610 7                  24748009.112
        45.700
 110980838.435 8  86478617.57247  21118951.090    21118950.6344   21118949.7994
        48.400          42.4004
 125522855.922 6  97809947.92644  23886170.180    23886169.4204   23886181.1224
        41.900          28.5004
 106106359.845 6  82527194.106 7  19835458.880    19835458.976    19835464.547
        40.000          46.700
 108853314.264 8  84663796.362 7  20327561.332    20327563.150    20327565.507
        49.300          47.500
 122998805.602 6                  23025627.713    23025629.623
        37.200
 108011478.966 8  84008949.100 8  20177433.309    20177433.554    20177438.378
        52.000          49.100
 119111370.620 5                  22305728.235    22305729.657
        32.200
 122938087.473 7                  23394341.205
        47.900
 108358002.767 7  84278438.065 7  20299104.318    20299104.513    20299107.123
        46.100          44.200


 127081127.642 5  98840918.393 6  23773157.178                    23773160.555
        35.800          39.400
 126744185.557 5                  23685189.209    23685187.234
        30.500
 198898530.229 7                  37849132.356
        43.000
 202016570.520 7                  38442480.847
        45.400
 124102177.030 8                  23615838.721
        50.500




 137834329.362 5                  26228992.395
        35.300
 25  1  1 10  5 30.0000000  0 26G18G08G23E29G32G24E33G10G27R19R04R12
                                R03R13E26R18S35R05R17S31S33E07E08R14
                                E13R20
 118250684.348 5  92143422.79443  22502354.954    22502354.5034   22502356.3984
        35.700          21.8004
 127703584.018 6  99509290.37943  24301183.240    24301182.9994   24301180.8804
        37.600          22.1004
 108428713.977 7  84489942.22445  20633295.063    20633294.8004   20633294.8624
        47.600          35.0004
 127338241.968 8                  24231657.455
        48.000
 114401652.002 8  89144107.68048  21769882.939    21769882.5684   21769883.8124
        50.900          50.0004
 113773508.989 7  88654714.24445  21650373.598    21650373.3974   21650374.4854
        44.200          31.7004
 130023745.062 7                  24742692.544
        45.900
 110959612.004 7  86462077.54147  21114912.118    21114911.6454   21114912.8584
        47.800          43.9004
 125553464.744 6  97833798.94244  23891993.746    23891992.9734   23892001.8064
        40.200          29.2004
 106100368.468 6  82522534.147 7  19834340.173    19834340.311    19834344.477
        41.700          46.400
 108836049.446 8  84650368.181 8  20324338.069    20324338.980    20324341.959
        49.300          48.300
 123008732.942 6                  23027489.306    23027488.723
        40.500
 108034110.085 8  84026551.083 8  20181660.375    20181660.735    20181665.300
        51.400          48.800
 119079246.719 5                  22299715.860    22299714.703
        35.400
 122949670.299 8                  23396545.520
        48.100
 108403651.678 7  84313942.790 7  20307654.580    20307654.524    20307659.065
        45.600          44.800


 127038986.153 6  98808141.712 6  23765274.329    23765275.508    23765278.873
        41.700          40.500
 126813461.634 5                  23698132.558    23698133.337
        30.000
 198898530.875 7                  37849132.919
        42.600
 202016556.808 7                  38442479.528
        44.700
 124118561.726 8                  23618956.720
        50.600




 137877097.926 6                  26237130.545
        39.500
 127339062.610 5                  23813040.636
        30.200
 25  1  1 10  5 45.0000000  0 23G18G08G23E29G32G24E33G10G27R19R04R12
                                R03R13E26R18S35R05S31S33E07E08E13
 118300535.608 6  92182267.91043  22511844.808    22511844.2904   22511844.2514
        37.000          19.0004
 127711681.757 4  99515600.34143  24302722.795    24302722.6884   24302723.9304
        29.000          20.3004
 108441400.187 7  84499827.57545  20635708.907    20635708.6304   20635708.3084
        45.300          33.2004
 127316691.268 7                  24227556.098
        47.400
 114374285.694 8  89122783.32148  21764675.034    21764674.6634   21764676.3354
        52.200          49.9004
 113797159.448 7  88673143.10244  21654873.798    21654873.5844   21654871.1844
        42.000          28.8004
 129995874.357 7                  24737389.046
        46.900
 110938431.979 8  86445573.63647  21110882.199    21110881.7214   21110884.2624
        48.300          44.8004
 125584159.219 5  97857716.72344  23897834.145    23897833.3634   23897838.2484
        35.900          26.1004
 106094589.282 7  82518039.209 7  19833259.054    19833260.007    19833263.852
        42.200          45.800
 108818861.482 8  84636999.777 8  20321128.134    20321130.350    20321133.417
        51.000          50.000
 123018844.954 5  95681308.797 5  23029378.526    23029378.108    23029385.710
        34.100          35.100
 108056793.880 8  84044194.037 8  20185897.227    20185897.463    20185903.302
        50.100          48.300
 119047267.529 5                  22293730.022    22293721.834
        30.100
 122961352.926 7                  23398768.464
        47.700
 108449450.544 7  84349564.134 7  20316232.434    20316233.376    20316239.089
        45.800          45.100


 126996883.276 7  98775395.024 6  23757402.544    23757401.504    23757402.221
        43.100          40.900
 198898533.916 7                  37849132.137
        42.300
 202016545.820 7                  38442476.237
        44.800
 124135001.673 8                  23622085.092
        50.500


 137919911.099 6                  26245277.824
        40.000
 25  1  1 10  6  0.0000000  0 24G18G08G23E29G32G24E33G10G27R19R04R12
                                R03E26R18S35R05R02S31G21S33E07E08E13
 118350459.495 6  92221169.66243  22521345.356    22521344.8204   22521344.6114
        40.900          22.2004
 127719897.963 5  99522002.66443  24304289.199    24304288.8024   24304288.9004
        33.200          20.7004
 108454156.281 7  84509767.39245  20638137.467    20638137.1994   20638135.3754
        45.000          32.7004
 127295199.575 7                  24223466.058
        45.400
 114346994.066 8  89101517.15948  21759481.428    21759481.0444   21759482.7074
        52.000          50.3004
 113820957.898 6  88691687.24744  21659402.744    21659402.5164   21659399.3914
        40.800          27.9004
 129968070.276 7                  24732097.407
        45.400
 110917294.091 8  86429102.53347  21106859.501    21106859.0234   21106862.8914
        48.600          46.3004


 106089017.908 6  82513705.901 7  19832217.939    19832217.327    19832221.624
        41.000          45.100
 108801745.675 8  84623687.494 8  20317931.299    20317933.519    20317937.303
        51.800          50.400
 123029136.747 4  95689313.710 5  23031299.122                    23031307.953
        28.400          32.400
 108079525.573 8  84061874.243 7  20190143.946    20190144.016    20190149.564
        49.900          47.500
 122973130.902 7                  23401009.531
        47.200
 108495394.574 7  84385298.351 7  20324840.480    20324841.326    20324845.000
        46.500          44.000


 126954814.498 5  98742674.802 6  23749522.524    23749523.037    23749531.437
        35.500          40.200
 126277197.823 5                  23664292.028    23664291.485
        35.600
 198898533.993 7                  37849133.943
        42.600
 131890681.486 5                  25097958.879
        34.900
 202016532.015 7                  38442471.479
        44.400
 124151492.290 8                  23625223.261
        50.900
 143699681.634 5                  27345127.473
        32.500
 137962764.267 6                  26253433.439
        41.900
 25  1  1 10  6 15.0000000  0 25G18G08G23E29G32G24E33G10G27R19R04R12
                                R03E26R18S35R05R02S31G21S33E07E08E19
                                E13
 118400457.820 7  92260129.34943  22530857.461    22530856.9254   22530857.9884
        42.800          23.4004
 127728234.563 4  99528498.80944  24305874.054    24305873.7194   24305876.5674
        28.800          24.0004
 108466984.396 7  84519763.32645  20640578.530    20640578.2764   20640577.1144
        46.900          33.9004
 127273768.903 7                  24219388.333
        44.800
 114319779.196 8  89080310.80948  21754302.521    21754302.1284   21754304.0494
        50.900          50.5004
 113844906.208 6  88710348.18444  21663961.650    21663961.4224   21663959.1314
        41.700          28.9004
 129940335.062 7                  24726819.480
        44.200
 110896200.560 8  86412665.99447  21102844.568    21102844.0954   21102848.9624
        48.000          46.7004


 106083656.557 7  82509535.985 7  19831217.146    19831217.186    19831219.547
        42.300          45.200
 108784704.097 8  84610432.945 8  20314749.285    20314749.832    20314754.371
        50.700          50.000


 108102307.083 8  84079593.179 7  20194401.259    20194401.702    20194405.820
        51.400          47.600
 122985006.302 7                  23403269.651
        46.600
 108541485.241 7  84421146.677 7  20333475.010    20333474.075    20333479.922
        44.200          44.300


 126912782.226 5  98709983.011 6  23741667.717    23741665.685    23741667.825
        35.100          39.000
 126322251.740 5                  23672734.780    23672735.174
        33.700
 198898533.590 7                  37849131.752
        42.800
 131847450.332 6                  25089733.077
        36.400
 202016516.820 7                  38442472.436
        44.700
 124168035.494 8                  23628371.113
        50.800
 143737974.298 5                  27352412.262
        32.500


 138005659.328 7                  26261595.593
        43.100
 25  1  1 10  6 30.0000000  0 24G18G08G23E29G32G24E33G10G27R19R04R12
                                R03E26R18S35R05S31G21S33E07E08E19E13
 118450534.792 6  92299150.28743  22540383.531    22540383.0494   22540385.3174
        41.300          22.2004
 127736695.852 5  99535092.07543  24307485.017    24307484.6964   24307487.6974
        32.300          22.7004
 108479889.109 8  84529818.93945  20643034.084    20643033.8434   20643033.7474
        48.000          35.0004
 127252403.764 7                  24215322.626
        43.900
 114292645.583 8  89059167.78348  21749139.222    21749138.8334   21749141.0914
        51.100          50.9004
 113869008.622 7  88729129.24845  21668547.271    21668546.9674   21668546.5114
        43.500          30.0004
 129912673.465 7                  24721555.908
        44.200
 110875156.036 7  86396267.64647  21098840.258    21098839.7894   21098843.1574
        47.300          47.0004


 106078509.818 6  82505532.965 7  19830254.476    19830253.869    19830257.383
        41.200          44.800
 108767741.242 8  84597239.605 8  20311581.514    20311581.539    20311586.660
        49.700          49.700


 108125143.099 8  84097354.530 7  20198666.948    20198667.044    20198672.003
        51.700          47.400
 122996983.619 7                  23405548.873
        47.000
 108587726.793 7  84457112.275 7  20342137.461    20342136.762    20342141.853
        45.900          43.900


 126870790.843 5  98677323.082 6  23733807.423    23733809.509    23733813.142
        35.800          38.200
 198898537.249 7                  37849130.719
        42.800
 131804266.533 5 102704646.09941  25081513.232    25081513.5364   25081521.2924
        35.600           9.4004
 202016507.026 7                  38442469.516
        44.500
 124184635.602 8                  23631530.378
        50.900
 143776269.158 5                  27359698.427
        30.500


 138048600.607 7                  26269767.120
        42.700
 25  1  1 10  6 45.0000000  0 24G18G08G23E29G32G24E33G10G27R19R04R03
                                E26R18S35R05S31G21S33E07E08E19R14E13
 118500684.036 6  92338227.57643  22549927.785    22549927.3294   22549927.5004
        41.500          22.3004
 127745275.575 5  99541777.59243  24309114.134    24309113.7504   24309119.0934
        30.800          21.9004
 108492864.414 8  84539929.54745  20645503.113    20645502.8724   20645503.3214
        48.200          35.2004
 127231098.068 7                  24211267.687
        44.700
 114265587.180 8  89038083.35848  21743990.289    21743989.8964   21743992.2554
        50.400          51.0004
 113893258.896 7  88748025.59445  21673161.564    21673161.1804   21673160.4344
        44.200          31.9004
 129885079.588 7                  24716305.046
        45.800
 110854154.471 8  86379902.76547  21094844.257    21094843.7754   21094845.2994
        48.600          47.7004
 125707479.892 6  97953954.56544  23921359.454    23921358.9674   23921358.8134
        40.600          28.5004
 106073571.615 6  82501692.139 7  19829329.880    19829330.041    19829334.038
        40.900          44.500
 108750850.919 8  84584102.647 8  20308429.081    20308430.092    20308432.373
        50.300          49.200
 108148027.057 8  84115153.179 7  20202941.590    20202941.017    20202946.373
        51.600          47.100
 123009056.781 7                  23407846.384
        47.600
 108634112.558 7  84493190.057 7  20350825.866    20350827.128    20350830.645
        47.300          44.000


 126828833.977 6  98644689.901 6  23725957.909    23725961.338    23725963.276
        36.500          36.700
 198898538.540 7                  37849137.391
        43.300
 131761123.129 5 102671027.83141  25073305.271    25073305.3334   25073310.0074
        34.100          10.3004
 202016494.443 7                  38442468.609
        44.600
 124201286.443 8                  23634698.754
        50.400
 143814560.037 4                  27366984.674
        27.900


 128044172.588 5                  24020764.300    24020765.095
        33.500
 138091581.878 6                  26277946.096
        40.000
 25  1  1 10  7  0.0000000  0 23G18G08G23E29G32G24E33G10G27R19R04R12
                                R03E26R18S35R05S31G21S33E07E08E13
 118550909.993 6  92377364.68543  22559486.551    22559486.1714   22559485.3384
        38.300          22.2004
 127753978.522 5  99548559.15443  24310773.988    24310773.5684   24310773.1464
        34.200          20.5004
 108505915.143 8  84550098.93745  20647986.480    20647986.2354   20647986.6104
        48.100          33.6004
 127209856.575 7                  24207225.420
        46.400
 114238608.762 8  89017061.24448  21738856.241    21738855.8524   21738858.0364
        50.400          50.5004
 113917661.564 7  88767040.65645  21677805.785    21677805.4054   21677805.1224
        43.000          35.1004
 129857558.388 7                  24711067.669
        46.000
 110833200.848 8  86363575.24348  21090856.452    21090855.9564   21090857.4124
        50.700          49.7004
 125738589.497 6  97978195.80544  23927277.471    23927276.9084   23927281.1064
        38.100          26.8004
 106068847.036 6  82498017.456 7  19828447.504    19828447.956    19828450.996
        41.400          44.100
 108734037.426 7  84571025.535 8  20305287.413    20305287.597    20305292.386
        47.700          48.700
 123072075.593 5                  23039367.630    23039362.884
        31.800
 108170963.658 8  84132992.738 7  20207226.684    20207226.790    20207230.787
        52.700          47.100
 123021230.573 7                  23410162.582
        47.600
 108680646.869 8  84529383.402 7  20359544.601    20359546.005    20359549.289
        49.700          44.600


 126786916.941 4  98612087.648 5  23718138.933                    23718120.707
        29.300          34.700
 198898542.850 7                  37849134.167
        42.900
 131718026.181 5 102637445.83341  25065102.666    25065102.8584   25065107.9924
        31.200           6.0004
 202016484.379 7                  38442464.065
        44.500
 124217992.621 8                  23637877.815
        50.100
 143852851.654 4                  27374271.866
        27.600
 138134607.763 6                  26286134.430
        37.200
 25  1  1 10  7 15.0000000  0 24G18G08G23E29G32G24E33G10G27R19R04R12
                                R03R13E26R18S35R05S31G21S33E07E08E13
 118601207.676 6  92416557.70243  22569057.271    22569056.9274   22569057.8934
        36.800          20.8004
 127762799.643 5  99555432.74342  24312450.462    24312449.7524   24312448.8244
        31.900          15.8004
 108519036.681 7  84560323.53145  20650483.526    20650483.2724   20650482.7554
        47.500          31.2004
 127188674.630 7                  24203194.328
        47.000
 114211705.658 8  88996097.80448  21733736.711    21733736.3184   21733738.3104
        50.500          50.4004
 113942211.716 7  88786170.66546  21682477.199    21682476.8554   21682478.5314
        42.600          37.4004
 129830105.441 7                  24705843.765
        45.500
 110812290.686 8  86347281.61548  21086877.559    21086877.0684   21086878.3524
        51.800          51.3004
 125769778.764 5  98002499.15043  23933209.740    23933209.1824   23933214.4714
        34.300          21.5004
 106064331.244 6  82494505.186 7  19827603.139    19827603.816    19827606.570
        41.800          44.100
 108717296.510 7  84558004.836 7  20302161.695    20302161.382    20302165.653
        46.300          47.500


 108193948.169 8  84150869.552 7  20211520.230    20211520.750    20211524.546
        53.300          46.900
                                                  22258357.149

 123033500.352 7                  23412497.142
        47.700
 108727324.480 8  84565688.153 7  20368288.996    20368289.990    20368293.449
        48.600          43.300


 126745034.667 5  98579512.649 5  23710283.271                    23710284.475
        35.300          30.400
 198898544.858 7                  37849138.813
        43.100
 131674970.864 4 102603896.2144   25056910.625    25056910.7594   25056914.7234
        27.100           5.3004
 202016472.424 7                  38442463.636
        44.800
 124234749.338 8                  23641066.527
        50.200
 143891139.286 4                  27381557.242
        27.700
 138177673.475 6                  26294328.682
        36.000
 25  1  1 10  7 30.0000000  0 22G18G08G23E29G32G24E33G10G27R19R04R03
                                R13E26R18S35R05S31S33E07E08E13
 118651578.751 6  92455807.95043  22578640.638    22578640.3124   22578643.7734
        36.200          20.2004


 108532231.013 7  84570604.84944  20652993.994    20652993.7444   20652992.5784
        47.000          28.0004
 127167554.096 7                  24199175.368
        46.900
 114184879.782 8  88975194.54148  21728632.251    21728631.8714   21728633.2644
        51.400          50.2004
 113966910.987 7  88805416.87946  21687177.535    21687177.1694   21687179.5124
        44.300          38.3004
 129802722.835 7                  24700634.260
        44.900
 110791425.947 8  86331023.38148  21082907.765    21082907.2784   21082908.3074
        52.600          51.9004
 125801049.226 6  98026865.82943  23939164.825    23939164.3474   23939163.2274
        36.100          21.6004
 106060026.293 6  82491156.925 7  19826798.049    19826799.268    19826802.192
        41.600          44.400
 108700629.688 8  84545041.756 7  20299051.276    20299050.649    20299052.984
        48.600          46.700
 108216981.745 8  84168784.551 7  20215821.744    20215823.323    20215827.168
        53.200          47.000
 118827224.794 6                  22252560.496    22252557.405
        36.100
 123045867.965 7                  23414850.522
        46.900
 108774146.888 7  84602105.564 7  20377059.849    20377060.282    20377063.911
        45.700          42.000


 126703189.309 6  98546966.247 5  23702458.578    23702459.424    23702459.619
        40.000          32.200
 198898546.934 7                  37849138.357
        42.800
 202016460.657 7                  38442462.268
        45.200
 124251558.316 8                  23644265.087
        50.200
 143929424.663 4                  27388841.061
        29.100
 138220780.679 5                  26302530.164
        35.500
 25  1  1 10  7 45.0000000  0 24G18G08G23E29G32G24E33G10G27R19R04R12
                                R03R13E26R18S35R05R17S31S33E07E08E13
 118702022.431 6  92495114.74743  22588239.871    22588239.5944   22588243.6534
        36.200          20.5004


 108545497.678 7  84580942.53044  20655517.661    20655517.4114   20655516.2144
        44.500          24.8004
 127146494.463 7                  24195167.746
        46.500
 114158130.632 8  88954351.07448  21723541.549    21723541.1564   21723542.7384
        51.700          50.0004
 113991758.666 6  88824778.71246  21691905.593    21691905.1824   21691908.5394
        41.800          39.4004
 129775410.276 7                  24695436.521
        44.400
 110770606.313 8  86314800.30448  21078945.817    21078945.3264   21078946.7264
        52.500          52.1004
 125832400.052 6  98051295.09044  23945128.417    23945128.0204   23945128.4254
        37.300          26.2004
 106055931.701 6  82487972.259 7  19826032.618    19826032.819    19826037.008
        40.400          44.600
 108684036.371 8  84532135.848 7  20295951.859    20295952.383    20295953.756
        49.300          45.500
 123106244.554 6                  23045747.605    23045747.351
        37.100
 108240064.329 8  84186737.655 7  20220134.180    20220135.170    20220139.409
        52.800          47.300
 118796404.109 5                  22246788.188    22246787.058
        34.500
 123058332.940 7                  23417222.744
        46.400
 108821113.104 7  84638634.807 6  20385857.032    20385857.685    20385860.751
        45.800          39.300


 126661380.012 4  98514447.991 5  23694634.094    23694631.290    23694641.657
        28.900          33.700
 127437197.858 5                  23814686.170
        34.000
 198898548.159 7                  37849140.280
        43.400
 202016447.905 7                  38442460.318
        45.400
 124268418.920 8                  23647473.193
        49.800
 143967707.108 4                  27396125.581
        27.000
 138263928.761 5                  26310739.929
        35.100
 25  1  1 10  8  0.0000000  0 25G18G08G23E29G32G24E33G10G27R19R04R12
                                R03R13E26R18S35R05R17S31S33E07E08R14
                                E13
 118752541.996 6  92534480.63143  22597855.460    22597855.1704   22597857.7984
        38.400          22.5004


 108558840.408 7  84591339.42843  20658056.298    20658056.0624   20658053.7354
        42.800          21.0004
 127125499.382 7                  24191172.177
        45.000
 114131461.899 8  88933570.26048  21718466.168    21718465.7884   21718467.4384
        50.400          48.7004
 114016758.202 6  88844258.87446  21696663.498    21696663.0654   21696666.0064
        40.600          38.3004
 129748171.625 7                  24690253.195
        44.200
 110749835.538 8  86298615.27148  21074992.637    21074992.1504   21074994.1074
        51.300          51.1004
 125863834.548 5  98075789.51744  23951111.040    23951110.7194   23951111.3224
        35.300          28.1004
 106052051.594 6  82484954.402 7  19825307.381    19825307.343    19825311.045
        40.200          44.500
 108667520.259 8  84519290.014 7  20292866.806    20292868.457    20292869.611
        48.600          45.700
 123117998.882 6                  23047947.365    23047947.894
        36.200
 108263199.352 8  84204731.594 7  20224456.341    20224456.542    20224461.737
        52.500          47.900
 118765733.666 4                  22241045.589    22241040.607
        28.800
 123070898.928 7                  23419614.430
        47.700
 108868226.387 7  84675278.420 6  20394685.688    20394686.913    20394686.714
        47.900          38.800


                  98481960.854 5                                  23686826.312
                        31.600
 127506504.957 5                  23827641.259    23827639.844
        32.700
 198898552.511 7                  37849139.121
        43.500
 202016438.429 7                  38442456.262
        45.800
 124285334.665 8                  23650692.120
        49.600
 144005990.347 4                  27403410.692
        26.300
 127754175.745 6                  23966355.353
        36.500
 138307121.242 5                  26318960.725
        34.300
 25  1  1 10  8 15.0000000  0 26G18G08G23E29G32G24E33G10G27R19R04R12
                                R03R13E26R18S35R05R17S31S33E07E08E19
                                R14E13
 118803129.603 6  92573899.54344  22607482.532    22607482.2064   22607484.4554
        40.200          25.4004


 108572251.611 6  84601789.67843  20660608.228    20660607.9834   20660605.9544
        40.500          19.6004
 127104561.201 7                  24187188.295
        46.600
 114104865.928 8  88912846.14147  21713405.497    21713405.1134   21713405.7624
        49.800          47.9004
 114041901.624 6  88863851.18246  21701447.360    21701446.9184   21701449.8594
        41.300          37.6004
 129720999.479 7                  24685082.436
        44.300
 110729106.198 8  86282462.54148  21071047.901    21071047.4194   21071049.2554
        49.500          50.0004
 125895344.720 5  98100342.91044  23957106.417    23957106.1364   23957108.0144
        35.300          25.8004
 106048378.119 6  82482097.259 7  19824619.813    19824620.654    19824625.009
        39.300          44.600
 108651073.234 7  84506497.920 7  20289793.579    20289796.148    20289799.368
        47.900          46.300
 123129930.418 5                  23050178.528    23050181.626
        34.700
 108286378.732 8  84222760.009 7  20228787.364    20228787.004    20228791.730
        52.000          47.900
 118735206.266 5                  22235347.545    22235347.749
        32.300
 123083558.268 8                  23422023.466
        48.400
 108915478.577 7  84712030.029 6  20403537.995    20403538.896    20403538.756
        46.700          39.800


                  98449498.603 4                                  23679010.828
                        29.700
 127575807.703 5                  23840585.112    23840585.710
        34.300
 198898552.269 7                  37849140.754
        44.100
 202016424.388 7                  38442453.517
        44.700
 124302297.777 8                  23653920.452
        49.900
 144044266.416 3                  27410695.083
        23.400
 144390171.741 5                  27476533.351
        30.600
 127696104.980 6                  23955456.472    23955458.117
        38.900
 138350350.237 5                  26327189.962
        35.600
 25  1  1 10  8 30.0000000  0 25G18G08G23E29G32G24E33G10G27R19R04R03
                                R13E26R18S35R05R17S31S33E07E08E19R14
                                E13
 118853794.251 6  92613378.48444  22617124.313    22617124.0054   22617125.3674
        41.600          28.1004
 127808698.052 5  99591197.14442  24321188.011    24321187.6404   24321190.6004
        34.300          14.3004
 108585740.714 6  84612300.66042  20663174.713    20663174.4544   20663173.3494
        36.600          16.8004
 127083689.191 7                  24183215.790
        46.300
 114078352.022 8  88892185.96547  21708360.378    21708359.9944   21708360.2874
        50.900          47.9004
 114067198.097 6  88883562.72046  21706260.000    21706259.5224   21706262.7564
        40.500          37.4004
 129693903.312 7                  24679925.917
        43.700
 110708427.670 8  86266349.38348  21067112.175    21067111.6974   21067114.3034
        49.100          48.8004
 125926939.411 6  98124962.16444  23963120.598    23963120.2364   23963120.8214
        37.100          24.3004
 106044920.905 6  82479408.309 7  19823973.014    19823973.959    19823979.539
        39.100          44.900
 108634705.126 7  84493767.224 7  20286736.321    20286737.759    20286743.930
        46.900          46.400
 108309611.986 8  84240830.338 7  20233126.957    20233126.938    20233131.355
        51.300          47.300
 118704831.178 5                  22229651.438
        30.600
 123096320.248 8                  23424452.189
        48.100
 108962878.461 7  84748896.607 7  20412414.830    20412416.140    20412422.994
        44.800          43.400




 127645114.891 5                  23853540.539    23853537.595
        34.700
 198898556.763 7                  37849137.386
        43.600
 202016415.246 7                  38442451.487
        46.200
 124319317.364 8                  23657159.389
        49.800
 144082544.527 4                  27417977.926
        25.800
 144352731.183 4                  27469408.955
        29.100
 127638025.278 6                  23944549.667    23944552.460
        41.100
 138393624.984 6                  26335425.449
        39.600
 25  1  1 10  8 45.0000000  0 26G18G08G23E29G32G24E33G10G27R19R04R12
                                R03R13E26R18S35R05R17S31S33E07E08E19
                                R14E13
 118904531.044 7  92652913.65844  22626778.885    22626778.5994   22626780.0744
        42.500          29.1004
 127818239.672 4  99598632.22341  24323002.828    24323002.0684   24323010.3274
        28.400           9.9004
 108599303.102 5  84622868.74842  20665757.782    20665757.4784   20665754.9924
        33.000          14.4004
 127062878.785 7                  24179256.541
        47.800
 114051915.651 8  88871586.21648  21703329.342    21703328.9674   21703330.1954
        50.300          48.0004
 114092642.758 6  88903389.72946  21711101.735    21711101.3154   21711104.4284
        37.200          36.8004
 129666878.768 6                  24674781.836
        40.300
 110687795.544 8  86250272.38448  21063185.543    21063185.0704   21063188.4604
        49.700          48.9004
 125958613.801 5  98149643.39642  23969145.461    23969145.0644   23969148.6764
        33.800          15.7004
 106041675.272 6  82476883.951 7  19823365.325    19823365.496    19823372.883
        36.200          45.100
 108618410.817 7  84481093.891 7  20283690.871    20283692.969    20283700.030
        45.400          44.800
 123154348.838 4                  23054762.187    23054757.577
        29.800
 108332894.178 8  84258938.684 7  20237476.929    20237476.887    20237479.990
        52.100          47.000
 118674604.873 5                  22223973.087    22223977.808
        30.400
 123109180.318 8                  23426899.511
        49.500
 109010421.033 7  84785874.148 7  20421322.938    20421322.209    20421330.524
        44.700          44.600




 127714421.335 5                  23866480.561    23866480.384
        33.400
 198898561.489 7                  37849139.882
        43.400
 202016405.806 7                  38442449.904
        45.600
 124336388.770 8                  23660408.085
        50.100


 144315319.152 4                  27462289.718
        29.400
 127579932.231 6                  23933651.814    23933652.280
        37.300
 138436940.700 6                  26343668.227
        41.500
 25  1  1 10  9  0.0000000  0 26G18G08G23E29G32G24E33G10G27R19R04R12
                                R03R13E26R18S35R05R17S31S33E07E08E19
                                R14E13
 118955335.444 6  92692501.48444  22636446.269    22636446.0414   22636447.8304
        41.700          28.4004
 127827896.151 6  99606156.98641  24324859.938    24324859.2054   24324847.6774
        38.400          11.2004
 108612934.616 6  84633490.68642  20668352.768    20668352.4514   20668348.9134
        37.100          16.2004
 127042125.709 8                  24175307.313
        48.700
 114025552.546 8  88851043.56148  21698313.157    21698312.8004   21698314.0994
        51.200          48.0004
 114118231.064 7  88923328.67046  21715972.247    21715971.7964   21715974.1464
        42.000          37.8004
 129639921.854 6                  24669652.135
        38.900
 110667205.684 8  86234228.32948  21059267.781    21059267.3254   21059270.9614
        50.400          49.8004
 125990363.208 6  98174382.94443  23975190.559    23975190.2334   23975190.1194
        36.200          18.8004
 106038637.000 6  82474520.816 7  19822798.978    19822798.213    19822804.057
        37.500          44.400
 108602186.067 7  84468474.605 7  20280663.976    20280665.296    20280669.772
        46.600          43.300
 123166827.027 4                  23057126.216
        27.300
 108356220.519 8  84277081.418 7  20241833.170    20241832.825    20241837.778
        49.900          47.400
 118644523.328 5                  22218348.963    22218347.856
        34.100
 123122134.209 8                  23429364.234
        49.900
 109058101.559 7  84822958.921 7  20430256.505    20430255.804    20430260.658
        45.800          43.600




 127783722.613 5                  23879429.736    23879429.126
        31.600
 198898562.356 7                  37849138.504
        43.300
 202016392.245 7                  38442447.315
        45.400
 124353507.558 8                  23663665.657
        51.000


 144277931.426 4                  27455176.070
        29.300
 127521822.248 5                  23922741.723    23922739.643
        30.600
 138480293.024 6                  26351916.862
        41.800
 25  1  1 10  9 15.0000000  0 25G18G08G23E29G32G24E33G10G27R19R04R12
                                R03R13E26R18S35R05R02S31S33E07E08E19
                                E13
 119006209.438 6  92732143.54644  22646127.094    22646126.8624   22646128.9154
        40.300          26.6004
 127837669.898 5  99613772.95742  24326691.090    24326690.0404   24326709.7684
        34.200          12.5004
 108626637.677 6  84644168.41543  20670959.425    20670959.0144   20670956.9204
        38.600          19.6004
 127021432.267 8                  24171369.912
        48.400
 113999265.072 8  88830559.82648  21693310.595    21693310.2294   21693311.9944
        50.700          48.1004
 114143965.182 6  88943381.25846  21720868.458    21720867.9224   21720871.7444
        40.900          38.7004
 129613035.035 6                  24664535.365
        39.200
 110646660.599 8  86218219.17248  21055358.363    21055357.9164   21055361.8024
        50.100          50.1004
 126022189.604 6  98199182.72844  23981245.086    23981244.7474   23981248.0684
        36.500          25.0004
 106035808.554 6  82472320.891 7  19822271.852    19822271.595    19822274.992
        40.300          44.300
 108586033.149 7  84455911.232 7  20277648.181    20277648.435    20277654.083
        46.700          43.000


 108379593.473 8  84295260.373 8  20246200.140    20246199.087    20246204.998
        49.300          48.700
 118614589.178 4                  22212744.963    22212744.936
        29.600
 123135184.232 8                  23431847.510
        49.300
 109105921.758 7  84860152.393 7  20439212.942    20439213.112    20439218.955
        45.800          44.200


                  98319913.877 5                                  23647852.557
                        34.000
 126861737.156 5                  23773836.319    23773837.433
        30.500
 198898560.515 7                  37849143.168
        43.500
 202016377.488 7                  38442446.148
        44.700
 124370675.911 8                  23666932.619
        50.800


 144240570.251 4                  27448065.315
        28.300
 138523684.065 6                  26360174.456
        40.800
 25  1  1 10  9 30.0000000  0 24G18G08G23E29G32G24E33G10G27R19R04R12
                                R03R13E26R18S35R05S31S33E07E08E19E13
 119057160.545 6  92771845.70744  22655823.989    22655823.6944   22655824.5244
        40.300          25.7004
 127847568.245 5  99621486.12342  24328583.561    24328582.6904   24328595.6974
        33.500          12.9004
 108640420.091 6  84654907.94943  20673581.949    20673581.5524   20673580.2014
        39.100          22.9004
 127000806.254 7                  24167444.911
        47.700
 113973060.955 8  88810141.04848  21688324.193    21688323.8224   21688325.7194
        51.100          48.1004
 114169852.616 6  88963553.30546  21725795.308    21725794.7854   21725797.8624
        40.800          39.4004
 129586226.288 6                  24659434.546
        40.900
 110626168.171 8  86202251.04848  21051459.105    21051458.6634   21051462.1714
        50.400          50.6004
 126054100.475 6  98224048.36544  23987318.498    23987318.1854   23987321.0774
        37.200          27.4004
 106033197.762 6  82470290.279 7  19821783.705    19821783.955    19821785.994
        40.800          44.200
 108569959.775 7  84443409.739 7  20274646.455    20274647.418    20274653.061
        46.900          43.000


 108403020.733 8  84313481.559 8  20250576.897    20250575.897    20250580.865
        49.900          48.300
 118584810.546 5                  22207163.121    22207165.303
        35.900
 123148338.183 8                  23434350.316
        48.700
 109153889.287 7  84897460.475 7  20448196.667    20448196.088    20448205.177
        43.200          44.900




 198898565.143 7                  37849141.956
        43.700
 202016368.480 7                  38442443.585
        46.400
 124387901.477 8                  23670210.634
        51.300


 144203243.865 4                  27440960.898
        28.700
 138567121.487 6                  26368440.746
        38.800
 25  1  1 10  9 45.0000000  0 24G18G08G23E29G32G24E33G10G27R19R04R12
                                R03E26R18S35R05S31S33E07E08E19R14E13
 119108177.123 6  92811598.85343  22665530.998    22665530.6274   22665531.9344
        40.300          23.8004
 127857579.837 6  99629287.43642  24330488.908    24330488.1084   24330504.9324
        40.100          16.7004
 108654270.637 7  84665700.59444  20676217.450    20676217.0574   20676216.0984
        42.600          24.3004
 126980236.326 7                  24163530.414
        47.100
 113946928.957 8  88789778.45748  21683351.209    21683350.8344   21683353.1674
        52.100          48.0004
 114195881.864 7  88983835.85046  21730748.336    21730747.8184   21730750.7924
        42.100          40.4004
 129559484.556 7                  24654345.063
        43.400
 110605717.253 8  86186315.28748  21047567.848    21047567.4104   21047570.0134
        50.900          50.8004
 126086084.080 5  98248970.66743  23993403.618    23993403.2564   23993407.0054
        34.800          23.8004
 106030793.511 6  82468420.338 7  19821334.658    19821333.761    19821337.503
        40.400          44.200
 108553954.330 7  84430961.100 6  20271658.178    20271656.622    20271662.100
        46.200          40.800
                  95826499.816 5                                  23064315.178
                        33.600
 108426490.744 8  84331736.050 8  20254960.753    20254959.675    20254965.519
        49.000          48.700
 123161584.753 8                  23436871.030
        48.700
 109201991.939 7  84934873.628 7  20457209.656    20457209.949    20457216.359
        45.400          46.000


 126328271.113 6  98255309.479 6  23632316.599    23632316.623    23632316.526
        37.900          38.200
 198898564.922 7                  37849141.813
        42.200
 202016354.040 7                  38442441.689
        45.800
 124405172.769 8                  23673497.124
        51.100


 144165940.717 4                  27433864.448
        29.500
 127347421.807 5                  23890034.285    23890034.326
        35.200
 138610593.747 6                  26376712.207
        36.300
 25  1  1 10 10  0.0000000  0 25G18G08G23E29G32G24E33G10G27R19R04R12
                                R03R13E26R18S35R05S31G21S33E07E19R14
                                E13
 119159266.021 6  92851408.35643  22675252.292    22675251.8684   22675252.6064
        39.900          22.9004
 127867711.442 6  99637182.51543  24332416.694    24332415.8854   24332436.2084
        37.900          20.9004
 108668196.519 7  84676551.91744  20678867.005    20678866.6304   20678866.0354
        43.200          25.2004
 126959729.598 7                  24159628.215
        46.500
 113920876.183 8  88769477.60247  21678393.250    21678392.8794   21678395.1714
        52.900          47.3004
 114222059.715 7  89004234.18846  21735729.918    21735729.4764   21735732.2694
        42.500          40.5004
 129532817.141 7                  24649270.928
        44.700
 110585315.165 8  86170417.55248  21043685.599    21043685.1524   21043687.2984
        51.100          50.9004
 126118147.183 5  98273954.98643  23999504.782    23999504.3624   23999506.2224
        33.800          20.5004
 106028602.936 6  82466716.569 7  19820925.353    19820925.261    19820929.638
        41.200          45.700
 108538024.110 7  84418570.940 6  20268684.434    20268683.163    20268686.025
        47.900          39.900
 123218623.609 7                  23066781.746    23066782.924
        42.800
 108450010.441 8  84350029.163 8  20259353.856    20259353.715    20259359.246
        49.300          49.200
 118525696.107 6                  22196093.260    22196092.891
        37.700
 123174931.033 7                  23439410.440
        47.700
 109250236.660 8  84972397.285 7  20466250.195    20466251.060    20466255.150
        49.500          46.900


 126286794.196 5  98223049.718 6  23624553.885    23624551.485    23624558.556
        30.100          40.000
 198898566.131 7                  37849145.918
        43.000
 131204314.867 6                  24967349.586
        36.400
 202016341.387 7                  38442441.654
        46.700
 124422496.842 8                  23676793.650
        50.200
 144128668.068 5                  27426773.296
        33.000
 127289266.279 5                  23879131.462    23879134.960
        31.400
 138654107.929 6                  26384994.360
        37.000
 25  1  1 10 10 15.0000000  0 26G18G08G23E29G32G24E33G10G27R19R04R12
                                R03R13E26R18S35R05S31G21S33E07E08E19
                                E13R20
 119210425.176 7  92891272.62744  22684988.574    22684988.2394   22684988.2584
        42.500          26.2004
 127877961.367 6  99645169.53243  24334368.619    24334367.7744   24334387.2174
        37.100          20.3004
 108682195.900 7  84687460.49244  20681530.470    20681530.0554   20681528.4124
        45.500          26.0004
 126939284.224 8                  24155737.454
        48.000
 113894900.833 8  88749237.08647  21673450.493    21673450.1274   21673450.9704
        51.600          46.3004
 114248384.166 7  89024746.73846  21740739.399    21740738.9524   21740742.3164
        44.600          41.7004
 129506222.402 7                  24644210.367
        46.300
 110564960.151 8  86154556.51748  21039811.645    21039811.1944   21039813.9074
        49.100          49.9004
 126150287.508 4  98298999.34143  24005616.167    24005615.4974   24005622.0514
        24.000          18.0004
 106026624.188 6  82465177.547 7  19820554.522    19820554.282    19820558.806
        40.200          45.600
 108522167.048 8  84406237.710 6  20265723.095    20265722.555    20265727.018
        48.800          41.700
 123232009.870 6                  23069284.731    23069284.484
        39.600
 108473577.924 8  84368359.447 8  20263756.736    20263756.211    20263762.381
        48.000          49.300
 118496366.096 6                  22190599.366    22190598.125
        37.800
 123188375.220 7                  23441968.850
        47.700
 109298621.076 7  85010029.601 7  20475313.489    20475314.283    20475319.102
        47.700          46.900


 126245354.260 4  98190818.512 6  23616814.323    23616811.670    23616806.507
        29.400          37.600
 198898567.069 7                  37849140.999
        42.500
 131161804.537 6                  24959260.169
        36.500
 202016329.661 7                  38442439.512
        46.000
 124439871.637 8                  23680100.105
        49.900


 144091424.186 5                  27419682.611
        31.600
 138697661.970 6                  26393282.145
        36.100


 25  1  1 10 10 30.0000000  0 27G18G08G23E29G32G24E33G10G28G27R19R04
                                R12R03R13E26R18S35R05S31G21S33E07E08
                                E19E13R20
 119261656.286 7  92931192.93844  22694737.597    22694737.3074   22694738.6454
        42.100          26.7004
 127888331.388 5  99653250.40142  24336340.691    24336339.8964   24336359.4094
        35.100          16.3004
 108696271.066 7  84698428.13944  20684210.200    20684209.7764   20684206.7714
        44.900          27.1004
 126918902.316 8                  24151858.601
        49.200
 113869005.030 8  88729058.57847  21668523.245    21668522.8884   21668521.3594
        53.000          45.4004
 114274857.086 7  89045375.01046  21745776.570    21745776.0924   21745779.9834
        43.900          40.8004
 129479702.730 7                  24639164.022
        46.700
 110544654.530 7  86138733.96547  21035948.296    21035947.8094   21035949.5894
        47.600          47.6004
 131360633.983 5                  24997092.645
        34.300


 106024859.479 6  82463804.963 7  19820226.415    19820225.662    19820228.698
        41.000          44.600
 108506385.335 8  84393963.004 7  20262775.505    20262776.396    20262780.917
        50.000          43.000
 123245579.403 6                  23071821.113    23071822.890
        36.300
 108497195.280 8  84386728.496 8  20268169.028    20268168.701    20268174.182
        49.200          49.200
 118467189.744 6                  22185136.657    22185134.424
        39.100
 123201919.400 7                  23444546.478
        47.400
 109347146.771 7  85047771.809 7  20484403.955    20484404.005    20484407.670
        47.400          44.800


 126203953.363 5  98158617.691 5  23609075.334    23609051.965    23609058.607
        31.400          34.100
 198898570.740 7                  37849141.035
        42.400
 131119343.357 6                  24951181.175
        36.800
 202016318.685 7                  38442434.208
        46.000
 124457299.195 8                  23683416.507
        49.200


 144054211.282 5                  27412603.115
        30.600
 138741257.796 5                  26401580.030
        32.800


 25  1  1 10 10 45.0000000  0 27G18G08G23E29G32G24E33G10G28G27R19R04
                                R12R03R13E26R18S35R05R17S31G21S33E07
                                E08E19E13
 119312954.399 6  92971165.47544  22704499.927    22704499.6414   22704501.4584
        41.700          27.3004
 127898816.526 5  99661420.69943  24338336.908    24338336.1354   24338350.3494
        34.900          19.0004
 108710417.276 7  84709451.14244  20686901.981    20686901.5484   20686899.5464
        47.500          29.6004
 126898579.115 8                  24147990.795
        48.900
 113843184.004 8  88708938.32047  21663609.020    21663608.6454   21663607.1084
        52.300          45.6004
 114301473.435 7  89066115.03946  21750841.949    21750841.4844   21750844.0874
        43.300          39.4004
 129453253.494 7                  24634130.794
        46.700
 110524393.648 7  86122946.29647  21032092.745    21032092.2314   21032093.3604
        47.100          47.1004
 131303495.884 5                  24986225.440
        31.600
 126214925.449 6  98349310.28443  24017900.801    24017900.8774   24017903.2774
        37.600          23.7004
 106023304.296 6  82462595.358 7  19819934.989    19819935.262    19819937.457
        40.800          44.200
 108490673.911 8  84381742.993 7  20259842.724    20259843.355    20259846.620
        51.000          44.200
 123259327.348 5                  23074398.907    23074394.806
        33.600
 108520857.087 8  84405132.107 8  20272589.425    20272589.244    20272593.527
        48.900          48.800
 118438162.510 6                  22179700.769    22179697.660
        36.100
 123215558.837 7                  23447142.085
        47.500
 109395808.499 7  85085619.848 7  20493518.154    20493517.758    20493523.730
        44.300          44.400


 126162586.705 5                  23601313.982    23601316.934
        34.700
                  99764560.360 5                                  23970081.862
                        32.800
 198898571.397 7                  37849141.518
        43.200
 131076926.892 5 102137889.68141  24943109.674    24943109.1694   24943111.4464
        35.200          11.8004
 202016306.432 7                  38442434.021
        44.400
 124474774.570 8                  23686741.992
        49.600


 144017024.546 4                  27405524.923
        27.400
 138784890.406 4                  26409877.667
        27.200
 25  1  1 10 11  0.0000000  0 27G18G08G23E29G32G24E33G10G28G27R19R04
                                R12R03R13E26R18S35R05R17S31G21S33E07
                                E08E19E13
 119364322.564 7  93011192.60744  22714275.345    22714275.0594   22714277.2304
        42.500          27.8004
 127909419.972 6  99669683.23943  24340354.937    24340354.1824   24340356.5614
        36.500          23.1004
 108724638.003 8  84720532.21245  20689608.046    20689607.6084   20689605.8404
        48.600          32.1004
 126878317.992 8                  24144135.774
        48.500
 113817441.179 8  88688879.00147  21658710.327    21658709.9614   21658709.2374
        51.700          46.2004
 114328236.374 7  89086969.31646  21755934.686    21755934.2174   21755936.4334
        42.500          37.1004
 129426878.379 7                  24629111.611
        47.100
 110504181.115 7  86107196.27447  21028246.419    21028245.8694   21028246.7144
        47.400          47.5004
 131246353.792 4                  24975350.480
        28.600
 126247295.919 6  98374534.00844  24024057.970    24024057.4654   24024060.6754
        38.800          26.5004
 106021961.781 6  82461551.149 7  19819684.344    19819683.214    19819686.500
        40.200          44.900
 108475036.246 8  84369580.330 7  20256920.054    20256921.866    20256925.698
        50.600          44.100
 123273257.270 6                  23077006.642    23077004.034
        36.900
 108544567.009 8  84423573.119 8  20277018.568    20277018.131    20277023.098
        48.500          49.000
 118409288.622 5                  22174292.132    22174290.646
        34.900
 123229296.911 7                  23449756.707
        47.700
 109444609.220 7  85123575.939 7  20502659.787    20502660.169    20502666.647
        44.100          44.900


 126121257.809 6                  23593587.728    23593586.080
        36.000
                  99818442.295 5                                  23983026.744
                        31.800
 198898572.883 7                  37849139.595
        42.300
 131034558.866 5 102104875.73242  24935047.935    24935047.5734   24935047.7154
        34.600          12.2004
 202016294.266 7                  38442430.694
        44.900
 124492301.047 8                  23690076.729
        49.600


 143979867.595 4                  27398455.778
        24.300


 25  1  1 10 11 15.0000000  0 28G18G08G23E29G32G24E33G10G28G27R19R04
                                R12R03R13E26R18S35R05R17R02S31G21S33
                                E07E08E19E13
 119415760.123 7  93051273.79144  22724063.784    22724063.5654   22724065.6124
        42.400          25.5004
 127920141.344 5  99678037.61443  24342394.999    24342394.1864   24342391.0424
        35.700          23.8004
 108738932.906 8  84731671.08045  20692328.760    20692328.3364   20692325.8834
        49.800          33.2004
 126858118.574 8                  24140291.759
        48.100
 113791776.216 8  88668880.32147  21653826.054    21653825.6654   21653826.4364
        50.300          46.2004
 114355145.282 6  89107937.34545  21761056.084    21761055.6604   21761056.5394
        38.300          33.8004
 129400577.160 8                  24624106.665
        48.400
 110484016.660 8  86091483.73448  21024409.373    21024408.8284   21024409.8794
        49.800          49.0004
 131189207.495 5                  24964471.181
        30.800
 126279742.728 5  98399817.18944  24030229.741    24030229.5404   24030233.9874
        35.600          28.0004
 106020831.806 6  82460672.273 7  19819471.735    19819472.033    19819475.708
        40.000          45.800
 108459471.830 8  84357474.682 7  20254015.122    20254015.096    20254018.866
        48.900          44.700
 123287368.493 5                  23079644.021    23079649.969
        35.800
 108568324.303 8  84442051.015 8  20281456.119    20281455.966    20281460.732
        48.900          48.900
 118380568.052 6                  22168913.497    22168912.393
        36.600
 123243133.244 8                  23452389.552
        48.200
 109493548.049 6  85161639.454 7  20511827.761    20511826.325    20511835.798
        41.500          46.200


 126079966.199 5  98062251.838 5  23585862.886    23585860.440    23585884.365
        30.800          32.300
                  99872320.472 5                                  23995971.765
                        34.100
                                                  23841017.699

 198898574.819 7                  37849142.726
        42.700
 130992238.996 5 102071899.18241  24926993.253    24926992.9274   24926993.8224
        32.100          10.1004
 202016282.105 7                  38442427.921
        44.500
 124509878.126 8                  23693421.973
        49.100


 143942739.938 3                  27391390.232
        23.700


 25  1  1 10 11 30.0000000  0 25G18G08G23E29G32G24E33G10G28G27R19R04
                                R03R13E26R18S35R05R02S31G21S33E07E19
                                E13
 119467267.144 7  93091409.04243  22733863.891    22733863.7264   22733865.3964
        43.500          21.9004
 127930980.612 5  99686483.84943  24344455.241    24344454.3344   24344452.4204
        35.300          23.4004
 108753302.484 8  84742868.14945  20695062.946    20695062.5224   20695060.2624
        50.800          34.5004
 126837981.222 7                  24136460.067
        47.400
 113766189.443 8  88648942.57447  21648957.326    21648956.9064   21648958.4314
        48.500          45.8004
 114382200.299 6  89129019.24645  21766205.862    21766205.5184   21766205.2334
        39.400          31.3004
 129374350.426 8                  24619115.961
        48.500
 110463900.816 8  86075809.06348  21020581.102    21020580.5574   21020582.4114
        50.500          50.5004
 131132058.024 5                  24953567.454
        33.200
 126312265.843 5  98425159.81144  24036421.600    24036421.8014   24036423.3564
        32.600          25.7004
 106019914.713 6  82459959.020 7  19819300.722    19819299.102    19819304.642
        38.300          46.000
 108443980.986 8  84345426.257 7  20251122.520    20251123.405    20251125.436
        48.800          44.300
 108592129.643 8  84460566.254 8  20285903.800    20285903.876    20285908.347
        49.900          49.100
 118352001.245 5                  22163564.085    22163562.360
        34.900
 123257068.198 8                  23455041.033
        48.300
 109542624.899 6  85199810.290 7  20521022.876    20521019.771    20521028.927
        40.700          46.400


                  98030165.528 4                  23578140.899    23578164.797
                        29.600
 127264988.803 4                  23849402.509    23849398.343
        29.900
 198898577.686 7                  37849143.848
        42.900
 130949968.447 4 102038961.13741  24918948.260    24918947.9974   24918949.2794
        24.200           8.3004
 202016272.005 7                  38442425.153
        44.300
 124527506.021 8                  23696776.761
        49.000
 143905641.991 4                  27384329.808
        25.400


 25  1  1 10 11 45.0000000  0 26G18G08G23E29G32G24E33G10G28G27R19R04
                                R03R13E26R18S35R05R17S31G21S33E07E19
                                R14E13
 119518843.168 7  93131597.99243  22743677.769    22743677.5954   22743675.4564
        43.100          19.2004
 127941937.545 5  99695021.72343  24346539.526    24346538.7044   24346537.2474
        35.500          22.9004
 108767746.616 8  84754123.31445  20697811.488    20697811.0914   20697808.6154
        51.600          35.2004
 126817905.745 7                  24132639.712
        47.600
 113740680.716 8  88629065.65147  21644103.299    21644102.8704   21644104.9494
        50.100          46.4004
 114409401.006 6  89150214.62645  21771381.245    21771380.9374   21771382.8584
        40.100          30.7004
 129348198.239 8                  24614139.293
        48.600
 110443833.618 8  86060172.29748  21016762.403    21016761.8624   21016764.0354
        49.800          51.0004
 131074905.417 6                  24942696.354
        37.100
 126344864.593 5  98450561.43744  24042622.953    24042623.0874   24042627.8004
        34.800          25.4004
 106019210.592 6  82459411.363 7  19819168.449    19819168.535    19819172.921
        39.200          46.500
 108428563.506 7  84333434.879 7  20248241.223    20248242.853    20248246.002
        47.300          44.600
 108615981.986 8  84479118.067 8  20290358.294    20290359.427    20290364.976
        50.400          49.300
 118323589.043 6                  22158245.267    22158244.112
        38.700
 123271101.585 7                  23457711.146
        47.400
 109591838.965 6  85238087.889 7  20530241.427    20530238.182    20530247.905
        38.000          46.100




                  99980064.933 5                                  24021855.457
                        31.000
 198898580.803 6                  37849141.956
        41.900
 130907746.804 4 102006061.27841  24910914.802    24910914.7584   24910914.6724
        26.100           6.3004
 202016260.858 7                  38442425.958
        44.700
 124545184.407 8                  23700140.829
        49.400
 143868573.716 4                  27377275.793
        24.500
 126881849.590 5                  23802709.033    23802708.129
        35.200


 25  1  1 10 12  0.0000000  0 26G18G08G23E29G32G24E33G10G28G27R19R04
                                R03R13E26R18S35R05S31G21S33E07E19R14
                                E13R20
 119570488.195 7  93171840.74343  22753505.699    22753505.5344   22753503.1304
        42.000          19.9004
 127953012.243 5  99703651.36543  24348646.773    24348646.0184   24348644.0694
        35.400          20.1004
 108782265.655 8  84765436.85745  20700573.970    20700573.5864   20700571.3274
        50.500          34.9004
 126797892.453 8                  24128831.369
        48.300
 113715250.375 8  88609249.83547  21639263.625    21639263.1744   21639265.1694
        49.300          45.5004
 114436747.431 7  89171523.51145  21776584.559    21776584.2604   21776587.6974
        42.500          30.1004
 129322121.116 8                  24609176.732
        48.000
 110423815.443 8  86044573.73348  21012953.074    21012952.5564   21012954.7854
        49.600          50.4004
 131017750.205 6                  24931818.626
        38.300
 126377539.084 6  98476022.11044  24048841.277    24048841.2904   24048846.7494
        36.300          27.9004
 106018719.437 6  82459029.334 7  19819075.702    19819076.831    19819081.204
        39.300          46.800
 108413219.450 7  84321500.587 7  20245376.705    20245377.107    20245380.751
        46.600          45.400
 108639882.110 8  84497707.011 8  20294824.070    20294823.707    20294829.260
        49.900          49.300
 118295331.590 6                  22152950.559    22152949.684
        36.700
 123285233.705 7                  23460401.025
        46.300
 109641190.331 6  85276472.240 7  20539485.419    20539483.163    20539492.972
        40.400          45.500


 125956317.620 6                  23562733.828    23562732.720
        39.200
 198898584.955 7                  37849142.243
        42.300
 130865574.947 4 101973200.0854   24902887.745    24902887.7764   24902889.5004
        28.700           4.0004
 202016251.872 7                  38442424.290
        44.800
 124562913.472 8                  23703514.319
        49.300
 143831535.615 3                  27370235.132
        23.900
 126823628.391 5                  23791783.891    23791781.635
        32.600




 25  1  1 10 12 15.0000000  0 26G18G08G23E29G32G24E33G10G28G27R19R04
                                R12R03R13E26R18S35R05S31G21S33E07E19
                                E13R20
 119622201.452 6  93212136.75743  22763346.892    22763346.7584   22763347.0904
        39.000          20.4004
 127964204.087 5  99712372.29942  24350778.464    24350777.8744   24350773.6134
        31.000          17.8004
 108796859.144 8  84776808.41545  20703350.960    20703350.5984   20703348.9204
        48.500          34.7004
 126777940.805 8                  24125034.700
        48.700
 113689897.891 8  88589494.68647  21634439.125    21634438.6564   21634439.5374
        49.900          45.4004
 114464238.815 7  89192945.31244  21781815.150    21781814.8604   21781820.5774
        42.800          29.4004
 129296118.767 8                  24604229.348
        48.000
 110403845.961 8  86029013.11048  21009152.650    21009152.1234   21009154.6574
        48.400          49.5004
 130960592.188 6                  24920941.423
        37.600
 126410288.438 5  98501541.03744  24055072.157    24055072.1044   24055079.1674
        33.300          27.8004
 106018441.269 6  82458812.969 7  19819024.600    19819024.562    19819028.018
        38.700          46.000
 108397948.223 7  84309622.941 7  20242524.840    20242525.526    20242529.484
        46.600          46.700
 123345641.701 4                  23090569.993    23090565.700
        29.200
 108663829.034 8  84516332.411 8  20299299.524    20299297.633    20299302.502
        49.800          48.900
 118267229.245 6                  22147694.012    22147692.692
        39.400
 123299464.064 7                  23463109.126
        46.800
 109690677.960 6  85314962.558 7  20548756.417    20548755.430    20548762.695
        40.900          44.500


 125915176.542 5  97934050.362 5  23555030.740    23555028.727    23555040.208
        34.000          32.900
 198898589.946 7                  37849144.666
        42.400
 130823452.438 5 101940377.2574   24894871.774    24894871.5554   24894873.1334
        31.500           3.2004
 202016242.682 7                  38442422.971
        44.600
 124580692.579 8                  23706897.419
        49.800






 25  1  1 10 12 30.0000000  0 27G18G08G23E29G32G24E33G10G28G27R19R04
                                R12R03R13E26R18S35R05S31G21S33E07E19
                                R14E13R20
 119673981.315 6  93252484.70243  22773200.967    22773200.7894   22773202.8684
        38.300          20.7004
 127975511.444 5  99721183.28342  24352931.925    24352931.3134   24352926.1224
        31.400          16.3004
 108811525.829 7  84788237.03245  20706142.287    20706141.9254   20706140.8944
        47.100          34.4004
 126758049.483 8                  24121249.610
        49.300
 113664621.935 8  88569799.16847  21629629.563    21629629.0944   21629629.2124
        49.200          45.1004
 114491873.635 6  89214478.84644  21787073.404    21787073.1684   21787076.9074
        41.600          25.7004
 129270190.062 8                  24599295.459
        48.100
 110383923.985 8  86013489.49948  21005361.410    21005360.8964   21005363.5394
        48.400          48.8004
 130903430.377 5                  24910063.147
        35.700
 126443110.929 5  98527116.98444  24061321.620    24061321.5314   24061324.6244
        33.400          26.2004
 106018374.452 6  82458761.000 7  19819011.224    19819010.777    19819015.458
        37.900          45.500
 108382748.367 7  84297800.816 7  20239687.457    20239686.582    20239691.770
        44.700          47.800


 108687820.973 8  84534992.797 8  20303780.362    20303779.236    20303784.360
        50.500          48.600
 118239280.733 6                  22142456.844    22142453.471
        36.000
 123313791.307 7                  23465835.677
        47.600
 109740299.904 6  85353557.417 7  20558052.394    20558051.911    20558058.219
        41.900          44.300


 125874071.464 6  97902079.793 4  23547346.553    23547344.137    23547344.416
        38.700          29.300
 198898593.278 7                  37849145.301
        43.100
 130781378.190 5 101907592.1204   24886866.247    24886865.8504   24886866.1744
        33.300           4.0004
 202016233.435 7                  38442419.465
        44.600
 124598520.247 8                  23710289.809
        49.500


 126707167.948 5                  23769940.236    23769940.741
        34.300




 25  1  1 10 12 45.0000000  0 29G18G08G23E29G32G24E33G10G28G27R19R04
                                R12R03R13E26R18S35R05R17S31G21S33E07
                                E08E19R14E13R20
 119725827.243 5  93292884.16643  22783066.486    22783066.2904   22783069.5844
        34.700          21.6004
 127986934.203 5  99730083.93742  24355111.739    24355111.0204   24355099.7424
        32.400          13.6004
 108826265.557 7  84799722.57145  20708947.667    20708947.3144   20708946.5284
        46.600          34.2004
 126738218.205 8                  24117475.538
        49.100
 113639422.283 8  88550163.09247  21624834.162    21624833.7114   21624834.4074
        49.000          44.8004
 114519651.376 6  89236123.73244  21792360.481    21792360.2584   21792357.5804
        40.900          26.7004
 129244334.938 7                  24594375.056
        47.900
 110364049.469 8  85998002.86948  21001579.596    21001579.0644   21001581.4364
        48.300          48.4004
 130846264.880 4                  24899184.568
        28.700
 126476005.880 5  98552749.41544  24067579.676    24067579.6894   24067583.6174
        30.500          25.4004
 106018518.856 6  82458873.341 7  19819037.651    19819037.432    19819042.636
        38.000          45.100
 108367619.520 6  84286033.942 8  20236865.895    20236860.888    20236866.210
        41.400          48.000
 123375946.321 6                  23096219.903    23096217.009
        37.600
 108711858.246 8  84553688.425 8  20308271.362    20308269.939    20308275.027
        50.400          48.900
 118211486.719 6                  22137252.188    22137252.366
        38.300
 123328215.170 8                  23468580.457
        48.800
 109790055.434 7  85392256.162 7  20567374.328    20567374.851    20567381.069
        45.300          45.900


 125833002.290 7                  23539664.238    23539664.465
        43.200
 128822809.355 5                  24073618.174    24073620.022
        33.400
 198898596.161 7                  37849145.574
        43.400
 130739352.363 5 101874844.7854   24878868.083    24878867.6014   24878868.3784
        31.800           4.0004
 202016222.729 7                  38442416.058
        45.000
 124616396.099 8                  23713691.516
        49.000




 126648928.066 5                  23759013.736    23759013.410
        32.400




 25  1  1 10 13  0.0000000  0 29G18G08G23E29G32G24E33G10G28G27R19R04
                                R12R03R13E26R18S35R05R17S31G21S33E07
                                E08E19R14E13R20
 119777736.143 5  93333332.69543  22792945.914    22792945.7544   22792948.2434
        34.700          23.5004
 127998468.892 5  99739071.87341  24357304.408    24357303.6714   24357294.3434
        34.100          11.0004
 108841075.569 7  84811262.86245  20711766.167    20711765.8144   20711765.2384
        45.500          34.4004
 126718444.179 8                  24113712.540
        48.900
 113614296.128 8  88530584.27547  21620052.530    21620052.0834   21620053.7514
        49.000          45.2004
 114547568.878 7  89257877.59645  21797673.884    21797673.6304   21797670.0244
        42.100          30.8004
 129218550.798 7                  24589468.220
        47.300
 110344219.742 7  85982551.15247  20997806.663    20997806.1134   20997807.4944
        47.300          47.3004


 126508970.411 5  98578436.01744  24073848.964    24073849.0804   24073854.6434
        35.300          24.6004
 106018871.887 6  82459147.901 7  19819103.870    19819105.450    19819108.441
        40.100          44.600
 108352558.792 7  84274320.021 8  20234049.311    20234048.962    20234054.288
        44.300          48.800


 108735937.564 8  84572416.789 8  20312769.027    20312768.002    20312772.737
        50.500          48.400
 118183844.304 6                  22132079.175    22132079.061
        36.300
 123342732.855 8                  23471342.616
        48.400
 109839941.270 7  85431056.258 7  20576719.606    20576720.555    20576726.760
        46.900          46.100


 125791965.888 6                  23531983.764    23531983.966
        39.900
 128892029.116 5                  24086553.081    24086553.636
        31.600
 198898595.297 7                  37849150.417
        42.400
 130697372.298 4 101842132.9294   24870880.412    24870879.9704   24870879.3724
        28.300           2.4004
 202016208.162 7                  38442414.126
        45.600
 124634317.195 8                  23717101.783
        48.800




 126590679.595 5                  23748090.064    23748090.207
        35.000




 25  1  1 10 13 15.0000000  0 26G18G08G23E29G32G24E33G10G28G27R19R04
                                R12R03E26R18S35R05R17S31S33E07E08E19
                                E13R20
 119829712.907 6  93373834.08344  22802834.068    22802834.0334   22802839.2354
        38.700          24.4004
 128010120.730 4  99748151.13741  24359521.878    24359521.1764   24359510.1884
        29.700           6.4004
 108855961.204 7  84822862.07845  20714598.994    20714598.6814   20714598.1414
        43.800          32.7004
 126698732.621 8                  24109961.466
        48.500
 113589248.748 8  88511066.83847  21615286.154    21615285.7394   21615287.7524
        49.100          46.1004
 114575631.257 6  89279744.36545  21803013.445    21803013.1414   21803013.5824
        41.700          34.4004
 129192843.140 7                  24584576.444
        47.000
 110324440.203 7  85967138.53847  20994042.168    20994041.5924   20994042.9114
        47.800          45.6004




 106019438.435 6  82459588.530 7  19819212.232    19819212.559    19819214.816
        41.500          45.300
 108337571.650 7  84262663.332 8  20231252.439    20231251.877    20231256.045
        45.300          49.800
 123406869.210 5                  23102000.953    23101998.987
        34.600
 108760063.864 8  84591181.678 8  20317275.152    20317274.213    20317279.999
        50.000          48.200
 123357349.570 8                  23474124.430
        48.900
 109889962.164 7  85469961.399 7  20586091.595    20586091.681    20586096.370
        47.800          44.500


 125750967.784 6  97806304.563 5  23524313.677    23524313.465    23524323.484
        38.100          34.400
 128961241.425 4                  24099495.679
        26.900
 198898594.690 7                  37849149.089
        42.000
 202016194.245 7                  38442413.420
        46.000
 124652288.613 8                  23720521.799
        49.500




 139223321.340 5                  26493319.589
        35.500


 25  1  1 10 13 30.0000000  0 25G18G08G23E29G32G24E33G10G28G27R19R04
                                R12R03E26R18S35R05S31S33E07E08E19E13
                                R20
 119881759.429 6  93414389.84044  22812737.231    22812737.1604   22812743.2134
        39.500          25.1004
 128021891.422 5  99757323.3174   24361772.571    24361771.7844   24361748.9564
        33.600           2.4004
 108870924.632 7  84834521.88545  20717445.668    20717445.3474   20717445.4514
        43.200          31.8004
 126679085.663 7                  24106222.845
        47.600
 113564282.285 8  88491612.46647  21610534.950    21610534.5534   21610536.4174
        48.100          45.2004
 114603840.330 7  89301725.44046  21808381.360    21808381.0744   21808383.9784
        44.100          36.9004
 129167214.302 7                  24579699.586
        47.400
 110304713.082 8  85951766.74247  20990287.673    20990287.0884   20990288.4474
        50.100          45.1004


 126575149.261 6  98629988.98744  24086446.633    24086446.6684   24086448.5124
        36.300          28.9004
 106020220.845 6  82460197.085 7  19819358.432    19819357.761    19819360.564
        40.500          44.800
 108322659.915 7  84251065.344 8  20228463.523    20228465.466    20228470.971
        42.700          50.200
 123422604.618 4                  23104946.094    23104944.413
        29.300
 108784239.249 8  84609984.756 7  20321790.886    20321791.182    20321795.720
        50.800          47.600
 123372067.480 8                  23476924.751
        48.100
 109940119.912 7  85508973.009 7  20595487.374    20595486.958    20595491.396
        47.000          42.100


 125710010.114 6  97774448.658 6  23516653.969    23516651.599    23516658.036
        36.600          36.200
 198898598.207 7                  37849150.551
        42.800
 202016185.446 7                  38442408.488
        46.500
 124670312.376 8                  23723951.291
        49.900




 139267380.944 5                  26501700.543
        31.500


 25  1  1 10 13 45.0000000  0 26G18G08G23E29G32G24E33G10G28G27R19R04
                                R12R03E26R18S35R05S31S33E07E08E19R14
                                E13R20
 119933875.287 6  93454999.59544  22822653.659    22822653.6154   22822659.6174
        39.000          24.1004
 128033781.187 5  99766588.20542  24364034.018    24364033.1964   24364012.0394
        34.300          15.0004
 108885965.837 6  84846242.28244  20720307.124    20720306.7764   20720307.3034
        38.700          28.4004
 126659503.194 8                  24102496.634
        48.100
 113539396.636 7  88472221.05947  21605798.481    21605798.0794   21605800.2264
        46.700          44.4004
 114632195.741 7  89323820.55546  21813777.473    21813777.2014   21813779.3264
        44.100          36.8004
 129141664.361 7                  24574836.937
        47.700
 110285038.568 8  85936435.95047  20986543.793    20986543.1594   20986544.3894
        50.100          44.4004


 126608339.511 5  98655851.53845  24092761.459    24092761.5124   24092759.7554
        31.800          30.4004
 106021219.367 6  82460973.720 7  19819545.361    19819544.733    19819547.952
        41.900          44.500
 108307823.564 7  84239525.895 8  20225696.400    20225697.219    20225700.036
        46.200          48.900
 123438523.288 5  96007691.276 4  23107919.069    23107920.609    23107927.822
        30.700          29.400
 108808463.767 8  84628826.030 7  20326317.407    20326317.783    20326321.315
        51.300          47.300
 123386886.450 8                  23479745.077
        48.800
 109990413.779 8  85548090.365 6  20604908.444    20604909.360    20604910.306
        49.100          38.500


 125669092.836 5  97742624.068 6  23509000.789    23508998.779    23509004.134
        33.600          37.000
 198898605.465 7                  37849155.201
        43.700
 202016178.579 7                  38442409.547
        45.800
 124688388.221 8                  23727390.964
        49.600




 126415947.217 5                  23715316.929
        30.000
 139311481.512 5                  26510095.061
        34.700


 25  1  1 10 14  0.0000000  0 26G18G08G23E29G32G24E33G10G28G27R19R04
                                R12R03E26R18S35R05S31S33E07E08E19R14
                                E13R20
 119986050.885 5  93495655.88343  22832583.407    22832583.3094   22832587.2234
        35.700          20.2004


 108901075.617 5  84858016.10743  20723183.361    20723182.8744   20723182.7624
        33.800          23.6004
 126639975.939 8                  24098780.646
        48.800
 113514582.540 7  88452885.42347  21601076.855    21601076.4714   21601078.1574
        47.400          45.7004
 114660687.967 6  89346022.30545  21819200.221    21819199.9584   21819200.7574
        40.500          35.0004
 129116184.289 7                  24569988.203
        46.900
 110265407.455 8  85921138.99147  20982808.931    20982808.2974   20982808.6264
        48.800          44.1004


 126641595.814 5  98681765.50344  24099088.796    24099089.3864   24099085.5144
        35.600          28.6004
 106022424.273 6  82461910.873 7  19819770.685    19819769.974    19819772.410
        41.500          43.300
 108293052.947 7  84228037.695 7  20222937.080    20222937.686    20222939.887
        46.400          46.700
 123454615.581 5                  23110934.151    23110930.950
        32.500
 108832727.606 8  84647697.908 7  20330850.713    20330851.177    20330853.309
        51.800          46.500
 123401797.191 8                  23482582.428
        49.000
 110040833.928 8  85587305.937 6  20614353.597    20614354.250    20614358.344
        48.600          39.000


 125628206.554 6  97710823.586 6  23501360.926    23501360.752    23501357.999
        38.300          37.800
 198898606.082 7                  37849152.742
        43.600
 202016166.192 7                  38442405.447
        45.000
 124706506.774 8                  23730838.797
        49.000
 144923678.904 4                  27578057.174
        29.900


                  98278185.998 5                                  23704375.240
                        30.400
 139355613.599 5                  26518493.346
        35.700


 25  1  1 10 14 15.0000000  0 24G18G08G23E29G32G24E33G10G28G27R19R04
                                R03E26R18S35R05S31S33E07E08E19R14E13
 120038292.730 5  93536363.80843  22842526.375    22842526.1884   22842527.7384
        30.800          21.7004


 108916260.844 4  84869848.69443  20726071.582    20726070.8314   20726072.4584
        26.000          20.2004
 126620510.696 8                  24095076.825
        48.900
 113489846.806 7  88433610.84247  21596369.585    21596369.2144   21596371.4794
        45.900          46.1004
 114689323.612 6  89368335.82445  21824648.975    21824648.7164   21824648.9784
        39.900          31.6004
 129090781.142 7                  24565154.271
        45.700
 110245826.734 8  85905881.28847  20979082.728    20979082.1024   20979082.6154
        50.700          45.2004


 126674924.661 6  98707735.87544  24105437.591    24105437.6084   24105426.1904
        36.700          25.3004
 106023842.830 6  82463014.199 7  19820034.685    19820034.220    19820036.772
        39.800          42.500
 108278355.001 7  84216605.973 7  20220191.774    20220193.420    20220195.022
        46.400          45.900
 108857037.738 8  84666605.810 7  20335390.380    20335390.871    20335395.548
        51.400          46.700
 123416806.558 8                  23485438.287
        48.300
 110091387.003 8  85626625.012 6  20623825.918    20623826.228    20623830.032
        49.700          41.900


 125587358.014 6  97679052.534 5  23493717.870    23493722.348    23493713.689
        38.500          34.500
 198898608.261 7                  37849149.424
        43.300
 202016155.104 7                  38442403.873
        46.300
 124724674.757 8                  23734296.311
        48.900
 144961866.313 3                  27585322.914
        23.800


                  98232871.498 5                                  23693443.362
                        30.000
 139399783.872 5                  26526897.293
        34.800
 25  1  1 10 14 30.0000000  0 25G18G08G23E29G32G24E33G10G28G27R19R04
                                R12R03E26R18S35R05S31S33E07E08E19E13
                                R20
 120090599.090 6  93577121.95343  22852483.243    22852483.0474   22852480.0364
        38.000          22.4004
 128070117.939 6  99794820.20043  24370935.461    24370935.2474   24370920.8624
        38.900          19.5004


 126601105.813 8                  24091384.422
        49.800
 113465187.804 7  88414396.05147  21591677.792    21591677.4214   21591679.7014
        46.400          46.2004
 114718100.702 5  89390759.57244  21830125.146    21830124.8694   21830122.8034
        34.800          26.8004
 129065453.431 7                  24560334.179
        46.500
 110226294.961 8  85890661.70647  20975365.703    20975365.0824   20975366.2544
        51.600          46.1004


 126708323.788 6  98733761.08844  24111782.208    24111782.1014   24111779.7804
        40.000          25.5004
 106025473.113 6  82464282.184 7  19820338.692    19820338.590    19820342.846
        40.100          43.200
 108263727.815 8  84205229.310 7  20217460.594    20217461.496    20217464.121
        48.400          45.200
 123487339.883 5  96045636.985 5  23117056.068    23117052.253    23117068.578
        33.600          34.800
 108881391.941 8  84685547.907 7  20339940.538    20339940.890    20339943.975
        52.700          45.200
 123431912.839 7                  23488312.860
        47.700
 110142070.512 8  85666045.491 7  20633319.866    20633320.798    20633327.110
        49.000          43.400


 125546545.646 6  97647309.648 5  23486095.255    23486092.853    23486078.841
        36.500          32.000
 198898610.029 7                  37849151.535
        43.600
 202016143.393 7                  38442403.314
        46.500
 124742890.328 8                  23737762.176
        48.500




 139443990.559 5                  26535309.565
        33.300
 125192674.183 5                  23411659.954    23411664.091
        34.100
 25  1  1 10 14 45.0000000  0 26G18G08G23E29G32G24E33G10G28G27R19R04
                                R12R03E26R18S35R05S31G21S33E07E08E19
                                R14E13
 120142970.137 6  93617930.51144  22862447.376    22862447.2294   22862446.2644
        40.600          24.6004
 128082462.071 6  99804439.00544  24373285.045    24373284.2674   24373278.9054
        39.000          25.0004
 108946815.829 4  84893627.40943  20731893.040    20731892.6834   20731893.1564
        29.100          23.1004
 126581761.943 8                  24087702.964
        49.600
 113440606.260 7  88395241.60947  21587000.557    21587000.1954   21587002.6344
        47.400          47.2004
 114747019.633 4  89413293.81943  21835629.142    21835629.0044   21835624.1644
        29.800          22.5004
 129040202.090 7                  24555529.197
        46.400
 110206812.960 8  85875480.95047  20971658.623    20971658.0154   20971660.0034
        51.700          47.4004


 126741793.533 6  98759841.39644  24118152.041    24118151.8944   24118147.6524
        41.800          26.7004
 106027315.947 6  82465715.494 7  19820683.042    19820683.763    19820686.794
        41.100          43.800
 108249172.226 8  84193908.304 7  20214744.175    20214744.493    20214747.481
        50.000          46.100
 123503970.485 5  96058571.896 5  23120174.170    23120164.086    23120179.437
        30.100          35.600
 108905791.071 9  84704524.946 7  20344499.330    20344500.890    20344502.235
        54.000          45.900
 123447116.732 7                  23491206.090
        47.700
 110192884.860 7  85705567.784 7  20642839.101    20642839.058    20642846.537
        46.900          43.600


 125505770.380 5  97615595.517 5  23478456.314    23478462.668    23478453.727
        35.400          35.000
 198898610.998 7                  37849147.622
        43.000
 130404932.725 5 101614247.29941  24815231.972    24815231.5524   24815237.1084
        34.200           7.4004
 202016131.545 7                  38442400.242
        46.100
 124761154.027 8                  23741237.995
        48.500




 126182782.657 6                  23671578.030    23671579.484
        36.400
 139488234.151 5                  26543729.940
        33.000
 25  1  1 10 15  0.0000000  0 27G18G08G23E29G32G24E33G10G28G27R19R04
                                R12R03E26R18S35R05S31G21S33E07E08E19
                                R14E13R20
 120195408.317 6  93658791.38544  22872424.998    22872424.8384   22872425.5264
        41.900          26.2004
 128094923.379 6  99814149.11144  24375655.850    24375654.8494   24375655.2684
        36.100          27.0004
 108962227.072 5  84905636.14644  20734827.122    20734826.3004   20734826.9834
        32.400          24.6004
 126562481.797 8                  24084034.083
        49.400
 113416104.835 8  88376149.59847  21582337.429    21582337.0674   21582340.0774
        49.100          47.8004
 114776082.851 5  89435940.51543  21841161.704    21841161.6784   21841152.8254
        30.700          18.6004
 129015030.048 7                  24550739.145
        46.700
 110187383.575 8  85860341.17948  20967960.968    20967960.3834   20967963.5594
        50.800          48.2004


 126775336.357 6  98785978.65244  24124534.361    24124534.2504   24124531.8594
        40.000          27.3004
 106029374.075 6  82467316.278 7  19821068.663    19821068.971    19821072.736
        41.700          44.500
 108234690.781 8  84182644.984 7  20212039.336    20212039.564    20212042.610
        50.100          45.600
 123520783.063 5  96071648.195 6  23123335.276    23123314.496    23123327.647
        32.200          36.300
 108930237.525 8  84723538.841 7  20349066.298    20349067.329    20349070.181
        53.500          46.900
 123462420.934 7                  23494118.436
        47.500
 110243832.188 8  85745193.438 6  20652382.896    20652383.468    20652389.999
        48.500          41.800


                  97583912.156 5                  23470818.505    23470833.188
                        33.900
 198898615.206 7                  37849149.053
        42.900
 130363365.965 5 101581857.68841  24807323.878    24807323.3204   24807323.7414
        34.600          10.0004
 202016122.675 7                  38442396.294
        46.400
 124779468.472 8                  23744722.865
        48.300




 126124519.882 5                  23660648.092    23660648.414
        35.700
 139532517.161 5                  26552156.293
        33.000
 125076378.263 5  97281634.852 6  23389917.866    23389917.889    23389917.637
        35.200          37.100
 25  1  1 10 15 15.0000000  0 27G18G08G23E29G32G24E33G10G28G27R19R04
                                R12R03E26R18S35R05S31G21S33E07E08E19
                                R14E13R20
 120247907.727 6  93699699.95644  22882414.495    22882414.3304   22882416.5034
        40.300          25.7004
 128107496.012 6  99823945.98544  24378047.655    24378046.5554   24378051.0124
        38.200          26.9004
 108977710.099 6  84917700.82444  20737775.598    20737775.2094   20737773.3314
        38.300          26.5004
 126543259.722 7                  24080376.173
        47.700
 113391677.892 8  88357115.63848  21577689.400    21577689.0434   21577691.1244
        49.400          48.2004
 114805284.432 6  89458695.14642  21846733.052    21846732.9414   21846709.5854
        36.500          16.8004
 128989931.777 7                  24545962.664
        45.900
 110168001.340 8  85845238.15147  20964272.861    20964272.2854   20964274.8954
        49.600          47.0004


 126808946.177 6  98812168.09244  24130929.670    24130929.5274   24130932.0654
        38.000          27.8004
 106031641.887 7  82469080.119 7  19821493.116    19821493.901    19821496.829
        42.800          44.500
 108220277.632 8  84171434.780 7  20209347.965    20209348.399    20209350.031
        49.200          44.100
                  96084861.476 5                  23126497.728    23126507.454
                        35.100
 108954725.636 8  84742585.155 7  20353639.824    20353640.462    20353645.165
        52.500          47.600
 123477819.749 7                  23497049.055
        47.700
 110294906.271 7  85784917.756 6  20661950.091    20661950.004    20661955.359
        47.000          38.400


 125424332.964 4                  23463222.528    23463221.997
        24.900
 198898616.636 7                  37849151.521
        42.900
 130321848.499 6 101549506.46241  24799422.763    24799421.9414   24799421.9194
        36.000          10.1004
 202016111.011 7                  38442396.615
        45.900
 124797827.848 7                  23748216.467
        47.700




 126066254.087 6                  23649719.941    23649719.496
        37.800
 139576833.861 5                  26560591.818
        34.100
 125018355.484 5  97236506.082 6  23379069.327    23379067.367    23379068.014
        33.100          37.800
 25  1  1 10 15 30.0000000  0 26G18G08G23E29G32G24E33G10G28G27R19R04
                                R12R03E26R18S35R05S31G21S33E07E08E19
                                E13R20
 120300472.582 6  93740659.56144  22892417.493    22892417.3414   22892419.7964
        41.000          24.3004
 128120184.334 6  99833833.00044  24380461.486    24380460.4004   24380464.9904
        40.600          27.7004
 108993269.562 7  84929825.05844  20740733.681    20740733.3424   20740733.7114
        42.600          29.9004
 126524100.268 7                  24076729.618
        46.300
 113367330.004 8  88338143.29648  21573056.794    21573056.4504   21573057.3514
        50.300          48.4004


 128964912.112 7                  24541201.786
        45.600
 110148670.946 7  85830175.47847  20960595.306    20960594.7394   20960595.5864
        47.700          47.1004


 126842627.274 6  98838413.09544  24137339.741    24137339.5054   24137343.4694
        36.500          28.2004
 106034124.018 7  82471010.695 7  19821957.386    19821957.715    19821959.700
        42.600          43.900
 108205937.436 8  84160281.314 7  20206667.401    20206669.199    20206671.449
        49.200          42.800
 123554940.095 5                  23129709.619    23129710.826
        35.700
 108979259.897 8  84761667.350 8  20358223.201    20358223.624    20358228.659
        52.500          48.000
 123493317.779 8                  23499998.148
        48.500
 110346111.370 7  85824743.950 5  20671541.925    20671543.074    20671544.834
        46.700          34.600




 198898619.356 7                  37849152.568
        42.200
 130280385.087 6 101517197.38242  24791534.257    24791533.3944   24791531.8484
        37.300          13.2004
 202016100.458 7                  38442396.517
        45.600
 124816236.596 7                  23751719.769
        47.400




 139621188.552 6                  26569031.552
        36.700
 124960418.820 4  97191444.236 6  23368224.840    23368235.903    23368233.487
        29.400          38.600
 25  1  1 10 15 45.0000000  0 27G18G08G23E29G32G24E33G10G28G27R19R04
                                R12R03E26R18S35R05S31G21S33E07E08E19
                                R14E13R20
 120353096.137 6  93781664.88843  22902431.504    22902431.2684   22902433.8244
        37.300          20.3004
 128132981.679 6  99843804.92344  24382896.565    24382895.5194   24382897.7594
        39.400          26.7004
 109008899.062 7  84942003.86845  20743707.493    20743707.1184   20743707.9164
        44.600          31.2004
 126504996.913 7                  24073094.618
        44.800
 113343054.724 8  88319227.52248  21568437.688    21568437.3404   21568437.5264
        51.500          49.0004


 128939964.790 7                  24536455.048
        47.100
 110129386.119 8  85815148.34148  20956926.378    20956925.8424   20956925.7124
        48.800          48.0004


 126876372.819 6  98864708.37145  24143760.637    24143760.4144   24143765.2824
        40.500          31.2004
 106036813.820 6  82473102.755 7  19822459.942    19822459.986    19822462.941
        41.800          44.200
 108191663.369 8  84149179.289 7  20204002.346    20204002.498    20204005.678
        48.400          42.000


 109003833.702 8  84780780.319 8  20362812.696    20362813.083    20362819.025
        52.000          48.000
 123508908.495 8                  23502964.994
        48.500
 110397440.323 7                  20681157.953    20681158.578
        46.200




 198898617.212 7                  37849156.614
        43.500
 130238969.366 5 101484925.38241  24783651.633    24783650.6634   24783650.6534
        34.500          10.8004
 202016085.957 7                  38442393.378
        45.700
 124834688.123 7                  23755231.399
        46.600




 125949722.941 4                  23627864.619    23627863.184
        28.100
 139665574.719 6                  26577478.439
        36.400
                  97146444.915 6                                  23357412.670
                        38.400
 25  1  1 10 16  0.0000000  0 26G18G08G23E29G32G24E33G10G28G27R19R04
                                R12R03E26R18S35R05S31G21S33E07E08E19
                                E13R20
 120405788.465 5  93822723.86042  22912457.325    22912457.0754   22912460.1504
        33.200          14.4004
 128145898.303 6  99853869.77444  24385355.387    24385354.4224   24385354.4774
        38.500          26.4004
 109024609.106 7  84954245.45345  20746697.019    20746696.6304   20746697.2994
        44.500          30.2004
 126485960.084 7                  24069472.513
        45.900
 113318862.436 8  88300376.41648  21563834.169    21563833.8394   21563833.8204
        51.400          49.1004


 128915100.409 7                  24531723.206
        46.900
 110110157.402 8  85800164.91948  20953266.122    20953265.5724   20953267.2054
        49.300          49.1004


 126910192.833 6  98891061.63945  24150195.999    24150195.7764   24150200.6944
        41.600          32.7004
 106039721.680 6  82475364.457 7  19823003.969    19823003.454    19823007.585
        40.700          45.200
 108177465.839 7  84138136.770 6  20201354.134    20201351.859    20201354.654
        47.700          41.600


 109028457.339 8  84799932.050 7  20367414.090    20367415.183    20367417.248
        53.100          46.600
 123524602.266 8                  23505951.010
        48.400
 110448903.248 7  85904693.075 5  20690798.866    20690799.522    20690802.279
        46.400          34.000


 125302492.576 5  97457458.310 5  23440423.861    23440423.912    23440414.551
        35.600          32.900
 198898621.320 7                  37849154.920
        43.000
 130197612.305 5 101452699.20441  24775781.870    24775780.9234   24775780.9204
        33.900          11.3004
 202016076.563 7                  38442384.922
        45.200
 124853192.665 7                  23758752.645
        45.900




 139710002.539 6                  26585932.788
        36.500
                  97101517.294 6                                  23346609.561
                        37.000
 25  1  1 10 16 15.0000000  0 27G18G08G23E29G32G24E33G10G28G27R19R04
                                R12R03R13E26R18S35R05S31G21S33E07E08
                                E19E13R20
 120458544.888 5  93863832.81241  22922502.351    22922501.8784   22922499.1714
        32.300           7.1004
 128158929.629 6  99864024.00543  24387834.393    24387833.4864   24387832.8524
        40.600          23.8004
 109040395.344 7  84966546.41345  20749700.911    20749700.4874   20749701.0494
        43.900          30.1004
 126466985.386 8                  24065861.478
        48.000
 113294748.822 8  88281586.60448  21559245.119    21559244.8024   21559245.9364
        50.500          49.0004
 114923528.410 6  89550677.37541  21869211.196    21869210.6464   21869191.9914
        38.000          10.4004
 128890314.824 7                  24527006.893
        46.100
 110090980.646 8  85785221.98248  20949616.973    20949616.4234   20949618.6834
        50.600          50.6004
 130045751.446 5                  24746879.270
        35.300
 126944082.580 7  98917469.22845  24156646.664    24156646.4594   24156649.4544
        43.800          35.4004
 106042843.343 6  82477792.418 7  19823585.624    19823586.625    19823591.132
        40.000          45.600
 108163340.671 7  84127150.490 6  20198716.911    20198714.523    20198716.124
        46.800          41.600
 123607515.837 6                  23139555.733    23139555.242
        39.000
 109053126.029 8  84819118.814 7  20372021.831    20372022.193    20372025.184
        51.900          46.500
 117839142.337 5                  22067486.881    22067486.402
        35.500
 123540394.775 7                  23508956.187
        47.800
 110500495.051 7  85944820.038 6  20700463.355    20700464.527    20700469.860
        47.200          36.400


 125261941.579 5  97425919.014 5  23432834.160    23432838.757    23432829.941
        33.500          34.600
 198898626.511 7                  37849153.896
        42.400
 130156309.561 5 101420515.27241  24767923.214    24767922.3074   24767921.2874
        31.900           9.0004
 202016068.499 7                  38442387.757
        44.800
 124871745.761 7                  23762283.061
        45.500




 139754467.536 6                  26594394.388
        37.100
                  97056658.225 6                                  23335822.675
                        37.600
 25  1  1 10 16 30.0000000  0 27G18G08G23E29G32G24E33G10G28G27R19R04
                                R12R03R13E26R18S35R05S31G21S33E07E08
                                E19E13R20
 120511359.845 4  93904987.27741  22932535.742    22932535.3184   22932549.2374
        26.700          10.6004
 128172070.233 6  99874263.42743  24390335.190    24390334.1844   24390333.6204
        37.500          19.1004
 109056252.636 7  84978902.75045  20752719.443    20752719.0414   20752718.4554
        46.100          31.5004
 126448067.574 8                  24062261.645
        48.500
 113270708.616 8  88262853.98748  21554670.406    21554670.0894   21554672.3784
        51.000          49.5004
 114953432.502 6  89573979.26343  21874901.047    21874900.2924   21874893.5514
        39.000          21.4004
 128865603.026 7                  24522304.440
        46.500
 110071850.702 8  85770315.51548  20945976.279    20945975.7384   20945978.7644
        52.300          51.8004
 129988582.283 5                  24735995.629
        33.300
 126978036.532 7  98943926.82645  24163106.535    24163106.3254   24163110.5504
        42.700          34.6004
 106046173.665 6  82480382.705 7  19824208.280    19824209.298    19824212.888
        40.300          45.300
 108149282.308 8  84116216.196 6  20196089.873    20196088.969    20196090.928
        48.100          41.700


 109077834.438 8  84838336.443 7  20376637.472    20376638.209    20376642.080
        52.100          47.600
 117813726.581 4                  22062715.514    22062718.258
        24.300
 123556280.728 7                  23511979.547
        47.800
 110552210.210 8  85985042.866 5  20710152.771    20710153.684    20710154.147
        48.700          35.700


 125221423.615 6  97394405.149 5  23425242.513    23425244.301    23425250.581
        39.800          35.200
 198898627.634 7                  37849152.876
        42.900
 130115056.516 4 101388369.9604   24760071.441    24760070.3014   24760070.9294
        27.300           3.4004
 202016056.483 7                  38442384.949
        44.600
 124890342.006 7                  23765821.620
        45.000




 139798964.277 5                  26602861.011
        34.800
                  97011863.745 6                                  23325053.997
                        38.500
 25  1  1 10 16 45.0000000  0 25G18G08G23E29G32G24E33G10G28G27R19R04
                                R12R03E26R18S35R05S31S33E07E08E19E13
                                R20
 120564237.812 5  93946190.78342  22942613.109    22942612.8324   22942611.2824
        35.700          15.0004
 128185324.243 4  99884591.33141  24392853.338    24392852.3284   24392856.7284
        26.300          11.3004
 109072185.400 8  84991317.89845  20755751.309    20755750.9124   20755750.2784
        48.700          33.2004
 126429210.987 8                  24058673.382
        49.000
 113246746.170 8  88244181.95448  21550110.717    21550110.3874   21550112.7144
        50.400          48.8004
 114983476.662 6  89597390.21244  21880618.552    21880618.1144   21880617.6494
        38.800          25.6004
 128840969.530 7                  24517617.031
        47.500
 110052772.141 8  85755449.10148  20942345.228    20942344.6874   20942348.3034
        52.200          51.3004
 129931415.879 5 101245221.79941  24725120.871    24725120.8044   24725116.6394
        30.000           6.6004
 127012058.611 7  98970437.51545  24169582.495    24169582.2764   24169582.6964
        42.700          31.6004
 106049716.452 6  82483138.190 7  19824870.980    19824872.096    19824875.037
        40.600          44.500
 108135294.974 7  84105337.189 7  20193475.670    20193475.123    20193480.815
        46.700          43.200
 123643455.206 6                  23146285.048    23146283.326
        38.100
 109102586.984 8  84857588.404 8  20381261.855    20381262.157    20381266.387
        51.200          48.500
 123572264.470 8                  23515021.236
        48.900
 110604052.408 8  86025364.549 5  20719864.159    20719865.721    20719866.641
        49.900          35.200


 125180943.091 7  97362920.263 6  23417673.339    23417674.273    23417677.517
        42.200          37.000
 198898628.783 7                  37849153.914
        42.300
 202016044.911 7                  38442383.979
        45.300
 124908985.660 7                  23769369.584
        45.300




 139843496.893 4                  26611334.976
        27.500
                  96967137.219 6                                  23314302.303
                        39.400
 25  1  1 10 17  0.0000000  0 24G18G08G23E29G32G24E33G10G28G27R19R04
                                R12R03E26R18S35R05S31S33E07E19R14E13
 120617181.573 6  93987445.63543  22952686.054    22952685.7284   22952685.5304
        40.100          19.8004


 109088197.332 8  85003794.75045  20758798.095    20758797.7114   20758797.0184
        49.800          34.0004
 126410419.237 7                  24055097.585
        47.900
 113222865.118 8  88225573.35148  21545566.458    21545566.1284   21545567.4614
        50.500          48.2004
 115013664.237 6  89620912.94545  21886363.551    21886363.1894   21886365.2184
        40.600          30.0004
 128816418.184 7                  24512945.167
        47.400
 110033748.730 8  85740625.66748  20938725.224    20938724.7014   20938728.3234
        51.000          50.2004


 127046152.066 6  98997003.83144  24176071.201    24176070.9734   24176069.1424
        40.900          27.9004
 106053476.048 6  82486062.334 7  19825572.813    19825573.550    19825577.471
        40.700          44.100
 108121382.564 8  84094516.378 7  20190878.138    20190879.185    20190881.882
        48.600          43.400


 109127387.227 8  84876877.523 8  20385893.398    20385894.226    20385899.126
        50.300          48.800
 123588349.576 8                  23518081.831
        48.600
 110656024.964 8  86065787.613 6  20729601.840    20729602.049    20729603.890
        49.800          36.800


 125140503.320 6  97331467.110 6  23410108.327    23410109.857    23410115.292
        41.800          37.100
 198898634.759 7                  37849153.390
        42.800
 202016037.896 7                  38442381.202
        45.100
 124927680.167 7                  23772926.643
        44.300


 125658470.749 5                  23573211.544    23573212.686
        35.600


 25  1  1 10 17 15.0000000  0 24G18G08G23E29G32G24E33G10G28G27R19R04
                                R12R03E26R18S35R05S31S33E07E19E13R20
 120670184.089 6  94028746.27743  22962772.362    22962772.0184   22962772.0264
        40.100          22.5004


 109104281.549 8  85016327.92445  20761858.602    20761858.2494   20761857.4724
        49.200          34.1004
 126391685.326 7                  24051532.309
        47.400
 113199058.496 8  88207022.75748  21541036.063    21541035.7504   21541036.2554
        50.500          48.3004
 115043988.029 6  89644541.83845  21892135.865    21892135.5124   21892137.1704
        41.200          32.7004
 128791942.272 8                  24508287.654
        48.300
 110014773.669 8  85725839.90448  20935115.043    20935114.5164   20935117.2694
        49.400          48.9004


 127080309.576 5  99023620.17543  24182566.558    24182566.3224   24182569.7594
        30.500          20.6004
 106057445.018 6  82489149.293 7  19826315.479    19826315.732    19826320.020
        41.000          44.200
 108107537.524 8  84083747.990 7  20188294.049    20188294.068    20188296.899
        50.300          43.400
 123680112.783 4                  23153208.989    23153153.491
        25.500
 109152227.635 8  84896197.849 8  20390533.880    20390534.845    20390539.374
        49.200          49.200
 123604529.105 8                  23521161.281
        48.300
 110708120.181 7  86106306.162 6  20739359.295    20739357.976    20739364.225
        46.700          37.600


 125100097.424 6  97300040.316 5  23402546.313    23402546.479    23402553.349
        37.200          32.900
 198898637.154 6                  37849149.920
        41.500
 202016027.617 7                  38442378.877
        44.900
 124946418.469 7                  23776492.387
        42.600




                  96877894.364 6                                  23292847.480
                        40.600
 25  1  1 10 17 30.0000000  0 26G18G08G23E29G32G24E33G10G28G27R19R04
                                R12R03R13E26R18S35R05S31S33E07E19R14
                                E13R20
 120723247.945 6  94070094.69443  22972870.689    22972870.3054   22972870.4394
        39.400          23.4004


 109120441.003 8  85028919.70845  20764933.397    20764933.0764   20764932.2634
        48.500          33.3004
 126373012.157 7                  24047979.099
        47.200
 113175329.180 8  88188532.41448  21536520.013    21536519.6964   21536520.3454
        51.500          48.4004
 115074450.643 6  89668278.93445  21897929.772    21897929.3924   21897934.1594
        37.500          32.3004
 128767544.867 8                  24503644.716
        49.200
 109995850.034 7  85711094.21847  20931513.863    20931513.3094   20931515.9404
        47.800          46.8004




 106061626.561 6  82492401.618 7  19827097.669    19827096.965    19827102.116
        40.900          44.600
 108093762.724 8  84073034.255 7  20185721.061    20185723.274    20185724.518
        51.400          42.600
 123698705.893 6                  23156604.318    23156634.819
        36.500
 109177111.235 8  84915551.751 8  20395182.076    20395183.391    20395187.934
        49.500          49.300
 117713667.855 5                  22043988.035    22043986.220
        34.000
 123620805.911 7                  23524258.806
        47.400
 110760340.649 7  86146922.063 5  20749141.071    20749140.858    20749143.570
        47.800          35.500


 125059728.310 4  97268642.272 5  23394989.754    23394988.730    23395004.097
        25.800          34.600
 198898639.494 7                  37849155.680
        43.000
 202016017.841 7                  38442378.233
        44.200
 124965203.294 7                  23780066.620
        42.600


 125541982.460 6                  23551362.302    23551361.472
        37.700


                  96833375.141 6                                  23282142.782
                        40.900
 25  1  1 10 17 45.0000000  0 25G18G08G23E29G32G24E33G10G28G27R19R04
                                R12R03R13E26R18S35R05S31S33E07E19E13
                                R20
 120776373.655 6  94111491.33443  22982979.401    22982979.0754   22982980.7244
        38.400          23.0004


 109136676.566 8  85041570.80245  20768023.050    20768022.7554   20768022.1684
        49.100          33.9004
 126354400.521 7                  24044437.511
        46.900
 113151678.006 8  88170102.95748  21532019.283    21532018.9484   21532019.8364
        50.700          48.2004
 115105052.698 5  89692124.68845  21903754.947    21903754.6124   21903758.0454
        33.300          31.8004
 128743226.990 8                  24499017.113
        49.300
 109976978.790 7  85696389.34547  20927922.333    20927921.7344   20927924.6014
        47.400          45.7004


 127148821.722 6  99077015.85943  24195607.525    24195607.6544   24195617.6994
        38.100          23.6004
 106066021.395 6  82495819.789 7  19827919.969    19827919.019    19827922.985
        41.200          43.700
 108080059.098 8  84062375.889 7  20183158.985    20183163.302    20183165.386
        50.900          42.700
 123717477.021 6                  23160165.469    23160157.447
        36.800
 109202038.908 8  84934939.923 8  20399839.198    20399840.059    20399844.056
        49.400          49.300
 117689068.107 5                  22039376.135    22039377.139
        31.800
 123637180.800 8                  23527374.685
        48.300
 110812686.595 8  86187635.548 5  20758947.170    20758948.387    20758948.117
        48.900          33.000


 125019315.023 6  97237273.443 6  23387449.525    23387448.841    23387465.303
        37.200          37.400
 198898643.247 6                  37849155.872
        41.800
 202016007.866 7                  38442376.386
        45.000
 124984035.364 7                  23783650.048
        42.600
 142987797.622 5                  27209670.847
        34.300


                  96788926.308 6                                  23271455.837
                        39.200
 25  1  1 10 18  0.0000000  0 25G18G08G23E29G32G24E33G10G28G27R19R04
                                R03R13E26R18S35R05S31S33E07E19R14E13
                                R20
 120829558.478 6  94152934.01143  22993099.881    22993099.6004   22993101.7274
        40.100          23.0004
 128253299.005 6  99937648.71143  24405793.504    24405793.5044   24405794.4214
        37.600          22.3004
 109152985.857 8  85054279.34245  20771126.396    20771126.0974   20771126.5514
        49.400          34.3004
 126335847.959 7                  24040906.587
        47.200
 113128102.571 8  88151732.51947  21527533.546    21527533.1894   21527533.9444
        50.000          47.9004
 115135791.367 6  89716076.85445  21909602.391    21909602.0294   21909607.5044
        38.500          32.8004
 128718986.398 8                  24494403.913
        49.300
 109958157.651 7  85681723.53947  20924341.876    20924341.2684   20924343.1314
        47.400          46.1004
 129645573.027 5                  24670730.038
        32.100
 127183177.164 6  99103786.55143  24202143.859    24202144.0334   24202158.9144
        38.200          22.9004
 106070627.219 6  82499402.087 7  19828780.837    19828780.178    19828784.072
        39.900          44.000
 108066424.159 8  84051770.888 6  20180615.787    20180617.173    20180619.155
        50.700          41.800
 109227007.843 8  84954360.189 8  20404502.878    20404504.126    20404508.910
        49.500          50.200
 117664630.767 6                  22034805.174    22034806.716
        37.900
 123653651.303 7                  23530508.514
        47.800
 110865155.068 8  86228444.260 5  20768777.679    20768778.654    20768776.622
        50.500          30.800


 124979018.937 7  97205931.967 5  23379914.449    23379916.098    23379925.830
        42.700          35.600
 198898645.582 7                  37849165.249
        42.600
 202015997.424 7                  38442375.089
        46.000
 125002912.059 7                  23787242.174
        42.700
 142951472.791 5                  27202756.949
        31.400
 125425514.704 6                  23529512.007    23529513.343
        39.300
 140066740.795 5                  26653814.076
        33.600
                  96744546.534 6                                  23260783.800
                        37.000
 25  1  1 10 18 15.0000000  0 25G18G08G23E29G32G24E33G10G28G27R19R04
                                R12R03R13E26R18S35R05S31S33E07E19E13
                                R20
 120882806.476 5  94194425.84243  23003231.637    23003231.3834   23003233.6864
        30.600          18.4004
 128267229.726 5  99948503.81943  24408437.155    24408437.1384   24408446.7104
        33.500          23.0004
 109169373.493 8  85067048.97945  20774245.315    20774245.0074   20774245.8174
        50.300          34.4004
 126317359.028 7                  24037388.552
        47.500
 113104607.373 8  88133424.58747  21523062.645    21523062.2794   21523063.1454
        49.900          46.8004
 115166670.852 6  89740138.80345  21915479.947    21915479.5144   21915483.5384
        36.400          31.3004
 128694827.874 8                  24489807.283
        49.500
 109939391.340 8  85667100.49647  20920770.492    20920769.8844   20920772.0044
        48.900          45.5004
 129588430.662 5                  24659857.386
        32.700
 127217601.036 5  99130610.37943  24208693.237    24208693.5054   24208713.7544
        34.000          22.4004
 106075448.460 6  82503151.892 7  19829683.000    19829682.238    19829684.152
        41.000          43.000
 108052862.150 8  84041222.691 7  20178080.449    20178081.736    20178087.326
        48.300          42.600
 123755551.167 5                  23167268.228    23167270.601
        35.300
 109252022.555 8  84973816.075 8  20409176.395    20409176.896    20409181.845
        49.900          50.500
 117640360.871 6                  22030262.022    22030261.424
        37.500
 123670221.937 7                  23533661.430
        46.300
 110917750.220 8  86269351.554 6  20778630.895    20778630.234    20778632.450
        48.700          36.100


 124938762.601 6  97174621.392 5  23372382.720    23372383.319    23372394.187
        41.300          35.700
 198898650.205 7                  37849158.814
        43.000
 202015989.779 7                  38442373.296
        45.600
 125021837.841 7                  23790844.588
        45.400
 142915181.402 5                  27195853.395
        32.100
 140111486.571 6                  26662324.008
        37.200
                  96700239.251 5                                  23250127.007
                        34.500
 25  1  1 10 18 30.0000000  0 26G18G08G23E29G32G24E33G10G28G27R19R04
                                R12R03R13E26R18S35R05S31S33E07E19R14
                                E13R20


 128281269.648 5  99959444.02543  24411111.925    24411111.8184   24411118.5544
        30.700          21.8004
 109185834.347 8  85079875.63745  20777377.985    20777377.6644   20777379.0244
        49.600          33.4004
 126298928.469 7                  24033881.348
        47.800
 113081187.206 8  88115175.10147  21518605.388    21518604.9914   21518606.1764
        48.900          46.3004
 115197685.848 6  89764306.37745  21921382.896    21921382.4674   21921384.8104
        40.800          33.0004
 128670746.451 8                  24485224.809
        49.300
 109920674.861 8  85652516.26247  20917208.006    20917207.4214   20917209.7224
        48.100          45.5004
 129531290.645 4 100933413.05941  24648983.773    24648983.4924   24648972.6124
        28.900           6.0004
 127252087.729 5  99157483.22643  24215256.033    24215256.7794   24215277.8144
        32.300          19.5004
 106080479.601 6  82507065.007 7  19830622.078    19830620.953    19830625.477
        39.100          43.200
 108039368.099 8  84030727.354 7  20175563.057    20175562.518    20175568.672
        48.400          44.400
 123774852.906 5                  23170883.067    23170882.245
        32.700
 109277077.467 8  84993303.182 8  20413858.322    20413858.287    20413862.574
        50.200          50.300
 117616253.095 5                  22025744.516    22025743.793
        32.900
 123686887.467 7                  23536833.101
        46.400
 110970466.172 7  86310352.898 6  20788505.232    20788505.124    20788512.352
        47.700          41.400


 124898540.583 5  97143337.636 5  23364858.723    23364853.008    23364872.663
        30.200          32.800
 198898653.149 7                  37849159.481
        44.300
 202015979.268 7                  38442369.419
        44.900
 125040807.311 7                  23794454.391
        44.800
 142878918.187 4                  27188951.977
        28.900
 125309073.675 4                  23507669.994    23507668.013
        28.900
 140156264.361 6                  26670844.956
        36.700
                  96656001.018 5                                  23239490.085
                        33.400
 25  1  1 10 18 45.0000000  0 23G18G08G23E29G32G24E33G10G28G27R19R04
                                R12R03E26R18S35R05S31S33E07E19E13




 109202367.826 8  85092758.87145  20780524.645    20780524.3374   20780524.5564
        49.800          32.8004
 126280555.663 7                  24030385.413
        47.300
 113057841.490 8  88096983.62847  21514162.814    21514162.3944   21514163.4534
        49.200          45.7004
 115228835.380 6  89788578.70345  21927309.276    21927308.8964   21927310.3774
        37.800          31.4004
 128646741.608 8                  24480656.282
        48.900
 109902007.726 7  85637970.43047  20913655.276    20913654.7584   20913657.1974
        45.500          43.7004
 129474152.643 5 100888889.89741  24638111.743    24638111.5294   24638106.9094
        34.000           9.7004
 127286636.309 5  99184404.24343  24221832.373    24221833.1734   24221853.5904
        32.900          19.7004
 106085720.216 6  82511141.072 7  19831601.363    19831602.666    19831606.162
        40.600          44.100
 108025940.913 8  84020283.972 7  20173057.347    20173057.430    20173061.934
        50.000          45.300
                                                  23174560.173

 109302171.883 8  85012821.077 8  20418547.477    20418546.846    20418550.400
        50.500          50.000
 123703647.260 7                  23540021.972
        45.700
 111023301.859 7  86351447.289 7  20798403.271    20798402.139    20798411.170
        47.200          42.500




 198898653.157 7                  37849158.041
        43.800
 202015967.012 7                  38442366.499
        45.300
 125059819.798 7                  23798072.254
        44.000


 140201073.489 6                  26679371.085
        36.500
 25  1  1 10 19  0.0000000  0 23G18G08G23E29G32G24E33G10G28G27R19R04
                                R03E26R18S35R05S31S33E07E19E13R20




 109218977.329 8  85105701.34945  20783684.866    20783684.5624   20783684.5534
        49.300          32.1004
 126262243.870 7                  24026900.873
        47.300
 113034573.470 8  88078852.71047  21509734.840    21509734.3894   21509735.7964
        49.800          45.8004
 115260122.463 6  89812958.18744  21933262.957    21933262.5684   21933262.3524
        36.200          27.8004
 128622816.903 8                  24476103.328
        48.800
 109883393.363 7  85623465.72447  20910113.251    20910112.7334   20910114.9744
        46.600          44.3004
 129417020.237 6 100844371.13941  24627240.152    24627239.9384   24627238.2054
        36.300          11.1004
 127321249.789 5  99211375.81443  24228423.471    24228424.2404   24228442.3784
        35.400          20.0004
 106091173.463 6  82515382.497 7  19832620.496    19832621.637    19832624.096
        39.400          42.600
 108012584.049 8  84009895.340 7  20170562.540    20170561.974    20170566.165
        49.100          44.700
 109327309.121 8  85032372.286 8  20423242.578    20423242.197    20423246.002
        50.700          49.200
 123720504.546 7                  23543230.178
        46.200
 111076260.050 8  86392636.965 7  20808323.610    20808324.428    20808330.239
        48.000          43.200




 198898653.101 7                  37849156.811
        42.300
 202015954.813 7                  38442364.786
        45.600
 125078878.365 7                  23801699.172
        45.100


 140245917.070 5                  26687905.144
        35.500
                  96567735.621 6                                  23218272.219
                        37.100
 25  1  1 10 19 15.0000000  0 26G18G08G23E29G32G24E33G10G28G27R19R04
                                R12R03E26R18S35R05S31G21S33E07E19R14
                                E13R20
 121096833.996 6  94360820.76644  23043875.671    23043875.5824   23043876.7914
        39.600          24.3004
 128324040.265 6  99992788.84043  24419254.345    24419253.8854   24419261.0304
        37.800          20.8004
 109235662.344 8  85118702.66245  20786859.634    20786859.3304   20786859.4644
        48.500          31.6004
 126243992.537 7                  24023427.312
        46.600
 113011382.590 8  88060781.92047  21505321.511    21505321.0244   21505322.4924
        48.900          45.1004
 115291546.123 5  89837444.16444  21939239.526    21939239.1424   21939241.3014
        31.600          25.9004
 128598971.981 8                  24471565.528
        48.300
 109864831.402 7  85609001.84247  20906581.768    20906581.2274   20906582.6964
        46.500          44.6004
 129359893.230 6 100799856.57941  24616368.957    24616368.8104   24616368.5004
        38.000          10.2004
 127355927.069 5  99238396.94141  24235016.500    24235017.1844   24235040.8654
        30.300          10.7004
 106096838.667 6  82519788.775 7  19833678.528    19833679.807    19833683.741
        38.700          43.200
 107999296.771 8  83999560.763 7  20168080.892    20168081.910    20168083.864
        49.500          44.300
 123833793.760 6                  23181945.079    23181942.701
        36.000
 109352488.465 8  85051956.241 8  20427944.478    20427944.815    20427949.308
        50.400          48.600
 123737458.821 7                  23546456.631
        47.200
 111129339.715 8  86433921.096 7  20818267.920    20818268.463    20818274.815
        49.500          43.600


 124778087.294 6                  23342327.283    23342328.828
        37.700
 198898653.574 7                  37849157.200
        42.700
 129664904.411 5 101037582.74142  24674408.449    24674408.6544   24674409.3084
        32.400          15.1004
 202015942.250 7                  38442364.250
        46.600
 125097982.403 7                  23805334.294
        44.000


 125134465.080 5                  23474906.641
        30.300
 140290794.415 6                  26696445.783
        36.200
                  96523710.642 6                                  23207686.788
                        38.000
 25  1  1 10 19 30.0000000  0 25G18G08G23E29G32G24E33G10G28G27R19R04
                                R03R13E26R18S35R05S31G21S33E07E08E19
                                E13
 121150379.402 6  94402544.38843  23054063.561    23054063.8564   23054066.4974
        39.200          23.6004
 128338526.125 6 100004076.52544  24422010.712    24422009.8634   24422018.2774
        39.700          25.8004
 109252427.783 7  85131766.65845  20790049.602    20790049.3344   20790049.7294
        47.100          30.9004
 126225806.503 7                  24019966.509
        45.200
 112988273.759 8  88042775.08647  21500925.013    21500924.5624   21500924.3524
        49.200          45.3004
 115323111.334 5  89862040.38244  21945250.365    21945249.9544   21945248.5414
        33.200          25.8004
 128575211.932 7                  24467044.399
        47.700
 109846326.852 8  85594582.72048  20903060.834    20903060.2984   20903061.6024
        50.600          48.2004
 129302776.765 6 100755350.2164   24605498.538    24605498.4454   24605498.6564
        38.700           4.0004
 127390672.769 6  99265471.58841  24241633.890    24241634.4404   24241653.5544
        36.600           6.4004
 106102720.967 6  82524363.909 7  19834779.708    19834779.656    19834783.850
        38.600          43.600
 107986083.951 7  83989284.114 7  20165614.158    20165614.075    20165616.673
        47.900          43.500
 109377714.756 8  85071576.649 8  20432658.579    20432659.524    20432661.799
        51.700          48.800
 117521663.893 5                  22007996.281    22007990.615
        33.400
 123754514.851 8                  23549702.313
        48.200
 111182545.263 8  86475303.178 7  20828236.008    20828237.422    20828241.784
        51.400          42.600


 124738014.358 6  97018495.050 5  23334828.319    23334829.855    23334835.106
        38.200          34.800
 198898658.891 7                  37849161.395
        43.500
 129624316.912 5 101005956.08942  24666687.904    24666688.1404   24666684.9604
        34.700          16.2004
 202015934.368 7                  38442361.115
        46.800
 125117136.632 7                  23808979.279
        43.000




 140335710.147 6                  26704994.451
        36.000
 25  1  1 10 19 45.0000000  0 27G18G08G23E29G32G24E33G10G28G27R19R04
                                R12R03R13E26R18S35R05S31G21S33E07E08
                                E19E13R20
 121203982.620 6  94444313.03343  23064264.234    23064264.0744   23064265.9144
        37.900          21.1004
 128353121.550 6 100015449.57944  24424788.685    24424787.7554   24424795.0654
        41.400          27.1004
 109269268.117 7  85144888.99145  20793253.740    20793253.4904   20793253.8084
        46.000          30.2004
 126207680.153 7                  24016517.974
        44.000
 112965241.291 8  88024827.73847  21496541.216    21496540.7744   21496540.7754
        49.100          44.5004
 115354811.729 5  89886741.99844  21951282.361    21951282.0444   21951283.1664
        31.100          29.6004
 128551531.298 8                  24462537.968
        48.200
 109827874.315 8  85580204.12548  20899548.759    20899548.2234   20899550.6274
        51.700          50.6004
 129245665.639 6 100710848.19841  24594630.787    24594630.8544   24594630.1004
        39.500           8.1004
 127425480.837 6  99292594.59142  24248256.030    24248256.3074   24248278.1384
        36.200          13.4004
 106108814.477 6  82529103.298 7  19835918.688    19835919.651    19835923.166
        39.500          44.800
 107972939.733 7  83979060.843 7  20163160.084    20163159.409    20163162.951
        46.100          44.700
 123873987.756 6                  23189447.367    23189444.912
        37.400
 109402981.905 8  85091228.874 8  20437379.365    20437379.133    20437382.303
        50.300          48.700
 117498386.410 5                  22003635.118    22003632.116
        35.100
 123771667.026 7                  23552966.287
        47.400
 111235870.557 8  86516778.362 7  20838224.934    20838224.903    20838229.882
        48.800          42.200


 124697977.338 7  96987354.967 5  23327346.703    23327346.290    23327340.166
        42.600          30.200
 198898662.872 7                  37849164.453
        44.200
 129583785.299 5 100974372.98742  24658972.479    24658972.5504   24658971.1704
        34.500          15.9004
 202015926.546 7                  38442359.201
        46.500
 125136335.248 7                  23812632.943
        42.500




 140380658.529 6                  26713547.585
        39.600
                  96435885.748 6                                  23186570.203
                        39.700
 25  1  1 10 20  0.0000000  0 26G18G08G23E29G32G24E33G10G28G27R19R04
                                R03R13E26R18S35R05S31G21S33E07E08E19
                                E13R20
 121257644.043 6  94486127.07543  23074477.135    23074476.7424   23074476.1364
        38.100          22.8004
 128367827.184 6 100026908.52444  24427586.003    24427585.1404   24427590.4644
        41.000          28.6004
 109286184.286 7  85158070.41445  20796473.619    20796473.3604   20796472.7904
        44.500          30.2004
 126189614.334 7                  24013080.195
        43.600
 112942286.125 8  88006940.63647  21492172.637    21492172.1904   21492172.2954
        48.600          44.8004
 115386648.198 5  89911549.64645  21957343.475    21957343.1894   21957343.0774
        35.500          30.2004
 128527931.220 8                  24458047.754
        48.600
 109809474.804 8  85565866.84448  20896048.408    20896047.8944   20896049.6244
        52.500          52.0004
 129188561.015 6 100666351.22941  24583764.281    24583764.2684   24583763.6694
        38.900           8.7004
 127460351.901 5  99319766.65341  24254890.965    24254891.1524   24254916.1144
        34.200           7.8004
 106115120.293 6  82534007.838 7  19837097.653    19837098.783    19837102.082
        39.200          44.600
 107959865.188 7  83968891.754 7  20160715.589    20160715.578    20160722.286
        46.600          45.200
 109428290.722 8  85110913.530 8  20442105.878    20442105.120    20442109.506
        49.000          48.100
 117475276.094 6                  21999307.292    21999305.074
        37.100
 123788916.216 7                  23556248.712
        46.000
 111289315.917 7  86558346.905 7  20848237.290    20848236.079    20848241.939
        47.400          42.800


 124657977.005 6                  23319855.156    23319856.461
        40.000
 198898667.392 7                  37849165.088
        44.000
 129543310.999 5 100942834.60442  24651271.201    24651271.0144   24651268.9214
        32.800          12.8004
 202015917.833 7                  38442358.244
        45.300
 125155579.052 7                  23816295.097
        43.000




 140425640.329 6                  26722107.193
        37.800
                  96392082.905 6                                  23176038.893
                        38.100
 25  1  1 10 20 15.0000000  0 27G18G08G23E29G32G24E33G10G28G27R19R04
                                R12R03R13E26R18S35R05S31G21S33E07E08
                                E19E13R20
 121311361.455 6  94527984.70744  23084699.809    23084699.3984   23084698.6674
        38.600          24.3004
 128382640.831 6 100038451.60444  24430405.522    24430404.7534   24430407.4034
        40.600          29.4004
 109303174.341 7  85171309.42745  20799707.114    20799706.8464   20799705.7644
        45.200          30.4004
 126171606.993 7                  24009653.215
        45.700
 112919406.232 7  87989112.16247  21487819.387    21487818.9184   21487819.3004
        47.200          44.7004
 115418618.409 6  89936461.54945  21963426.062    21963425.7234   21963427.4404
        38.700          32.6004
 128504409.808 8                  24453571.949
        49.200
 109791126.492 8  85551569.46348  20892556.556    20892556.0424   20892558.0744
        52.900          52.8004
 129131461.233 6 100621857.82641  24572899.234    24572899.1144   24572898.3954
        36.700           9.4004
 127495283.538 5  99346985.93941  24261536.861    24261536.9634   24261564.9384
        30.400           9.4004
 106121636.175 6  82539075.760 7  19838317.169    19838315.627    19838319.580
        37.700          44.200
 107946857.920 7  83958774.981 7  20158288.735    20158287.277    20158291.726
        46.700          44.500
 123914882.257 5                  23197099.190    23197096.552
        33.300
 109453639.506 8  85130629.239 7  20446839.900    20446841.006    20446845.580
        49.500          47.700
 117452330.967 5                  21995008.831    21995008.274
        35.900
 123806260.321 7                  23559549.162
        46.200
 111342878.804 8  86600006.874 7  20858270.895    20858271.155    20858276.587
        48.600          43.800


 124618011.464 6  96925185.259 5  23312378.909    23312376.778    23312387.700
        36.500          33.300
 198898670.120 7                  37849159.154
        43.300
 129502892.177 5 100911339.45341  24643579.577    24643579.3184   24643577.0194
        30.600           9.9004
 202015907.684 7                  38442356.729
        45.700
 125174865.895 7                  23819964.640
        43.500




 140470653.334 6                  26730671.903
        37.600
                  96348352.049 6                                  23165524.016
                        36.700
 25  1  1 10 20 30.0000000  0 26G18G08G23E29G32G24E33G10G28G27R19R04
                                R12R03R13E26R18S35R05S31G21S33E07E08
                                E19E13
 121365136.694 5  94569887.42243  23094932.018    23094931.5714   23094932.3474
        33.200          22.0004
 128397564.338 6 100050080.28144  24433245.761    24433245.0014   24433247.4834
        38.200          28.5004
 109320240.448 7  85184607.70445  20802954.700    20802954.4284   20802953.9384
        45.300          32.0004
 126153660.275 7                  24006237.342
        47.300
 112896603.718 7  87971343.97547  21483480.597    21483480.1284   21483481.1074
        47.200          45.7004
 115450724.127 6  89961478.99845  21969534.100    21969533.7344   21969537.3584
        40.700          33.6004
 128480969.492 8                  24449111.314
        50.100
 109772831.650 8  85537313.74648  20889074.891    20889074.3864   20889076.7554
        52.000          53.2004
 129074368.692 5 100577370.11141  24562035.016    24562034.7884   24562034.5214
        35.600          10.4004
 127530277.450 5  99374253.86241  24268196.161    24268196.1534   24268224.0344
        31.700           9.5004
 106128364.111 6  82544308.600 7  19839573.437    19839572.399    19839577.452
        37.200          44.600
 107933920.129 8  83948712.221 7  20155873.269    20155873.338    20155875.637
        48.800          45.100
 123935591.998 5                  23200969.149    23200969.907
        31.400
 109479029.923 8  85150377.317 7  20451586.147    20451586.654    20451588.004
        50.200          47.000
 117429554.020 6                  21990743.679    21990743.710
        37.400
 123823701.499 7                  23562868.152
        46.600
 111396560.820 8  86641759.522 7  20868328.212    20868328.452    20868334.187
        48.200          45.500


 124578082.890 6  96894129.722 5  23304911.401    23304910.778    23304914.970
        41.200          33.700
 198898672.695 7                  37849160.178
        42.400
 129462531.362 4 100879889.43841  24635901.840    24635901.3084   24635896.3184
        28.100           8.0004
 202015898.560 7                  38442356.340
        45.300
 125194197.758 7                  23823643.153
        42.900




 140515699.511 6                  26739241.258
        36.200
 25  1  1 10 20 45.0000000  0 27G18G08G23E29G32G24E33G10G28G27R19R04
                                R03R13E26R18S35R05S31G21S33E07E08E19
                                R14E13R20
 121418969.129 6  94611834.73543  23105177.276    23105176.8564   23105177.0084
        38.000          22.0004
 128412597.335 6 100061794.29944  24436105.709    24436104.9364   24436107.6934
        39.400          26.6004
 109337382.522 7  85197965.17745  20806217.256    20806217.0154   20806216.6394
        46.400          33.3004
 126135773.929 7                  24002834.305
        46.300
 112873878.393 8  87953635.92847  21479155.037    21479154.5684   21479156.7664
        48.600          45.8004
 115482964.877 7  89986601.63945  21975668.960    21975668.5494   21975672.4824
        43.400          34.8004
 128457610.254 8                  24444666.335
        49.100
 109754590.254 8  85523099.67848  20885604.304    20885603.8174   20885605.1574
        53.200          53.5004
 129017283.603 5 100532888.19341  24551171.363    24551170.9574   24551172.1274
        32.200           9.9004
 127565333.136 5  99401570.15641  24274866.503    24274866.4864   24274895.7714
        34.000           8.3004
 106135304.056 6  82549706.311 7  19840871.268    19840871.392    19840874.848
        38.200          44.200
 107921051.522 8  83938703.309 7  20153470.737    20153471.809    20153473.535
        50.700          46.800
 109504461.634 8  85170157.583 7  20456336.320    20456335.866    20456339.622
        48.600          46.600
 117406944.962 5                  21986508.509    21986510.752
        35.000
 123841239.483 7                  23566205.680
        46.600
 111450361.375 7  86683604.389 7  20878405.764    20878405.973    20878414.083
        46.000          46.100


 124538190.881 6  96863102.616 5  23297445.206    23297443.830    23297454.041
        38.800          34.700
 198898675.516 7                  37849159.552
        42.300
 129422228.404 4 100848484.58141  24628229.935    24628229.3904   24628226.7124
        29.500           8.4004
 202015888.620 7                  38442352.610
        44.500
 125213574.324 7                  23827329.483
        42.400




 124785566.968 5                  23409449.551
        31.300
 140560778.523 5                  26747819.207
        34.400
                  96261113.674 5                                  23144545.913
                        30.700
 25  1  1 10 21  0.0000000  0 27G18G08G23E29G32G24E33G10G28G27R19R04
                                R12R03R13E26R18S35R05S31G21S33E07E08
                                E19R14E13
 121472860.893 6  94653828.29043  23115429.745    23115429.2314   23115432.7064
        36.900          20.7004
 128427741.854 6 100073595.20743  24438988.188    24438987.4514   24438991.1704
        37.900          22.5004
 109354602.880 7  85211383.64645  20809493.697    20809493.4474   20809493.9504
        46.700          34.9004
 126117950.269 7                  23999442.201
        45.400
 112851232.552 8  87935989.79947  21474845.517    21474845.0794   21474846.9094
        48.600          46.1004
 115515342.663 7  90011831.06145  21981831.767    21981831.3654   21981833.7124
        44.400          35.3004
 128434334.565 8                  24440237.352
        48.800
 109736404.782 9  85508929.19449  20882143.590    20882143.1174   20882144.1934
        54.300          54.7004
 128960208.490 5 100488414.02641  24540311.047    24540310.6324   24540311.4284
        33.200          10.1004
 127600452.421 6  99428935.76242  24281551.325    24281551.2494   24281578.8124
        37.200          16.7004
 106142458.280 6  82555270.677 7  19842208.918    19842208.944    19842211.421
        38.200          43.000
 107908254.300 8  83928749.959 7  20151079.954    20151081.020    20151083.793
        50.100          47.300
 123977539.924 5                  23208822.452    23208828.962
        35.600
 109529936.964 8  85189971.730 7  20461095.291    20461093.870    20461097.804
        48.300          44.600
 117384506.601 6                  21982313.416    21982309.958
        36.400
 123858876.554 7                  23569561.851
        46.400
 111504282.110 7  86725542.694 7  20888507.603    20888506.385    20888514.848
        46.000          46.000


 124498337.959 6  96832105.848 6  23289994.148    23289992.225    23290001.697
        39.600          37.700
 198898680.672 7                  37849159.865
        42.300
 129381985.711 5 100817126.53441  24620570.334    24620569.6504   24620568.5534
        32.500           9.9004
 202015881.227 7                  38442349.494
        44.000
 125232997.718 7                  23831026.506
        42.100




 124727446.726 4                  23398537.645
        25.300
 140605892.485 5                  26756402.081
        32.000
 25  1  1 10 21 15.0000000  0 27G18G08G23E29G32G24E33G10G28G27R19R04
                                R03R13E26R18S35R05S31G21S33E07E08E19
                                R14E13R20
 121526809.346 5  94695866.04843  23125695.123    23125694.6584   23125698.2104
        35.600          20.0004
 128442995.348 5 100085481.20542  24441889.204    24441888.5474   24441894.7914
        35.500          13.2004
 109371899.314 7  85224861.38245  20812785.273    20812785.0414   20812785.7844
        46.000          35.3004
 126100186.921 7                  23996062.189
        44.200
 112828663.881 8  87918403.81447  21470551.131    21470550.6754   21470552.0094
        48.100          46.4004
 115547854.956 7  90037165.26945  21988017.910    21988017.5174   21988020.0364
        43.700          33.9004
 128411140.319 8                  24435823.609
        48.400
 109718273.073 9  85494800.59049  20878692.997    20878692.5244   20878693.7504
        54.500          55.0004
 128903141.488 5 100443946.21041  24529449.958    24529449.5294   24529452.1104
        33.300           9.0004
 127635632.665 6  99456348.83642  24288243.737    24288243.6034   24288271.5344
        36.000          12.6004
 106149824.131 6  82560999.681 7  19843584.401    19843584.769    19843587.773
        37.800          42.700
 107895526.126 8  83918850.290 7  20148700.780    20148702.819    20148706.218
        48.900          47.500
 109555453.400 8  85209817.812 7  20465860.249    20465860.060    20465862.975
        48.800          42.400
 117362237.046 5                  21978138.946    21978140.147
        34.200
 123876610.374 7                  23572937.002
        46.800
 111558320.361 7  86767572.448 7  20898628.325    20898630.246    20898636.915
        45.700          44.700


 124458521.564 7  96801137.463 6  23282545.579    23282546.329    23282553.146
        42.100          36.600
 198898685.618 7                  37849166.027
        42.500
 129341801.993 5 100785814.58141  24612923.370    24612922.5614   24612921.7574
        34.900          10.6004
 202015874.168 7                  38442349.574
        43.700
 125252465.511 7                  23834731.671
        43.100




 124669339.213 4                  23387640.053
        26.500
 140651038.931 5                  26764995.800
        31.500
 123652536.284 5                  23123647.876    23123646.395
        34.400
 25  1  1 10 21 30.0000000  0 27G18G08G23E29G32G24E33G10G28G27R19R04
                                R12R03R13E26R18S35R05S31G21S33E07E08
                                E19E13R20
 121580809.826 5  94737944.31743  23135971.410    23135971.1064   23135973.3914
        34.000          18.1004
 128458353.385 5 100097448.64343  24444811.629    24444810.9724   24444820.2214
        35.600          18.7004
 109389267.611 7  85238395.10245  20816090.422    20816090.1994   20816091.1184
        45.200          34.4004
 126082479.636 7                  23992692.639
        42.500
 112806168.083 8  87900874.63047  21466270.626    21466270.1614   21466271.6784
        48.100          47.0004
 115580497.199 7  90062600.75145  21994229.099    21994228.7154   21994231.7504
        42.300          31.4004
 128388023.541 7                  24431424.119
        47.000
 109700191.091 8  85480710.71649  20875252.123    20875251.6504   20875253.1854
        53.200          54.5004
 128846078.606 5 100399481.59341  24518590.589    24518590.3884   24518593.3704
        33.500           7.9004
 127670869.422 4  99483805.9414   24294949.205    24294949.0534   24294977.2424
        26.100           4.6004
 106157397.402 6  82566890.013 7  19845000.557    19845000.243    19845003.963
        37.600          43.100
 107882862.461 8  83909000.782 7  20146336.364    20146336.955    20146341.731
        48.300          47.700


 109581006.568 8  85229692.425 7  20470634.705    20470635.149    20470635.998
        50.000          42.000
 117340132.449 6                  21974004.992    21974002.559
        36.700
 123894436.642 7                  23576328.980
        47.000
 111612471.271 8  86809689.759 7  20908776.898    20908776.898    20908779.942
        48.700          44.000


 124418737.636 7  96770194.294 6  23275099.166    23275100.948    23275121.144
        42.300          37.600
 198898686.522 7                  37849165.763
        43.000
 129301672.607 6 100754544.99142  24605287.367    24605286.5804   24605285.0934
        36.100          12.6004
 202015862.754 7                  38442348.326
        44.500
 125271973.377 7                  23838443.705
        44.000




 140696213.454 5                  26773594.667
        33.400
 123596791.402 5                  23113220.482    23113221.970
        32.700
 25  1  1 10 21 45.0000000  0 28G18G08G23E29G32G24E33G10G28G27R19R04
                                R12R03R13E26R18S35R05S31G21S33E07E08
                                E19R14E13R20
 121634869.378 6  94780068.61642  23146259.266    23146259.0834   23146260.0144
        38.300          17.9004
 128473822.988 5 100109502.78743  24447757.289    24447756.6684   24447767.5884
        34.600          22.2004
 109406714.983 7  85251990.43945  20819410.583    20819410.3334   20819410.7924
        43.400          32.3004
 126064835.571 7                  23989334.850
        42.400
 112783752.346 8  87883407.83948  21462005.417    21462004.9574   21462006.5464
        49.600          48.3004
 115613276.212 6  90088142.80244  22000466.556    22000466.1944   22000470.4604
        40.600          29.4004
 128364991.536 7                  24427041.368
        46.300
 109682166.174 8  85466665.32348  20871822.416    20871821.9384   20871823.5674
        52.800          53.8004
 128789027.319 5 100355025.95441  24507735.048    24507734.9774   24507736.8834
        30.200           7.4004


 106165185.327 6  82572947.265 7  19846457.785    19846456.270    19846459.798
        37.600          42.300
 107870270.542 8  83899207.066 7  20143984.558    20143985.704    20143991.004
        48.300          47.200


 109606603.279 8  85249600.929 7  20475416.442    20475415.886    20475420.742
        50.000          43.400
 117318200.105 5                  21969886.103    21969886.847
        34.700
 123912362.528 7                  23579740.193
        47.300
 111666741.480 7  86851899.906 7  20918941.049    20918942.569    20918946.305
        47.900          43.800


 124378993.204 6  96739281.875 5  23267668.887    23267666.857    23267693.676
        41.800          35.500
 198898691.034 7                  37849162.168
        42.700
 129261605.042 6 100723323.49741  24597663.161    24597662.3664   24597660.2884
        36.700          11.9004
 202015854.852 7                  38442347.365
        44.300
 125291528.301 7                  23842164.282
        43.300




 124553132.021 5                  23365851.161
        31.700
 140741423.024 5                  26782196.527
        35.700
 123541147.614 4  96087582.187 5  23102815.037    23102817.028    23102818.323
        29.200          34.200
 25  1  1 10 22  0.0000000  0 26G18G08G23E29G32G24E33G10G28G27R19R04
                                R03R13E26R18S35R05S31G21S33E07E08E19
                                E13R20
 121688981.551 6  94822233.93342  23156558.974    23156558.7964   23156556.3274
        37.100          15.9004
 128489397.842 6 100121638.90243  24450722.619    24450721.9764   24450730.7854
        40.500          23.7004
 109424235.559 7  85265642.80645  20822745.650    20822745.4054   20822744.4054
        43.200          32.2004
 126047248.674 7                  23985987.382
        42.500
 112761410.681 8  87865998.75648  21457753.513    21457753.0804   21457754.8834
        49.300          48.3004
 115646185.712 6  90113786.59744  22006733.831    22006733.4424   22006732.3594
        40.500          28.8004
 128342038.457 7                  24422673.519
        44.800
 109664192.472 8  85452659.82948  20868402.375    20868401.8794   20868403.3534
        50.900          52.8004


 127741513.097 5                  24308399.796
        34.900
 106173181.932 6  82579166.866 7  19847953.681    19847952.453    19847954.165
        37.600          42.400
 107857744.160 7  83889464.343 7  20141646.508    20141645.677    20141650.444
        46.100          46.000
 109632237.822 8  85269538.941 7  20480205.727    20480204.194    20480209.702
        49.600          44.800
 117296434.713 6                  21965814.811    21965814.165
        37.100
 123930381.925 7                  23583168.814
        47.500
 111721124.366 8  86894197.635 7  20929130.596    20929130.168    20929134.566
        48.700          44.300




 198898691.558 7                  37849165.017
        43.100
 129221593.698 6 100692145.81442  24590050.181    24590049.3864   24590046.5324
        37.700          13.8004
 202015843.461 7                  38442348.402
        45.800
 125311124.139 7                  23845892.894
        42.900




 140786661.558 6                  26790805.865
        37.100
                  96044377.575 5                                  23092428.177
                        35.300
 25  1  1 10 22 15.0000000  0 26G18G08G23E29G32G24E33G10G28G27R19R04
                                R03R13E26R18S35R05S31G21S33E07E08E19
                                R14E13
 121743150.419 6  94864443.41942  23166865.698    23166865.5114   23166863.9944
        40.000          15.8004
 128505082.038 6 100133860.18844  24453706.576    24453705.8924   24453714.8154
        41.200          28.9004
 109441833.618 7  85279355.54245  20826094.002    20826093.7214   20826092.4384
        44.900          32.6004
 126029723.274 6                  23982652.386
        41.900
 112739147.369 8  87848650.73148  21453516.418    21453516.0214   21453517.5644
        49.500          48.1004
 115679229.746 6  90139535.25844  22013018.481    22013018.0884   22013019.2014
        41.100          29.9004
 128319168.881 7                  24418321.402
        46.000
 109646274.442 8  85438697.71048  20864992.623    20864992.0914   20864993.1644
        51.100          51.3004


 127776930.556 5                  24315139.681
        32.600
 106181391.082 6  82585551.773 7  19849485.885    19849486.014    19849490.145
        36.100          43.700
 107845287.771 8  83879776.030 7  20139322.938    20139321.686    20139323.873
        48.700          44.700
 109657914.113 8  85289509.362 7  20485002.077    20485001.261    20485005.651
        50.500          45.100
 117274840.662 6                  21961770.711    21961769.488
        37.800
 123948499.162 7                  23586616.469
        46.300
 111775623.933 7  86936586.146 7  20939339.430    20939339.084    20939344.461
        47.500          45.200


 124299609.222 5  96677511.373 5  23252824.545    23252825.167    23252821.484
        31.900          34.000
 198898694.103 7                  37849167.753
        43.000
 129181643.143 6 100661015.52942  24582448.206    24582447.4154   24582443.9964
        37.500          12.0004
 202015832.860 7                  38442342.965
        45.700
 125330765.112 6                  23849630.364
        39.200




                                                  23344066.145

 140831933.082 6                  26799420.862
        38.600
 25  1  1 10 22 30.0000000  0 27G18G08G23E29G32G24E33G10G28G27R19R04
                                R03R13E26R18S35R05S31G21S33E07E08E19
                                R14E13R20
 121797375.057 7  94906696.32542  23177182.943    23177182.7654   23177182.4244
        42.900          17.5004
 128520874.763 6 100146166.13144  24456711.687    24456711.0444   24456719.5394
        37.500          27.6004
 109459508.657 7  85293128.27045  20829456.689    20829456.4124   20829455.8234
        45.000          33.5004
 126012258.672 7                  23979329.810
        42.400
 112716961.774 8  87831363.28347  21449295.082    21449294.7344   21449295.0694
        48.500          46.9004
 115712407.369 6  90165387.94245  22019329.655    22019329.3474   22019332.3094
        40.900          32.5004
 128296382.323 7                  24413984.640
        46.900
 109628411.633 8  85424778.62848  20861592.672    20861592.1184   20861593.5814
        51.400          50.7004


 127812407.866 5  99594236.54541  24321901.092    24321900.8874   24321928.1454
        30.700           6.0004
 106189812.235 6  82592101.588 7  19851060.808    19851059.712    19851065.288
        36.200          44.600
 107832900.383 8  83870141.420 7  20137008.975    20137009.857    20137010.228
        50.600          43.000
 109683631.162 8  85309511.499 7  20489805.611    20489805.027    20489810.016
        50.400          45.200
 117253417.826 5                  21957759.107    21957758.304
        35.600
 123966713.556 7                  23590083.245
        45.900
 111830238.958 8  86979064.396 7  20949571.248    20949570.979    20949576.643
        48.600          46.200


 124259973.541 5  96646683.468 6  23245408.683    23245411.064    23245408.482
        35.100          37.500
 198898697.914 7                  37849169.935
        43.500
 129141753.167 5 100629932.41941  24574856.841    24574856.0684   24574853.1844
        34.800           8.9004
 202015824.197 7                  38442343.998
        45.700
 125350450.409 6                  23853377.513
        39.800




                                                  23333188.082

 140877236.841 6                  26808042.133
        37.600
                  95958201.935 5                                  23071705.882
                        34.600
 25  1  1 10 22 45.0000000  0 26G18G08G23E29G32G24E33G10G28G27R19R04
                                R12R03R13E26R18S35R05S31G21S33E07E08
                                E19E13
 121851654.769 7  94948992.12243  23187511.407    23187511.2384   23187512.8874
        42.100          20.7004
 128536775.443 4 100158556.18643  24459735.931    24459735.3904   24459745.0844
        26.900          20.2004
 109477260.356 7  85306960.72945  20832834.255    20832833.9874   20832833.7764
        46.100          33.4004
 125994854.529 7                  23976017.595
        45.300
 112694853.550 7  87814136.09747  21445088.024    21445087.6674   21445087.7384
        46.900          45.4004
 115745717.951 7  90191344.21545  22025669.767    22025669.4324   22025671.8364
        42.700          35.0004
 128273678.679 7                  24409664.433
        46.500
 109610603.928 8  85410902.50548  20858203.722    20858203.1594   20858204.4584
        52.000          50.3004
 128560922.701 5                  24464331.554
        34.300


 106198445.348 5  82598816.259 7  19852673.858    19852674.393    19852678.783
        35.800          44.400
 107820581.718 8  83860560.271 7  20134709.214    20134710.437    20134710.214
        50.500          42.400
 124129715.952 5                  23237338.725    23237337.904
        30.300
 109709388.909 8  85329545.308 7  20494617.497    20494618.491    20494621.433
        52.400          44.500
 117232166.363 5                  21953777.789    21953776.239
        34.700
 123985024.748 7                  23593567.717
        47.100
 111884968.627 7  87021631.885 7  20959822.883    20959822.764    20959830.386
        46.800          47.000


 124220374.572 7  96615884.229 6  23238003.959    23238006.227    23238001.203
        44.800          39.600
 198898700.598 7                  37849169.041
        43.000
 129101923.522 5 100598896.24641  24567277.178    24567276.4274   24567273.8334
        32.000           6.4004
 202015815.307 7                  38442339.379
        45.000
 125370179.629 6                  23857131.052
        38.500




 140922572.376 6                  26816669.195
        38.800
 25  1  1 10 23  0.0000000  0 27G18G08G23E29G32G24E33G10G28G27R19R04
                                R12R03R13E26R18S35R05S31G21S33E07E08
                                E19E13R20
 121905986.671 7  94991328.61243  23197852.090    23197851.9524   23197854.5614
        42.300          22.2004
 128552781.192 5 100171027.99142  24462785.090    24462784.6034   24462789.2574
        31.000          14.0004
 109495086.173 7  85320850.93945  20836225.491    20836225.2324   20836226.5484
        45.700          33.4004
 125977508.205 8                  23972716.738
        48.100
 112672820.098 7  87796967.17847  21440895.532    21440895.1524   21440895.1094
        45.700          44.9004
 115779158.651 6  90217401.86145  22032033.912    22032033.6174   22032036.1404
        41.800          35.0004
 128251055.547 7                  24405359.874
        46.900
 109592848.791 8  85397067.33948  20854825.304    20854824.7594   20854825.5264
        53.000          50.3004
 128503916.508 5 100132937.56641  24453481.937    24453482.3794   24453486.7514
        35.500           8.6004


 106207287.442 5  82605693.460 7  19854327.015    19854326.371    19854331.218
        35.300          44.100
 107808329.014 8  83851030.407 7  20132418.306    20132419.745    20132421.248
        48.800          42.500
                  96562812.516 5                  23241550.419    23241549.189
                        33.900
 109735184.642 8  85349608.622 7  20499436.830    20499437.157    20499439.611
        51.900          44.000
 117211083.694 5                  21949830.778    21949827.810
        33.800
 124003430.060 8                  23597070.172
        48.100
 111939809.667 7  87064286.021 7  20970094.161    20970094.300    20970103.492
        45.300          46.400


 124180809.781 7  96585111.591 6  23230594.563    23230592.595    23230599.013
        42.500          38.600
 198898701.894 7                  37849168.303
        43.800
 129062151.851 5 100567905.3784   24559708.456    24559707.9874   24559705.7104
        30.400           3.2004
 202015804.171 7                  38442335.296
        45.000
 125389949.987 6                  23860891.802
        37.700




 140967936.879 6                  26825302.075
        40.200
 123264351.574 5  95872337.218 5  23051055.053    23051056.324    23051061.689
        32.500          34.400
 25  1  1 10 23 15.0000000  0 27G18G08G23E29G32G24E33G10G28G27R19R04
                                R12R03R13E26R18S35R05S31G21S33E07E08
                                E19E13R20
 121960377.824 7  95033711.33043  23208201.771    23208201.5124   23208206.7524
        42.200          22.5004
 128568899.189 5 100183587.33942  24465852.007    24465851.5874   24465854.2154
        34.800          12.6004
 109512993.524 7  85334804.69645  20839633.762    20839633.4944   20839635.0024
        43.600          31.9004
 125960227.037 8                  23969428.333
        48.600
 112650868.710 7  87779862.20447  21436718.316    21436717.9324   21436718.5914
        46.300          44.7004
 115812736.502 6  90243566.39345  22038423.092    22038422.8564   22038424.8904
        40.100          32.9004
 128228520.509 7                  24401071.112
        46.000
 109575153.811 8  85383279.04848  20851458.024    20851457.4834   20851458.6004
        53.700          50.5004
 128446925.942 5 100088529.4494   24442637.289    24442637.7094   24442640.9824
        35.200           4.9004
 127919139.949 6  99677378.40643  24342206.409    24342205.8194   24342226.6154
        36.800          22.6004
 106216345.907 5  82612738.947 7  19856020.283    19856017.964    19856025.109
        34.300          44.200
 107796149.630 8  83841557.563 7  20130141.253    20130143.305    20130146.154
        48.000          42.300
 124174797.137 4  96580413.317 5  23245795.576    23245797.284    23245785.153
        26.400          31.900
 109761025.190 8  85369706.743 7  20504265.197    20504264.975    20504266.356
        52.600          42.900
 117190177.737 5                  21945915.432    21945915.118
        33.400
 124021936.838 7                  23600591.474
        47.900
 111994769.120 7  87107032.217 7  20980391.845    20980392.183    20980399.416
        47.300          46.800


 124141286.787 6  96554371.493 5  23223198.947    23223199.075    23223203.316
        39.400          34.800
 198898708.973 7                  37849169.609
        44.100
 129022445.927 4                  24552151.813
        29.500
 202015798.172 7                  38442335.390
        44.900
 125409768.679 6                  23864663.208
        37.600




 141013337.549 6                  26833941.441
        40.100
 123209307.956 5  95829525.447 5  23040765.076    23040764.791    23040767.437
        34.000          33.100
 25  1  1 10 23 30.0000000  0 28G18G08G23E29G32G24E33G10G28G27R19R04
                                R12R03R13E26R18S35R05S31G21S33E07E08
                                E19R14E13R20
 122014816.737 6  95076131.21543  23218562.711    23218562.4164   23218566.2814
        41.200          23.0004
 128585118.075 4 100196225.49841  24468937.014    24468936.5544   24468938.9554
        27.100           8.3004
 109530971.313 7  85348813.34845  20843055.120    20843054.8844   20843055.7224
        45.500          30.4004
 125942999.848 8                  23966149.795
        48.400
 112628988.314 7  87762812.55247  21432554.351    21432553.9004   21432555.3814
        44.400          45.0004
 115846440.028 6  90269828.87244  22044836.867    22044836.6084   22044836.1864
        38.200          28.2004
 128206062.580 7                  24396797.416
        44.200
 109557508.015 8  85369529.08548  20848099.985    20848099.4444   20848101.0824
        53.900          51.2004
 128389940.227 5                  24431793.910
        30.800
 127954846.812 6  99705201.95144  24349001.237    24349000.5044   24349015.0354
        40.200          25.8004
 106225609.293 5  82619943.769 7  19857752.992    19857750.807    19857756.400
        35.600          44.400
 107784032.194 8  83832132.877 7  20127880.304    20127882.792    20127884.063
        49.400          42.700
 124197594.175 5                  23250058.988    23250059.156
        35.000
 109786899.695 8  85389831.340 7  20509098.389    20509098.978    20509100.381
        53.300          43.300
 117169437.694 5                  21942032.977    21942032.149
        33.200
 124040533.872 8                  23604130.306
        48.000
 112049835.078 7  87149861.265 7  20990708.104    20990708.476    20990713.853
        47.800          45.900


                  96523654.843 4                                  23215811.639
                        29.300
 198898709.143 7                  37849169.153
        43.200
 128982794.517 4                  24544602.604
        24.200
 202015786.848 7                  38442332.828
        44.600
 125429624.428 6                  23868443.332
        38.400




 124147008.501 6                  23289654.739    23289654.167
        41.700
 141058763.105 6                  26842585.527
        39.100
 123154359.876 5  95786788.037 5  23030490.087    23030492.794    23030492.028
        34.000          33.400
 25  1  1 10 23 45.0000000  0 26G18G23E29G32G24E33G10G28G27R19R04R12
                                R03R13E26R18S35R05S31S33E07E08E19R14
                                E13R20
 122069313.476 6  95118596.20243  23228934.685    23228934.4664   23228933.3224
        41.600          20.4004
 109549029.900 7  85362885.00044  20846491.401    20846491.1734   20846490.2104
        45.800          28.7004
 125925836.944 8                  23962884.094
        48.100
 112607189.159 7  87745826.19947  21428406.097    21428405.6684   21428407.3074
        47.200          46.8004
 115880279.131 6  90296197.01944  22051275.447    22051275.2024   22051274.6074
        39.500          26.8004
 128183692.302 7                  24392540.914
        44.400
 109539921.882 9  85355825.60948  20844753.473    20844752.9234   20844754.7744
        54.000          51.5004
 128332970.061 4                  24420948.651
        26.000
 127990615.086 7  99733073.26444  24355807.537    24355806.8044   24355810.8774
        42.900          27.5004
 106235087.954 6  82627316.030 7  19859525.006    19859524.521    19859528.724
        37.900          45.300
 107771987.101 8  83822764.469 7  20125631.348    20125633.047    20125636.737
        49.000          44.600
 124220568.271 5                  23254355.552    23254357.235
        35.500
 109812818.329 8  85409990.257 7  20513940.136    20513940.458    20513942.433
        52.800          44.200
 117148874.195 5                  21938184.803    21938186.232
        34.800
 124059231.467 7                  23607687.850
        47.500
 112105017.581 8  87192780.963 7  21001045.131    21001045.655    21001052.106
        48.000          45.100


 124062368.444 6                  23208433.505
        38.200
 198898713.491 7                  37849168.961
        43.100
 202015779.237 7                  38442332.220
        45.900
 125449527.457 6                  23872231.685
        41.800




 124089054.822 6                  23278776.567    23278776.735
        38.000
 141104223.683 6                  26851235.765
        37.900
 123099517.986 5  95744133.022 5  23020226.634    23020239.176    23020237.261
        30.900          34.100
 25  1  1 10 24  0.0000000  0 26G18G08G23E29G32G24E33G10G28G27R19R04
                                R12R03E26R18S35R05S31G21S33E07E08E19
                                E13R20
 122123861.449 7  95161101.05643  23239313.407    23239313.1974   23239309.3864
        42.600          18.9004


 109567163.126 7  85377014.82344  20849942.540    20849942.2994   20849939.5394
        44.900          28.0004
 125908732.052 8                  23959629.368
        48.100
 112585464.961 8  87728898.27547  21424271.653    21424271.2334   21424272.7954
        48.500          47.8004
 115914247.454 6  90322665.87244  22057739.036    22057738.7234   22057740.3954
        38.100          25.0004
 128161403.594 7                  24388299.150
        44.300
 109522389.322 8  85342163.87948  20841417.342    20841416.7884   20841418.2914
        53.600          51.4004


 128026438.289 6  99760987.41445  24362623.839    24362622.8654   24362622.6474
        41.200          30.9004
 106244775.460 6  82634850.721 7  19861337.177    19861336.503    19861339.860
        38.800          45.000
 107760007.930 8  83813447.339 7  20123394.273    20123395.966    20123400.277
        48.600          44.700
 124243712.667 4                  23258690.394    23258680.087
        28.000
 109838774.546 8  85430178.435 7  20518788.626    20518789.293    20518793.187
        53.200          46.000
 124078023.330 7                  23611263.850
        45.700
 112160309.768 8  87235785.970 7  21011404.057    21011405.282    21011409.685
        50.100          44.400


 124022950.995 5                  23201059.708    23201057.461
        34.000
 198898717.078 7                  37849167.409
        42.800
 128903682.006 4                  24529554.554
        28.000
 202015769.964 7                  38442331.290
        45.500
 125469471.399 7                  23876027.079
        43.900




 141149712.866 6                  26859892.629
        38.100
 123044777.080 4  95701556.892 5  23009988.971    23009989.618    23009996.516
        28.300          30.600
 25  1  1 10 24 15.0000000  0 26G18G08G23E29G32G24E33G10G28G27R19R04
                                R12R03E26R18S35R05S31G21S33E07E08E19
                                E13R20
 122178463.215 7  95203647.81143  23249702.956    23249702.7114   23249698.3834
        42.300          18.7004


 109585373.947 7  85391205.11044  20853408.447    20853408.2244   20853405.6684
        46.900          29.8004
 125891688.057 7                  23956385.521
        47.100
 112563818.654 8  87712031.02548  21420152.730    21420152.3154   21420153.5374
        50.200          49.2004
 115948347.491 5  90349237.34543  22064226.083    22064225.6814   22064232.2074
        31.700          23.4004
 128139199.554 7                  24384074.076
        44.900
 109504913.437 9  85328546.32548  20838091.874    20838091.3204   20838092.6074
        54.400          51.7004


 128062318.883 6  99788946.32545  24369453.278    24369452.3354   24369451.1464
        40.200          33.1004
 106254674.713 6  82642550.150 7  19863187.407    19863185.362    19863189.735
        38.200          44.200
 107748097.620 7  83804183.725 7  20121168.653    20121170.498    20121175.524
        47.100          43.500
                                                  23263043.157

 109864771.333 8  85450398.165 7  20523645.020    20523645.640    20523649.034
        52.100          45.800
 124096912.314 7                  23614858.568
        44.800
 112215713.958 8  87278878.075 7  21021782.918    21021784.491    21021786.948
        50.100          42.800


 123983571.005 5                  23193694.208    23193694.487
        34.700
 198898720.769 7                  37849171.576
        42.900
 128864218.099 4                  24522041.848
        29.300
 202015761.648 7                  38442324.274
        44.900
 125489459.021 7                  23879830.746
        46.500




 141195233.371 6                  26868555.230
        36.700
 122990140.558 5  95659061.745 5  22999777.145    22999775.305    22999779.476
        31.800          30.600
 25  1  1 10 24 30.0000000  0 26G18G08G23E29G32G24E33G10G28G27R19R04
                                R12R03E26R18S35R05S31G21S33E07E08E19
                                E13R20
 122233116.135 6  95246234.45643  23260102.689    23260102.3454   23260099.7804
        41.500          20.6004


 109603659.993 7  85405454.02945  20856887.230    20856887.0114   20856886.1024
        47.600          32.2004
 125874702.515 7                  23953153.112
        46.000
 112542247.796 8  87695222.57048  21416048.422    21416048.0164   21416048.9814
        50.400          51.1004
 115982576.683 5  90375909.39443  22070742.859    22070742.3944   22070747.4464
        32.300          20.2004
 128117078.021 7                  24379864.889
        46.100
 109487491.949 9  85314971.14948  20834776.161    20834775.6074   20834777.1854
        54.300          52.1004


 128098254.132 6  99816947.84145  24376290.576    24376289.6294   24376291.0514
        41.400          35.0004
 106264783.163 6  82650412.281 7  19865075.593    19865075.982    19865078.844
        39.600          43.500
 107736253.466 7  83794971.599 7  20118959.996    20118956.455    20118963.954
        43.600          43.900
 124290518.985 5                  23267441.525    23267439.491
        33.800
 109890806.120 8  85470647.439 7  20528508.872    20528508.914    20528512.487
        51.100          46.100
 124115895.938 7                  23618470.664
        44.900
 112271227.326 8  87322055.113 7  21032183.211    21032183.768    21032186.114
        49.600          42.100




 198898723.068 7                  37849170.682
        42.400
 128824814.499 5                  24514544.969
        30.200
 202015752.144 7                  38442326.746
        44.100
 125509487.787 8                  23883642.219
        48.500




 141240782.642 5                  26877221.823
        34.600
 122935606.202 5  95616646.251 4  22989580.073    22989578.995    22989580.232
        34.600          29.000
 25  1  1 10 24 45.0000000  0 27G18G08G23E29G32G24E33G10G28G27R19R04
                                R12R03R13E26R18S35R05S31G21S33E07E08
                                E19E13R20
 122287824.367 6  95288864.22043  23270513.817    23270513.4964   23270512.7314
        40.900          22.0004
 128667841.242 5 100260664.97443  24484675.768    24484675.0084   24484678.8254
        31.800          21.4004
 109622025.891 8  85419765.15545  20860381.881    20860381.6714   20860381.4574
        48.000          33.3004
 125857779.950 7                  23949932.575
        45.200
 112520756.942 8  87678476.46148  21411958.664    21411958.2494   21411959.9734
        49.500          51.2004
 116016939.056 5  90402685.17242  22077281.132    22077280.5064   22077285.1064
        35.500          16.1004
 128095043.670 7                  24375672.048
        47.200
 109470129.587 9  85301442.03948  20831472.057    20831471.5164   20831473.0404
        54.000          52.0004
 128105222.034 6  99822258.97641  24377609.554    24377609.6034   24377611.4814
        37.600          11.6004
 128134248.153 6  99844995.15945  24383139.248    24383138.3054   24383141.1754
        40.700          34.3004
 106275105.352 6  82658440.659 7  19867005.166    19867004.499    19867008.899
        38.600          44.800
 107724480.189 8  83785814.464 7  20116764.851    20116762.922    20116766.335
        49.200          45.100
 124314182.527 5                  23271867.289    23271869.943
        32.300
 109916883.091 8  85490929.551 7  20533379.668    20533378.610    20533384.257
        48.300          45.600
 117068127.600 6                  21923101.754    21923100.600
        36.100
 124134978.720 7                  23622101.848
        46.200
 112326853.868 7  87365320.143 7  21042603.642    21042603.337    21042609.560
        47.800          43.500




 198898729.025 7                  37849172.511
        42.800
 128785475.958 5                  24507058.778
        32.100
 202015745.782 7                  38442322.105
        43.400
 125529562.098 8                  23887462.015
        49.200




 141286365.008 5                  26885895.931
        33.700
 122881179.335 5                  22979401.547    22979399.570
        34.700
 25  1  1 10 25  0.0000000  0 27G18G08G23E29G32G24E33G10G28G27R19R04
                                R03R13E26R18S35R05S31G21S33E07E08E19
                                R14E13R20
 122342580.000 7  95331530.94143  23280933.439    23280933.1224   23280933.9284
        42.000          22.8004
 128684696.634 5 100273798.97742  24487884.898    24487883.9514   24487885.6004
        33.000          17.0004
 109640464.011 7  85434132.53445  20863890.934    20863890.7244   20863891.1274
        46.900          33.9004
 125840912.619 7                  23946722.832
        44.900
 112499338.380 8  87661786.68348  21407883.571    21407883.1784   21407884.4064
        49.600          51.9004
 116051426.747 5  90429558.57242  22083843.435    22083842.6984   22083845.8574
        35.600          17.5004
 128073089.046 7                  24371494.372
        47.200
 109452818.878 8  85287953.19348  20828178.331    20828177.7904   20828178.9214
        53.800          52.0004
 128048308.806 6  99777910.98342  24366777.974    24366777.6394   24366778.4704
        38.700          13.8004
 128170292.882 6  99873081.97045  24389998.304    24389997.3924   24390000.5454
        38.100          33.2004
 106285633.550 6  82666629.223 7  19868973.805    19868974.043    19868977.414
        39.700          45.600
 107712769.749 8  83776706.301 7  20114575.380    20114575.642    20114579.103
        49.900          44.800
 109942994.569 7  85511238.489 7  20538256.315    20538255.759    20538261.326
        47.200          44.600
 117048426.707 5                  21919411.702    21919410.237
        34.600
 124154152.944 7                  23625750.123
        45.900
 112382585.272 7  87408666.736 7  21053044.385    21053044.902    21053049.452
        47.200          43.700




 198898730.376 7                  37849171.313
        42.500
 128746195.393 5                  24499586.899
        33.600
 202015735.067 7                  38442322.838
        43.600
 125549674.117 8                  23891289.094
        49.300




 123799754.178 6                  23224476.035    23224474.147
        37.300
 141331972.699 6                  26894575.662
        36.700
 122826852.546 5                  22969240.175    22969238.112
        30.900
 25  1  1 10 25 15.0000000  0 28G18G08G23E29G32G24E33G10G28G27R19R04
                                R12R03R13E26R18S35R05S31G21S33E07E08
                                E19R14E13R20
 122397390.393 6  95374240.35843  23291362.604    23291362.2784   23291365.1904
        40.200          22.9004


 109658982.098 7  85448562.21145  20867414.964    20867414.7504   20867415.2124
        46.100          34.0004
 125824108.245 7                  23943525.149
        45.500
 112477999.801 8  87645159.23748  21403822.672    21403822.2704   21403823.6594
        50.900          52.6004
 116086047.072 6  90456535.41944  22090432.517    22090431.7484   22090434.8654
        39.400          24.1004
 128051222.077 7                  24367333.427
        47.900
 109435567.697 8  85274510.73348  20824895.415    20824894.8744   20824896.3884
        53.400          52.3004
 127991411.856 6  99733575.67742  24355950.709    24355950.1374   24355949.6004
        37.500          14.1004
 128206395.720 6  99901214.05045  24396868.763    24396867.8834   24396871.1854
        39.100          32.5004
 106296375.199 6  82674983.807 7  19870983.262    19870984.235    19870985.450
        40.200          46.200
 107701129.889 8  83767653.089 7  20112402.619    20112400.832    20112405.541
        49.100          45.000
 124362018.265 6                  23280832.236    23280829.733
        36.200
 109969148.101 7  85531580.146 7  20543140.884    20543141.253    20543147.575
        45.900          44.400
 117028903.110 6                  21915757.468    21915753.953
        37.400
 124173426.290 7                  23629418.368
        45.000
 112438428.892 7  87452100.574 7  21063506.137    21063507.050    21063510.791
        45.300          43.500


 123826374.235 6                  23164293.961    23164293.430
        38.300
 198898734.488 7                  37849175.708
        42.000
 128706980.732 5                  24492124.520
        34.500
 202015727.864 7                  38442321.193
        44.500
 125569831.430 8                  23895125.163
        49.500




                                                  23213626.934

 141377613.184 6                  26903260.078
        36.600
 122772633.722 5                  22959099.150    22959100.130
        31.600
 25  1  1 10 25 30.0000000  0 27G18G08G23E29G32G24E33G10G28G27R19R04
                                R12R03R13E26R18S35R05S31G21S33E07E08
                                E19E13R20
 122452249.345 6  95416987.61643  23301802.721    23301802.4404   23301805.1644
        38.500          21.1004


 109677574.316 7  85463049.62845  20870953.094    20870952.8844   20870952.5704
        47.000          33.6004
 125807360.880 7                  23940338.330
        46.000
 112456735.286 8  87628589.50148  21399776.119    21399775.7224   21399777.0504
        51.000          52.7004
 116120793.877 6  90483610.77444  22097044.191    22097043.3824   22097047.3174
        39.000          25.3004
 128029437.026 7                  24363187.978
        47.500
 109418370.252 8  85261110.12448  20821623.110    20821622.5694   20821624.4664
        52.700          52.1004
 127934525.620 5  99689248.66641  24345128.336    24345127.4564   24345124.2134
        34.500          11.6004
 128242550.394 6  99929386.48745  24403747.694    24403746.8674   24403751.2954
        37.700          31.8004
 106307324.329 6  82683499.797 7  19873026.595    19873027.659    19873032.085
        37.200          45.900
 107689554.544 8  83758650.039 7  20110239.734    20110239.460    20110243.566
        50.300          44.700


 109995337.748 7  85551949.868 7  20548034.429    20548033.467    20548039.016
        45.400          42.700
 117009551.496 6                  21912130.468    21912128.732
        36.600
 124192792.755 7                  23633104.785
        44.100
 112494378.055 6  87495616.592 7  21073990.448    21073985.466    21073991.805
        37.200          43.500


 123787173.536 6                  23156961.926    23156963.922
        38.000
 198898736.628 7                  37849172.207
        42.700
 128667826.293 5                  24484673.019
        32.200
 202015717.660 7                  38442320.312
        43.800
 125590028.012 8                  23898968.442
        49.700




 141423280.457 6                  26911950.004
        37.300
 122718517.819 5                  22948983.383    22948983.674
        34.000
 25  1  1 10 25 45.0000000  0 27G18G08G23E29G32G24E33G10G28G27R19R04
                                R12R03R13E26S35R05S31G21S33E07E08E19
                                R14E13R20
 122507160.169 6  95459775.28342  23312250.764    23312250.5104   23312253.4814
        40.600          17.8004
 128735891.298 6 100313654.35441  24497625.641    24497624.9664   24497621.7714
        39.400          10.0004
 109696244.337 7  85477597.68945  20874506.338    20874506.1194   20874505.3684
        45.500          33.6004
 125790674.109 7                  23937163.165
        46.100
 112435548.464 8  87612080.31148  21395743.953    21395743.5474   21395745.0294
        50.400          52.4004
 116155670.531 6  90510787.32243  22103680.632    22103679.8544   22103681.7744
        36.000          23.7004
 128007737.673 7                  24359058.852
        47.300
 109401230.375 8  85247754.36648  20818361.970    20818361.4294   20818363.2004
        51.600          51.9004


 128278760.151 5  99957601.86044  24410638.973    24410638.1784   24410642.8434
        35.500          29.1004
 106318484.182 6  82692179.678 7  19875115.292    19875113.318    19875118.678
        36.000          46.000
 107678047.506 8  83749700.114 7  20108089.552    20108091.105    20108093.873
        50.200          43.700
 124410537.239 5                  23289902.263    23289911.496
        33.500
 110021566.796 7  85572350.223 6  20552934.209    20552934.773    20552937.813
        47.300          40.400
 116990375.752 6                  21908541.564    21908540.354
        39.200
 124212255.958 7                  23636808.361
        45.200


 123748010.171 6                  23149644.321    23149641.394
        37.100
 198898739.391 7                  37849173.714
        42.500
 128628735.843 4                  24477246.597
        24.900
 202015708.543 7                  38442318.062
        44.100
 125610267.330 8                  23902819.969
        49.800




 123626250.988 6                  23191960.049
        36.200
 141468977.874 6                  26920645.857
        37.100
 122664509.410 5                  22938881.299    22938880.365
        31.700
 25  1  1 10 26  0.0000000  0 27G18G08G23E29G32G24E33G10G28G27R19R04
                                R12R03R13E26R18S35R05S31G21S33E07E19
                                R14E13R20
 122562121.721 6  95502602.42642  23322707.782    23322707.4694   23322711.8194
        40.500          13.5004
 128753167.244 6 100327116.16743  24500913.738    24500913.0954   24500912.9844
        40.600          19.3004
 109714991.442 7  85492205.82245  20878073.595    20878073.3634   20878073.6564
        44.800          32.9004
 125774047.148 7                  23933999.016
        46.200
 112414438.519 8  87595631.02048  21391727.245    21391726.8524   21391727.7504
        49.700          51.9004
 116190675.893 5  90538064.22142  22110342.119    22110341.4934   22110338.6744
        33.000          17.3004
 127986123.539 7                  24354945.860
        47.400
 109384147.495 8  85234443.02348  20815111.070    20815110.5294   20815112.5764
        51.700          51.8004


 128315023.737 5  99985859.17644  24417539.603    24417538.7364   24417544.1494
        33.500          26.7004
 106329854.288 6  82701023.083 7  19877239.161    19877238.944    19877244.533
        37.500          46.300
 107666607.557 8  83740802.360 7  20105953.603    20105954.971    20105957.390
        49.700          43.600


 110047834.701 8  85592780.801 6  20557840.394    20557842.226    20557843.245
        48.900          37.600
 116971375.220 6                  21904982.260    21904982.373
        39.500
 124231815.046 7                  23640529.802
        46.500
 112606525.688 7  87582901.615 7  21095009.066    21095011.706    21095016.332
        44.500          45.800




 198898742.062 7                  37849178.749
        43.000
 128589708.416 4                  24469826.680
        25.100
 202015699.717 7                  38442316.390
        44.500
 125630548.515 8                  23906678.852
        49.500


 123568480.615 6                  23181097.445    23181105.919
        40.600
 141514704.571 5                  26929348.118
        35.300
 122610608.092 4                  22928801.690    22928798.712
        26.600
 25  1  1 10 26 15.0000000  0 26G18G08G23E29G32G24E33G10G28G27R19R04
                                R12R03R13E26R18S35R05S31G21S33E07E19
                                R14E13
 122617133.995 5  95545469.10541  23333176.344    23333175.9734   23333179.9684
        35.500           8.2004
 128770547.756 6 100340659.43943  24504219.854    24504219.2824   24504223.6664
        37.600          23.2004
 109733815.948 7  85506874.25745  20881654.900    20881654.6594   20881656.4094
        44.300          31.7004
 125757480.239 7                  23930846.960
        47.500
 112393405.732 8  87579241.84448  21387724.418    21387724.0214   21387725.6834
        48.700          51.1004
 116225809.925 5  90565441.40442  22117027.552    22117027.0794   22117021.1294
        32.600          14.3004
 127964595.005 8                  24350848.728
        48.700
 109367122.053 8  85221176.41948  20811870.790    20811870.2404   20811872.7254
        51.500          51.3004


 128351341.138 5 100014158.45044  24424453.396    24424452.5874   24424454.0134
        32.300          25.5004
 106341434.498 6  82710029.876 7  19879405.191    19879405.955    19879408.534
        39.800          46.500
 107655235.077 8  83731957.145 7  20103830.126    20103831.165    20103834.004
        49.400          43.500
                                                  23299122.251

 110074141.378 8  85613241.479 6  20562756.564    20562757.434    20562756.838
        50.000          36.300
 116952550.820 6                  21901459.485    21901457.111
        39.400
 124251470.262 7                  23644270.136
        46.800
 112662798.500 7  87626669.375 7  21105551.347    21105552.353    21105558.742
        46.300          46.200


                  96187653.656 6                                  23135005.659
                        36.300
 198898745.348 7                  37849175.748
        43.000
 128550745.116 4                  24462412.318
        27.400
 202015691.335 7                  38442312.558
        43.600
 125650871.653 8                  23910546.292
        50.500


 123510734.257 6  96063797.346 4  23170270.479    23170269.080    23170275.685
        39.500          29.800
 141560460.635 5                  26938055.887
        35.400
 25  1  1 10 26 30.0000000  0 26G18G08G23E29G32G24E33G10G28G27R19R04
                                R12R03R13E26R18S35R05S31G21S33E07E19
                                R14E13
 122672197.325 5  95588375.45541  23343658.098    23343657.7774   23343657.9054
        34.800          10.4004
 128788033.249 5 100354284.54443  24507546.741    24507546.3174   24507552.5474
        35.600          20.8004
 109752718.559 7  85521603.56145  20885251.126    20885250.8984   20885252.8414
        43.800          30.4004
 125740973.979 7                  23927705.750
        47.900
 112372450.693 8  87562913.25848  21383736.524    21383736.1404   21383738.5034
        48.800          50.3004
 116261072.943 6  90592919.09742  22123738.582    22123738.1854   22123729.8244
        37.800          15.2004
 127943152.920 8                  24346768.075
        49.000
 109350154.806 8  85207955.16048  20808642.061    20808641.5114   20808643.8384
        51.400          50.9004


 128387712.594 5 100042499.81044  24431379.133    24431378.4094   24431372.4894
        35.500          27.1004
 106353225.670 6  82719200.807 7  19881609.912    19881610.482    19881614.019
        40.700          47.100
 107643930.633 8  83723164.822 7  20101721.185    20101721.726    20101721.556
        49.900          43.300


 110100487.759 8  85633733.085 6  20567679.345    20567679.327    20567680.564
        49.700          38.000
 116933903.312 6                  21897963.807    21897963.433
        37.000
 124271222.196 7                  23648028.555
        46.100
 112719178.683 8  87670520.619 7  21116113.187    21116114.272    21116120.830
        48.500          46.300


 123630740.018 6  96157279.260 6  23127707.064    23127706.968    23127699.645
        40.700          36.100
 198898749.906 7                  37849175.163
        43.100
 128511846.991 5                  24455000.032
        30.700
 202015684.157 7                  38442310.099
        44.100
 125671237.304 8                  23914421.781
        50.400


 123453012.647 6                  23159446.836    23159446.323
        36.400
 141606246.525 6                  26946769.294
        36.500
 25  1  1 10 26 45.0000000  0 27G18G08G23E29G32G24E33G10G28G27R19R04
                                R12R03R13E26R18S35R05S31G21S33E07E19
                                R14E13R20
 122727310.355 6  95631320.66242  23354145.887    23354145.5214   23354145.5374
        39.300          15.7004
 128805622.460 5 100367990.41842  24510894.138    24510893.6294   24510898.4304
        30.200          14.0004
 109771698.240 6  85536392.92944  20888863.507    20888863.2574   20888863.9054
        39.200          28.0004
 125724527.273 7                  23924576.143
        46.900
 112351572.348 7  87546644.43348  21379762.919    21379762.5044   21379765.7664
        47.700          49.7004
 116296463.601 6  90620496.19342  22130471.697    22130471.2464   22130463.8334
        37.200          17.2004
 127921796.410 8                  24342703.978
        48.500
 109333244.950 8  85194778.63548  20805424.133    20805423.5834   20805425.4194
        51.700          50.7004
 127650273.644 5                  24291034.850
        30.700
 128424136.763 5 100070882.25043  24438311.527    24438310.8084   24438301.6264
        30.500          21.5004
 106365226.356 6  82728534.691 7  19883852.704    19883852.040    19883857.441
        38.800          47.000
 107632693.018 8  83714424.450 7  20099622.470    20099623.497    20099622.706
        50.200          44.200
 124509628.848 6                  23308473.202    23308471.766
        36.000
 110126872.263 8  85654254.363 6  20572607.353    20572607.216    20572610.582
        49.300          39.600
 116915432.161 6                  21894504.596    21894503.179
        37.300
 124291069.712 7                  23651805.065
        45.300
 112775664.605 8  87714454.093 7  21126694.899    21126695.746    21126701.052
        48.900          44.600


                  96126933.009 6                                  23120401.988
                        36.200
 198898754.407 7                  37849174.970
        42.600
 128473013.346 5                  24447597.125
        33.400
 202015677.055 7                  38442309.468
        44.900
 125691644.283 8                  23918304.757
        49.300


 123395315.711 6  95973992.060 5  23148613.044    23148612.766    23148613.017
        36.700          32.900
 141652061.006 6                  26955486.191
        36.900
 122449551.961 5                  22898683.053    22898684.579
        32.400
 25  1  1 10 27  0.0000000  0 28G18G08G23E29G32G24E33G10G28G27R19R04
                                R12R03R13E26R18S35R05S31G21S33E07E08
                                E19R14E13R20
 122782468.801 6  95674301.18243  23364641.097    23364640.7354   23364642.9624
        38.000          18.6004
 128823310.988 4 100381773.8074   24514258.793    24514258.4134   24514263.9744
        28.700           5.4004
 109790751.110 6  85551239.33644  20892489.612    20892489.3624   20892488.9914
        41.700          27.9004
 125708136.136 7                  23921457.360
        46.400
 112330766.706 8  87530432.26448  21375804.554    21375804.1434   21375806.6814
        48.600          49.6004
 116331977.591 6  90648169.37743  22137232.961    22137232.5774   22137223.0264
        38.000          19.0004
 127900521.702 7                  24338655.298
        47.600
 109316388.620 8  85181643.82248  20802216.235    20802215.6944   20802217.0034
        51.800          50.2004
 127593473.400 4                  24280228.946
        29.200


 106377432.672 6  82738028.451 7  19886134.237    19886134.338    19886138.134
        40.000          46.200
 107621518.204 8  83705732.970 7  20097534.169    20097535.008    20097536.846
        49.000          46.300
                                                  23313167.895

 110153290.849 8  85674802.116 6  20577542.771    20577542.125    20577546.279
        49.700          39.600
 116897133.414 6                  21891080.348    21891078.753
        41.200
 124311008.810 7                  23655599.143
        45.100
 112832251.737 8  87758466.255 7  21137295.385    21137295.857    21137300.881
        48.800          43.500


 123552739.434 6  96096611.887 5  23113111.646    23113111.252    23113108.124
        40.100          34.700
 198898755.114 7                  37849176.732
        43.200
 128434240.274 5 100078607.86241  24440221.340    24440220.9694   24440219.5294
        35.400          10.5004
 202015666.215 7                  38442311.936
        45.600
 125712088.506 8                  23922195.212
        49.400




 123337639.935 6  95929133.188 6  23137796.074    23137795.106    23137796.350
        38.600          36.100
 141697899.940 6                  26964207.854
        36.500
 122396080.040 5                  22888682.061    22888682.127
        30.800
 25  1  1 10 27 15.0000000  0 28G18G08G23E29G32G24E33G10G28G27R19R04
                                R12R03R13E26R18S35R05S31G21S33E07E08
                                E19R14E13R20
 122837677.220 6  95717320.70743  23375147.365    23375147.1024   23375149.2004
        38.600          18.7004


 109809882.019 7  85566146.55244  20896130.103    20896129.8534   20896129.2634
        44.000          29.4004
 125691805.382 7                  23918349.565
        47.500
 112310038.577 8  87514280.48948  21371859.909    21371859.4764   21371862.4774
        50.400          50.3004
 116367619.525 6  90675942.26843  22144014.663    22144014.3464   22144009.6254
        37.300          20.7004
 127879333.849 7                  24334623.470
        46.900
 109299590.819 8  85168554.62948  20799020.115    20799019.5654   20799020.5534
        51.200          49.8004
 127536689.546 5                  24269425.382
        32.400


 106389849.146 6  82747685.719 7  19888455.862    19888456.215    19888459.018
        40.400          45.700
 107610410.829 8  83697093.889 8  20095458.444    20095460.430    20095463.413
        49.600          48.100
 124560188.411 4                  23317929.918    23317930.871
        27.800
 110179748.271 8  85695380.092 6  20582483.915    20582484.417    20582488.539
        49.900          39.800
 116879012.547 7                  21887685.206    21887684.706
        42.500
 124331044.237 7                  23659412.026
        44.500
 112888944.482 8  87802560.504 7  21147916.045    21147917.002    21147921.508
        49.100          42.800


 123513792.208 5  96066319.816 4  23105831.642    23105831.244    23105819.674
        35.200          28.900
 198898756.982 7                  37849179.473
        42.900
 128395532.761 6 100048446.19842  24432853.708    24432852.9754   24432854.0024
        36.600          12.6004
 202015656.061 7                  38442308.381
        45.000
 125732574.634 8                  23926093.348
        48.500




 123279990.631 6  95884294.872 5  23126979.449    23126977.133    23126980.304
        36.600          35.400
 141743768.030 5                  26972936.463
        34.800
 122342717.831 5  95155520.036 5  22878704.752    22878706.232    22878716.529
        30.900          33.400
 25  1  1 10 27 30.0000000  0 28G18G08G23E29G32G24E33G10G28G27R19R04
                                R12R03R13E26R18S35R05S31G21S33E07E08
                                E19R14E13R20
 122892937.596 6  95760380.72642  23385662.879    23385662.7104   23385664.3504
        37.500          17.8004


 109829093.456 7  85581116.52345  20899786.480    20899786.1944   20899785.3644
        43.500          31.4004
 125675537.330 8                  23915253.718
        48.200
 112289390.301 8  87498190.93548  21367930.916    21367930.4924   21367933.3344
        50.600          51.3004
 116403391.343 5  90703816.38543  22150822.415    22150822.1344   22150821.4454
        35.800          20.9004
 127858235.391 7                  24330608.264
        45.900
 109282854.111 8  85155513.05848  20795835.412    20795834.8624   20795836.0564
        51.600          50.2004
 127479925.050 5  99334971.16141  24258623.274    24258623.5554   24258619.2714
        31.400           8.4004


 106402478.060 6  82757508.210 7  19890817.066    19890817.053    19890820.026
        39.300          45.500
 107599373.333 8  83688509.183 8  20093396.796    20093398.176    20093402.138
        50.200          48.400


 110206246.825 8  85715990.127 6  20587434.040    20587434.548    20587438.026
        49.500          39.200
 116861072.077 6                  21884325.675    21884324.613
        41.000
 124351178.351 7                  23663243.609
        45.200
 112945744.664 8  87846738.337 7  21158557.174    21158557.872    21158564.662
        48.700          44.100


 123474884.240 6                  23098543.369    23098544.829
        40.000
 198898762.074 7                  37849180.426
        42.600
 128356893.370 5 100018337.58341  24425502.208    24425501.0734   24425501.3044
        35.800          11.6004
 202015649.413 7                  38442308.381
        44.300
 125753104.892 7                  23930000.077
        47.700




                  95839479.268 6                  23116157.515    23116170.586
                        36.400
 141789667.441 5                  26981671.290
        34.500
 122289469.144 5  95114104.286 6  22868746.125    22868749.132    22868757.693
        31.800          36.900
 25  1  1 10 27 45.0000000  0 27G18G08G23E29G32G24E33G10G28G27R19R04
                                R03R13E26R18S35R05S31G21S33E07E08E19
                                R14E13R20
 122948241.416 5  95803474.60742  23396185.040    23396184.9114   23396187.3084
        34.900          14.5004


 109848377.186 7  85596142.82245  20903456.508    20903456.2134   20903455.3954
        45.000          32.4004
 125659323.733 8                  23912168.021
        48.300
 112268813.631 8  87482157.18848  21364015.353    21364014.9384   21364017.7584
        52.000          51.8004
 116439284.615 5  90731785.18742  22157651.500    22157651.2234   22157655.3764
        33.400          17.2004
 127837218.285 7                  24326608.434
        45.300
 109266170.404 8  85142512.77748  20792659.994    20792659.4404   20792661.4274
        52.000          50.7004
 127423171.850 6  99290747.91342  24247823.423    24247823.7444   24247820.5354
        36.200          12.1004
 128570350.210 6 100184632.14743  24466126.728    24466126.5454   24466115.2664
        37.000          22.2004
 106415311.119 6  82767489.467 7  19893214.406    19893215.689    19893219.512
        39.400          45.800
 107588397.221 8  83679972.196 7  20091347.518    20091347.615    20091351.873
        48.800          47.900
 110232777.929 8  85736625.426 6  20592390.723    20592390.752    20592394.310
        50.100          38.300
 116843303.867 6                  21880995.876    21880994.582
        39.900
 124371402.812 7                  23667092.546
        45.800
 113002643.356 7  87890992.853 7  21169215.344    21169215.595    21169226.272
        46.300          46.600


 123436007.454 6                  23091280.477    23091279.167
        38.300
 198898761.820 7                  37849178.266
        43.000
 128318314.264 5  99988275.92441  24418159.399    24418157.9954   24418159.8754
        31.900          10.8004
 202015638.068 7                  38442306.588
        44.500
 125773670.912 7                  23933914.043
        47.000




                  95794680.588 6                                  23105366.891
                        36.500
 141835589.727 6                  26990410.340
        36.300
 122236325.898 4  95072770.469 6  22858807.025    22858806.752    22858817.934
        29.700          36.900
 25  1  1 10 28  0.0000000  0 27G18G08G23E29G32G24E33G10G28G27R19R04
                                R03R13E26R18S35R05S31G21S33E07E08E19
                                R14E13R20
 123003598.349 4  95846609.88541  23406719.642    23406719.3704   23406721.1804
        28.700           8.7004


 109867743.299 7  85611233.30645  20907141.850    20907141.5784   20907140.7234
        45.000          32.4004
 125643174.555 7                  23909094.708
        47.700
 112248318.564 8  87466187.01648  21360115.010    21360114.5864   21360117.3454
        51.900          51.7004
 116475308.945 5  90759856.21241  22164506.891    22164506.5524   22164513.5984
        33.100          10.4004
 127816292.727 7                  24322627.197
        44.700
 109249549.930 8  85129561.76248  20789497.788    20789497.2344   20789498.6844
        51.400          50.9004
 127366440.384 6  99246541.60741  24237027.093    24237027.4864   24237025.1484
        36.300          11.6004
 128607032.131 6 100213215.40544  24473106.992    24473107.0854   24473105.8214
        37.200          28.2004
 106428357.905 6  82777636.970 7  19895654.960    19895654.606    19895659.010
        38.900          46.100
 107577492.769 8  83671490.929 7  20089312.598    20089312.235    20089315.402
        49.000          47.900
 110259351.923 8  85757294.048 5  20597356.157    20597356.470    20597357.033
        51.400          34.100
 116825718.675 6                  21877704.091    21877702.332
        40.400
 124391727.631 7                  23670960.368
        46.300
 113059650.268 7  87935331.579 7  21179894.566    21179894.232    21179904.216
        45.500          46.400


 123397172.295 5  95975723.524 5  23084013.924    23084012.682    23084018.310
        35.100          32.200
 198898767.510 7                  37849179.442
        43.300
 128279805.668 5  99958269.11041  24410830.767    24410829.2564   24410831.8914
        32.700           6.8004
 202015631.716 7                  38442303.646
        44.900
 125794282.590 7                  23937836.679
        46.800




 123107024.332 7  95749907.254 5  23094565.090    23094567.792    23094568.258
        42.200          35.500
 141881544.810 5                  26999156.148
        34.600
 122183298.330 4  95031526.643 6  22848893.155    22848892.154    22848901.060
        29.400          36.300
 25  1  1 10 28 15.0000000  0 27G18G08G23E29G32G24E33G10G28G27R19R04
                                R03R13E26R18S35R05S31G21S33E07E08E19
                                R14E13R20
 123059004.041 5  95889783.09441  23417263.587    23417263.0874   23417264.0464
        32.700           9.3004
 128913365.473 6 100451996.89842  24531396.446    24531395.9144   24531399.9574
        36.500          16.5004
 109887187.656 7  85626384.75145  20910841.647    20910841.3614   20910840.1374
        45.700          32.4004
 125627085.578 7                  23906032.930
        46.800
 112227900.901 8  87450277.16648  21356229.978    21356229.5634   21356231.4244
        51.200          51.7004
 116511459.810 5  90788025.95541  22171384.711    22171384.2694   22171396.0514
        32.800           7.5004
 127795454.734 7                  24318661.471
        44.900
 109232988.678 8  85116656.87648  20786346.167    20786345.5954   20786347.5014
        50.500          51.1004
 127309726.768 6  99202349.16541  24226235.990    24226236.1424   24226232.9724
        36.400          11.4004
 128643765.256 6 100241838.56744  24480096.971    24480096.6054   24480100.0874
        36.200          28.5004
 106441614.527 6  82787947.682 7  19898133.069    19898133.128    19898136.879
        38.400          45.800
 107566655.342 7  83663061.827 8  20087288.697    20087288.053    20087292.185
        47.500          48.100
 110285964.195 8  85777992.532 5  20602327.152    20602327.663    20602327.157
        50.700          30.300
 116808312.406 7                  21874444.388    21874443.892
        42.900
 124412148.559 7                  23674846.332
        46.600
 113116760.609 7  87979750.721 7  21190593.592    21190593.099    21190601.339
        45.100          45.200


 123358374.190 5  95945547.359 5  23076770.899    23076763.127    23076745.649
        30.900          32.000
 198898773.318 7                  37849180.314
        43.000
 128241363.657 5  99928314.33841  24403516.852    24403515.2024   24403516.5404
        33.300           6.8004
 202015626.369 7                  38442299.787
        44.900
 125814935.641 7                  23941766.612
        47.300




 123049486.928 5  95705156.035 5  23083765.315    23083765.953    23083771.914
        35.800          33.900
 141927528.331 5                  27007908.094
        34.300
 122130383.662 4  94990370.796 5  22839002.248    22838996.145    22839006.835
        26.300          35.900
 25  1  1 10 28 30.0000000  0 28G18G08G23E29G32G24E33G10G28G27R19R04
                                R12R03R13E26R18S35R05S31G21S33E07E08
                                E19R14E13R20
 123114453.015 5  95932990.08642  23427816.230    23427815.6634   23427815.2284
        34.300          12.4004
 128931670.297 4 100466260.46642  24534881.332    24534880.6804   24534879.2464
        28.100          14.8004
 109906705.304 8  85641593.30345  20914554.759    20914554.4644   20914553.9624
        48.000          34.0004
 125611051.790 7                  23902981.825
        46.000
 112207555.630 8  87434423.72348  21352358.167    21352357.8014   21352359.7414
        51.100          51.7004
 116547731.877 5  90816290.02842  22178288.090    22178287.5094   22178301.2514
        35.000          13.8004
 127774699.494 7                  24314711.940
        45.200
 109216481.809 8  85103794.37248  20783204.971    20783204.4134   20783206.5974
        50.400          51.0004
 127253026.356 5  99158167.01941  24215445.503    24215445.4234   24215443.7074
        34.200           8.4004
 128680544.271 6 100270497.47644  24487095.334    24487094.4184   24487100.0194
        36.400          29.8004
 106455075.449 6  82798417.271 7  19900649.160    19900648.550    19900653.084
        37.500          44.900
 107555879.841 7  83654680.871 8  20085275.833    20085275.313    20085281.198
        44.800          48.700
 124689586.369 5  96980784.724 5  23342154.711    23342159.763    23342149.639
        33.500          32.000
 110312609.827 8                  20607304.706    20607306.349
        51.000
 116791080.243 7                  21871217.898    21871217.697
        44.000
 124432660.550 7                  23678749.581
        45.400
 113173968.877 7  88024245.967 7  21201311.354    21201311.842    21201316.549
        47.500          43.600


 123319608.046 4  95915396.113 4  23069511.224                    23069492.709
        27.700          29.200
 198898775.965 7                  37849180.144
        43.500
 128202983.386 5  99898407.59141  24396213.592    24396211.9964   24396212.8514
        34.800           8.8004
 202015616.800 7                  38442299.604
        44.500
 125835624.912 7                  23945703.646
        47.800




 122991973.781 5  95660423.882 5  23072977.833    23072970.808    23072981.334
        33.800          33.100
 141973535.079 6                  27016662.231
        36.200
 122077576.698 4  94949298.663 6  22829123.290    22829121.751    22829133.439
        28.700          36.100
 25  1  1 10 28 45.0000000  0 28G18G08G23E29G32G24E33G10G28G27R19R04
                                R12R03R13E26R18S35R05S31G21S33E07E08
                                E19R14E13R20
 123169950.977 6  95976235.25742  23438376.328    23438375.6944   23438375.6584
        37.800          17.5004


 109926302.232 7  85656863.62745  20918283.220    20918282.9304   20918283.8504
        47.300          35.6004
 125595079.104 7                  23899941.980
        45.300
 112187288.649 8  87418631.28048  21348501.311    21348500.9674   21348503.2894
        50.700          51.5004
 116584130.870 5  90844652.85742  22185213.978    22185213.2454   22185228.6764
        34.800          17.3004
 127754033.145 7                  24310779.759
        46.500
 109200035.462 8  85090979.04848  20780075.396    20780074.8464   20780076.7574
        51.800          51.6004
 127196345.382 5  99113999.96541  24204659.757    24204659.5434   24204657.8674
        35.700          10.4004
 128717374.703 5 100299196.49245  24494102.517    24494101.6324   24494108.6564
        32.800          31.8004
 106468746.812 6  82809050.585 7  19903202.309    19903204.825    19903207.409
        38.700          43.200
 107545172.418 7  83646352.853 7  20083274.175    20083274.973    20083280.384
        43.500          47.700
 124715965.644 4  97001302.034 5  23347078.862    23347081.245    23347084.419
        28.200          30.900
 110339294.353 8                  20612290.248    20612290.979
        49.600
 116774028.695 7                  21868026.501    21868025.598
        44.100
 124453269.426 7                  23682671.139
        46.500
 113231280.450 7  88068821.594 7  21212047.565    21212048.392    21212052.888
        47.400          43.700


 123280880.213 4  95885274.227 5  23062250.321                    23062251.846
        29.200          31.700
 198898779.810 7                  37849181.754
        43.300
 128164671.403 5  99868554.15941  24388923.609    24388922.1344   24388922.3454
        35.500           8.7004
 202015610.171 7                  38442298.070
        44.600
 125856356.191 7                  23949648.466
        47.800




                  95615715.412 5                  23062187.602    23062197.176
                        33.200
 142019570.815 6                  27025421.611
        38.100
 122024884.154 5  94908315.614 5  22819270.852    22819271.800    22819284.288
        32.900          35.400
 25  1  1 10 29  0.0000000  0 28G18G08G23E29G32G24E33G10G28G27R19R04
                                R12R03R13E26R18S35R05S31G21S33E07E08
                                E19R14E13R20
 123225495.812 5  96019516.95043  23448948.121    23448947.4464   23448946.7034
        34.800          20.7004


 109945976.675 7  85672194.34946  20922027.861    20922027.5754   20922028.6824
        47.600          36.5004
 125579165.664 7                  23896914.189
        45.700
 112167098.164 8  87402898.43748  21344659.037    21344658.6804   21344661.6734
        49.300          50.5004
 116620654.805 5  90873113.06542  22192163.451    22192162.7944   22192177.8104
        33.600          17.0004
 127733454.081 7                  24306863.300
        46.200
 109183647.975 8  85078209.59248  20776956.817    20776956.2904   20776957.7864
        52.400          51.6004
 127139682.361 6  99069846.97341  24193876.435    24193876.2924   24193875.4844
        38.100          11.9004
 128754254.410 5 100327933.93645  24501123.166    24501122.3394   24501125.7104
        35.800          32.5004
 106482626.597 6  82819845.983 7  19905799.648    19905799.998    19905802.166
        40.500          42.900
 107534530.955 7  83638076.180 7  20081288.562    20081286.429    20081292.122
        42.000          46.200
 124742512.736 6  97021949.895 5  23352055.529    23352054.145    23352057.007
        37.300          31.800
 110366016.147 8                  20617282.006    20617283.237
        48.300
 116757156.295 7                  21864865.979    21864864.461
        42.600
 124473973.382 7                  23686611.125
        46.200
 113288692.948 7  88113475.736 7  21222803.334    21222802.796    21222809.796
        46.500          45.500




 198898784.307 7                  37849182.653
        43.100
 128126425.962 5  99838752.51341  24381645.596    24381644.2064   24381644.4934
        34.600          10.4004
 202015603.284 7                  38442298.034
        44.700
 125877127.577 7                  23953600.958
        47.900




 122877038.000 6  95571029.583 5  23051413.372    23051411.640    23051421.031
        39.300          34.300
 142065633.604 6                  27034187.305
        39.100
 121972304.491 5  94867420.278 5  22809440.339    22809440.540    22809460.450
        34.600          35.700
 25  1  1 10 29 15.0000000  0 26G18G08G23E29G32G24E33G10G28G27R19R04
                                R12R03R13E26R18S35S31G21S33E07E19R14
                                E13R20
 123281083.099 6  96062831.70643  23459526.634    23459526.0264   23459527.0684
        37.300          22.1004
 128987205.861 5                  24545443.454
        32.000
 109965724.576 8  85687582.32146  20925785.926    20925785.6404   20925787.1304
        48.300          38.0004
 125563307.317 7                  23893896.877
        45.900
 112146980.004 8  87387221.94948  21340831.286    21340830.8974   21340833.5754
        48.200          49.5004
 116657298.946 5  90901666.98741  22199138.021    22199137.4674   22199150.2144
        34.800          10.0004
 127712958.323 7                  24302963.211
        44.700
 109167315.416 8  85065482.94048  20773848.715    20773848.1974   20773849.2354
        51.000          51.2004
 127083033.495 6  99025704.99942  24183095.674    24183095.5674   24183095.6944
        36.500          12.2004
 128791178.836 6 100356706.22545  24508148.531    24508147.7224   24508151.3854
        36.400          34.9004
 106496710.472 6  82830800.121 7  19908431.805    19908432.501    19908435.675
        40.700          43.300
 107523951.469 7  83629847.667 7  20079312.153    20079312.547    20079316.004
        44.900          45.100
 124769223.102 6  97042724.478 5  23357057.133    23357056.393    23357055.740
        38.100          30.200
                                                  20622279.810

 116740458.990 6                  21861737.178    21861736.543
        41.700
 124494768.233 7                  23690568.774
        45.500
 113346201.658 8  88158204.736 7  21233576.584    21233577.546    21233583.652
        48.000          46.400


 198898784.521 7                  37849181.092
        43.200
 128088243.789 5  99809000.29441  24374380.953    24374379.5404   24374378.5944
        31.700           6.4004
 202015591.083 7                  38442295.029
        45.200
 125897934.811 7                  23957559.968
        47.600


 122819610.843 6  95526364.028 5  23040638.509    23040637.288    23040648.235
        38.400          35.300
 142111719.101 6                  27042957.803
        37.800
 121919834.749 5  94826610.740 5  22799625.329    22799628.856    22799647.305
        34.400          32.500
 25  1  1 10 29 30.0000000  0 26G18G08G23E29G32G24E33G10G28G27R19R04
                                R12R03R13E26R18S35R05S31S33E07E19R14
                                E13R20
 123336720.759 6  96106185.71144  23470113.661    23470113.0764   23470116.4824
        39.800          24.9004
 129005917.588 4 100524052.90241  24548998.408    24548998.4754   24548999.0344
        29.500           8.0004
 109985554.235 8  85703033.99146  20929559.360    20929559.0834   20929560.7994
        48.500          38.9004
 125547512.323 7                  23890891.575
        45.800
 112126942.426 8  87371608.24648  21337017.822    21337017.4074   21337020.1984
        48.900          48.8004
 116694071.396 5  90930320.91141  22206134.026    22206133.3874   22206147.8924
        30.900          10.6004
 127692554.347 7                  24299081.260
        44.300
 109151046.240 8  85052805.69048  20770753.242    20770752.7424   20770752.9764
        50.700          50.8004
 127026407.408 6  98981580.77542  24172321.985    24172321.9854   24172319.9474
        38.600          13.3004
 128828155.913 6 100385519.53945  24515184.961    24515184.2374   24515187.4384
        38.100          34.9004
 106511006.565 6  82841919.304 7  19911105.310    19911105.015    19911108.154
        41.400          43.700
 107513441.924 7  83621673.592 7  20077348.777    20077348.821    20077352.019
        43.900          43.400
 124796105.149 6                  23362088.441    23362087.174
        36.300
 110419566.243 7                  20627284.309    20627284.173
        44.400
 116723945.484 6                  21858644.491    21858643.423
        41.600
 124515662.145 7                  23694544.811
        45.500
 113403814.498 7  88203014.705 7  21244368.878    21244369.736    21244376.848
        47.800          46.900


                  95794983.619 5                                  23040557.774
                        34.100
 198898789.045 7                  37849185.005
        43.900
 202015585.315 7                  38442293.513
        45.600
 125918786.033 7                  23961528.392
        47.400


 122762218.467 6  95481725.592 5  23029873.701    23029870.895    23029880.031
        39.000          35.200
 142157835.426 5                  27051729.361
        31.500
 121867482.841 5  94785892.738 4  22789845.453    22789845.568    22789835.800
        31.700          28.700
 25  1  1 10 29 45.0000000  0 26G18G08G23E29G32G24E33G10G28G27R19R04
                                R12R03R13E26R18S35R05S31S33E07E19R14
                                E13R20
 123392402.664 6  96149574.22244  23480708.587    23480708.0374   23480712.5604
        41.100          25.6004
 129024728.135 5 100538710.55141  24552578.499    24552578.1954   24552576.7124
        30.800           9.8004
 110005459.872 8  85718544.86746  20933347.433    20933347.1564   20933348.5684
        48.200          38.9004
 125531774.758 8                  23887896.744
        48.300
 112106979.570 7  87356052.78748  21333219.041    21333218.6304   21333220.4774
        47.700          48.0004
 116730965.952 5  90959069.90242  22213159.029    22213158.4034   22213167.9504
        34.300          15.7004
 127672236.514 7                  24295215.016
        46.300
 109134834.775 8  85040173.39248  20767668.151    20767667.6514   20767668.2504
        49.800          50.8004
 126969798.606 6  98937470.04442  24161550.521    24161550.5524   24161547.1284
        36.200          14.8004
 128865179.424 6 100414369.05145  24522229.309    24522228.6214   24522232.6274
        36.800          34.8004
 106525508.618 6  82853198.714 7  19913815.235    19913815.833    19913819.142
        40.700          43.800
 107502996.364 6  83613549.366 7  20075398.786    20075397.163    20075402.910
        41.500          44.000
 124823152.482 5                  23367146.493    23367146.962
        35.300
 110446397.242 7  85902698.879 6  20632298.114    20632298.682    20632303.090
        45.600          38.200
 116707610.371 7                  21855587.566    21855586.855
        43.000
 124536649.269 7                  23698538.084
        45.900
 113461525.013 7  88247900.674 7  21255179.688    21255180.013    21255187.022
        46.200          46.400


 123126358.002 6  95764972.623 6  23033335.453    23033335.453    23033338.916
        39.700          36.200
 198898792.407 7                  37849181.910
        42.700
 202015576.790 7                  38442294.810
        45.000
 125939675.275 7                  23965503.211
        47.000


 122704855.263 6  95437109.884 6  23019114.193    23019111.076    23019119.147
        38.500          36.600
 142203976.577 4                  27060512.069
        28.300
 121815244.009 4                  22780077.105    22780081.673
        27.400
 25  1  1 10 30  0.0000000  0 25G18G08G23E29G32G24E33G10G28G27R19R04
                                R12R03R13E26R18S35R05S31S33E07E19R14
                                E13
 123448133.054 6  96193000.45843  23491313.568    23491313.0454   23491316.3424
        40.600          23.9004
 129043642.108 5 100553448.65942  24556175.646    24556174.9224   24556175.2904
        32.700          14.8004
 110025446.106 7  85734118.53946  20937150.630    20937150.3404   20937151.5044
        47.500          37.9004
 125516099.207 8                  23884913.377
        48.900
 112087095.964 7  87340559.09447  21329435.597    21329435.2004   21329436.1704
        47.900          47.0004
 116767986.853 6  90987917.30842  22220201.726    22220200.9934   22220210.5014
        38.400          15.4004
 127652009.572 7                  24291365.089
        46.300
 109118685.719 8  85027589.71248  20764594.821    20764594.3164   20764595.6734
        49.800          50.8004
 126913211.957 6  98893376.56042  24150782.708    24150782.7124   24150778.7234
        36.500          15.8004
 128902253.574 6 100443258.03045  24529286.075    24529285.4234   24529287.6454
        37.600          33.4004
 106540221.365 6  82864641.927 7  19916565.979    19916566.007    19916569.664
        39.900          44.400
 107492619.668 7  83605478.560 7  20073464.085    20073460.830    20073465.436
        45.000          44.500
 124850369.372 4                  23372241.661
        25.500
 110473267.787 7  85923598.132 6  20637318.078    20637318.163    20637322.629
        44.900          37.600
 116691458.094 6                  21852560.848    21852559.723
        40.300
 124557734.079 7                  23702549.826
        45.000
 113519337.221 7  88292865.700 7  21266009.661    21266010.560    21266017.502
        47.900          46.200


 123087811.653 5  95734992.115 5  23026123.842    23026120.611    23026126.551
        35.600          34.600
 198898798.576 7                  37849185.738
        43.500
 202015571.472 7                  38442296.773
        45.300
 125960606.949 7                  23969486.164
        46.200


 122647526.967 6  95392521.294 6  23008356.425    23008357.038    23008364.989
        36.900          38.200
 142250146.854 5                  27069299.156
        31.100
 25  1  1 10 30 15.0000000  0 26G18G08G23E29G32G24E33G10G28G27R19R04
                                R12R03R13E26R18S35R05S31S33E07E19R14
                                E13R20
 123503906.441 6  96236460.18443  23501926.290    23501925.7274   23501927.7264
        41.400          22.9004
 129062653.792 5 100568262.98443  24559794.911    24559794.2994   24559793.2534
        34.500          19.8004
 110045507.794 8  85749750.99546  20940968.166    20940967.9034   20940968.7634
        48.200          37.7004
 125500480.409 8                  23881941.326
        49.200
 112067286.389 8  87325123.09847  21325666.195    21325665.7984   21325666.4944
        49.200          47.5004
 116805128.583 6  91016858.90543  22227268.882    22227268.0824   22227274.2124
        38.100          20.4004
 127631868.514 7                  24287532.604
        46.200
 109102594.125 8  85015050.81048  20761532.790    20761532.2904   20761533.9224
        49.700          51.3004
 126856642.610 5  98849296.55242  24140017.594    24140017.5544   24140014.1554
        33.600          14.4004
 128939372.783 6 100472182.08345  24536348.811    24536348.1324   24536350.3714
        36.400          32.0004
 106555139.226 6  82876244.700 7  19919355.736    19919355.660    19919358.195
        39.600          44.100
 107482306.131 7  83597456.875 7  20071536.806    20071537.071    20071541.248
        47.800          46.000


 110500172.620 7  85944524.148 6  20642344.546    20642343.033    20642347.463
        44.500          38.800
 116675484.103 6                  21849568.970    21849567.657
        39.200
 124578911.338 7                  23706580.356
        44.200
 113577245.375 8  88337905.375 7  21276858.954    21276860.550    21276865.659
        48.300          46.000


                  95705037.961 5                                  23018922.208
                        31.900
 198898802.554 7                  37849189.047
        44.200
 202015564.253 7                  38442288.501
        44.200
 125981575.755 7                  23973476.257
        45.500


                  95347955.792 6                                  22997616.706
                        39.100
 142296341.064 5                  27078088.834
        33.700
 121711114.770 4                  22760593.325
        27.100
 25  1  1 10 30 30.0000000  0 27G18G08G23E29G32G24E33G10G28G27R19R04
                                R12R03R13E26R18S35R05S31G21S33E07E19
                                R14E13R20
 123559722.868 6  96279953.45743  23512547.201    23512546.6074   23512548.0674
        39.600          23.3004
 129081763.425 6 100583153.59643  24563431.312    24563430.7454   24563431.4324
        38.000          23.2004
 110065645.410 8  85765442.61846  20944799.533    20944799.2654   20944800.5094
        49.100          37.9004
 125484918.765 8                  23878980.340
        48.300
 112047551.274 8  87309745.11248  21321910.681    21321910.2664   21321911.7304
        48.400          48.1004
 116842391.272 5  91045894.72443  22234359.733    22234358.9064   22234363.7324
        35.400          23.3004
 127611813.931 7                  24283716.267
        44.500
 109086560.543 8  85002557.07548  20758481.504    20758481.0134   20758482.9434
        50.100          51.8004
 126800091.255 6  98805230.55842  24129255.381    24129255.2654   24129253.4684
        37.300          15.6004
 128976537.093 5 100501141.27245  24543419.032    24543418.3574   24543421.4554
        32.300          30.0004
 106570262.434 6  82888007.226 7  19922182.577    19922183.000    19922185.816
        40.000          44.200
 107472056.197 8  83589484.695 7  20069622.852    20069623.717    20069627.353
        48.100          45.300


 110527111.895 7  85965476.875 6  20647377.159    20647375.669    20647380.744
        43.500          39.700
 116659688.923 6                  21846611.556    21846611.732
        39.500
 124600181.409 7                  23710627.846
        43.900
 113635249.374 7  88383019.579 7  21287725.166    21287725.135    21287731.751
        46.900          45.500


 123010820.426 5  95675110.097 5  23011731.187    23011730.151    23011726.764
        32.500          30.300
 198898804.738 7                  37849186.440
        43.400
 127898349.915 6                  24338245.791
        36.100
 202015555.479 7                  38442289.015
        44.600
 126002581.959 7                  23977473.949
        44.600
 141175025.134 5                  26864714.381
        35.700
 122532960.129 6  95303414.187 6  22986880.576    22986880.591    22986872.233
        37.100          38.300
 142342559.364 5                  27086885.730
        34.700
 121659221.201 4                  22750891.522
        29.500
 25  1  1 10 30 45.0000000  0 27G18G08G23E29G32G24E33G10G28G27R19R04
                                R12R03R13E26R18S35R05S31G21S33E07E19
                                R14E13R20
 123615587.734 6  96323484.48143  23523178.299    23523177.8344   23523179.5104
        36.800          23.1004
 129100976.465 6 100598124.72843  24567087.669    24567087.1284   24567088.2904
        36.200          22.8004
 110085864.656 8  85781197.84846  20948647.866    20948647.6074   20948647.9694
        49.300          37.8004
 125469419.923 8                  23876030.851
        48.400
 112027896.248 8  87294429.52748  21318170.738    21318170.3324   21318172.2784
        48.600          48.0004
 116879780.224 5  91075028.93444  22241474.714    22241473.8834   22241479.6224
        34.500          24.2004
 127591851.729 7                  24279917.779
        45.100
 109070590.859 8  84990113.15748  20755442.922    20755442.4224   20755444.0994
        51.400          52.6004
 126743563.998 6  98761183.34043  24118498.047    24118497.9634   24118498.5544
        38.200          18.6004
 129013751.892 5 100530139.78944  24550502.962    24550502.2254   24550503.8174
        33.800          26.8004
 106585597.041 6  82899934.108 7  19925049.290    19925048.979    19925052.144
        40.000          44.100
 107461875.360 7  83581566.285 7  20067722.311    20067721.431    20067726.077
        47.300          44.300
 124933063.102 6                  23387728.665
        36.500
 110554091.862 6  85986461.328 6  20652415.977    20652413.923    20652420.567
        40.800          40.900
 116644078.647 6                  21843687.962    21843685.596
        36.300
 124621549.889 7                  23714693.517
        45.000
 113693354.464 7  88428212.424 7  21298609.009    21298608.872    21298614.598
        46.000          43.500


 122972381.288 6  95645213.166 5  23004540.569                    23004537.056
        37.400          33.600
 198898810.996 7                  37849184.884
        43.000
 127860578.860 5                  24331057.076
        35.800
 202015550.192 7                  38442283.828
        44.600
 126023631.141 7                  23981479.384
        44.600
 141140313.047 5                  26858108.866
        35.700
 122475729.372 7  95258901.545 5  22976132.901    22976133.408    22976133.793
        42.600          34.200
 142388807.233 5                  27095686.490
        33.800
 121607448.192 4  94583588.347 6  22741209.335                    22741216.479
        28.200          37.200
 25  1  1 10 31  0.0000000  0 26G18G08G23E29G32G24E33G10G28G27R19R04
                                R03R13E26R18S35R05S31G21S33E07E19R14
                                E13R20
 123671492.235 6  96367046.43543  23533816.494    23533816.1504   23533819.1014
        39.300          22.8004
 129120284.145 6 100613169.55643  24570760.602    24570760.0444   24570761.9204
        36.900          23.3004
 110106157.040 8  85797010.08946  20952509.314    20952509.0514   20952509.2964
        49.400          37.7004
 125453975.325 8                  23873091.494
        48.600
 112008312.761 8  87279169.68048  21314443.847    21314443.4414   21314445.4534
        49.700          48.2004
 116917286.538 5  91104254.66744  22248612.378    22248611.5154   22248617.6154
        33.200          24.2004
 127571973.543 7                  24276134.536
        45.300
 109054676.718 8  84977712.52148  20752414.648    20752414.1434   20752416.0194
        52.200          53.1004
 126687052.614 6  98717148.47843  24107743.059    24107743.0724   24107746.9314
        37.700          19.1004
 129051008.137 6 100559170.64344  24557591.635    24557590.7414   24557593.1904
        37.100          26.7004
 106601133.617 6  82912018.113 7  19927954.034    19927954.286    19927957.129
        40.900          44.900
 107451755.385 7  83573695.239 7  20065829.670    20065830.833    20065835.757
        46.000          42.800
 110581103.067 7  86007470.064 6  20657459.490    20657461.803    20657465.094
        42.200          41.000
 116628644.991 6                  21840801.694    21840799.476
        38.300
 124643008.194 7                  23718776.412
        44.800
 113751551.438 8  88473476.679 7  21309512.079    21309512.843    21309516.633
        48.400          42.200


 122933973.541 5  95615340.613 5  22997361.891    22997344.159    22997346.392
        35.800          31.700
 198898812.754 7                  37849187.478
        42.400
 127822871.587 6                  24323881.010
        36.900
 202015540.769 7                  38442285.746
        44.800
 126044714.610 7                  23985491.567
        44.400
 141105628.876 5                  26851509.774
        33.900
 122418528.129 7  95214411.850 5  22965401.899    22965400.378    22965399.757
        43.700          30.300
 142435076.109 5                  27104488.562
        33.700
 121555787.515 4  94543407.751 6  22731548.972                    22731556.392
        29.400          37.300
 25  1  1 10 31 15.0000000  0 26G18G08G23E29G32G24E33G10G28G27R19R04
                                R03R13E26R18S35R05S31G21S33E07E19R14
                                E13R20
 123727444.914 6  96410645.90843  23544464.421    23544464.1004   23544467.0184
        39.600          21.8004
 129139694.997 6 100628294.82944  24574455.701    24574455.1074   24574456.7464
        37.800          25.5004
 110126531.562 8  85812886.34546  20956387.275    20956387.0214   20956386.2824
        49.200          36.5004
 125438593.843 8                  23870164.123
        48.300
 111988809.731 8  87263972.51148  21310732.425    21310732.0234   21310733.8774
        50.700          48.3004
 116954918.815 5  91133578.54544  22255774.494    22255773.6944   22255778.3194
        34.000          24.4004
 127552188.475 7                  24272369.219
        45.000
 109038827.242 8  84965362.28548  20749398.637    20749398.1284   20749400.3934
        52.300          53.1004
 126630566.361 5  98673133.19243  24096994.577    24096994.7784   24096999.0604
        35.800          18.1004
 129088314.518 6 100588240.54644  24564690.767    24564689.7934   24564690.7504
        39.100          29.3004
 106616881.258 6  82924266.286 7  19930896.632    19930896.032    19930901.469
        38.800          44.700
 107441704.663 7  83565878.038 7  20063951.008    20063952.524    20063958.279
        44.900          43.200
 110608154.788 7  86028510.264 6  20662515.527    20662515.264    20662518.586
        44.100          40.800
 116613397.247 6                  21837943.365    21837941.971
        36.800
 124664565.149 7                  23722878.108
        43.800
 113809848.735 8  88518818.970 7  21320434.017    21320435.470    21320438.084
        49.000          42.700


 122895606.149 6  95585499.430 5  22990192.456    22990193.677    22990167.283
        39.300          33.100
 198898819.209 7                  37849191.600
        42.900
 127785237.480 6                  24316720.358
        36.200
 202015535.707 7                  38442287.705
        45.200
 126065841.230 7                  23989511.926
        44.500
 141070981.781 5                  26844916.463
        32.600
 122361365.493 7  95169952.227 5  22954677.999    22954677.584    22954682.208
        44.600          34.600
 142481374.522 4                  27113300.069
        27.700
 121504248.946 5  94503321.976 6  22721911.394                    22721916.276
        30.800          37.900
 25  1  1 10 31 30.0000000  0 26G18G08G23E29G32G24E33G10G28G27R19R04
                                R03R13E26R18S35R05S31G21S33E07E19R14
                                E13R20
 123783436.105 6  96454275.40043  23555118.676    23555118.3954   23555122.1844
        38.900          21.0004
 129159199.404 5 100643493.04944  24578165.767    24578165.2314   24578168.5324
        33.500          24.4004
 110146978.838 8  85828819.28045  20960277.686    20960277.4094   20960276.7154
        49.500          35.6004
 125423266.028 7                  23867247.360
        47.500
 111969377.721 8  87248830.69147  21307034.292    21307033.8994   21307035.5324
        49.700          47.8004
 116992667.521 6  91162993.11844  22262960.005    22262959.3174   22262960.4744
        40.500          27.2004
 127532487.315 7                  24268620.215
        42.800
 109023033.153 8  84953055.21648  20746392.991    20746392.4824   20746395.0424
        52.500          53.0004
 126574096.121 5  98629130.34242  24086249.294    24086249.5264   24086252.9774
        32.100          16.3004
 129125661.122 6 100617341.77745  24571797.761    24571796.7734   24571796.3204
        41.000          31.0004
 106632830.421 6  82936671.196 7  19933877.286    19933876.132    19933882.807
        37.700          44.500
 107431713.971 7  83558107.460 6  20062087.335    20062085.899    20062091.779
        44.200          41.800
 110635237.261 7  86049574.417 6  20667575.479    20667576.421    20667576.380
        46.900          40.800
 116598326.122 6                  21835121.140    21835120.923
        37.500
 124686211.316 7                  23726997.254
        43.700
 113868236.339 8  88564231.496 7  21331372.168    21331373.519    21331376.652
        48.800          43.400


 122857269.496 6  95555681.998 5  22983000.526    22983004.273    22982997.447
        40.200          33.400
 198898820.172 7                  37849191.037
        43.500
 127747667.583 6                  24309571.728
        37.200
 202015525.448 7                  38442284.642
        44.600
 126087001.396 7                  23993538.672
        44.000
 141036362.244 5                  26838328.580
        31.300
 122304232.801 7  95125515.772 5  22943960.354    22943959.932    22943963.281
        43.600          35.000
 142527693.074 5                  27122113.882
        30.400
 121452823.125 5  94463324.051 6  22712299.939    22712301.221    22712300.834
        33.200          37.500
 25  1  1 10 31 45.0000000  0 27G18G08G23E29G32G24E33G10G28G27R19R04
                                R12R03R13E26R18S35R05S31G21S33E07E19
                                R14E13R20
 123839469.852 6  96497938.02943  23565781.925    23565781.6714   23565784.2814
        36.700          20.6004
 129178801.409 6 100658767.31943  24581897.794    24581897.3834   24581898.8274
        37.200          23.3004
 110167503.263 8  85844812.32145  20964183.340    20964183.0724   20964181.9884
        49.300          34.6004
 125407996.184 7                  23864341.800
        46.700
 111950021.003 8  87233747.54447  21303351.527    21303351.1124   21303351.9754
        48.100          47.7004
 117030536.598 7  91192501.47044  22270163.431    22270162.7254   22270165.0504
        42.500          28.5004
 127512874.546 6                  24264889.024
        41.100
 109007298.962 8  84940794.81548  20743398.495    20743397.9954   20743400.6344
        51.800          52.6004
 126517646.574 5  98585143.60942  24075510.454    24075510.7444   24075510.7274
        31.700          14.6004
 129163051.983 6 100646477.50645  24578912.599    24578911.6474   24578911.1904
        40.500          31.2004
 106648985.103 6  82949235.955 7  19936898.696    19936897.017    19936902.204
        37.200          44.200
 107421787.422 7  83550386.766 6  20060236.051    20060233.690    20060238.820
        46.200          41.900
                                                  23408779.397

 110662354.868 7  86070665.856 7  20672639.901    20672640.315    20672644.499
        46.300          42.800
 116583436.303 6                  21832332.110    21832333.971
        39.400
 124707950.920 7                  23731135.398
        43.000
 113926718.098 7  88609717.277 7  21342327.405    21342328.002    21342331.371
        47.900          42.300


 122818968.101 5  95525891.996 5  22975824.117    22975825.803    22975834.431
        34.800          32.300
 198898820.864 7                  37849190.867
        43.000
 127710166.153 5                  24302434.995
        35.200
 202015515.075 7                  38442280.206
        44.400
 126108199.343 7                  23997573.026
        44.500
 141001774.628 4                  26831745.116
        29.800
 122247134.945 6  95081106.411 6  22933253.133    22933251.947    22933253.012
        41.500          37.900
 142574035.839 5                  27130931.258
        32.500
 121401515.196 4  94423417.824 6  22702707.775    22702707.001    22702706.347
        29.700          38.000
 25  1  1 10 32  0.0000000  0 26G18G08G23E29G32G24E33G10G28G27R19R04
                                R12R03R13E26R18S35R05S31G21S33E07E19
                                R14E13
 123895553.029 6  96541639.14643  23576454.629    23576454.3254   23576456.5814
        36.000          20.0004
 129198508.165 6 100674123.16643  24585645.508    24585645.0664   24585649.9914
        37.900          20.7004
 110188112.119 8  85860871.15145  20968104.737    20968104.4654   20968103.0834
        49.100          33.5004
 125392791.552 7                  23861448.533
        47.000
 111930746.844 7  87218728.73047  21299683.993    21299683.5824   21299684.2744
        47.500          47.2004
 117068532.921 7  91222108.97244  22277394.300    22277393.6124   22277394.5954
        43.400          29.1004
 127493357.609 6                  24261175.615
        41.000
 108991632.115 8  84928586.88348  20740417.503    20740417.0254   20740418.8444
        51.400          52.0004
 126461225.306 5  98541178.95342  24064776.261    24064776.3774   24064773.3064
        35.300          14.1004
 129200493.956 6 100675653.06045  24586036.548    24586035.6454   24586036.2294
        39.800          31.0004
 106665352.623 6  82961966.249 7  19939957.817    19939957.597    19939961.200
        37.200          43.300
 107411932.245 8  83542721.552 7  20058395.221    20058394.642    20058398.465
        48.400          43.400
 125074103.937 5                  23414121.155    23414119.560
        35.600
 110689514.878 7  86091790.259 7  20677715.183    20677713.545    20677718.503
        44.500          43.900
 116568735.461 6                  21829576.594    21829577.086
        38.500
 124729791.199 7                  23735292.013
        45.000
 113985300.888 7  88655281.645 7  21353300.092    21353299.946    21353306.347
        44.500          42.700


 122780709.144 5  95496134.855 5  22968679.862    22968673.032    22968674.563
        30.200          30.300
 198898827.994 7                  37849189.924
        43.200
 127672740.834 5                  24295313.295
        33.000
 202015510.947 7                  38442279.620
        44.100
 126129442.179 7                  24001615.280
        45.700
 140967226.256 4                  26825174.257
        27.000
                  95036730.040 6                                  22922550.698
                        39.300
 142620409.946 5                  27139755.348
        33.700
 25  1  1 10 32 15.0000000  0 26G18G08G23E29G32G24E33G10G28G27R19R04
                                R03R13E26R18S35R05S31G21S33E07E19R14
                                E13R20
 123951675.792 5  96585371.13043  23587134.327    23587133.8224   23587136.5154
        35.900          19.3004
 129218309.730 6 100689552.93942  24589415.287    24589414.8144   24589417.6104
        40.100          14.4004
 110208795.945 8  85876988.41145  20972040.961    20972040.6934   20972038.5174
        48.200          32.7004
 125377642.535 7                  23858565.686
        47.800
 111911545.646 8  87203766.76947  21296029.299    21296028.8524   21296030.3284
        48.400          47.1004
 117106646.606 7  91251807.88144  22284647.125    22284646.4504   22284647.2494
        43.800          27.9004
 127473927.189 7                  24257477.834
        43.300
 108976023.259 8  84916424.12948  20737447.011    20737446.5334   20737448.2874
        51.700          52.1004
 126404823.083 6  98497229.20642  24054041.464    24054041.3354   24054039.3914
        38.600          15.1004
 129237977.154 6 100704860.72145  24593169.473    24593168.5974   24593169.3654
        38.000          30.5004
 106681923.126 6  82974854.427 7  19943054.115    19943055.300    19943058.868
        37.500          43.300
 107402138.918 8  83535104.474 7  20056566.048    20056566.513    20056569.683
        49.300          44.300
 110716707.238 7  86112939.787 7  20682794.476    20682793.983    20682797.068
        45.800          43.600
 116554214.135 6                  21826860.618    21826858.098
        39.400
 124751722.548 7                  23739465.641
        47.300
 114043974.515 7  88700916.623 7  21364291.679    21364291.829    21364297.198
        46.300          42.100


                  95466403.104 5                                  22961525.682
                        31.100
 198898831.859 7                  37849192.074
        43.300
 127635382.479 5                  24288203.828
        35.400
 202015504.369 7                  38442274.755
        44.400
 126150720.244 7                  24005664.195
        46.400


 122133035.726 6  94992379.617 6  22911846.910    22911847.609    22911851.388
        37.100          39.100
 142666805.624 5                  27148584.013
        34.200
                  94343891.978 5                                  22683586.462
                        34.100
 25  1  1 10 32 30.0000000  0 26G18G08G23E29G32G24E33G10G28G27R19R04
                                R12R03R13E26R18S35R05S31G21S33E07E19
                                R14E13
 124007841.908 6  96629136.88742  23597821.262    23597820.6684   23597825.3214
        36.000          16.5004
 129238209.903 6 100705059.82142  24593202.783    24593202.3274   24593203.1384
        40.100          13.0004
 110229558.753 7  85893167.22045  20975992.204    20975991.9324   20975990.1844
        47.800          33.3004
 125362553.095 8                  23855694.633
        48.800
 111892421.391 7  87188864.76147  21292389.907    21292389.4564   21292390.9324
        47.100          46.3004
 117144881.272 6  91281600.99544  22291922.347    22291921.6634   22291921.4974
        41.300          24.3004
 127454587.434 7                  24253797.019
        45.800
 108960476.561 8  84904309.81448  20734488.833    20734488.3554   20734489.9514
        51.100          52.0004
 126348444.261 6  98453297.64742  24043312.159    24043311.8604   24043310.4394
        37.800          16.6004
 129275505.166 6 100734103.33645  24600312.361    24600311.4634   24600311.6964
        36.200          30.5004
 106698700.547 6  82987903.547 7  19946191.094    19946190.958    19946195.756
        36.600          43.300
 107392411.088 8  83527538.390 7  20054748.474    20054749.442    20054752.322
        49.700          43.700
 125131630.169 5                  23424900.290    23424901.801
        33.100
 110743936.291 7  86134117.925 7  20687880.380    20687880.633    20687883.852
        46.500          44.000
 116539876.686 6                  21824175.378    21824173.385
        39.000
 124773748.864 7                  23743656.319
        47.700
 114102742.476 8  88746624.981 7  21375302.534    21375303.097    21375306.860
        48.700          42.500




 198898837.218 7                  37849192.781
        43.100
 127598095.096 5                  24281107.923
        32.000
 202015497.951 7                  38442276.593
        44.100
 126172037.417 7                  24009720.685
        47.700


 122076051.971 6  94948058.970 6  22901155.667    22901155.200    22901160.624
        37.800          38.500
 142713226.778 5                  27157418.454
        32.000
 25  1  1 10 32 45.0000000  0 25G18G08G23E29G32G24E33G10G28G27R19R04
                                R03R13E26R18S35R05S31G21S33E07E19R14
                                E13
 124064048.119 6  96672933.94042  23608518.813    23608518.3224   23608520.9464
        38.100          16.5004
 129258205.478 6 100720640.75142  24597007.889    24597007.4204   24597006.9244
        38.700          17.8004
 110250397.754 7  85909405.40145  20979957.289    20979957.0124   20979957.2204
        47.300          34.5004
 125347520.356 8                  23852833.777
        49.400
 111873371.191 7  87174020.46447  21288765.151    21288764.6824   21288765.1934
        47.800          45.8004
 117183233.837 6  91311486.02243  22299221.544    22299220.9144   22299217.0884
        40.900          20.0004
 127435335.645 7                  24250133.651
        47.100
 108944989.331 8  84892241.83648  20731541.859    20731541.3594   20731543.0854
        50.900          51.9004
 126292086.363 5  98409382.31842  24032588.844    24032588.3934   24032585.7714
        32.200          13.0004
 129313074.763 6 100763378.36945  24607461.897    24607461.0344   24607461.7224
        40.000          32.4004
 106715681.461 6  83001110.913 7  19949367.364    19949366.893    19949370.429
        37.600          42.600
 107382746.038 8  83520021.120 7  20052943.370    20052943.769    20052947.325
        48.600          44.200
 110771198.978 7  86155322.217 7  20692973.470    20692974.772    20692977.687
        47.300          44.900
 116525720.574 6                  21821525.564    21821523.837
        39.400
 124795867.220 7                  23747865.087
        46.200
 114161601.281 8  88792404.030 7  21386329.103    21386329.501    21386333.372
        49.200          43.400


 122666301.573 6                  22947248.440
        36.400
 198898841.387 7                  37849193.881
        43.200
 127560876.317 4                  24274023.861
        27.200
 202015490.804 7                  38442276.602
        44.700
 126193390.695 7                  24013784.123
        47.600


 122019104.023 6  94903766.173 6  22890472.254    22890470.718    22890475.539
        36.800          38.100
 142759670.266 5                  27166258.789
        30.300
 25  1  1 10 33  0.0000000  0 26G18G08G23E29G32G24E33G10G28G27R19R04
                                R03R13E26R18S35R05S31G21S33E07E19R14
                                E13R20
 124120296.973 6  96716764.22842  23619221.400    23619220.9714   23619224.5974
        38.500          14.7004
 129278299.041 5 100736298.04742  24600830.638    24600830.0574   24600832.0034
        31.600          14.0004
 110271315.805 7  85925705.18545  20983937.552    20983937.2754   20983938.7534
        45.700          34.2004
 125332547.070 8                  23849984.682
        50.200
 111854397.869 8  87159236.06847  21285154.156    21285153.6604   21285153.9384
        48.700          45.9004
 117221706.754 6  91341464.89642  22306541.417    22306540.7874   22306535.8504
        36.200          12.2004
 127416174.908 7                  24246487.336
        47.900
 108929564.649 8  84880222.63948  20728606.561    20728606.0344   20728607.7064
        51.100          51.3004


 129350688.460 6 100792687.75945  24614616.860    24614615.9894   24614619.8954
        40.700          33.8004
 106732868.882 6  83014478.918 6  19952579.092    19952579.946    19952582.212
        36.900          41.900
 107373146.373 7  83512554.742 7  20051151.018    20051150.577    20051155.085
        47.500          44.500
 110798497.748 7  86176554.578 7  20698072.854    20698073.433    20698076.611
        45.300          44.500
 116511748.629 6                  21818907.448    21818904.928
        36.800
 124818080.382 7                  23752092.321
        45.400
 114220553.215 7  88838255.536 7  21397371.625    21397371.467    21397376.822
        46.600          43.100


 122628182.495 6  95377359.213 5  22940104.683    22940106.755    22940109.776
        40.300          32.100
 198898845.509 7                  37849195.218
        43.500
 127523728.838 4                  24266955.817
        29.400
 202015484.359 7                  38442275.189
        44.600
 126214782.793 8                  24017855.225
        48.100


 121962195.381 6  94859503.884 6  22879799.213    22879796.463    22879800.698
        38.900          38.500
 142806138.715 5                  27175102.236
        31.900
 121146814.387 5                  22655064.273    22655063.034
        34.100
