     2.11           OBSERVATION DATA    M (MIXED)           RINEX VERSION / TYPE
teqc  2019Feb25                         20260317 16:18:01UTCPGM / RUN BY / DATE
Linux 2.4.21-27.ELsmp|Opteron|gcc -static|Linux 64|=+       COMMENT
BIT 2 OF LLI FLAGS DATA COLLECTED UNDER A/S CONDITION       COMMENT
-Unknown-                                                   MARKER NAME
-Unknown-           -Unknown-                               OBSERVER / AGENCY
-Unknown-           -Unknown-           -Unknown-           REC # / TYPE / VERS
-Unknown-           -Unknown-                               ANT # / TYPE
        0.0000        0.0000        0.0000                  APPROX POSITION XYZ
        0.0000        0.0000        0.0000                  ANTENNA: DELTA H/E/N
     1     1                                                WAVELENGTH FACT L1/2
     7    L1    L2    C1    P1    P2    S1    S2            # / TYPES OF OBSERV
 SNR is mapped to RINEX snr flag value [0-9]                COMMENT
  L1 & L2: min(max(int(snr_dBHz/6), 0), 9)                  COMMENT
  2025     1     1     2     0    0.0000000     GPS         TIME OF FIRST OBS
    18                                                      LEAP SECONDS
                                                            END OF HEADER
 25  1  1  2  0  0.0000000  0 23G06G19G12G11G20E27G24G25E34S35R13E15
                                R22R23S31S33R07G17R12E02E13E30R24
 108271909.026 7  84367771.08447  20603445.115    20603444.7894   20603449.1584
        43.900          42.8004
 109628136.046 8  85424525.30746  20861538.518    20861537.3344   20861537.1094
        50.000          39.2004
 111604844.474 8  86964868.55547  21237671.570    21237671.0704   21237671.8454
        48.200          46.3004
 109081756.078 7  84998795.22245  20757563.971    20757563.7214   20757564.9954
        45.500          35.6004
 116329054.641 7  90646007.43843  22136682.328    22136681.2874   22136679.0474
        44.900          22.8004
 129955171.232 7                  24729623.052
        46.300
 128942343.850 6 100474616.91244  24536911.426    24536911.5334   24536917.7724
        37.600          24.4004
 125474997.095 5  97772769.89142  23877101.759    23877101.3974   23877107.7024
        33.400          16.7004
 125157543.896 6                  23816671.658
        39.600


 107565437.195 7                  20143530.787    20143530.273
        44.100
 125675967.246 8                  23915340.133
        50.100
 107617018.375 9  83702179.779 7  20160280.877    20160281.186    20160283.675
        54.000          44.400
 108671468.509 8                  20314937.223    20314937.140
        48.400
 198907056.080 7                  37850752.617
        42.700
 202058286.724 7                  38450417.481
        43.700
                  94578260.823 6                                  22716018.066
                        36.300
 122269419.693 6  95274889.90444  23267094.847    23267094.5434   23267097.4414
        40.200          29.7004
 107423878.651 8  83551934.037 7  20109959.871    20109960.139    20109964.261
        50.600          45.300
 139735336.105 6                  26590742.909
        36.000


 124843903.385 8                  23756987.663
        50.700


 25  1  1  2  0 15.0000000  0 25G06G19G12G11G20E27G24G25E34S35R13E15
                                R22R23S31S33R07G17R12R11E02E13R14E30
                                R24
 108293440.455 7  84384548.84046  20607541.545    20607541.2414   20607545.2944
        43.900          41.3004
 109649379.757 8  85441078.84346  20865581.036    20865579.8524   20865579.5724
        49.500          38.2004
 111576364.440 7  86942676.35947  21232251.989    21232251.4894   21232252.6594
        47.300          46.0004
 109066494.649 7  84986903.20946  20754659.543    20754659.2754   20754660.6454
        47.100          36.6004
 116282390.630 7  90609645.93343  22127802.819    22127801.7824   22127802.1974
        44.500          21.4004
 129929767.654 7                  24724789.299
        46.200
 128981774.111 6 100505341.73343  24544412.321    24544412.3794   24544418.9324
        36.600          22.4004
 125424196.768 5  97733185.43442  23867433.894    23867433.4884   23867441.6064
        34.400          17.3004
 125177618.199 6                  23820492.624
        41.900


 107550552.473 7                  20140744.063    20140744.063
        45.000
 125658963.806 8                  23912104.323
        48.600
 107641850.420 8  83721493.582 7  20164932.120    20164931.781    20164935.316
        52.700          45.500
 108655833.171 8                  20312014.637    20312014.774
        48.800
 198907055.749 6                  37850749.312
        41.600
 202058274.760 7                  38450419.587
        44.300
 121556668.224 6  94544073.644 6  22707813.480                    22707808.551
        37.600          40.000
 122301899.584 6  95300198.93244  23273275.325    23273275.0844   23273278.7354
        40.800          28.0004
 107463916.931 8  83583074.892 7  20117454.587    20117455.397    20117460.177
        50.800          45.200
 129330843.451 4                  24202505.312
        28.600
 139778371.698 5                  26598936.950
        32.500


 128991542.719 6                  24198485.454    24198486.478
        36.300
 124859395.227 8                  23759935.489
        50.300
 130492326.015 4                  24402708.669
        27.400
 25  1  1  2  0 30.0000000  0 23G06G19G12G11G20E27G24G25E34S35R13E15
                                R22R23S31S33R07G17R12E02E13R14E30
 108315058.848 7  84401394.32846  20611655.620    20611655.3574   20611657.4304
        43.300          40.2004
 109670692.562 8  85457686.22446  20869637.198    20869636.0144   20869634.8064
        49.800          37.3004
 111548010.042 8  86920582.05547  21226856.253    21226855.7484   21226856.6454
        48.400          46.0004
 109051339.018 8  84975093.65046  20751775.534    20751775.2574   20751776.8284
        48.900          38.8004
 116235802.021 7  90573343.12343  22118937.653    22118936.6474   22118938.9764
        44.700          19.8004
 129904437.199 8                  24719969.320
        48.100
 129021243.673 5 100536097.14243  24551923.980    24551923.9184   24551928.0294
        34.000          18.9004
 125373454.909 5  97693646.50942  23857777.678    23857777.2134   23857786.7654
        32.600          17.9004
 125197746.383 7                  23824322.310
        42.500


 107535871.115 7                  20137992.910    20137992.719
        42.700
 125642032.577 7                  23908882.724
        46.700
 107666741.513 8  83740853.353 7  20169595.180    20169594.740    20169598.946
        52.100          46.900
 108640282.987 8                  20309107.959    20309107.933
        48.800
 198907058.309 7                  37850751.401
        42.000
 202058265.861 7                  38450416.386
        45.000
                  94509965.650 6                                  22699617.205
                        40.700
 122334412.453 6  95325533.69044  23279460.601    23279460.2484   23279467.1344
        36.100          24.1004
 107504118.918 8  83614343.106 7  20124980.589    20124979.867    20124984.951
        48.700          43.400
 139821444.655 5                  26607133.928
        30.400


                                                  24187159.174

 124874981.923 8                  23762901.366
        49.000
 25  1  1  2  0 45.0000000  0 22G06G19G12G11G20E27G24G25E34S35R13E15
                                R22R23S31S33R07G17R12E02E13E30
 108336761.254 7  84418305.28946  20615785.424    20615785.1384   20615785.8244
        43.600          39.1004
 109692071.733 8  85474345.31946  20873705.403    20873704.2144   20873702.3824
        49.900          36.8004
 111519778.814 8  86898583.71847  21221483.751    21221483.2554   21221484.0264
        48.400          46.0004
 109036286.468 8  84963364.41346  20748911.066    20748910.7854   20748912.6874
        48.800          39.2004
 116189286.358 7  90537097.09743  22110085.104    22110084.0454   22110089.5774
        44.700          19.7004
 129879177.370 8                  24715162.560
        48.900
 129060749.382 5 100566880.70342  24559441.698    24559441.4794   24559443.7944
        32.800          14.9004
 125322769.073 5  97654151.22642  23848131.364    23848130.9224   23848141.4974
        31.400          17.4004
 125217925.606 7                  23828161.888
        44.400


 107521390.329 7                  20135281.076    20135280.823
        42.500
 125625170.820 7                  23905673.941
        46.400
 107691688.661 8  83760256.717 7  20174268.301    20174267.791    20174272.999
        52.100          47.800
 108624815.058 8                  20306216.926    20306216.980
        49.000
 198907061.671 7                  37850750.319
        42.800
 202058257.984 7                  38450414.342
        46.300
 121469053.381 6  94475935.002 6  22691437.719    22691437.844    22691441.939
        39.000          40.200
 122366955.731 6  95350892.18242  23285654.638    23285654.2274   23285659.6654
        38.500          17.5004
 107544481.153 7  83645735.968 7  20132536.201    20132534.191    20132540.965
        46.500          43.700
 139864552.156 5                  26615330.028
        34.300


 124890660.767 7                  23765884.399
        47.800
 25  1  1  2  1  0.0000000  0 22G06G19G12G11G20E27G24G25E34S35R13E15
                                R22R23S31S33R07G17R12E02E13E30
 108358548.355 7  84435282.24146  20619931.618    20619931.3324   20619931.4074
        43.300          39.8004
 109713518.145 8  85491056.81446  20877786.271    20877785.0874   20877783.4394
        50.700          37.0004
 111491671.964 7  86876682.29947  21216135.331    21216134.8404   21216135.0754
        47.000          45.3004
 109021337.838 8  84951716.14346  20746066.462    20746066.1814   20746068.3644
        49.200          39.8004
 116142844.919 7  90500908.93243  22101247.257    22101246.2024   22101253.4414
        44.300          20.0004
 129853989.251 8                  24710369.489
        49.200
 129100291.806 5 100597692.95442  24566964.153    24566963.8584   24566967.6664
        32.300          13.7004
 125272140.523 5  97614700.60943  23838496.762    23838496.3244   23838504.7444
        35.800          18.7004
 125238156.624 7                  23832011.159
        44.200


 107507111.389 7                  20132608.890    20132608.201
        44.600
 125608379.385 7                  23902477.802
        46.200
 107716692.607 8  83779704.227 8  20178952.943    20178952.352    20178956.961
        52.300          48.200
 108609430.296 8                  20303340.691    20303340.953
        48.900
 198907066.239 7                  37850751.338
        43.200
 202058251.220 7                  38450414.020
        44.700
 121425400.630 6  94441982.918 6  22683278.756    22683279.002    22683289.429
        38.300          40.900
 122399530.316 5  95376275.13641  23291852.395    23291852.0154   23291858.9714
        31.200          10.9004
 107585004.329 7  83677253.965 7  20140120.546    20140119.910    20140128.173
        46.800          44.500
 139907694.780 5                  26623540.001
        32.800


 124906432.587 7                  23768885.711
        47.600
 25  1  1  2  1 15.0000000  0 23G06G19G12G11G20E27G24G25E34S35R13E15
                                R22R23S31S33R07G17R12E02E13E30R21
 108380416.277 7  84452322.18046  20624092.661    20624092.3664   20624092.9004
        44.800          40.9004
 109735028.136 8  85507817.84446  20881879.666    20881878.4774   20881877.1074
        50.700          37.4004
 111463686.272 7  86854875.27747  21210809.652    21210809.1564   21210808.9974
        46.300          44.2004
 109006489.493 8  84940146.00546  20743240.779    20743240.5074   20743242.6924
        48.900          40.0004
 116096474.353 7  90464775.89343  22092422.625    22092421.5754   22092432.2354
        45.500          18.4004
 129828869.392 8                  24705589.359
        49.200
 129139866.864 5 100628530.63142  24574496.089    24574495.8264   24574498.6784
        30.300          16.2004
 125221565.930 5  97575292.00443  23828872.754    23828872.2894   23828876.8084
        35.500          20.1004
 125258435.575 7                  23835870.312
        44.500


 107493030.664 7                  20129971.259    20129970.659
        46.200
 125591654.615 7                  23899295.063
        46.100
 107741749.354 8  83799192.822 7  20183646.437    20183645.767    20183650.040
        51.800          47.400
 108594124.674 8                  20300479.693    20300479.405
        48.200
 198907068.985 7                  37850755.005
        42.100
 202058241.879 7                  38450406.177
        45.100
 121381846.091 7  94408107.143 6  22675149.211    22675147.414    22675150.141
        44.700          39.000
 122432132.648 5  95401679.79342  23298058.661    23298058.3804   23298064.7604
        35.500          15.0004
 107625684.240 8  83708893.912 7  20147736.782    20147736.317    20147743.699
        48.600          44.600
 139950868.775 5                  26631751.061
        33.900


 124922293.752 7                  23771904.174
        47.100
 127861293.456 5                  23893941.595    23893948.879
        32.700
 25  1  1  2  1 30.0000000  0 22G06G19G12G11G20E27G24G25E34S35R13E15
                                R22R23S31S33R07G17R12E02E13E30
 108402369.791 7  84469428.83447  20628270.153    20628269.8364   20628271.3194
        45.300          43.0004
 109756606.859 8  85524632.43546  20885985.928    20885984.7354   20885983.7924
        49.700          37.0004
 111435827.176 7  86833166.92247  21205507.223    21205506.7184   21205507.3524
        46.100          42.7004
 108991746.401 7  84928657.89046  20740435.859    20740435.6094   20740436.6734
        46.900          38.2004
 116050180.079 7  90428702.34342  22083612.758    22083611.6584   22083627.2524
        44.700          14.5004
 129803823.063 8                  24700823.453
        49.100
 129179479.132 4 100659397.37042  24582028.545    24582028.3494   24582037.2394
        24.000          14.0004
 125171050.696 5  97535929.63543  23819259.032    23819258.5094   23819262.2344
        33.600          21.1004
 125278767.412 7                  23839739.419
        46.600


 107479153.759 7                  20127373.486    20127372.901
        47.300
 125575001.544 7                  23896125.803
        45.600
 107766863.939 8  83818726.372 7  20188351.520    20188351.471    20188354.389
        52.800          46.900
 108578903.310 8                  20297634.184    20297633.691
        48.800
 198907074.134 6                  37850748.955
        41.300
 202058236.673 7                  38450407.232
        44.700
 121338395.095 7  94374312.052 6  22667028.086    22667027.654    22667033.238
        44.700          38.900
 122464767.838 6  95427109.85943  23304269.177    23304268.9414   23304278.6884
        37.700          21.9004
 107666525.615 8  83740659.421 7  20155383.215    20155383.154    20155389.731
        48.700          45.000
 139994079.082 5                  26639974.916
        35.700
 146524273.563 5                  27882641.305
        31.400
 124938249.326 7                  23774940.877
        47.900
 25  1  1  2  1 45.0000000  0 23G06G19G12G11G20E27G24G25E34S35R13E15
                                R22R23S31S33R07G17R12E02E13E30R24
 108424401.931 7  84486596.73147  20632462.728    20632462.3984   20632464.4584
        46.200          44.3004
 109778247.524 8  85541495.29446  20890103.935    20890102.7284   20890102.1924
        50.200          37.0004
 111408087.827 7  86811551.88747  21200229.015    21200228.4974   21200228.4014
        44.400          42.2004
 108977101.790 8  84917246.50746  20737648.640    20737648.3864   20737648.8844
        48.800          38.2004
 116003955.724 7  90392683.17941  22074816.750    22074815.5124   22074834.6474
        42.600           9.0004
 129778843.641 8                  24696070.078
        48.600


 125120588.414 5  97496608.47443  23809657.140    23809656.5144   23809659.9614
        30.100          20.9004
 125299145.158 7                  23843616.589
        46.600


 107465473.697 7                  20124811.742    20124811.011
        46.600
 125558413.308 7                  23892969.577
        45.400
 107792029.187 8  83838299.371 7  20193065.902    20193065.679    20193068.650
        52.900          46.300
 108563759.230 8                  20294802.814    20294803.280
        48.900
 198907075.285 6                  37850751.772
        41.000
 202058225.851 7                  38450408.328
        44.600
 121295041.299 7  94340592.495 6  22658930.927    22658929.568    22658934.240
        45.500          38.600
 122497429.029 6  95452560.18243  23310483.206    23310482.9784   23310495.7904
        40.400          19.7004
 107707521.161 8  83772544.865 7  20163055.881    20163056.700    20163063.174
        48.600          44.000
 140037318.950 5                  26648200.672
        32.700
 146486226.626 5                  27875397.409
        32.000
 124954292.474 8                  23777994.073
        48.600


 25  1  1  2  2  0.0000000  0 26G06G19G12G11G20E27G24G25G05E34S35R13
                                E15R22R23S31S33R07G17R12E02E13R14E30
                                R24R21
 108446517.724 7  84503829.81147  20636671.437    20636671.0844   20636673.8604
        45.800          46.1004
 109799955.480 8  85558410.61846  20894234.874    20894233.6814   20894233.6674
        51.000          37.7004
 111380473.927 7  86790034.56346  21194973.499    21194973.0124   21194973.4044
        44.100          41.0004
 108962560.911 7  84905915.96046  20734880.820    20734880.5614   20734881.2544
        47.700          36.4004
 115957806.940 7  90356722.89042  22066035.063    22066033.9864   22066054.4564
        45.500          16.6004
 129753936.615 8                  24691330.181
        49.800


 125070184.630 5  97457332.91443  23800066.074    23800065.3994   23800069.0694
        32.700          22.1004
 132517091.915 4                  25217160.247
        28.200
 125319573.964 7                  23847504.655
        47.800


 107451996.076 7                  20122287.398    20122286.762
        47.600
 125541895.199 7                  23889825.711
        45.300
 107817250.311 8  83857915.799 7  20197791.375    20197791.424    20197793.608
        53.500          46.700
 108548697.716 8                  20291986.586    20291986.989
        48.900
 198907077.560 7                  37850752.832
        42.100
 202058217.348 7                  38450400.306
        42.100
 121251790.709 7  94306953.207 6  22650848.124    22650848.626    22650854.975
        44.600          40.000
 122530121.906 5  95478035.16043  23316704.461    23316704.1354   23316716.4074
        33.300          19.1004
 107748675.763 8  83804554.006 7  20170760.166    20170760.518    20170767.360
        48.200          44.600
 140080593.121 5                  26656437.795
        34.100


 128569762.644 6                  24119358.884    24119359.413
        36.800
 124970428.519 8                  23781064.835
        49.500


 128000623.331 5                  23919980.603    23919979.880
        33.300
 25  1  1  2  2 15.0000000  0 25G06G19G12G11G20E27G24G25G05E34S35R13
                                E15R22R23S31S33R07G17R12E02E13R14E30
                                R24
 108468716.024 7  84521127.20647  20640896.021    20640895.6824   20640898.9804
        45.900          46.4004
 109821729.920 8  85575377.72346  20898377.973    20898376.7714   20898377.4444
        50.900          37.5004
 111352984.817 7  86768614.49846  21189741.994    21189741.5344   21189742.0794
        44.200          40.1004
 108948122.768 8  84894665.46746  20732133.446    20732133.1874   20732133.4294
        48.600          36.3004
 115911732.857 7  90320820.99042  22057267.446    22057266.3734   22057284.3524
        42.500          16.8004
 129729101.252 8                  24686603.902
        48.600


 125019838.876 4  97418102.51443  23790487.085    23790486.2184   23790488.6534
        29.500          19.9004
 132458497.496 4                  25206012.588
        28.900
 125340052.693 7                  23851401.316
        47.300
 200849734.646 4                  38220447.120
        27.300
 107438720.277 7                  20119801.103    20119800.544
        47.200
 125525446.227 7                  23886696.332
        45.700
 107842526.051 8  83877574.656 7  20202525.612    20202526.004    20202528.945
        52.900          47.300
 108533717.988 8                  20289186.474    20289187.208
        49.700
 198907081.334 6                  37850755.488
        41.100
 202058208.195 7                  38450407.107
        44.900
 121208643.151 6  94273394.136 6  22642786.347    22642785.218    22642795.537
        41.400          40.400
 122562845.181 5  95503533.95342  23322933.531    23322933.1834   23322942.4934
        35.600          15.8004
 107789988.176 8  83836685.831 7  20178494.917    20178495.339    20178501.089
        48.600          43.000
 140123900.974 6                  26664676.062
        37.600


 128509750.466 5                  24108103.904    24108103.342
        35.600
 124986656.441 8                  23784152.935
        51.200
 130142360.392 4                  24337260.164    24337257.632
        29.800
 25  1  1  2  2 30.0000000  0 26G06G19G12G11G20E27G24G25G05E34S35R13
                                E15R22E36R23S31S33R07G17R12E02E13R14
                                E30R24
 108490996.863 7  84538488.89547  20645135.066    20645134.7274   20645139.0844
        43.800          46.0004
 109843571.061 8  85592396.78746  20902534.432    20902533.2254   20902533.7054
        50.400          37.5004
 111325621.082 6  86747292.12246  21184535.004    21184534.5574   21184534.6744
        41.100          39.6004
 108933787.626 8  84883495.24446  20729405.476    20729405.2264   20729405.6274
        49.400          36.9004
 115865734.149 7  90284977.87843  22048514.783    22048513.6884   22048527.6724
        44.600          18.7004
 129704337.998 7                  24681891.845
        47.900


 124969551.518 5  97378917.70543  23780921.962    23780921.0684   23780919.9844
        32.700          23.0004
 132399890.023 5                  25194857.840
        31.000
 125360581.493 7                  23855307.751
        47.500


 107425646.749 7                  20117352.485    20117352.313
        46.200
 125509066.672 7                  23883579.869
        46.700
 107867856.626 8  83897276.230 7  20207270.842    20207270.861    20207274.553
        52.100          47.600


 108518819.816 8                  20286403.007    20286403.395
        49.700
 198907084.821 6                  37850754.898
        39.800
 202058201.819 7                  38450404.433
        44.500
 121165599.072 6  94239915.430 6  22634746.135    22634744.592    22634755.055
        41.400          40.300
 122595599.135 6  95529056.55543  23329164.853    23329164.5584   23329173.1184
        36.600          18.1004
 107831458.119 8  83868940.235 7  20186258.487    20186259.149    20186265.503
        49.100          44.500
 140167242.417 5                  26672923.067
        35.500


 128449800.717 6                  24096855.249    24096858.284
        37.600
 125002976.557 8                  23787258.461
        51.000


 25  1  1  2  2 45.0000000  0 25G06G19G12G11G20E27G24G25E34S35R13E15
                                R22E36R23S31S33R07G17R12E02E13R14E30
                                R24
 108513358.457 7  84555913.51947  20649391.428    20649391.0714   20649393.7574
        42.500          44.2004
 109865477.125 8  85609466.44146  20906703.569    20906702.3674   20906701.4144
        48.300          36.6004
 111298381.508 7  86726066.49646  21179352.034    21179351.5474   21179352.2514
        42.700          39.9004
 108919553.905 8  84872404.04346  20726696.867    20726696.6264   20726697.2194
        50.100          38.0004
 115819809.712 6  90249192.63143  22039774.695    22039773.6184   22039781.7144
        41.000          19.4004
 129679645.514 7                  24677192.432
        47.200
 129378019.920 5 100814079.46943  24619819.462    24619819.5334   24619826.6224
        34.000          23.6004
 124919321.750 5  97339777.68744  23771362.533    23771361.6034   23771362.5404
        32.800          26.5004
 125381158.646 8                  23859223.181
        48.000


 107412774.086 7                  20114942.253    20114941.608
        47.200
 125492754.909 7                  23880475.526
        46.700
 107893240.125 8  83917018.977 7  20212024.936    20212025.086    20212029.359
        51.000          47.000


 108504001.626 7                  20283629.232    20283630.054
        46.700
 198907088.210 6                  37850755.425
        41.700
 202058192.329 7                  38450402.287
        45.700
 121122657.845 7  94206516.679 6  22626728.152    22626726.181    22626733.313
        42.700          40.300
 122628382.432 6  95554602.01342  23335403.251    23335402.9214   23335409.4044
        38.800          12.8004
 107873083.570 8  83901315.605 7  20194050.957    20194051.094    20194058.660
        48.500          42.800
 140210615.723 5                  26681181.736
        35.400


 128389912.663 5                  24085623.467    24085621.853
        34.500
 125019387.253 8                  23790381.157
        50.800
 130055206.290 6                  24320956.480    24320957.901
        36.500
 25  1  1  2  3  0.0000000  0 24G06G19G12G11G20E27G24G25E34S35R13E15
                                R22E36R23S31S33R07G17R12E02E13E30R24
 108535798.477 6  84573399.23246  20653661.528    20653661.0954   20653663.4104
        40.100          41.7004
 109887446.125 8  85626585.15746  20910883.866    20910882.6504   20910881.8934
        49.600          36.8004
 111271264.062 7  86704936.02447  21174192.558    21174192.0534   21174193.2014
        44.600          43.4004
 108905419.443 8  84861390.20146  20724007.024    20724006.7794   20724007.3414
        50.100          37.3004
 115773957.605 6  90213463.73343  22031050.863    22031049.8224   22031051.5424
        40.700          20.5004
 129655021.905 7                  24672506.818
        46.400
 129417825.933 5 100845097.16843  24627393.264    24627393.5324   24627395.6034
        32.700          18.3004
 124869147.421 6  97300680.85844  23761813.366    23761812.4234   23761815.3574
        36.600          26.0004
 125401781.902 7                  23863147.641
        47.400


 107400100.070 7                  20112568.368    20112567.583
        44.900
 125476508.815 7                  23877383.896
        46.100
 107918674.311 8  83936801.074 7  20216790.800    20216790.713    20216794.789
        51.700          47.800


 108489261.069 7                  20280873.054    20280872.794
        44.200
 198907088.139 7                  37850761.015
        43.000
 202058180.956 7                  38450400.386
        44.000
 121079817.675 7  94173196.691 6  22618722.377    22618722.339    22618726.913
        43.100          36.300
 122661192.783 6  95580168.54742  23341645.270    23341644.8864   23341651.7624
        36.000          16.9004
 107914862.103 8  83933810.013 6  20201872.657    20201872.155    20201875.830
        48.800          39.600
 140254018.640 4                  26689439.791
        29.300


 125035886.422 8                  23793520.502
        49.100
                                                  24312811.159

 25  1  1  2  3 15.0000000  0 24G06G19G12G11G20E27G24G25E34S35R13E15
                                R22E36R23S31R21S33R07R12E02E13E30R24
 108558321.765 6  84590949.79846  20657951.215    20657950.7014   20657949.4244
        36.500          38.6004
 109909483.122 8  85643756.85146  20915076.850    20915075.6344   20915076.0744
        50.300          37.6004
 111244274.216 8  86683905.00847  21169057.157    21169056.6614   21169057.5214
        48.400          45.6004
 108891389.226 8  84850457.59546  20721337.606    20721337.3434   20721337.6444
        49.100          37.5004
 115728183.457 7  90177795.60244  22022339.773    22022338.7364   22022339.1674
        42.800          24.8004
 129630472.339 7                  24667835.178
        46.100
 129457666.063 5 100876141.44442  24634973.388    24634973.6244   24634976.3944
        32.700          16.1004
 124819034.196 5  97261631.62143  23752272.666    23752271.7274   23752279.3274
        30.100          22.1004
 125422456.098 7                  23867081.577
        47.500


 107387630.341 7                  20110234.287    20110233.249
        47.300
 125460333.411 7                  23874305.704
        46.400
 107944163.984 8  83956626.374 7  20221565.835    20221565.959    20221569.650
        51.400          47.100


 108474603.473 7                  20278135.211    20278132.825
        42.400
 198907090.281 7                  37850755.380
        42.200
 128232692.044 5                  23963331.702    23963331.276
        35.600
 202058171.406 7                  38450395.400
        43.900
 121037084.337 6  94139959.648 5  22610739.914    22610739.813    22610743.050
        41.300          33.400
 107956798.331 8  83966427.016 6  20209722.258    20209722.522    20209727.078
        50.300          38.100




 125052479.035 8                  23796678.251
        48.400
 129968174.390 6                  24304683.560    24304686.539
        36.300
 25  1  1  2  3 30.0000000  0 23G06G19G12G11G20E27G24G25E34S35R13E15
                                R22E36R23S31R21S33R12E02E13E30R24
 108580925.890 6  84608563.41946  20662248.161    20662247.5584   20662250.9644
        36.600          37.3004
 109931586.068 8  85660979.92246  20919282.961    20919281.7364   20919282.1054
        49.900          37.5004
 111217410.157 7  86662971.98647  21163943.919    21163943.4374   21163945.2804
        47.400          45.3004
 108877461.122 8  84839604.54746  20718687.452    20718687.1754   20718687.9314
        48.200          36.8004
 115682485.157 7  90142186.56044  22013643.185    22013642.1124   22013641.5214
        45.800          27.1004
 129605994.953 7                  24663176.942
        45.900


 124768980.271 5  97222628.60842  23742745.611    23742744.6904   23742754.1814
        30.000          17.3004
 125443179.026 7                  23871025.026
        46.700


 107375362.804 7                  20107935.990    20107935.175
        47.200
 125444226.509 7                  23871240.573
        46.300
 107969706.930 8  83976493.076 8  20226350.568    20226351.301    20226355.060
        50.900          48.000


 108460026.368 7                  20275408.249    20275407.232
        43.600
 198907092.562 7                  37850766.765
        43.100
 128279023.463 5                  23971987.160    23971985.637
        30.600
 202058162.520 7                  38450393.732
        44.500
 107998889.682 8  83999164.697 7  20217602.729    20217603.685    20217610.974
        49.900          42.500




 125069162.982 8                  23799853.104
        48.100


 25  1  1  2  3 45.0000000  0 26G06G19G12G11G20E27G24G25E34S35R13E15
                                R22E36R23S31R21S33R07G17R12E02E13R14
                                E30R24
 108603610.407 5  84626239.61045  20666565.901    20666565.3434   20666567.4754
        30.700          35.1004
 109953754.524 7  85678254.02846  20923501.322    20923500.0884   20923501.2194
        47.500          36.9004
 111190671.592 8  86642136.77547  21158857.290    21158856.8434   21158857.2624
        48.800          47.2004
 108863634.577 8  84828830.61946  20716056.653    20716056.3904   20716057.2084
        49.400          37.3004
 115636862.555 7  90106636.48744  22004961.799    22004960.7494   22004960.1704
        46.500          28.4004
 129581589.394 7                  24658532.581
        46.500


 124718985.195 5  97183671.44843  23733231.674    23733230.6954   23733240.3924
        33.900          22.6004
 125463949.933 7                  23874978.142
        45.600


 107363297.083 7                  20105676.569    20105675.650
        46.400
 125428187.576 7                  23868188.747
        46.700
 107995302.306 8  83996400.578 8  20231145.575    20231145.923    20231149.091
        51.000          48.000


 108445529.138 7                  20272701.800    20272698.484
        44.400
 198907094.459 6                  37850758.533
        39.700
 128325334.927 4                  23980642.274    23980642.975
        29.700
 202058152.926 7                  38450397.220
        45.300
 120951932.829 6  94073717.746 5  22594834.433    22594830.965    22594836.277
        37.100          34.000
 122759914.974 6                  23360427.662
        36.100
 108041135.199 8  84032022.288 7  20225511.435    20225512.765    20225519.982
        51.300          43.200




 128150953.132 5                  24040796.468    24040797.472
        33.400
 125085937.723 8                  23803045.221
        48.000


 25  1  1  2  4  0.0000000  0 25G06G19G12G11G20E27G24G25E34S35R13E15
                                R22E36R23S31R21S33R07R12E02E13R14E30
                                R24
 108626376.770 5  84643979.60645  20670896.939    20670896.3584   20670899.9014
        35.200          35.2004
 109975990.961 7  85695581.10246  20927732.917    20927731.6794   20927732.5914
        47.000          36.5004
 111164061.451 8  86621401.66247  21153793.833    21153793.4004   21153793.1094
        51.300          47.7004
 108849912.123 8  84818137.80746  20713444.773    20713444.5234   20713446.1744
        50.700          38.7004
 115591318.521 7  90071147.66744  21996293.874    21996292.8644   21996294.2284
        44.400          27.1004
 129557258.375 7                  24653902.267
        46.400
 129577394.581 5 100969411.84642  24657757.427    24657757.7134   24657761.6454
        32.400          15.7004
 124669052.076 6  97144762.57944  23723730.935    23723729.9964   23723737.9714
        37.600          25.8004
 125484771.292 7                  23878939.571
        47.000


 107351435.925 7                  20103454.767    20103453.929
        45.800
 125412219.147 7                  23865149.667
        47.400
 108020952.552 8  84016350.773 7  20235950.730    20235950.878    20235954.918
        50.900          47.700


 108431114.215 7                  20270007.351    20270006.559
        46.600
 198907098.435 6                  37850760.125
        41.700
 128371629.024 5                  23989304.306    23989299.715
        31.000
 202058145.192 7                  38450392.659
        45.500
 120909517.958 6  94040743.445 5  22586915.481    22586921.979    22586914.717
        40.200          34.000
 108083537.006 7  84065001.532 6  20233448.203    20233447.498    20233457.130
        45.100          40.300




 128091409.017 6                  24029624.153    24029625.646
        38.800
 125102805.775 7                  23806254.585
        45.700


 25  1  1  2  4 15.0000000  0 24G06G19G12G11G20E27G24G25E34S35R13E15
                                R22E36R23S31S33R07R12E02E13R14E30R24
 108649218.617 6  84661778.36545  20675245.249    20675244.6914   20675245.9424
        36.700          34.7004
 109998288.235 8  85712955.58546  20931976.041    20931974.7814   20931975.2124
        48.600          37.8004
 111137572.855 8  86600761.20247  21148752.407    21148751.9784   21148751.4274
        51.200          46.8004
 108836286.553 8  84807520.48346  20710851.629    20710851.3844   20710852.8564
        49.300          38.2004
 115545846.358 6  90035714.86344  21987642.348    21987641.3514   21987641.7594
        41.900          25.5004
 129532995.046 7                  24649284.679
        44.800
 129617354.733 4 101000549.58343  24665356.873    24665357.0924   24665366.1184
        28.400          18.7004
 124619174.113 5  97105896.73244  23714239.838    23714238.8914   23714246.1654
        33.200          25.8004
 125505635.769 7                  23882909.909
        44.800


 107339772.354 7                  20101271.271    20101270.266
        44.600
 125396313.990 7                  23862122.417
        47.800
 108046650.281 8  84036337.872 8  20240764.377    20240764.486    20240768.848
        49.800          48.400


 108416774.449 7                  20267324.855    20267324.336
        47.600
 198907096.865 6                  37850764.534
        40.800
 202058131.899 7                  38450392.565
        44.600
 120867204.520 6  94007833.087 6  22579001.323    22579001.980    22579013.825
        37.400          37.800
 108126087.597 8  84098096.446 6  20241414.566    20241413.890    20241422.860
        49.000          41.000




 128031901.203 6                  24018458.809    24018458.444
        38.400
 125119760.019 7                  23809481.667
        47.800


 25  1  1  2  4 30.0000000  0 24G06G19G12G11G20E27G24G25E34S35R13E15
                                R22E36R23S31S33R07R12E02E13R14E30R24
 108672143.347 4  84679641.79745  20679604.826    20679604.3214   20679608.2164
        28.000          34.1004
 110020654.612 7  85730383.93646  20936231.824    20936230.5644   20936230.8744
        46.500          37.0004
 111111214.176 8  86580222.01047  21143735.885    21143735.4704   21143734.5934
        48.500          45.4004
 108822766.072 8  84796985.04046  20708278.812    20708278.5534   20708278.5794
        49.500          37.9004
 115500454.360 6  90000344.49444  21979003.960    21979002.9504   21979003.8284
        41.200          24.2004
 129508807.707 7                  24644682.730
        46.900
 129657347.898 5 101031712.83443  24672982.141    24672982.0924   24672976.5604
        33.400          18.2004
 124569359.852 6  97067080.48545  23704763.164    23704762.2614   23704766.9204
        41.000          30.4004
 125526551.377 7                  23886889.777
        45.100


 107328314.673 7                  20099125.735    20099124.294
        44.100
 125380480.357 8                  23859110.406
        48.000
 108072403.496 8  84056368.171 8  20245590.024    20245590.346    20245593.894
        52.700          48.000


 108402517.728 8                  20264661.138    20264661.919
        48.200
 198907098.957 7                  37850757.004
        43.000
 202058122.334 7                  38450388.648
        44.700
 120825001.661 5  93975008.670 6  22571126.368    22571120.209    22571126.205
        33.700          36.700
 108168794.632 8  84131312.997 6  20249409.406    20249411.137    20249416.927
        49.600          40.500




 127972462.632 6                  24007311.959    24007314.061
        38.100
 125136808.626 7                  23812725.191
        47.100
                 100917517.184 5                  24264091.392    24264099.721
                        33.200
 25  1  1  2  4 45.0000000  0 26G06G19G12G11G20E27G24G25E34S35R13E15
                                R22E36R23S31S33R07G17R12E02E13R08R14
                                E30R24
 108695149.504 6  84697568.70545  20683985.477    20683984.9994   20683986.0774
        39.600          35.7004
 110043088.738 7  85747865.06946  20940501.870    20940500.6234   20940499.5924
        47.200          36.1004
 111084984.362 7  86559783.20647  21138745.108    21138744.6574   21138744.0114
        46.900          44.5004
 108809349.208 8  84786530.34546  20705725.884    20705725.6254   20705726.0834
        50.000          39.7004
 115455141.696 7  89965035.97243  21970381.540    21970380.5034   21970380.0264
        42.500          22.6004
 129484695.189 7                  24640094.096
        46.300
 129697372.438 5 101062900.68243  24680594.081    24680593.8534   24680591.7964
        30.700          18.2004
 124519608.240 6  97028313.09645  23695294.816    23695293.9454   23695298.7334
        39.200          31.4004
 125547516.639 7                  23890879.132
        43.400
 200850045.482 6                  38220492.525
        39.700
 107317062.014 7                  20097017.717    20097016.291
        45.000
 125364716.752 8                  23856110.965
        48.300
 108098210.753 9  84076440.441 8  20250424.893    20250425.462    20250429.230
        54.100          49.200


 108388342.843 8                  20262009.554    20262011.383
        48.100
 198907102.548 7                  37850755.139
        42.600
 202058114.307 7                  38450387.338
        44.700
                  93942269.527 6                  22563283.297    22563265.302
                        37.900


 108211656.333 8  84164649.928 6  20257432.255    20257434.145    20257439.868
        48.100          40.100




 130422876.352 4                  24355553.994
        28.000
 127913091.644 5                  23996173.720    23996172.414
        35.800
 125153950.162 7                  23815987.434
        47.000
 129707817.096 6 100883833.952 5  24255997.622    24255994.741    24256002.815
        38.800          32.000
 25  1  1  2  5  0.0000000  0 25G06G19G12G11G20E27G24G25E34S35R13E15
                                R22E36R23S31S33R07G17R12E02E13R14E30
                                R24
 108718229.207 7  84715552.85446  20688377.123    20688376.6364   20688377.2694
        42.300          36.5004
 110065582.945 7  85765393.02546  20944782.141    20944780.8894   20944780.0394
        46.200          36.9004
 111058875.985 7  86539439.05047  21133777.019    21133776.5414   21133776.3884
        47.800          44.5004
 108796028.211 8  84776150.35446  20703190.713    20703190.4634   20703191.4384
        49.000          40.3004
 115409900.865 6  89929783.41042  21961773.175    21961772.2144   21961769.8194
        37.300          16.0004
 129460649.971 7                  24635518.133
        47.100


 124469911.876 6  96989588.75145  23685837.427    23685836.6274   23685841.7344
        40.300          30.9004
 125568523.564 7                  23894878.422
        46.000


 107306006.312 7                  20094947.528    20094947.334
        45.900
 125349015.469 8                  23853122.693
        49.100
 108124063.808 8  84096548.421 8  20255266.799    20255266.798    20255271.934
        50.800          48.800


 108374241.950 7                  20259373.992    20259374.507
        47.600
 198907099.864 6                  37850761.703
        40.800
 202058100.427 7                  38450383.228
        45.800
                  93909609.812 5                  22555412.199    22555420.122
                        35.200
 122924825.635 5  95785579.20143  23391806.893    23391807.0764   23391808.2094
        35.500          23.4004
 108254664.465 7  84198100.676 6  20265484.335    20265483.436    20265493.180
        47.000          40.600




 127853781.675 5                  23985048.349    23985047.080
        34.500
 125171176.875 7                  23819265.748
        47.500
 129664535.619 6 100850170.738 5  24247899.975    24247899.208    24247909.822
        38.400          34.500
 25  1  1  2  5 15.0000000  0 25G06G19G12G11G20E27G24G25E34S35R13E15
                                R22E36R23S31S33R07G17R12E02E13R14E30
                                R24
 108741393.801 7  84733603.28246  20692783.808    20692783.3354   20692784.3484
        42.800          36.7004
 110088148.917 7  85782976.92646  20949076.252    20949075.0004   20949074.4694
        46.800          37.1004
 111032901.300 8  86519199.04647  21128834.231    21128833.7664   21128833.8854
        49.600          45.9004
 108782814.860 8  84765854.24346  20700676.480    20700676.2394   20700677.6034
        50.500          41.3004
 115364743.840 6  89894596.16942  21953183.338    21953182.3194   21953175.4234
        40.400          15.0004
 129436684.018 8                  24630957.864
        48.100
 129777575.186 5                  24695839.771
        33.600
 124420282.872 6  96950916.88544  23676394.360    23676393.6184   23676396.4604
        38.500          28.2004
 125589583.951 7                  23898884.843
        43.900


 107295159.997 7                  20092917.194    20092916.649
        46.000
 125333388.235 8                  23850149.063
        48.100
 108149974.594 8  84116701.261 7  20260121.972    20260121.751    20260125.957
        52.000          47.800


 108360226.737 7                  20256752.427    20256753.725
        47.600
 198907103.237 7                  37850762.191
        42.900
 202058092.044 7                  38450386.940
        44.600
 120699142.596 6  93877039.766 5  22547588.930    22547586.341    22547597.824
        36.000          35.400
 122957910.883 5  95811359.88943  23398103.650    23398103.7434   23398103.1264
        34.000          21.6004
 108297830.675 7  84231674.365 6  20273565.985    20273565.805    20273573.151
        47.600          39.300
 140646044.933 5                  26764051.016
        30.400


 127794680.269 5  99395803.043 5  23973954.893                    23973940.240
        32.500          32.300
 125188500.548 7                  23822562.098
        47.000
 129621292.176 6                  24239815.917    24239817.860
        40.300
 25  1  1  2  5 30.0000000  0 23G06G19G12G11E27G24G25E34S35R13E15R22
                                E36R23S31S33R07G17R12E02E13R14E30
 108764636.752 7  84751714.72246  20697207.404    20697206.9714   20697208.0214
        42.200          37.1004
 110110780.349 7  85800611.83146  20953383.265    20953382.0364   20953380.9734
        45.600          36.8004
 111007054.054 8  86499058.34447  21123915.362    21123914.9204   21123914.7874
        49.200          45.9004
 108769702.558 8  84755636.86746  20698181.136    20698180.9044   20698182.5594
        48.900          40.9004
 129412791.029 8                  24626412.182
        48.300
 129817685.275 5 101156602.8774   24703459.473    24703459.0894   24703475.6334
        31.500           5.1004
 124370715.187 5  96912292.79344  23666963.033    23666962.3184   23666961.5824
        35.300          26.7004
 125610691.016 7                  23902901.899
        45.600


 107284516.434 7                  20090924.466    20090923.222
        45.700
 125317828.506 8                  23847188.882
        48.000
 108175936.265 8  84136893.644 7  20264984.692    20264985.128    20264988.305
        51.400          47.200


 108346290.306 7                  20254150.296    20254151.138
        46.100
 198907106.035 6                  37850748.552
        40.400
 202058083.577 7                  38450382.021
        46.500
 120657375.441 7  93844554.242 5  22539788.189    22539787.089    22539793.228
        45.400          33.800
 122991025.688 5  95837163.53142  23404410.561    23404410.2084   23404403.1784
        30.100          17.1004
 108341147.717 7  84265365.296 5  20281675.689    20281675.638    20281680.069
        47.800          35.900


 145919341.393 6                  27767508.696
        36.400
 127735509.660 6  99349782.152 5  23962843.467    23962844.794    23962841.530
        37.300          31.500
 125205914.637 7                  23825875.795
        46.900
 25  1  1  2  5 45.0000000  0 25G06G19G12G11G20E27G24G25E34S35R13E15
                                R22R23S31S33R07G17R12E02E13R08R14E30
                                R24
 108787956.778 7  84769886.16746  20701645.373    20701644.9674   20701646.5674
        42.100          37.4004
 110133476.089 7  85818296.82545  20957701.945    20957700.6804   20957700.0994
        44.700          35.8004
 110981333.079 8  86479016.05947  21119020.759    21119020.3394   21119020.3104
        49.800          45.9004
 108756690.295 8  84745497.46846  20695705.314    20695705.0824   20695705.8704
        49.300          39.9004
 115274616.880 6  89824354.20541  21936035.788    21936035.6504   21936024.6764
        39.200          11.5004
 129388970.195 8                  24621879.475
        48.200
 129857821.414 5 101187877.83141  24711104.621    24711104.3174   24711115.8794
        34.900           6.3004
 124321208.029 5  96873715.88843  23657541.413    23657540.7524   23657540.4774
        33.500          21.6004
 125631843.646 7                  23906927.948
        45.300
 200850314.064 5                  38220539.450
        35.300
 107274074.646 7                  20088967.719    20088967.393
        46.400
 125302335.282 7                  23844240.021
        47.500
 108201947.597 8  84157124.717 7  20269856.982    20269857.148    20269860.992
        50.700          46.600
 108332431.968 7                  20251556.083    20251556.984
        44.500
 198907106.998 7                  37850762.879
        42.800
 202058073.035 7                  38450382.272
        45.800
 120615716.313 7  93812152.818 5  22532003.261    22532005.679    22532012.269
        45.300          34.900
 123024169.332 4  95862989.51542  23410725.878    23410725.5484   23410709.7664
        26.600          17.0004
 108384614.195 7  84299172.488 5  20289812.352    20289812.842    20289815.730
        47.700          34.000


 145881788.322 5                  27760354.475
        34.000
 130190553.279 4                  24312163.031
        26.500
 127676406.714 6  99303813.306 4  23951744.431    23951750.332    23951756.534
        36.200          29.500
 125223418.114 7                  23829206.376
        46.800


 25  1  1  2  6  0.0000000  0 24G06G19G12G11G20E27G24G25E34S35R13E15
                                R22R23S31S33R07G17R12E02E13R14E30R24
 108811355.862 7  84788119.19446  20706097.646    20706097.2224   20706099.6594
        43.400          37.5004
 110156238.505 7  85836033.75945  20962033.582    20962032.2864   20962032.1584
        43.900          35.3004
 110955741.137 8  86459074.30847  21114150.892    21114150.4814   21114150.5484
        50.000          46.1004
 108743780.239 8  84735437.68846  20693248.301    20693248.0734   20693248.5534
        49.600          39.9004
 115229694.464 7  89789349.79242  21927488.103    21927487.4514   21927481.9184
        42.400          17.0004
 129365223.940 8                  24617360.483
        49.000
 129897985.890 6 101219181.11641  24718746.928    24718746.6384   24718758.7364
        37.200           9.9004
 124271764.172 4  96835188.28643  23648127.484    23648126.7334   23648132.6934
        29.600          19.6004
 125653043.907 7                  23910962.261
        47.700
 200850350.830 6                  38220546.578
        37.100
 107263837.325 7                  20087051.009    20087049.984
        45.800
 125286910.705 7                  23841305.095
        46.300
 108228010.658 8  84177395.959 7  20274738.722    20274739.141    20274743.418
        49.100          46.900
 108318653.688 7                  20248980.928    20248982.121
        46.700
 198907108.729 7                  37850758.130
        42.300
 202058063.002 7                  38450374.549
        44.000
 120574168.534 7  93779837.972 5  22524241.791    22524242.330    22524251.044
        44.100          35.300


 108428231.833 7  84333097.221 5  20297975.895    20297976.750    20297982.921
        46.300          34.200


 145844267.278 4                  27753213.832
        28.900
 127617372.756 6                  23940670.775    23940672.705
        38.200
 125241013.173 7                  23832554.345
        46.200


 25  1  1  2  6 15.0000000  0 24G06G19G12G11G20E27G24G25E34S35R13E15
                                R22E36R23S31S33R07G17R12E02E13E30R24
 108834834.224 7  84806413.98746  20710565.359    20710564.9534   20710566.8914
        43.300          38.1004
 110179067.962 7  85853822.93945  20966378.056    20966376.7464   20966376.4564
        42.200          33.8004
 110930278.998 7  86439233.71847  21109305.517    21109305.1064   21109304.5844
        46.800          43.5004
 108730972.827 8  84725457.90146  20690811.539    20690811.3074   20690811.1074
        49.700          40.2004
 115184852.534 6  89754408.11443  21918955.526    21918954.8564   21918951.7124
        41.500          20.5004
 129341552.926 8                  24612855.832
        48.300
 129938178.720 5 101250500.0114   24726393.574    24726393.1814   24726408.7164
        34.900           5.4004
 124222384.180 5  96796710.43643  23638734.340    23638733.5044   23638736.7464
        34.600          23.1004
 125674292.099 8                  23915005.191
        48.100
 200850388.425 6                  38220554.542
        38.100
 107253804.959 7                  20085171.568    20085171.455
        46.400
 125271555.220 7                  23838382.834
        46.800
 108254125.706 8  84197707.680 7  20279630.944    20279631.440    20279635.373
        49.800          47.000


 108304955.661 7                  20246420.415    20246421.263
        46.600
 198907110.957 7                  37850758.600
        42.400
 202058054.295 7                  38450373.565
        45.600
 120532732.622 7  93747610.129 6  22516501.638    22516500.127    22516509.785
        42.400          36.400


 108472000.972 7  84367139.837 6  20306170.179    20306170.355    20306182.052
        44.000          37.300
 140821103.171 6                  26797365.957
        36.500
 145806778.726 5                  27746080.101
        31.700
 125258700.290 7                  23835920.268
        46.500
 129448512.611 6 100682229.747 5  24207534.086    24207537.444    24207537.863
        37.100          34.200
 25  1  1  2  6 30.0000000  0 25G06G19G12G11G20E27G24G25E34S35R13E15
                                R22E36R23S31S33R07G17R12E02E13R14E30
                                R24
 108858391.817 7  84824770.56046  20715048.352    20715047.9464   20715048.9464
        44.900          38.5004
 110201964.673 7  85871664.51645  20970734.791    20970733.4724   20970733.1494
        43.400          33.3004
 110904947.121 7  86419494.61847  21104485.542    21104485.1404   21104483.2184
        46.600          44.0004
 108718268.210 8  84715558.21346  20688393.868    20688393.6364   20688393.6144
        50.300          41.1004
 115140091.388 6  89719529.35243  21910438.666    21910437.9424   21910436.3484
        41.500          23.8004
 129317957.504 8                  24608365.950
        48.300
 129978399.608 5                  24734047.688
        34.800
 124173068.747 6  96758282.91744  23629349.351    23629348.4884   23629353.9944
        36.100          25.1004
 125695588.265 8                  23919057.896
        49.500
 200850427.358 5                  38220576.166
        32.400
 107243977.841 7                  20083332.533    20083331.315
        47.000
 125256268.997 8                  23835473.663
        48.000
 108280292.807 8  84218059.851 7  20284533.410    20284534.364    20284537.448
        50.100          46.400


 108291338.092 7                  20243876.459    20243876.427
        47.400
 198907115.073 7                  37850759.986
        43.100
 202058046.565 7                  38450365.136
        44.700
 120491409.946 7  93715470.288 5  22508783.493    22508783.805    22508790.244
        42.600          35.300


 108515920.925 6  84401299.897 5  20314392.154    20314389.474    20314400.219
        40.700          34.000
 140864950.207 5                  26805708.837
        35.600
 145769322.932 5                  27738953.641
        33.500
 127499516.123 4                  23918577.942    23918578.991
        28.900
 125276479.562 7                  23839304.032
        47.100
 129405428.599 5 100648720.126 5  24199486.687    24199482.246    24199481.479
        30.400          35.200
 25  1  1  2  6 45.0000000  0 25G06G19G12G11G20E27G24G25E34S35R13E15
                                R22E36R23S31R21S33R07G17R12E02E13E30
                                R24
 108882024.077 7  84843185.31546  20719544.288    20719543.8994   20719545.9544
        44.000          39.2004
 110224924.252 7  85889555.08345  20975103.507    20975102.1754   20975101.2004
        44.600          33.0004
 110879741.421 8  86399853.85247  21099688.130    21099687.7284   21099687.0134
        49.200          44.5004
 108705661.985 8  84705735.18946  20685994.806    20685994.5744   20685995.2904
        51.400          41.8004
 115095407.099 7  89684710.46944  21901934.995    21901934.2044   21901935.2164
        45.000          25.2004
 129294433.552 7                  24603888.758
        47.300
 130018643.952 4 101313199.7634   24741704.341    24741704.3454   24741720.0844
        29.500           5.7004
 124123813.813 6  96719902.54044  23619977.319    23619976.4704   23619981.6794
        39.900          27.3004
 125716927.917 8                  23923118.835
        49.400
 200850463.051 5                  38220590.628
        30.500
 107234351.821 7                  20081529.677    20081528.254
        46.700
 125241047.633 7                  23832576.973
        47.100
 108306507.305 8  84238448.893 7  20289444.578    20289445.538    20289448.259
        50.800          46.700


 108277796.487 8                  20241344.739    20241345.878
        49.100
 198907116.086 7                  37850761.587
        42.700
 128879460.380 4                  24084205.213    24084205.132
        27.800
 202058035.985 7                  38450370.069
        44.500
 120450195.939 6  93683415.067 5  22501082.672    22501081.686    22501089.537
        41.800          33.700
 123156960.756 6                  23435992.401
        36.200
 108559987.158 7  84435573.628 5  20322641.511    20322641.496    20322647.170
        45.600          34.800
 140908824.449 5                  26814057.124
        33.400
 145731895.762 5                  27731830.596
        31.100
 125294346.665 8                  23842704.264
        48.400
                 100615232.884 5                  24191430.709    24191426.155
                        32.600
 25  1  1  2  7  0.0000000  0 26G06G19G12G11G20E27G24G25E34S35R13E15
                                R22E36R23S31R21S33R07G17R12E02E13R14
                                E30R24
 108905736.035 6  84861662.17946  20724056.400    20724056.0344   20724059.5784
        40.400          39.4004
 110247952.124 7  85907498.86645  20979484.856    20979483.5194   20979483.0994
        42.700          33.7004
 110854667.480 8  86380315.74947  21094916.093    21094915.6824   21094916.3074
        49.100          45.4004
 108693159.338 8  84695992.87547  20683615.754    20683615.5224   20683616.6734
        50.600          42.1004
 115050805.202 7  89649955.76744  21893446.618    21893445.8234   21893449.5124
        45.100          27.6004
 129270986.482 7                  24599426.825
        47.500
 130058916.549 5 101344580.8354   24749369.060    24749369.1184   24749382.1564
        30.600           5.7004
 124074624.960 6  96681573.65944  23610615.951    23610615.0974   23610620.7574
        38.800          26.7004
 125738316.119 8                  23927188.723
        49.100
 200850501.345 5                  38220581.103
        31.900
 107224932.301 7                  20079766.010    20079764.356
        45.900
 125225896.338 7                  23829693.756
        46.300
 108332774.349 8  84258878.838 7  20294365.750    20294366.805    20294369.705
        50.700          46.900


 108264335.926 7                  20238827.042    20238828.394
        47.400
 198907118.909 7                  37850755.792
        42.900
 128925515.081 3                  24092814.383
        23.800
 202058027.137 7                  38450367.877
        45.300
 120409097.020 7  93651449.335 5  22493406.190    22493405.019    22493413.313
        44.300          31.200
 123190257.311 6                  23442331.750
        39.300
 108604204.452 7  84469964.945 5  20330919.599    20330919.896    20330927.099
        46.800          34.600
 140952730.937 5                  26822410.336
        31.600
 145694502.384 5                  27724714.308
        30.000
 127381937.856 5                  23896513.102    23896512.276
        35.700
 125312306.806 8                  23846122.044
        48.700
                 100581772.186 5                                  24183380.267
                        32.200
 25  1  1  2  7 15.0000000  0 25G06G19G12G11G20E27G24G25E34S35R13E15
                                R22E36R23S31S33R07G17R12E02E13R14E30
                                R24
 108929526.289 6  84880200.03746  20728584.264    20728583.9074   20728588.4294
        40.500          39.6004
 110271047.237 7  85925495.05245  20983880.879    20983879.5294   20983878.7934
        43.900          34.7004
 110829724.430 8  86360879.62647  21090169.944    21090169.5334   21090170.8784
        50.100          47.2004
 108680759.106 8  84686330.36247  20681256.086    20681255.8544   20681256.6854
        51.200          42.0004
 115006285.021 7  89615264.74444  21884974.415    21884973.6154   21884978.2654
        44.200          27.9004
 129247615.354 7                  24594979.439
        47.000
 130099215.874 6 101375982.67242  24757039.264    24757039.4564   24757049.8214
        36.300          12.6004
 124025501.414 6  96643295.68344  23601269.507    23601268.6314   23601272.3794
        38.300          26.2004
 125759751.590 8                  23931267.747
        48.100
 200850540.278 4                  38220600.300
        29.400
 107215718.288 7                  20078039.858    20078038.475
        46.200
 125210813.927 7                  23826823.975
        45.900
 108359092.495 8  84279348.514 7  20299295.332    20299295.959    20299299.830
        50.100          47.500


 108250955.473 8                  20236326.757    20236328.096
        48.200
 198907122.884 6                  37850757.952
        41.000
 202058019.909 7                  38450366.733
        45.200
 120368112.165 7                  22485749.408    22485748.130
        42.300
 123223585.341 6                  23448673.002
        37.000
 108648571.250 7  84504472.359 6  20339226.769    20339225.376    20339231.372
        44.500          38.000
 140996668.339 5                  26830775.334
        30.600


 127323257.673 6                  23885497.905    23885497.185
        37.100
 125330358.792 8                  23849557.140
        48.600
                 100548337.115 5                  24175346.462    24175342.087
                        31.100
 25  1  1  2  7 30.0000000  0 24G06G19G12G11G20E27G24G25E34S35R13E15
                                R22E36R23S31S33R07G17R12E02E13E30R24
 108953392.077 7  84898796.78447  20733126.093    20733125.6874   20733131.0034
        43.300          42.3004
 110294206.735 7  85943541.41945  20988287.107    20988285.7444   20988286.3604
        43.700          35.4004
 110804910.041 8  86341543.74947  21085448.304    21085447.8984   21085449.4484
        50.900          46.8004
 108668458.653 8  84676745.62246  20678915.154    20678914.9224   20678915.5454
        50.600          40.9004
 114961844.182 6  89580635.51344  21876517.517    21876516.7484   21876520.5264
        41.800          26.0004
 129224317.761 7                  24590546.241
        47.700
 130139538.994 5 101407403.37843  24764708.596    24764708.7924   24764722.0304
        33.800          21.1004
 123976440.984 6  96605066.83744  23591931.735    23591930.8724   23591936.2124
        37.900          26.2004
 125781231.603 7                  23935354.691
        47.100


 107206707.500 7                  20076352.875    20076352.231
        47.200
 125195797.759 7                  23823965.857
        44.600
 108385459.027 8  84299855.820 8  20304235.571    20304235.027    20304239.479
        49.900          48.500


 108237651.939 8                  20233840.900    20233841.654
        49.400
 198907125.621 7                  37850765.772
        43.100
 202058011.447 7                  38450364.457
        45.700
 120327239.788 7                  22478117.549    22478114.301
        42.500
 123256942.172 6                  23455021.496
        39.500
 108693084.335 7  84539093.690 6  20347558.090    20347556.863    20347562.501
        44.200          37.700
 141040634.017 5                  26839138.367
        32.000


 125348500.028 8                  23853009.127
        48.300


 25  1  1  2  7 45.0000000  0 25G06G19G12G11G20E27G24G25G05E34S35R13
                                E15R22E36R23S31S33R07R12E02E13R14E30
                                R24
 108977333.472 7  84917452.39047  20737681.478    20737681.0674   20737687.3134
        46.700          44.5004
 110317431.109 7  85961638.36945  20992707.194    20992705.8664   20992705.5444
        46.100          35.6004
 110780224.909 8  86322308.60048  21080750.687    21080750.2814   21080751.8744
        50.000          48.1004
 108656258.313 8  84667238.89246  20676593.912    20676593.6844   20676593.5214
        50.600          41.0004
 114917483.424 6  89546068.73044  21868076.948    21868076.1354   21868077.6604
        40.600          25.2004
 129201094.305 7                  24586126.951
        46.300
 130179885.895 6 101438842.56543  24772389.457    24772389.6534   24772396.9584
        36.800          19.1004
 123927444.386 5  96566887.75344  23582612.524    23582611.6794   23582613.0354
        33.400          24.2004
 131166353.509 5                  24960127.811
        33.100
 125802756.338 7                  23939451.036
        47.300


 107197900.089 7                  20074703.292    20074703.253
        47.000
 125180848.231 7                  23821121.661
        46.000
 108411874.158 8  84320400.898 7  20309184.065    20309183.969    20309187.553
        50.700          47.300


 108224425.987 8                  20231367.087    20231367.917
        49.900
 198907126.656 7                  37850758.005
        42.200
 202058000.044 7                  38450366.514
        45.400
 120286480.208 7  93556134.810 5  22470504.161    22470502.754    22470530.916
        45.700          30.400
 108737743.805 7  84573828.882 7  20355915.348    20355914.938    20355926.721
        43.700          42.800




 127206108.176 6                  23863521.195    23863523.046
        36.300
 125366730.849 8                  23856478.028
        48.500
 129190599.731 6                  24159279.766    24159281.031
        37.700
 25  1  1  2  8  0.0000000  0 24G06G19G12G11G20E27G24G25G05E34S35R13
                                E15R22E36R23S31S33R07R12E02E13R14E30
 109001351.707 7  84936167.88647  20742252.213    20742251.8244   20742256.9944
        47.700          45.2004
 110340721.830 7  85979786.99546  20997138.842    20997137.5014   20997137.4854
        45.400          36.3004
 110755670.467 8  86303175.29347  21076078.613    21076078.1934   21076078.9664
        49.000          47.4004
 108644159.427 8  84657811.19446  20674291.405    20674291.1734   20674291.4584
        49.300          40.6004
 114873204.269 6  89511565.52944  21859650.205    21859649.3564   21859650.5344
        40.100          24.3004
 129177946.524 7                  24581722.641
        46.500
 130220257.652 5 101470301.12442  24780070.208    24780070.2614   24780078.4584
        34.400          15.2004


 131107510.731 6                  24948926.195
        36.000
 125824327.046 7                  23943555.623
        47.700


 107189297.747 7                  20073090.762    20073090.115
        45.600
 125165966.670 7                  23818289.905
        46.800
 108438339.049 8  84340984.693 7  20314142.305    20314142.439    20314145.214
        51.800          47.500


 108211278.769 8                  20228910.134    20228910.309
        48.300
 198907127.908 6                  37850761.605
        41.800
 202057990.122 7                  38450357.150
        44.900
 120245835.868 7                  22462911.418    22462909.863
        43.600
 108782550.523 7  84608678.528 7  20364304.731    20364307.342    20364313.758
        45.500          42.900


 145545098.196 5                  27696310.970
        33.400
 127147641.929 6                  23852541.778    23852541.930
        38.000
 125385052.621 8                  23859964.891
        48.300
 25  1  1  2  8 15.0000000  0 25G06G19G12G11G20E27G24G25G05E34S35R13
                                E15R22E36R23S31S33R07G17R12E02E13E30
                                R24
 109025447.747 8  84954944.00147  20746837.360    20746837.0074   20746841.0824
        48.600          44.5004
 110364080.134 7  85997988.29145  21001584.591    21001583.2814   21001582.3094
        45.400          34.9004
 110731248.359 8  86284145.09648  21071431.215    21071430.7774   21071431.4264
        50.300          49.1004
 108632163.190 8  84648463.48846  20672008.974    20672008.7384   20672008.7484
        48.800          39.8004
 114829008.359 6  89477127.20643  21851239.572    21851238.7414   21851239.6004
        41.100          23.6004
 129154875.887 7                  24577331.940
        46.300
 130260655.161 5 101501779.73942  24787760.540    24787760.5894   24787764.3644
        35.300          17.4004


 131048662.349 5 102115887.43941  24937728.170    24937727.8894   24937742.2114
        34.500           6.8004
 125845944.872 8                  23947669.254
        48.200
 200850575.706 5                  38220615.620
        31.100
 107180901.981 7                  20071518.817    20071517.915
        44.700
 125151154.240 7                  23815470.822
        46.900
 108464854.829 8  84361608.060 7  20319109.135    20319109.397    20319112.717
        52.600          47.900


 108198211.518 8                  20226467.686    20226468.105
        49.700
 198907131.182 7                  37850770.584
        43.900
 202057982.117 7                  38450355.495
        44.300
 120205308.481 6  93493001.409 5  22455337.676    22455337.001    22455344.910
        40.600          35.600
 123357217.522 5  96122479.83842  23474102.937    23474102.0524   23474092.7184
        33.300          12.7004
 108827505.319 7  84643643.377 7  20372720.811    20372720.615    20372728.623
        44.100          43.000


 145507864.105 5                  27689226.439
        33.400
 125403466.553 7                  23863468.330
        46.500
 129104843.753 6                  24143244.635    24143243.176
        38.300
 25  1  1  2  8 30.0000000  0 25G06G19G12G11G20E27G24G25G05E34S35R13
                                E15R22R23S31S33R07G17R12E02E13R14E30
                                R24
 109049617.784 8  84973777.80347  20751436.661    20751436.3084   20751439.3194
        48.500          43.7004
 110387502.284 7  86016239.32045  21006040.811    21006039.5064   21006039.7484
        46.500          35.5004
 110706955.187 8  86265215.34148  21066807.990    21066807.5614   21066809.3064
        50.000          50.2004
 108620265.970 8  84639192.92346  20669745.000    20669744.7464   20669745.1064
        49.900          40.7004
 114784892.396 6  89442751.15943  21842843.302    21842842.4534   21842844.4684
        39.300          23.0004
 129131878.963 7                  24572955.580
        47.000
 130301074.451 6 101533275.32643  24795452.799    24795452.7994   24795455.2374
        40.900          21.8004


 130989805.211 5 102070024.65941  24926531.362    24926531.1794   24926540.7874
        31.800           6.0004
 125867605.997 8                  23951790.932
        48.300


 107172709.068 7                  20069985.141    20069984.609
        44.000
 125136407.361 7                  23812664.810
        46.200
 108491417.628 8  84382268.005 7  20324085.936    20324086.554    20324088.936
        53.300          47.700
 108185220.447 8                  20224037.868    20224037.957
        48.600
 198907132.482 6                  37850764.306
        40.600
 202057970.659 7                  38450354.919
        45.100
 120164894.686 6  93461568.535 6  22447788.261    22447791.875    22447798.189
        40.700          38.200
 123390694.598 4  96148565.79342  23480473.151    23480472.7274   23480466.5914
        29.500          14.6004
 108872604.119 7  84678720.188 6  20381165.909    20381165.252    20381170.617
        44.900          41.400


 145470659.997 5                  27682147.782
        31.200
 127030829.517 5                  23830654.485    23830656.566
        32.900
 125421969.017 7                  23866989.709
        46.000
 129062012.423 5                  24135229.967    24135229.729
        34.500
 25  1  1  2  8 45.0000000  0 25G06G19G12G11G20E27G24G25G05E34S35R13
                                E15R22R23S31S33R07G17R12E02E13R14E30
                                R24
 109073864.454 7  84992671.31247  20756050.549    20756050.1654   20756052.9024
        47.700          42.2004
 110410991.364 7  86034542.48545  21010510.878    21010509.5734   21010510.0474
        45.900          35.2004
 110682794.147 8  86246388.57848  21062210.303    21062209.8794   21062212.5274
        49.200          50.1004
 108608470.586 8  84630001.72146  20667499.880    20667499.6214   20667501.0534
        50.000          41.3004
 114740859.642 6  89408439.94543  21834466.046    21834465.1394   21834466.2224
        37.200          19.9004
 129108958.853 7                  24568594.264
        46.200
 130341518.001 7 101564789.74944  24803148.283    24803148.2664   24803153.9184
        42.100          25.3004
 123732184.411 5  96414685.38243  23545451.741    23545451.9334   23545450.4044
        31.800          19.9004
 130930942.624 5 102024157.6174   24915331.785    24915331.9194   24915340.2494
        30.000           5.9004
 125889313.188 8                  23955922.044
        48.400


 107164722.094 7                  20068488.692    20068487.912
        43.600
 125121728.824 7                  23809871.887
        46.700
 108518030.195 8  84402966.680 7  20329071.520    20329071.322    20329074.361
        53.600          47.900
 108172308.326 8                  20221625.289    20221624.806
        48.700
 198907133.527 7                  37850768.339
        43.700
 202057960.854 7                  38450349.021
        44.800
 120124597.915 5  93430226.733 5  22440255.387    22440255.582    22440267.865
        35.500          34.500
 123424202.535 5  96174675.88043  23486843.720    23486843.5154   23486844.5514
        35.200          18.3004
 108917849.302 7  84713910.884 7  20389633.634    20389634.952    20389642.509
        42.600          42.100




 126972584.567 6                  23819726.483    23819725.725
        36.200
 125440562.857 7                  23870528.108
        46.600
 129019214.010 5                  24127223.122    24127224.496
        32.700
 25  1  1  2  9  0.0000000  0 25G06G19G12G11G20E27G24G25G05E34S35R13
                                E15R22R23S31S33R07G17R12E02E13R14E30
                                R24
 109098185.843 7  85011623.05146  20760679.482    20760679.1114   20760681.0544
        47.200          41.7004
 110434545.590 7  86052896.42245  21014993.018    21014991.6994   21014992.5454
        44.600          34.9004
 110658763.837 8  86227663.67248  21057637.666    21057637.2514   21057640.2354
        49.700          49.5004
 108596775.292 8  84620888.52046  20665274.350    20665274.1094   20665275.0354
        50.400          41.1004
 114696908.738 6  89374192.50242  21826102.172    21826101.2694   21826103.2594
        38.200          17.9004
 129086113.997 7                  24564247.461
        47.500
 130381983.759 6 101596321.52144  24810848.857    24810848.8444   24810856.4084
        40.500          26.2004
 123683517.172 5  96376763.01343  23536175.593    23536175.1374   23536186.6604
        34.400          22.5004
 130872073.060 4 101978285.36941  24904130.961    24904130.9124   24904137.7794
        28.100           7.3004
 125911064.585 8                  23960061.160
        48.200


 107156939.588 7                  20067030.823    20067030.602
        43.400
 125107116.922 7                  23807091.059
        47.900
 108544690.578 8  84423702.576 8  20334065.127    20334065.132    20334069.070
        52.700          48.100
 108159473.356 8                  20219225.961    20219226.187
        49.700
 198907134.661 6                  37850763.917
        41.600
 202057950.464 7                  38450345.788
        44.400
 120084417.334 6                  22432752.279    22432750.540
        39.700
 123457740.121 6  96200809.07143  23493226.352    23493226.5214   23493227.5554
        36.000          21.6004
 108963238.622 6  84749213.715 7  20398130.150    20398128.491    20398139.316
        38.700          43.000
 141305027.016 5                  26889453.276
        33.500


 126914413.482 6                  23808813.272    23808813.008
        38.900
 125459246.353 7                  23874083.794
        47.300


 25  1  1  2  9 15.0000000  0 24G06G19G12G11G20E27G24G25E34S35R13E15
                                R22R23S31S33R07G17R12E02E13R14E30R24
 109122584.944 8  85030635.33846  20765322.982    20765322.6164   20765323.3764
        48.100          41.4004
 110458168.364 7  86071303.77045  21019487.680    21019486.3354   21019488.1224
        45.800          35.1004
 110634867.793 8  86209043.39048  21053090.119    21053089.7174   21053092.3004
        49.400          48.3004
 108585183.265 8  84611855.77646  20663068.760    20663068.5154   20663068.1194
        50.200          40.9004
 114653043.344 7  89340011.76942  21817752.814    21817751.9874   21817753.6624
        42.100          16.2004
 129063347.860 8                  24559914.790
        48.300
 130422474.618 6 101627872.86744  24818554.042    24818554.0914   24818562.7624
        40.100          25.4004
 123634919.376 5  96338894.67043  23526927.712    23526927.4084   23526936.5374
        33.600          22.4004
 125932863.256 7                  23964209.518
        47.700


 107149364.769 7                  20065614.638    20065614.703
        45.500
 125092574.839 8                  23804323.895
        49.000
 108571401.934 8  84444478.089 7  20339069.250    20339069.808    20339072.650
        53.000          47.500
 108146718.712 8                  20216841.701    20216841.587
        49.300
 198907137.940 7                  37850765.585
        42.800
 202057941.683 7                  38450349.861
        44.000
 120044356.705 6                  22425271.358    22425270.799
        41.700
 123491310.490 6  96226967.75644  23499614.455    23499614.7234   23499616.0154
        38.300          24.8004
 109008775.247 6  84784631.038 7  20406656.444    20406653.666    20406663.235
        40.500          43.100
 141349197.778 6                  26897856.966
        36.500


 126856319.815 6                  23797913.878    23797912.775
        38.600
 125478022.668 7                  23877656.814
        47.900
 128933713.576 5                  24111234.523    24111232.512
        33.400
 25  1  1  2  9 30.0000000  0 24G06G19G12G11G20E27G24G25E34S35R13E15
                                R22R23S31S33R07G17R12E02E13R14E30R24
 109147059.752 8  85049706.63546  20769980.162    20769979.7914   20769980.5984
        48.100          41.9004
 110481857.854 7  86089763.10746  21023995.964    21023994.6364   21023996.2694
        46.700          36.1004
 110611104.482 8  86190526.54747  21048568.433    21048568.0274   21048568.8114
        49.000          46.4004
 108573692.655 8  84602902.06646  20660882.131    20660881.8904   20660880.8214
        50.200          40.8004
 114609261.779 6  89305896.37142  21809421.804    21809421.0044   21809421.3574
        36.300          13.2004
 129040658.799 8                  24555597.170
        48.400
 130462988.311 6 101659442.14043  24826263.195    24826263.3114   24826270.9104
        39.000          23.3004
 123586389.419 5  96301079.23343  23517696.530    23517696.2984   23517700.5664
        34.600          21.7004
 125954707.261 7                  23968365.628
        47.000


 107141995.993 7                  20064232.407    20064233.030
        42.100
 125078100.749 7                  23801568.860
        47.300
 108598162.187 8  84465291.627 7  20344082.468    20344083.266    20344085.621
        53.100          47.900
 108134042.452 8                  20214471.577    20214471.659
        48.700
 198907140.829 6                  37850757.697
        40.500
 202057934.528 7                  38450350.067
        44.300
 120004414.514 7  93336749.746 6  22417808.910    22417809.025    22417825.319
        42.700          36.100
 123524911.873 6  96253150.64543  23506008.174    23506008.3574   23506010.4354
        38.000          21.9004
 109054456.612 6  84820160.902 6  20415208.811    20415208.604    20415212.919
        41.700          41.800
 141393397.557 6                  26906267.447
        36.100
 145322177.813 6                  27653889.037
        37.000
 126798302.494 6                  23787030.791    23787029.449
        38.000
 125496889.995 8                  23881246.944
        48.100
 128891013.138 6                  24103249.680    24103251.126
        36.700
 25  1  1  2  9 45.0000000  0 24G06G19G12G11G20E27G24G25E34S35R13E15
                                R22R23S31S33R07G17R12E02E13R14E30R24
 109171609.342 8  85068836.20046  20774651.212    20774650.8554   20774652.5454
        48.300          40.4004
 110505613.482 7  86108273.96646  21028517.324    21028515.9964   21028517.3074
        45.100          36.3004
 110587473.404 8  86172112.74247  21044071.943    21044071.5414   21044070.4974
        48.600          45.3004
 108562302.725 8  84594026.80346  20658714.777    20658714.5454   20658713.1704
        50.800          41.0004
 114565563.524 5  89271845.82641  21801107.475    21801106.5234   21801105.4274
        35.500          11.0004
 129018046.332 8                  24551294.250
        49.000
 130503523.882 6 101691028.38743  24833976.629    24833976.7634   24833986.4174
        36.700          20.5004
 123537927.152 5  96263316.38842  23508473.093    23508472.5704   23508475.6714
        31.900          14.3004
 125976595.744 7                  23972531.092
        46.500


 107134832.894 7                  20062891.872    20062891.905
        42.000
 125063693.886 7                  23798827.824
        46.800
 108624970.518 8  84486142.562 8  20349104.848    20349105.658    20349108.411
        53.600          48.400
 108121443.863 8                  20212117.618    20212117.278
        49.600
 198907144.707 6                  37850768.804
        41.700
 202057925.793 7                  38450351.082
        45.500
 119964590.748 6  93305775.746 5  22410367.762    22410367.529    22410385.084
        37.700          34.100
 123558543.695 5  96279357.25842  23512405.456    23512405.5094   23512411.8224
        31.000          16.3004
 109100281.422 6  84855802.484 7  20423783.634    20423782.288    20423792.371
        39.100          43.200
 141437625.655 5                  26914684.512
        31.200
 145285137.363 6                  27646840.590
        37.600
                                                  23776164.864

 125515847.601 8                  23884854.238
        48.400


 25  1  1  2 10  0.0000000  0 23G06G19G12G11G20E27G24G25E34S35R13E15
                                R22R23S31S33R07R12E02E13R14E30R24
 109196231.185 7  85088022.05546  20779336.672    20779336.3334   20779338.1344
        47.500          40.5004
 110529432.945 7  86126834.57745  21033050.796    21033049.4734   21033049.6904
        45.100          35.8004
 110563972.587 8  86153800.44047  21039599.635    21039599.2464   21039597.0644
        48.300          44.0004
 108551011.097 8  84585228.13946  20656565.725    20656565.5024   20656564.7354
        50.700          41.3004
 114521946.676 6  89237858.72643  21792808.960    21792807.9594   21792806.2924
        40.300          18.6004
 128995508.343 8                  24547005.219
        49.700
 130544078.705 5 101722629.48842  24841702.551    24841702.7834   24841704.6394
        30.300          13.7004
 123489530.406 4  96225604.75341  23499262.159    23499261.5254   23499265.5734
        28.400           9.9004
 125998526.267 7                  23976704.406
        45.600


 107127872.964 6                  20061588.746    20061587.797
        40.200
 125049351.921 7                  23796098.207
        47.000
 108651824.320 8  84507028.859 8  20354134.856    20354135.415    20354138.964
        52.000          48.200
 108108920.397 8                  20209775.079    20209775.829
        49.700
 198907146.387 6                  37850764.780
        40.700
 202057915.421 7                  38450350.402
        44.700
 119924883.688 5                  22402952.366    22402950.588
        35.300
 109146247.269 7  84891553.657 7  20432388.414    20432388.279    20432397.088
        42.700          44.300


 145248126.914 6                  27639798.075
        37.600
 126682493.499 6                  23765306.893    23765308.668
        37.300
 125534893.147 7                  23888478.123
        47.900
 128805705.385 5                  24087324.358    24087319.012
        32.800
 25  1  1  2 10 15.0000000  0 25G06G19G12G11G20E27G24G25G05E34S35R13
                                E15R22R23S31S33R07G17R12E02E13R14E30
                                R24
 109220927.717 8  85107266.09646  20784036.589    20784036.2814   20784037.8814
        48.300          39.6004
 110553318.669 7  86145446.83246  21037595.350    21037594.0584   21037594.2584
        47.800          36.4004
 110540604.909 8  86135591.88947  21035152.994    21035152.6194   21035150.5234
        49.400          44.8004
 108539820.483 8  84576508.18846  20654436.233    20654436.0054   20654436.0954
        49.600          41.3004
 114478414.371 7  89203937.49244  21784523.165    21784522.1284   21784524.5124
        42.800          24.3004
 128973047.711 8                  24542730.914
        49.300




 130577718.591 5                  24848105.465
        32.500
 126020501.376 7                  23980885.619
        45.400


 107121119.192 6                  20060325.191    20060322.399
        39.700
 125035077.544 8                  23793381.834
        48.300
 108678726.273 8  84527952.631 8  20359174.477    20359174.813    20359178.903
        52.100          48.400
 108096474.778 8                  20207448.945    20207450.161
        49.800
 198907147.127 6                  37850768.836
        41.800
 202057905.061 7                  38450341.030
        43.200
 119885159.397 5                  22395556.165    22395554.233
        31.400
 123625890.286 6  96331886.42443  23525226.050    23525225.8544   23525231.7674
        40.500          23.0004
 109192356.183 7  84927416.181 7  20441020.159    20441021.072    20441028.871
        44.600          44.600


 145211149.148 5                  27632761.719
        34.800
 126624703.717 6                  23754466.222    23754468.762
        40.500
 125554029.288 8                  23892119.475
        48.100


 25  1  1  2 10 30.0000000  0 24G06G19G12G11G20E27G24G25E34S35R13E15
                                R22R23S31S33R07G17R12E02E13R14E30R24
 109245698.175 8  85126567.76146  20788749.798    20788749.4994   20788751.4594
        49.000          40.1004
 110577270.171 8  86164110.32046  21042152.901    21042151.6274   21042151.8834
        50.400          38.1004
 110517370.296 8  86117487.00647  21030730.839    21030730.4504   21030729.9894
        48.400          44.0004
 108528730.224 8  84567866.43846  20652326.302    20652326.0704   20652326.4284
        48.900          41.1004
 114434966.222 7  89170081.82143  21776254.517    21776253.5204   21776257.6094
        44.000          22.8004
 128950664.070 8                  24538471.529
        48.800


 123392850.751 5  96150291.97041  23480881.380    23480881.2154   23480883.3994
        34.100          11.5004
 126042520.346 7                  23985076.000
        46.600


 107114571.097 7                  20059098.910    20059098.105
        42.600
 125020870.079 7                  23790677.901
        47.600
 108705675.498 8  84548913.138 7  20364222.258    20364223.069    20364227.253
        52.100          47.800
 108084106.267 8                  20205135.040    20205135.676
        49.100
 198907148.154 7                  37850775.986
        42.300
 202057894.809 7                  38450345.725
        43.300
 119845691.859 6  93213329.542 6  22388185.325    22388184.378    22388189.654
        41.800          36.600
 123659611.342 6  96358162.56744  23531643.018    23531642.5944   23531650.5404
        40.800          25.3004
 109238607.132 8  84963389.132 7  20449682.324    20449683.223    20449686.120
        48.300          42.000
 141570490.772 4                  26939966.125
        28.700
 145174203.675 5                  27625729.719
        35.300
 126566991.250 6                  23743642.709    23743642.503
        41.300
 125573255.412 8                  23895778.479
        48.200


 25  1  1  2 10 45.0000000  0 23G06G19G12G11G20E27G25E34S35R13E15R22
                                R23S31S33R07G17R12E02E13R14E30R24
 109270541.104 8  85145925.83546  20793477.583    20793477.2934   20793478.0004
        50.000          38.8004
 110601286.600 8  86182824.40846  21046722.614    21046721.3404   21046722.3654
        48.700          37.4004
 110494267.506 8  86099484.86847  21026334.769    21026334.3854   21026334.1154
        49.400          43.1004
 108517739.015 8  84559301.88246  20650234.502    20650234.2614   20650235.0194
        49.500          41.7004
 114391601.404 7  89136291.07544  21768004.263    21768003.2754   21768005.4134
        43.900          26.0004
 128928356.408 7                  24534225.699
        47.600
 123344658.790 6  96112739.75742  23471713.815    23471713.7444   23471713.1474
        40.500          15.5004
 126064581.796 7                  23989274.071
        47.600


 107108227.594 7                  20057911.433    20057910.996
        44.400
 125006728.349 8                  23787987.092
        48.900
 108732670.694 8  84569909.384 8  20369279.749    20369280.041    20369284.081
        51.200          48.600
 108071813.545 8                  20202836.462    20202837.204
        48.700
 198907148.511 6                  37850774.649
        39.200
 202057883.243 7                  38450342.604
        44.300
 119806343.435 6  93182725.411 5  22380829.736    22380829.690    22380835.605
        38.400          35.700
 123693361.477 6  96384461.32043  23538064.232    23538063.6064   23538071.3034
        40.100          23.1004
 109284998.569 7  84999471.362 6  20458365.851    20458366.389    20458371.205
        47.400          41.300
 141614826.955 5                  26948404.703
        32.100
 145137289.208 5                  27618704.927
        31.500
 126509355.462 6  98396175.261 4  23732832.116    23732828.881    23732833.093
        40.500          29.000
 125592570.309 7                  23899454.051
        46.300


 25  1  1  2 11  0.0000000  0 25G06G19G12G11G20E27G24G25G05E34S35R13
                                E15R22R23S31S33R07G17R12E02E13R14E30
                                R24
 109295462.004 8  85165344.69846  20798219.167    20798218.8774   20798219.9544
        48.000          38.8004
 110625373.536 8  86201593.44246  21051306.842    21051305.5684   21051306.0644
        48.800          38.5004
 110471302.565 7  86081590.10846  21021964.667    21021964.2564   21021963.7124
        44.800          41.7004
 108506852.556 8  84550818.93346  20648162.212    20648161.9804   20648163.4864
        49.300          41.7004
 114348326.162 6  89102570.13144  21759769.189    21759768.1654   21759769.9724
        41.500          24.4004
 128906130.582 8                  24529996.857
        48.000


 123296540.408 5  96075245.08642  23462553.371    23462553.1174   23462557.0264
        31.500          15.4004
 130400933.056 4                  24814479.400
        26.000
 126086691.304 7                  23993481.579
        46.400


 107102094.504 7                  20056759.590    20056759.200
        42.100
 124992657.959 8                  23785309.833
        49.000
 108759717.391 8  84590945.723 7  20374346.031    20374346.300    20374350.720
        52.100          47.000
 108059602.310 8                  20200555.059    20200555.603
        48.900
 198907151.912 7                  37850773.678
        42.800
 202057875.540 7                  38450341.253
        44.400
 119767120.582 7  93152218.622 5  22373509.619    22373508.897    22373509.907
        43.000          34.700
 123727146.323 6  96410787.11343  23544494.387    23544493.8334   23544496.0004
        40.300          20.6004
 109331535.721 7  85035666.895 6  20467076.634    20467076.377    20467080.933
        46.400          39.000
 141659195.077 5                  26956843.993
        33.100
 145100411.728 4                  27611685.688
        28.300
 126451802.590 4  98351400.780 5  23722037.342                    23722038.552
        24.600          33.100
 125611979.636 7                  23903147.908
        47.600
                 100049764.105 4                                  24055469.235
                        29.000
 25  1  1  2 11 15.0000000  0 24G06G19G12G11G20E27G24G25E34S35R13E15
                                R22R23S31S33R07G17R12E02E13R14E30R24
 109320452.321 7  85184817.61246  20802975.154    20802974.8684   20802977.6224
        47.700          40.4004
 110649522.325 8  86220410.66346  21055902.541    21055901.2764   21055901.3404
        49.400          36.8004
 110448467.412 7  86063796.49247  21017619.720    21017619.3004   21017618.3734
        47.100          42.9004
 108496062.502 8  84542411.10946  20646108.870    20646108.6424   20646109.9874
        48.600          40.9004
 114305132.065 6  89068912.39144  21751549.617    21751548.5624   21751550.0254
        40.800          26.3004
 128883978.462 7                  24525781.282
        46.300


 123248487.574 5  96037801.29242  23453411.581    23453411.3764   23453413.8284
        34.900          17.1004
 126108840.374 7                  23997696.247
        44.300


 107096163.419 7                  20055651.826    20055651.074
        45.300
 124978650.553 8                  23782644.353
        49.300
 108786806.997 8  84612015.374 7  20379421.674    20379422.007    20379425.095
        53.600          46.300
 108047463.968 8                  20198286.485    20198287.341
        49.000
 198907151.446 7                  37850771.353
        42.700
 202057863.017 7                  38450340.015
        44.900
 119728015.194 6  93121803.360 6  22366205.498    22366202.449    22366207.023
        40.900          38.000
 123760957.535 6  96437133.38743  23550928.047    23550927.5064   23550927.0834
        37.200          19.6004
 109378209.477 7  85071968.715 6  20475813.037    20475812.662    20475820.053
        44.400          39.600
 141703586.512 5                  26965292.995
        35.400
 145063562.649 5                  27604677.102
        30.600
 126394324.146 5  98306695.882 5  23711252.960    23711253.293    23711257.859
        35.700          35.500
 125631475.012 8                  23906858.077
        49.800


 25  1  1  2 11 30.0000000  0 24G06G19G12G11G20E27G24G25E34S35R13E15
                                R22R23S31S33R07G17R12E02E13R14E30R24
 109345515.998 7  85204347.71646  20807744.141    20807743.8604   20807749.6264
        46.500          40.3004
 110673737.372 8  86239279.49845  21060510.076    21060508.8074   21060508.2344
        48.500          35.3004
 110425766.416 7  86046107.40247  21013299.364    21013298.9444   21013298.4234
        47.900          44.0004
 108485372.919 8  84534081.57646  20644075.041    20644074.8094   20644075.8864
        49.700          41.8004
 114262023.804 6  89035321.56644  21743346.503    21743345.4844   21743346.4134
        41.100          24.0004
 128861904.457 7                  24521581.025
        46.700


 123200505.107 5  96000412.43243  23444280.566    23444280.1824   23444283.1644
        31.600          19.6004
 126131033.106 7                  24001920.229
        47.900


 107090438.851 7                  20054578.850    20054578.122
        45.600
 124964710.318 8                  23779991.906
        49.500
 108813943.577 8  84633121.551 7  20384505.661    20384506.269    20384510.059
        53.300          47.400
 108035402.690 8                  20196031.784    20196032.624
        49.000
 198907151.914 6                  37850765.155
        39.500
 202057851.646 7                  38450335.557
        45.300
                  93091483.153 6                  22358917.412    22358922.804
                        36.900
 123794799.426 6  96463503.67843  23557369.899    23557369.4394   23557367.0434
        40.300          21.6004
 109425024.056 7  85108380.019 6  20484577.223    20484577.109    20484584.116
        44.200          40.600
 141748005.385 6                  26973745.784
        36.300
 145026746.635 5                  27597668.604
        34.600
 126336926.366 6  98262053.215 5  23700482.490    23700483.681    23700489.785
        39.100          35.100
 125651060.599 8                  23910584.490
        50.300
 128550594.185 6                  24039599.309    24039599.417
        37.800
 25  1  1  2 11 45.0000000  0 24G06G19G12G11G20E27G24G25E34S35R13E15
                                R22R23S31S33R07G17R12E02E13R14E30R24
 109370658.939 7  85223939.59946  20812528.823    20812528.5374   20812535.3044
        45.200          41.3004
 110698024.821 7  86258204.75245  21065131.157    21065129.8884   21065129.3124
        45.300          33.2004
 110403206.131 8  86028527.96247  21009006.512    21009006.0974   21009005.4604
        48.500          45.1004
 108474789.960 8  84525835.11947  20642061.140    20642060.9044   20642062.0694
        50.700          43.2004
 114219007.784 6  89001802.59643  21735159.508    21735158.4224   21735161.2564
        38.700          22.8004
 128839914.892 7                  24517397.176
        46.000
 130828471.662 5 101944292.64943  24895828.559    24895828.4484   24895837.2304
        34.000          18.7004
 123152599.269 6  95963083.24843  23435163.516    23435163.0744   23435166.7104
        38.600          20.5004
 126153275.443 8                  24006152.878
        49.600


 107084926.820 7                  20053546.382    20053546.063
        46.200
 124950843.312 8                  23777353.137
        50.200
 108841133.180 8  84654269.026 8  20389598.245    20389598.352    20389603.689
        52.100          48.300
 108023424.581 7                  20193790.803    20193790.051
        44.800
 198907158.334 6                  37850769.354
        41.400
 202057846.348 7                  38450333.593
        44.600
 119650177.875 6  93061263.383 6  22351665.569    22351663.778    22351663.751
        38.400          38.100
 123828678.088 6  96489902.57743  23563815.077    23563814.6124   23563815.3334
        40.200          22.6004
 109471984.996 7  85144905.172 6  20493369.779    20493369.871    20493374.132
        44.900          39.900
 141792457.652 5                  26982205.745
        34.500
 144989969.523 5                  27590669.499
        34.700
 126279614.887 6  98217477.619 5  23689727.758    23689726.759    23689740.125
        36.500          35.400
 125670742.498 8                  23914330.119
        50.300
 128508184.663 5  99950714.347 5  24031681.361    24031681.448    24031650.959
        35.500          30.400
 25  1  1  2 12  0.0000000  0 24G06G19G12G11G20E27G24G25E34S35R13E15
                                R22R23S31S33R07G17R12E02E13R14E30R24
 109395869.605 7  85243584.29246  20817326.415    20817326.1344   20817332.4434
        45.700          41.8004
 110722373.402 7  86277177.66445  21069764.789    21069763.4934   21069763.5674
        44.100          32.3004
 110380775.500 7  86011049.55747  21004737.961    21004737.5374   21004737.4174
        47.800          45.0004
 108464302.171 8  84517662.82547  20640065.445    20640065.2094   20640066.4374
        50.700          43.6004
 114176072.883 6  88968346.84343  21726991.334    21726990.2524   21726991.4854
        40.200          22.7004
 128817998.577 7                  24513226.491
        46.300
 130869185.742 5 101976017.86442  24903576.427    24903576.5164   24903583.1224
        35.400          15.0004
 123104759.169 5  95925805.38742  23426058.160    23426057.7494   23426060.7344
        35.000          16.4004
 126175555.896 8                  24010392.456
        49.100


 107079616.050 7                  20052551.180    20052550.885
        46.300
 124937038.156 8                  23774726.289
        50.300
 108868364.105 8  84675448.618 8  20394699.608    20394699.780    20394704.133
        52.400          48.200
 108011518.143 7                  20191566.089    20191564.990
        45.900
 198907159.157 6                  37850766.738
        41.200
 202057835.623 7                  38450332.019
        43.100
                  93031135.476 6                                  22344427.874
                        38.300
 123862582.277 6  96516321.43443  23570266.921    23570266.3944   23570269.1004
        40.000          22.7004
 109519080.140 8  85181534.727 6  20502186.176    20502187.128    20502191.434
        48.100          40.800
 141836931.817 6                  26990668.020
        36.200
 144953220.263 5                  27583676.835
        34.100
 126222378.807 6  98172960.631 5  23678991.061    23678991.578    23679002.458
        39.400          33.100
 125690509.273 8                  23918091.665
        50.200
                  99917750.307 5                                  24023726.716
                        31.600
 25  1  1  2 12 15.0000000  0 26G06G19G12G11G20E27G24G25G05E34S35R13
                                E15R22E36R23S31S33R07G17R12E02E13R14
                                E30R24
 109421153.029 7  85263285.66947  20822137.099    20822136.8224   20822143.5604
        47.600          44.1004
 110746788.378 7  86296202.32445  21074410.668    21074409.3314   21074410.1464
        45.600          32.4004
 110358479.905 7  85993676.39547  21000495.133    21000494.7044   21000495.7754
        47.000          45.1004
 108453914.781 8  84509568.76447  20638088.801    20638088.5694   20638089.7794
        51.000          43.6004
 114133224.718 7  88934958.70444  21718836.944    21718835.8494   21718838.0714
        43.600          24.1004
 128796161.019 7                  24509070.341
        46.800
 130909918.278 6 102007757.57242  24911326.840    24911326.9424   24911326.7564
        37.700          15.4004
 123056990.356 6  95888583.05042  23416969.006    23416968.5824   23416968.6644
        36.000          15.9004


 126197879.573 8                  24014640.318
        48.000
 200851261.457 5                  38220724.660
        32.300
 107074512.357 7                  20051596.446    20051595.532
        45.900
 124923300.081 8                  23772111.683
        49.600
 108895641.520 8  84696664.414 7  20399809.387    20399809.261    20399814.075
        51.800          47.500


 107999688.557 7                  20189353.753    20189353.088
        44.700
 198907160.735 7                  37850770.016
        42.100
 202057825.500 7                  38450329.265
        44.000
 119572835.057 6  93001104.027 6  22337211.264    22337211.803    22337214.521
        37.000          37.600
 123896517.473 6  96542764.48543  23576725.177    23576724.6234   23576726.0474
        37.100          20.9004
 109566314.603 8  85218272.568 6  20511030.511    20511032.507    20511035.221
        50.200          40.000
 141881433.010 5                  26999134.657
        34.700
 144916504.013 5                  27576689.281
        34.600
 126165223.972 6  98128506.828 4  23668267.404    23668269.365    23668276.176
        38.600          28.700
 125710366.196 8                  23921870.007
        49.900
 128423451.833 4  99884811.452 5  24015810.499                    24015809.167
        28.700          34.000
 25  1  1  2 12 30.0000000  0 25G06G19G12G11G20E27G24G25G05E34S35R13
                                E15R22R23S31S33R07G17R12E02E13R14E30
                                R24
 109446507.360 8  85283042.28947  20826962.458    20826962.2044   20826968.6154
        49.100          45.0004
 110771268.206 7  86315277.52745  21079069.005    21079067.6014   21079069.3624
        44.900          32.7004
 110336318.107 8  85976407.45847  20996278.382    20996277.9404   20996279.2544
        48.400          45.7004
 108443626.112 8  84501551.63147  20636130.778    20636130.5554   20636131.7854
        50.700          43.0004
 114090461.935 7  88901637.11543  21710699.218    21710698.1274   21710700.1754
        44.400          23.3004
 128774400.730 7                  24504929.535
        46.100
 130950667.208 6 102039509.95543  24919078.500    24919078.3534   24919078.5424
        36.200          18.6004
 123009291.605 5  95851415.28241  23407892.257    23407891.7754   23407890.4344
        34.000          10.2004
 130047530.619 5                  24747218.264
        33.500
 126220244.738 8                  24018896.553
        48.600
 200851296.647 6                  38220720.318
        37.300
 107069613.662 7                  20050678.307    20050676.766
        44.400
 124909627.428 7                  23769509.790
        47.100
 108922963.650 8  84717914.947 7  20404928.121    20404927.892    20404931.575
        52.000          47.400
 107987934.138 7                  20187158.754    20187157.786
        45.700
 198907160.853 6                  37850765.777
        40.700
 202057814.346 7                  38450324.436
        43.600
 119534345.900 6  92971168.076 6  22330021.905    22330023.339    22330025.176
        40.200          37.600
 123930481.906 6  96569230.33543  23583188.441    23583187.9274   23583184.4214
        39.200          21.6004
 109613686.200 8  85255117.122 6  20519897.117    20519899.033    20519903.898
        49.100          39.200
 141925959.468 5                  27007607.182
        33.700
 144879819.418 5                  27569707.618
        34.900
 126108149.640 6                  23657563.187    23657563.974
        36.300
 125730311.641 8                  23925665.008
        49.700
                  99851896.397 5                                  24007896.407
                        33.700
 25  1  1  2 12 45.0000000  0 24G06G19G12G11G20E27G24G25G05E34S35R13
                                E15R22R23S31S33R07G17R12E02E13E30R24
 109471933.801 8  85302855.11747  20831799.475    20831799.2214   20831805.7974
        48.200          43.2004
 110795814.304 7  86334404.32945  21083740.373    21083738.9784   21083739.6504
        45.700          33.6004
 110314291.798 8  85959244.11247  20992086.194    20992085.7344   20992087.7474
        48.200          44.1004
 108433437.562 8  84493612.51247  20634192.302    20634192.0924   20634192.5144
        50.400          42.4004
 114047786.391 6  88868383.46843  21702578.401    21702577.2844   21702576.2834
        41.200          19.2004
 128752719.398 7                  24500804.240
        47.300
 130991433.716 4 102071276.09743  24926834.741    24926834.6484   24926838.4434
        25.700          18.7004
 122961664.640 5  95814303.62442  23398830.703    23398830.1674   23398826.7694
        34.900          13.6004
 129988607.219 5                  24736000.908
        31.900
 126242652.659 8                  24023160.615
        49.000
 200851331.820 6                  38220721.606
        40.400
 107064921.769 7                  20049799.923    20049799.165
        45.800
 124896021.584 7                  23766920.562
        47.800
 108950331.762 8  84739201.235 7  20410055.222    20410055.667    20410058.880
        52.000          46.900
 107976256.229 7                  20184976.722    20184975.214
        47.000
 198907160.609 7                  37850767.172
        42.500
 202057802.378 7                  38450317.715
        42.500
 119495981.586 5  92941329.311 6  22322858.281                    22322856.610
        35.800          36.000
 123964477.092 6  96595720.14144  23589656.545    23589656.0314   23589655.5924
        39.800          24.4004
 109661195.898 7  85292069.189 6  20528789.766    20528790.291    20528793.769
        47.200          36.100
 141970512.461 5                  27016086.301
        35.200
 144843167.788 5                  27562732.362
        35.700
 125750346.931 8                  23929477.458
        49.400


 25  1  1  2 13  0.0000000  0 24G06G19G12G11G20E27G24G25G05E34S35R13
                                E15R22R23S31S33R07G17R12E02E13E30R24
 109497436.644 7  85322727.46847  20836653.798    20836653.5534   20836657.6554
        47.600          44.5004
 110820431.172 7  86353586.30245  21088424.486    21088423.1274   21088423.1034
        46.000          33.0004
 110292405.758 7  85942190.04947  20987921.388    20987920.9234   20987922.5784
        47.700          43.8004
 108423353.557 8  84485754.85446  20632273.520    20632273.3104   20632272.9634
        50.100          41.7004
 114005202.874 7  88835201.57843  21694475.382    21694474.2784   21694471.1724
        43.900          20.0004
 128731121.651 7                  24496694.259
        47.700


 122914114.391 5  95777251.56442  23389781.742    23389781.2734   23389778.4814
        35.700          13.9004
 129929687.456 5                  24724795.764
        34.100
 126265107.659 8                  24027433.764
        50.100
 200851371.810 5                  38220740.834
        32.200
 107060441.187 7                  20048961.055    20048960.700
        46.400
 124882486.999 7                  23764344.959
        47.100
 108977750.195 8  84760526.686 7  20415190.658    20415190.704    20415194.664
        50.900          46.400
 107964659.084 7                  20182807.310    20182807.518
        47.500
 198907165.269 7                  37850778.172
        43.300
 202057795.738 7                  38450324.279
        44.800
 119457747.672 5  92911591.701 6  22315713.175    22315730.401    22315716.775
        35.500          36.900
 123998507.487 6  96622237.32943  23596132.398    23596131.8444   23596132.4824
        41.300          23.2004
 109708847.885 7  85329131.742 6  20537710.804    20537711.849    20537717.165
        47.700          37.100
 142015096.416 5                  27024568.275
        32.200
 144806553.820 5                  27555765.322
        35.900
 125770476.560 8                  23933308.265
        49.500
 128296413.647 4  99786144.764 5  23992071.196                    23992085.108
        29.900          32.800
 25  1  1  2 13 15.0000000  0 25G06G19G12G11G20E27G24G25G05E34S35R13
                                E15R22R23S31S33R07G17R12E02E13R14E30
                                R24
 109523007.694 7  85342652.95847  20841519.657    20841519.4294   20841522.6604
        46.500          43.8004
 110845110.875 6  86372817.22745  21093122.649    21093121.2814   21093118.7494
        41.000          31.9004
 110270652.152 8  85925239.19247  20983781.805    20983781.3144   20983782.5764
        48.300          43.2004
 108413366.084 8  84477972.42046  20630372.929    20630372.7244   20630372.0364
        51.200          41.9004
 113962703.693 6  88802085.32743  21686387.732    21686386.6374   21686383.8184
        40.500          20.7004
 128709599.725 7                  24492598.046
        45.200


 122866633.307 6  95740253.39143  23380746.177    23380745.7124   23380745.2044
        38.600          20.3004
 129870763.529 4                  24713569.138
        28.400
 126287601.676 8                  24031714.094
        50.100
 200851408.291 5                  38220755.340
        34.600
 107056164.038 7                  20048160.075    20048159.546
        46.400
 124869015.669 7                  23761781.489
        47.500
 109005210.793 8  84781884.891 8  20420335.711    20420335.833    20420340.138
        50.800          48.400
 107953134.724 8                  20180652.541    20180652.769
        48.700
 198907166.850 7                  37850774.184
        42.200
 202057785.111 7                  38450323.497
        44.600
                  92881949.194 6                  22308591.894    22308594.048
                        36.900
 124032565.226 6  96648775.85643  23602612.587    23602612.0914   23602613.2184
        38.000          23.4004
 109756633.433 7  85366298.249 6  20546656.326    20546656.458    20546663.080
        47.600          39.100
 142059703.117 4                  27033056.812
        27.800
 144769969.592 5                  27548803.887
        34.300
 125937499.340 6                  23625537.502    23625541.724
        38.100
 125790692.515 8                  23937155.432
        49.300
 128254191.952 5  99753305.657 5  23984220.495                    23984191.326
        31.800          32.000
 25  1  1  2 13 30.0000000  0 26G06G19G12G11G20E27G24G25G05E34S35R13
                                E15R22R23S31S33R07G17R12E21E02E13R14
                                E30R24
 109548650.370 7  85362634.25847  20846399.579    20846399.3384   20846401.7594
        46.500          43.3004
 110869857.053 6  86392099.95544  21097832.144    21097830.7854   21097827.8284
        39.900          29.9004
 110249034.846 8  85908394.58447  20979667.904    20979667.4264   20979666.5644
        49.400          42.9004
 108403478.718 8  84470267.99747  20628491.134    20628490.9244   20628490.6284
        51.100          42.8004
 113920292.957 6  88769038.00243  21678317.154    21678316.0194   21678314.7794
        41.200          20.6004
 128688157.467 7                  24488517.626
        44.000


 122819225.267 6  95703312.15744  23371723.932    23371723.4634   23371727.0324
        38.400          24.3004
 129811839.590 4                  24702358.125
        26.500
 126310138.171 8                  24036002.590
        50.100
 200851445.008 5                  38220762.195
        34.900
 107052094.119 7                  20047397.382    20047396.867
        46.300
 124855611.193 7                  23759230.498
        47.500
 109032716.990 8  84803278.615 8  20425488.339    20425488.350    20425492.909
        49.800          49.300
 107941686.491 7                  20178513.461    20178512.547
        47.800
 198907167.918 7                  37850777.569
        43.500
 202057774.681 7                  38450317.317
        44.300
 119381650.500 6  92852405.119 6  22301508.616    22301507.676    22301500.061
        41.600          38.100
 124066653.997 6  96675338.51143  23609099.995    23609099.5844   23609100.4164
        36.800          20.5004
 109804555.831 7  85403571.199 6  20555626.798    20555627.158    20555634.219
        46.900          39.900


 142104336.085 5                  27041554.670
        33.600
 144733418.746 5                  27541849.501
        32.500
 125880758.002 6  97907187.786 5  23614897.422    23614899.629    23614893.955
        38.800          33.400
 125810998.403 8                  23941020.023
        50.200
 128212001.970 5  99720491.534 4  23976293.094                    23976296.859
        31.700          29.100
 25  1  1  2 13 45.0000000  0 25G06G19G12G11G20E27G24G25E34S35R13E15
                                R22R23S31S33R07G17R12E21E02E13R14E30
                                R24
 109574363.115 7  85382670.17747  20851292.826    20851292.5904   20851294.2694
        46.900          44.4004
 110894668.457 6  86411433.49144  21102551.452    21102550.0714   21102549.9384
        38.000          27.2004
 110227552.839 8  85891655.34147  20975580.556    20975580.0604   20975576.9254
        49.700          44.8004
 108393690.104 8  84462640.51747  20626628.145    20626627.9314   20626628.4794
        50.900          43.2004
 113877969.447 6  88736058.70543  21670263.145    21670261.9964   21670263.2614
        41.400          20.9004
 128666793.761 6                  24484451.724
        40.600
 131154662.443 5 102198465.84242  24957902.201    24957902.0944   24957909.2224
        33.800          15.8004
 122771889.358 6  95666427.08744  23362716.231    23362715.7714   23362720.1474
        39.100          24.8004
 126332715.713 8                  24040298.853
        48.900


 107048230.036 7                  20046674.559    20046673.237
        44.400
 124842272.227 7                  23756692.211
        46.900
 109060267.322 8  84824706.661 8  20430648.954    20430649.376    20430653.953
        49.600          49.500
 107930313.193 7                  20176386.893    20176385.137
        45.500
 198907168.396 7                  37850770.678
        43.000
 202057764.360 7                  38450318.743
        45.300
 119343791.229 6  92822959.118 6  22294428.272    22294430.247    22294429.911
        38.000          40.700
 124100772.393 6  96701924.33243  23615592.413    23615591.9534   23615593.6414
        36.400          21.0004
 109852613.282 7  85440949.166 6  20564622.844    20564623.835    20564631.414
        45.200          41.000


 142148993.920 6                  27050053.055
        38.700
 144696900.191 5                  27534900.995
        35.300
 125824099.615 5  97863120.071 6  23604267.157                    23604267.184
        35.900          36.100
 125831392.872 8                  23944900.692
        50.200


 25  1  1  2 14  0.0000000  0 25G06G19G12G11G20E27G24G25E34S35R13E15
                                R22R23S31S33R07G17R12E21E02E13R14E30
                                R24
 109600146.743 7  85402761.31447  20856199.406    20856199.1834   20856201.1104
        47.500          45.0004
 110919546.008 5  86430818.60144  21107286.647    21107285.2754   21107284.5364
        34.400          24.0004
 110206207.395 8  85875022.57447  20971518.906    20971518.4064   20971514.7384
        50.700          44.9004
 108384001.166 8  84455090.71647  20624784.597    20624784.3964   20624785.2894
        50.500          43.5004
 113835734.719 6  88703148.47643  21662226.745    21662225.5874   21662227.7914
        41.900          19.7004
 128645509.769 6                  24480402.602
        41.200
 131195511.194 5 102230296.00742  24965675.263    24965675.3614   24965684.5024
        30.600          14.2004
 122724626.906 6  95629599.26444  23353722.442    23353721.9604   23353725.5504
        39.000          26.3004
 126355335.127 8                  24044603.006
        48.400


 107044572.918 7                  20045989.532    20045988.431
        44.100
 124828999.730 7                  23754166.293
        47.300
 109087862.618 8  84846169.651 8  20435818.067    20435819.104    20435823.462
        49.800          50.300
 107919015.976 7                  20174275.281    20174274.487
        47.100
 198907169.135 7                  37850769.730
        42.100
 202057753.233 7                  38450320.183
        43.900
 119306059.235 5  92793612.121 6  22287366.972    22287389.794    22287379.057
        34.400          37.500
 124134921.355 6  96728533.91443  23622091.778    23622091.2644   23622093.6324
        39.500          20.8004
 109900806.353 7  85478432.647 6  20573645.384    20573646.322    20573652.761
        46.700          40.700


 142193677.462 6                  27058553.509
        40.600
 144660414.779 6                  27527956.909
        38.100
 125767525.987 5  97819118.432 5  23593643.067    23593644.903    23593653.086
        35.700          35.700
 125851876.892 8                  23948798.678
        50.300


 25  1  1  2 14 15.0000000  0 26G06G19G12G11G20E27G24G25G05E34S35R13
                                E15R22R23S31S33R07G17R12E21E02E13R14
                                E30R24
 109626003.164 7  85422909.16147  20861120.414    20861120.1864   20861122.1134
        47.000          45.0004
 110944492.028 6  86450257.06443  21112032.087    21112030.5134   21112031.2754
        38.500          22.2004
 110185000.842 8  85858498.01947  20967483.392    20967482.9014   20967480.1134
        50.300          46.2004
 108374414.011 8  84447620.21347  20622959.705    20622959.5044   20622961.0244
        49.600          43.1004
 113793590.931 7  88670309.16343  21654207.080    21654205.8554   21654209.1974
        44.600          21.1004
 128624307.849 6                  24476367.422
        41.500
 131236377.395 5 102262140.00741  24973451.419    24973451.5174   24973465.3264
        35.800           8.8004
 122677440.503 6  95592830.71744  23344743.517    23344743.0214   23344746.2284
        37.200          26.8004
 129635056.929 4                  24668732.678
        28.300
 126377998.432 7                  24048915.763
        47.700


 107041125.232 7                  20045343.139    20045343.118
        44.200
 124815795.782 7                  23751653.785
        47.800
 109115504.945 8  84867669.208 8  20440997.360    20440997.328    20441001.695
        49.400          50.300
 107907796.459 7                  20172177.076    20172177.528
        46.300
 198907171.514 7                  37850769.108
        42.200
 202057744.264 7                  38450315.345
        44.800
 119268457.361 6  92764366.334 5  22280344.112                    22280354.223
        40.200          35.400
 124169103.163 6  96755169.18743  23628596.946    23628596.3884   23628599.2124
        40.400          18.4004
 109949136.793 7  85516023.058 6  20582694.554    20582693.385    20582699.350
        45.400          40.600


 142238388.656 6                  27067062.526
        41.800
 144623964.824 6                  27521021.319
        37.600
 125711039.242 5  97775184.277 5  23583044.697    23583044.014    23583055.958
        34.500          34.700
 125872452.533 8                  23952714.053
        49.800


 25  1  1  2 14 30.0000000  0 26G06G19G12G11G20E27G24G25E34S35R13E15
                                R22R23S31S33R07G17R12E21E02E13R14E30
                                R24R08
 109651930.629 7  85443112.38347  20866054.160    20866053.9414   20866056.7764
        47.900          46.3004
 110969504.898 6  86469747.61644  21116792.230    21116790.6034   21116790.6024
        40.300          24.9004
 110163932.028 8  85842080.76147  20963473.842    20963473.3334   20963472.1184
        49.600          47.0004
 108364927.052 8  84440227.78447  20621154.606    20621154.3784   20621155.5444
        48.400          42.8004
 113751537.106 7  88637539.93943  21646204.307    21646203.1094   21646206.1864
        45.700          22.7004
 128603186.641 7                  24472347.681
        42.400
 131277259.033 6 102293995.99443  24981231.927    24981231.9494   24981245.4224
        39.000          20.5004
 122630328.905 6  95556120.45344  23335778.721    23335778.2124   23335782.1894
        38.600          28.5004
 126400703.964 8                  24053237.156
        49.400


 107037885.204 7                  20044736.890    20044735.916
        42.900
 124802658.826 7                  23749153.963
        47.800
 109143192.528 8  84889204.000 8  20446184.455    20446184.316    20446188.383
        49.500          50.400
 107896653.224 7                  20170093.709    20170094.293
        44.600
 198907175.166 6                  37850769.368
        41.400
 202057735.171 7                  38450314.468
        45.100
 119230984.406 7  92735220.732 5  22273354.336                    22273353.240
        43.300          33.800
 124203316.421 6  96781828.82442  23635106.933    23635106.3524   23635111.1824
        40.800          15.0004
 109997602.418 7  85553718.557 6  20591764.880    20591764.773    20591771.686
        45.500          39.200


 142283125.899 6                  27075575.121
        40.000
 144587548.889 5                  27514092.558
        34.400
 125654639.027 6  97731317.434 5  23572466.836    23572464.168    23572475.191
        38.200          34.000
 125893118.224 8                  23956646.707
        50.100


 128141408.356 5                  23929500.585
        31.600
 25  1  1  2 14 45.0000000  0 26G06G19G12G11G20E27G24G25E34S35R13E15
                                R22R23S31S33R07G17R12E21E02E13R14E30
                                R24R08
 109677924.537 7  85463367.39247  20870999.039    20870998.8074   20871003.7774
        43.600          44.3004
 110994580.360 6  86489286.92044  21121564.386    21121562.7814   21121561.8644
        37.700          26.3004
 110142996.761 8  85825767.53347  20959490.423    20959489.9234   20959488.5234
        51.000          46.9004
 108355535.862 8  84432909.95547  20619367.403    20619367.1584   20619368.5274
        49.400          42.7004
 113709569.185 7  88604837.84443  21638218.678    21638217.5164   21638216.9754
        46.800          23.2004
 128582141.953 7                  24468344.347
        46.000


 122583288.117 6  95519465.39544  23326826.524    23326826.0154   23326830.8154
        41.400          27.7004
 126423447.204 7                  24057564.170
        47.100


 107034848.501 7                  20044166.762    20044166.106
        42.300
 124789584.468 8                  23746665.985
        48.700
 109170920.768 8  84910770.407 8  20451378.575    20451378.665    20451383.407
        51.400          50.800
 107885581.461 6                  20168024.339    20168022.680
        39.200
 198907174.564 7                  37850772.958
        44.800
 202057723.415 6                  38450303.996
        37.200
 119193636.563 6  92706172.476 5  22266370.235    22266370.351    22266380.885
        40.600          31.500
 124237556.740 6  96808509.50742  23641621.185    23641620.5864   23641627.0924
        40.800          14.7004
 110046198.429 7  85591515.415 6  20600864.083    20600862.875    20600870.132
        45.000          39.500


 142327884.571 5                  27084092.056
        32.100
 144551162.649 5                  27507167.272
        33.100
 125598321.355 6  97687535.905 5  23561899.410    23561898.050    23561910.187
        38.200          31.400
 125913869.588 8                  23960595.432
        49.300
 128001707.767 7                  23936943.656    23936941.999
        42.200
 128082561.874 4                  23918509.662
        29.000
 25  1  1  2 15  0.0000000  0 24G06G19G12G11G20E27G24G25E34S35R13E15
                                R22R23S31S33R07G17R12E21E02E13R14E30
 109703989.158 7  85483677.51047  20875959.728    20875959.4924   20875963.4594
        44.600          42.7004
 111019722.775 6  86508878.45544  21126349.025    21126347.4114   21126346.8444
        41.600          25.5004
 110122199.656 8  85809562.05147  20955532.669    20955532.1644   20955531.1964
        50.500          46.3004
 108346244.789 8  84425670.17547  20617599.598    20617599.3574   20617600.5634
        50.800          44.0004
 113667691.491 7  88572205.86144  21630248.332    21630247.1884   21630246.7954
        42.700          24.6004
 128561178.453 7                  24464354.017
        43.600
 131359037.801 6 102357758.10143  24996795.153    24996794.9174   24996808.6094
        36.400          18.2004
 122536322.901 6  95482869.16444  23317887.136    23317886.6184   23317894.7564
        40.400          27.6004
 126446232.440 8                  24061901.381
        48.800
 200851548.431 5                  38220776.992
        31.400
 107032019.735 6                  20043637.799    20043636.451
        40.800
 124776577.027 7                  23744190.699
        47.700
 109198693.965 8  84932371.787 8  20456580.733    20456580.892    20456586.699
        50.100          51.100
 107874585.846 7                  20165967.879    20165968.363
        43.600
 198907175.273 6                  37850776.053
        41.500
 202057712.321 6                  38450304.680
        40.700
 119156418.995 7  92677225.476 5  22259420.365    22259418.485    22259421.788
        43.800          33.700
 124271828.444 7  96835214.58042  23648146.196    23648145.6294   23648148.9904
        42.900          15.8004
 110094928.927 7  85629416.901 6  20609985.102    20609986.215    20609989.313
        47.800          40.400


 142372669.026 6                  27092615.354
        36.700
 144514810.570 4                  27500249.725
        29.000
 125542091.039 7  97643826.255 5  23551352.764    23551354.345    23551370.022
        43.200          30.100
 125934710.946 8                  23964561.441
        48.300
 25  1  1  2 15 15.0000000  0 26G06G19G12G11G20E27G24G25G05E34S35R13
                                E15R22R23S31S33R07G17R12E21E02E13R14
                                E30R24
 109730125.163 7  85504043.22147  20880933.083    20880932.8554   20880937.4694
        44.300          42.8004
 111044933.261 7  86528523.00044  21131146.517    21131144.9084   21131144.6584
        42.700          26.6004
 110101542.207 8  85793465.33548  20951601.728    20951601.2234   20951601.6814
        49.700          48.8004
 108337054.824 8  84418509.17847  20615850.938    20615850.6974   20615851.6314
        50.600          43.9004
 113625905.635 7  88539645.45643  21622297.595    21622296.4374   21622294.8424
        42.500          23.9004
 128540297.302 7                  24460381.016
        42.600
 131399960.559 6 102389645.93842  25004582.045    25004581.6704   25004593.1854
        36.200          13.7004
 122489434.659 6  95446332.92045  23308966.359    23308965.8414   23308972.7334
        36.200          30.4004
 129399311.397 5                  24623866.569
        30.800
 126469060.527 8                  24066244.496
        48.700


 107029399.927 7                  20043148.180    20043147.694
        44.500
 124763637.603 7                  23741727.919
        46.600
 109226513.115 8  84954008.880 8  20461792.594    20461793.235    20461797.686
        51.000          50.800
 107863667.310 7                  20163926.753    20163926.043
        43.400
 198907177.283 6                  37850783.046
        39.700
 202057703.090 7                  38450304.264
        43.900
 119119332.986 7  92648380.898 6  22252493.051    22252490.645    22252499.963
        43.800          39.100
 124306132.545 6  96861944.97142  23654670.454    23654669.8114   23654676.4504
        38.400          16.4004
 110143794.287 8  85667423.293 7  20619132.758    20619134.180    20619141.003
        48.200          42.900


 142417480.235 5                  27101141.706
        33.100
 144478493.770 5                  27493342.720
        32.300
 125485949.544 6                  23540819.048    23540820.002
        40.200
 125955643.370 8                  23968544.871
        50.100
 127917613.615 6                  23921238.138    23921237.026
        38.000
 25  1  1  2 15 30.0000000  0 25G06G19G12G11G20E27G24G25G05E34S35R13
                                E15R22R23S31S33R07G17R12E02E13R14E30
                                R08
 109756331.294 7  85524463.59447  20885919.509    20885919.2864   20885924.7054
        42.800          42.2004
 111070210.565 7  86548219.58544  21135956.243    21135954.6784   21135953.5174
        42.400          24.3004
 110081023.309 8  85777476.59748  20947696.679    20947696.1794   20947697.5794
        48.800          48.1004
 108327964.803 8  84411426.04547  20614121.174    20614120.9514   20614121.7084
        51.200          44.2004
 113584210.709 7  88507155.94144  21614362.818    21614361.6694   21614361.5314
        45.800          24.2004
 128519497.577 6                  24456422.397
        41.700
 131440897.520 5 102421544.76642  25012370.877    25012370.6144   25012378.1374
        32.500          16.3004
 122442622.655 5  95409856.07244  23300058.733    23300058.2284   23300064.4164
        34.300          27.6004
 129340397.478 6 100784700.60442  24612653.771    24612654.3614   24612652.3624
        37.700          14.1004
 126491930.195 7                  24070596.568
        47.300


 107026988.143 6                  20042694.576    20042693.959
        41.200
 124750764.894 7                  23739279.330
        47.400
 109254376.835 8  84975680.681 8  20467013.590    20467014.167    20467017.778
        51.400          51.400
 107852824.440 7                  20161900.969    20161903.090
        47.300
 198907179.825 6                  37850774.184
        41.900
 202057694.077 7                  38450301.112
        42.800
 119082378.171 6  92619638.253 6  22245589.831    22245587.823    22245591.382
        41.800          36.000
 124340467.864 6  96888699.56743  23661205.772    23661205.1244   23661209.5624
        36.000          18.9004
 110192793.078 7  85705533.395 6  20628306.966    20628306.994    20628313.620
        46.000          40.700
 142462316.560 5                  27109671.168
        32.300


 125429896.524 6                  23530310.376    23530309.163
        41.100
 125976665.595 8                  23972545.416
        49.100
 127905978.162 4                  23885539.914
        28.900
 25  1  1  2 15 45.0000000  0 25G06G19G12G11G20E27G24G25G05E34S35R13
                                E15R22R23S31S33R07G17R12E02E13R14E30
                                R24
 109782606.068 7  85544937.44646  20890919.347    20890919.1374   20890924.3374
        42.900          41.1004
 111095553.546 7  86567967.36244  21140779.094    21140777.5344   21140775.7024
        45.300          27.0004
 110060642.034 8  85761595.06548  20943818.063    20943817.5674   20943819.2114
        50.100          48.2004
 108318973.320 8  84404419.71347  20612410.357    20612410.1344   20612410.0074
        51.200          44.0004
 113542605.758 7  88474736.47444  21606444.943    21606443.7904   21606445.2794
        44.600          26.2004
 128498778.212 7                  24452480.229
        42.400
 131481849.779 5 102453417.30943  25020165.741    25020165.6214   25020170.8834
        32.100          20.3004
 122395885.808 6  95373437.82544  23291163.631    23291163.1224   23291169.7504
        36.700          29.0004
 129281485.358 5 100738795.14842  24601443.713    24601444.1024   24601442.3754
        34.200          15.3004
 126514840.049 7                  24074955.939
        45.600


 107024782.974 7                  20042283.268    20042283.173
        44.000
 124737957.663 7                  23736841.664
        47.400
 109282283.626 8  84997385.934 8  20472240.913    20472241.775    20472245.409
        51.800          50.900
 107842056.127 7                  20159886.868    20159887.556
        46.500
 198907182.360 6                  37850779.451
        40.800
 202057684.633 6                  38450296.305
        39.700
 119045553.710 6  92590997.018 6  22238707.547    22238708.473    22238714.541
        41.300          38.900
 124374833.513 6  96915478.01743  23667744.738    23667744.1124   23667748.3934
        36.200          23.0004
 110241923.302 7  85743745.823 7  20637503.539    20637503.941    20637511.068
        45.800          43.200
 142507176.902 5                  27118207.642
        33.100
 144405928.567 5                  27479534.405
        32.200
 125373930.818 6                  23519807.514    23519808.206
        40.500
 125997776.328 8                  23976562.381
        48.200
 127833781.946 5                  23905551.351    23905554.469
        33.800
 25  1  1  2 16  0.0000000  0 25G06G19G12G11G20E27G24G25G05E34S35R13
                                E15R22R23S31S33R07G17R12E02E13R14E30
                                R24
 109808949.844 7  85565465.05246  20895933.319    20895933.1184   20895936.8564
        43.600          40.9004
 111120962.731 7  86587766.65644  21145614.944    21145613.3754   21145611.5294
        44.100          28.8004
 110040399.094 8  85745821.31448  20939966.814    20939966.3144   20939966.9804
        51.300          48.3004
 108310080.979 8  84397490.63247  20610717.983    20610717.7604   20610717.9634
        50.700          44.2004
 113501091.717 7  88442387.83644  21598545.341    21598544.1794   21598546.1444
        44.900          28.8004
 128478139.934 7                  24448552.087
        42.300


 122349225.205 5  95337078.96644  23282285.084    23282284.5264   23282289.8104
        32.800          25.3004
 129222576.824 4 100692878.66442  24590231.666    24590232.0284   24590229.8494
        24.200          14.6004
 126537790.564 7                  24079324.106
        47.100


 107022785.351 7                  20041908.114    20041908.165
        44.200
 124725216.429 7                  23734417.183
        46.900
 109310233.905 8  85019125.063 8  20477476.452    20477476.834    20477481.585
        51.000          50.100
 107831362.747 7                  20157888.767    20157888.919
        46.200
 198907184.243 6                  37850779.156
        40.400
 202057675.040 7                  38450294.784
        42.100
 119008860.367 7  92562457.792 6  22231854.902    22231854.674    22231861.198
        42.200          39.600
 124409230.120 5  96942280.52443  23674290.939    23674290.3404   23674294.2224
        34.300          23.4004
 110291185.315 7  85782060.692 7  20646724.675    20646725.258    20646732.846
        46.500          43.100
 142552061.708 5                  27126751.755
        34.300
 144369712.612 5                  27472643.037
        33.500
 125318053.680 6                  23509322.910    23509323.467
        39.600
 126018976.167 7                  23980596.560
        47.800
 127791913.785 6  99393731.919 6  23897726.839    23897723.410    23897735.965
        37.200          37.000
 25  1  1  2 16 15.0000000  0 25G06G19G12G11G20E27G24G25G05E34S35R13
                                E15R22R23S31S33R07G17R12E02E13R14E30
                                R24
 109835358.828 7  85586043.49646  20900958.968    20900958.7364   20900961.6454
        43.100          40.1004
 111146434.600 7  86607614.82945  21150461.881    21150460.3484   21150459.6674
        44.300          30.0004
 110020291.460 8  85730153.05347  20936140.025    20936139.5294   20936139.7994
        49.500          46.3004
 108301284.131 8  84390635.96047  20609044.002    20609043.7924   20609044.4724
        51.300          44.1004
 113459665.432 7  88410107.58945  21590662.287    21590661.1564   21590664.0644
        44.900          30.4004
 128457579.418 7                  24444640.410
        44.900


 122302637.840 4  95300777.19244  23273418.438    23273417.8044   23273423.6514
        29.800          24.1004


 126560778.012 7                  24083698.095
        46.800


 107020991.517 7                  20041573.749    20041574.752
        45.400
 124712537.624 7                  23732004.319
        47.200
 109338224.039 8  85040895.138 8  20482720.801    20482722.163    20482724.357
        51.600          49.300
 107820740.556 7                  20155902.849    20155902.665
        45.600
 198907182.963 7                  37850781.852
        42.900
 202057662.937 7                  38450303.249
        45.000
 118972295.501 7  92534018.548 7  22225024.390    22225024.468    22225031.076
        42.300          42.700
 124443654.098 7  96969104.40344  23680841.206    23680840.5724   23680845.1364
        42.500          28.1004
 110340574.918 7  85820474.731 6  20655971.763    20655972.726    20655976.339
        45.700          41.600
 142596967.118 5                  27135297.123
        32.800
 144333526.930 4                  27465755.928
        28.700
 125262262.082 6                  23498868.958    23498867.110
        36.200
 126040261.426 7                  23984646.467
        46.200
 127750074.098 7  99361189.970 6  23889904.780    23889905.932    23889912.727
        42.200          37.900
 25  1  1  2 16 30.0000000  0 25G06G19G12G11G20E27G24G25G05E34S35R13
                                E15R22R23S31S33R07G17R12E02E13R14E30
                                R24
 109861841.700 7  85606679.49646  20905998.482    20905998.2374   20906000.8824
        45.200          40.2004
 111171978.222 7  86627518.95544  21155321.308    21155319.8114   21155321.1164
        44.400          29.9004
 110000328.081 7  85714597.22547  20932341.704    20932341.2134   20932339.6934
        47.700          43.8004
 108292591.636 8  84383862.59447  20607389.681    20607389.4624   20607390.8744
        50.600          44.0004
 113418335.993 7  88377902.82645  21582797.696    21582796.5474   21582799.6074
        47.100          31.7004
 128437105.744 8                  24440744.932
        48.000


 122256132.560 6  95264539.39944  23264569.766    23264569.1404   23264573.7474
        38.500          26.9004


 126583811.145 8                  24088081.897
        49.000


 107019410.430 7                  20041277.091    20041277.371
        44.400
 124699930.077 7                  23729605.405
        47.900
 109366262.871 8  85062703.119 8  20487973.411    20487973.592    20487976.702
        49.400          48.300
 107810198.454 7                  20153932.593    20153932.208
        44.400
 198907187.053 7                  37850771.483
        42.500
 202057654.134 7                  38450299.945
        45.500
 118935868.465 7  92505686.406 7  22218217.895    22218217.590    22218227.292
        43.700          42.700
 124478114.267 6  96995956.44044  23687399.253    23687398.6454   23687401.2284
        39.200          28.2004
 110390100.663 7  85858994.736 7  20665243.036    20665244.917    20665248.825
        44.700          43.800
 142641902.008 6                  27143848.819
        36.400
 144297380.254 5                  27458876.024
        32.700
 125206565.472 5                  23488408.642
        35.200
 126061641.024 7                  23988715.355
        45.600
 127708271.854 6  99328677.173 5  23882089.226    23882089.003    23882097.198
        40.500          35.200
 25  1  1  2 16 45.0000000  0 26G06G19G12G11G20E27G24G25G05E34S35R13
                                E15R22R23S31S33R07G17R12E21E02E13R14
                                E30R24
 109888389.046 7  85627365.75247  20911050.005    20911049.7644   20911052.5544
        47.000          42.8004
 111197584.280 6  86647471.74244  21160193.780    21160192.2744   21160194.3404
        41.100          27.5004
 109980499.895 7  85699146.73047  20928568.729    20928568.2384   20928565.9754
        47.500          44.1004
 108283994.207 8  84377163.29747  20605753.830    20605753.6164   20605754.7034
        49.700          43.4004
 113377094.498 7  88345766.59545  21574948.723    21574947.5344   21574951.1584
        43.400          30.0004
 128416709.890 8                  24436863.758
        48.100


 122209700.804 6  95228358.89344  23255733.584    23255732.9584   23255738.1564
        37.800          26.5004
 129045828.273 5 100555192.25342  24556603.747    24556603.3004   24556605.3894
        32.200          12.2004
 126606880.624 8                  24092471.258
        49.400


 107018033.050 7                  20041017.542    20041017.888
        42.600
 124687384.527 8                  23727218.335
        48.700
 109394340.769 8  85084541.501 8  20493232.863    20493232.967    20493235.921
        48.600          48.000
 107799726.983 7                  20151973.727    20151974.398
        43.700
 198907187.435 6                  37850776.080
        41.900
 202057643.431 7                  38450298.433
        45.000
 118899570.310 7  92477454.526 6  22211437.711    22211436.660    22211444.033
        43.700          39.700
 124512601.302 6  97022829.41544  23693962.889    23693962.3314   23693963.1864
        41.200          28.8004
 110439752.565 6  85897612.933 7  20674536.013    20674535.969    20674544.215
        41.400          43.600


 142686856.978 6                  27152402.908
        37.000
 144261263.566 5                  27452005.105
        33.900


 126083105.705 7                  23992799.785
        44.900
 127666497.867 6                  23874282.594    23874278.447
        37.300
 25  1  1  2 17  0.0000000  0 25G06G19G12G11G20E27G24G25G05E34S35R13
                                E15R22R23S31S33R07G17R12E21E02E13R14
                                E30
 109915006.071 7  85648106.30847  20916116.180    20916115.9394   20916117.5844
        46.800          43.9004
 111223258.168 7  86667477.35244  21165080.575    21165079.1044   21165080.4504
        43.500          28.5004
 109960812.660 8  85683806.05247  20924822.567    20924822.0944   20924820.1284
        49.500          45.3004
 108275497.213 8  84370542.26747  20604137.275    20604137.0564   20604137.7294
        49.900          43.4004
 113335946.681 7  88313703.37944  21567119.612    21567118.4414   21567121.0884
        42.600          28.7004
 128396397.473 7                  24432997.869
        47.900


 122163348.260 6  95192240.07944  23246913.579    23246912.9764   23246916.9064
        38.200          26.3004
 128986933.090 4 100509300.05441  24545397.826    24545397.4514   24545396.0424
        27.900          11.9004
 126629991.754 8                  24096868.798
        48.900
 200851899.528 6                  38220843.565
        37.500
 107016864.776 7                  20040799.255    20040798.836
        43.500
 124674906.380 8                  23724843.731
        49.100
 109422463.200 8  85106414.485 8  20498502.754    20498502.618    20498505.008
        49.600          48.400
 107789331.674 7                  20150032.251    20150032.994
        44.800
 198907188.949 7                  37850769.846
        42.600
 202057634.045 7                  38450294.100
        43.700
 118863407.248 6  92449327.768 6  22204682.432    22204681.487    22204686.012
        40.000          38.200
 124547120.667 6  97049727.56744  23700529.621    23700529.0404   23700531.6334
        38.100          26.1004
 110489535.859 6  85936333.254 7  20683856.249    20683855.439    20683864.185
        40.700          44.300


 142731837.366 6                  27160961.440
        36.500
 144225182.342 5                  27445139.657
        33.000
 125095437.251 6                  23467562.393    23467562.085
        39.700
 126104660.790 7                  23996902.058
        47.800
 25  1  1  2 17 15.0000000  0 26G06G19G12G11G20E27G24G25G05E34S35R13
                                E15R22R23S31S33R07G17R12E21E02E13R14
                                E30R24
 109941685.921 7  85668895.81747  20921192.939    20921192.6894   20921194.9954
        46.800          45.1004
 111248993.373 7  86687530.77244  21169978.602    21169977.1314   21169977.2714
        43.200          27.1004
 109941259.932 8  85668570.18347  20921101.191    20921100.7004   20921099.9534
        50.000          47.1004
 108267093.897 8  84363994.23747  20602538.186    20602537.9724   20602538.5924
        49.600          43.3004
 113294886.081 7  88281708.12844  21559306.140    21559305.0404   21559306.9724
        42.900          27.2004
 128376161.981 7                  24429147.111
        46.800


 122117068.564 6  95156178.03444  23238107.482    23238106.9014   23238109.6254
        40.400          27.5004
 128928037.648 6 100463407.48242  24534191.934    24534191.2954   24534188.9224
        36.100          15.0004
 126653137.684 8                  24101273.590
        48.800
 200851931.844 5                  38220863.602
        33.500
 107015898.955 7                  20040618.027    20040617.217
        43.200
 124662488.899 8                  23722480.605
        48.900
 109450623.185 8  85128316.688 8  20503777.607    20503777.983    20503781.675
        50.200          48.600
 107779005.420 6                  20148101.695    20148099.822
        40.800
 198907185.748 7                  37850774.452
        43.100
 202057619.082 7                  38450292.338
        45.400
 118827373.005 6  92421301.130 6  22197951.538    22197948.860    22197957.946
        41.600          38.700
 124581665.940 5  97076645.92143  23707104.351    23707103.8154   23707105.5854
        31.100          22.6004
 110539443.195 6  85975150.101 7  20693198.085    20693198.013    20693206.210
        41.200          44.100


 142776836.260 6                  27169525.017
        38.000
 144189130.051 5                  27438280.056
        35.900
                                                  23457163.318

 126126299.577 7                  24001019.833
        46.200
 127583044.347 6                  23858657.935    23858666.286
        37.700
 25  1  1  2 17 30.0000000  0 26G06G19G12G11G20E27G24G25G05E34S35R13
                                E15R22R23S31S33R07G17R12E21E02E13R14
                                E30R24
 109968439.818 7  85689743.01247  20926283.579    20926283.3294   20926286.7514
        47.500          45.9004
 111274801.282 7  86707640.83344  21174889.265    21174887.7684   21174887.8814
        45.500          29.8004
 109921853.430 8  85653448.23548  20917408.418    20917407.9314   20917407.4394
        50.500          48.0004
 108258795.715 8  84357528.12647  20600958.889    20600958.6664   20600959.5144
        49.500          43.3004
 113253924.654 7  88249790.17844  21551511.629    21551510.5834   21551512.0404
        42.300          27.2004
 128356015.126 7                  24425312.812
        46.200


 122070873.659 6  95120182.05844  23229316.582    23229316.0154   23229319.1754
        41.000          29.5004
 128869153.704 4 100417524.01142  24522985.240    24522984.3464   24522985.0304
        29.800          13.4004
 126676329.795 8                  24105686.810
        48.100
 200851970.317 5                  38220875.586
        32.700
 107015147.123 7                  20040478.582    20040478.226
        45.000
 124650143.545 8                  23720131.790
        49.100
 109478832.255 8  85150257.100 7  20509061.296    20509060.414    20509065.223
        48.000          46.600
 107768759.968 6                  20146183.693    20146184.045
        41.600
 198907189.194 6                  37850773.687
        41.800
 202057609.771 7                  38450287.867
        45.800
 118791479.856 7  92393384.235 6  22191245.232    22191246.319    22191251.411
        43.800          38.700
 124616248.603 5  97103593.38843  23713685.349    23713684.9114   23713687.3484
        33.400          20.4004
 110589485.764 6  86014072.094 7  20702567.760    20702568.249    20702573.011
        41.500          42.100


 142821865.068 5                  27178092.857
        35.800
 144153118.141 5                  27431428.136
        33.200
 124984671.033 6                  23446784.243    23446784.396
        40.100
 126148033.540 7                  24005156.043
        45.100
 127541369.702 5                  23850884.248    23850874.981
        35.300
 25  1  1  2 17 45.0000000  0 26G06G19G12G11G20E27G24G25G05E34S35R13
                                E15R22R23S31S33R07G17R12E21E02E13R14
                                E30R24
 109995257.219 7  85710639.68547  20931386.962    20931386.7304   20931390.6834
        47.900          47.1004
 111300671.592 7  86727799.53845  21179812.906    21179811.4354   21179810.6734
        47.500          30.7004
 109902583.054 8  85638432.36647  20913740.718    20913740.2274   20913740.5164
        49.700          47.7004
 108250592.248 8  84351135.82047  20599397.829    20599397.6104   20599398.3324
        48.900          42.7004
 113213052.247 7  88217941.61644  21543733.413    21543732.3764   21543733.7554
        43.700          26.8004
 128335946.705 7                  24421494.144
        47.100


 122024753.511 6  95084244.32644  23220539.325    23220538.7354   23220543.0524
        40.200          27.0004
 128810270.760 5 100371641.25242  24511783.128    24511782.2394   24511781.0674
        33.700          16.1004
 126699557.563 7                  24110106.647
        47.900
 200852004.972 6                  38220874.907
        36.300
 107014598.997 7                  20040374.827    20040375.633
        44.600
 124637859.891 8                  23717793.962
        48.000
 109507079.711 8  85172227.342 7  20514349.977    20514350.164    20514354.916
        48.300          43.900
 107758584.800 7                  20144281.354    20144282.398
        42.600
 198907189.002 6                  37850776.214
        41.600
 202057598.086 7                  38450282.908
        44.200
 118755717.614 7  92365569.191 6  22184564.369    22184566.157    22184571.433
        44.300          38.900


 110639652.781 6  86053090.861 7  20711959.023    20711958.424    20711965.480
        41.900          42.500


 142866913.196 6                  27186664.763
        36.400
 144117136.393 5                  27424580.864
        33.900
 124929425.393 5                  23436420.332    23436418.424
        34.100
 126169852.215 7                  24009307.643
        45.200
 127499723.016 5  99166495.891 5  23843106.373    23843115.808    23843101.519
        35.400          31.100
 25  1  1  2 18  0.0000000  0 26G06G19G12G11G20E27G24G25G05E34S35R13
                                E15R22R23S31S33R07G17R12E21E02E13R14
                                E30R24
 110022143.803 7  85731590.25047  20936503.437    20936503.1924   20936507.2444
        47.600          47.0004
 111326610.296 7  86748011.53245  21184747.890    21184746.4154   21184746.9334
        47.400          30.6004
 109883454.922 8  85623527.32147  20910100.470    20910099.9794   20910100.6024
        48.800          47.0004
 108242489.318 8  84344821.85547  20597855.719    20597855.4874   20597856.4184
        49.300          42.6004
 113172275.126 7  88186167.25344  21535973.701    21535972.6604   21535972.9864
        45.800          26.4004
 128315962.837 7                  24417690.870
        46.000


 121978714.404 6  95048369.71244  23211777.290    23211776.7274   23211782.3794
        38.000          26.6004
 128751395.334 5 100325764.34642  24500577.797    24500576.8414   24500578.3244
        30.000          15.9004
 126722826.763 7                  24114534.740
        47.400
 200852041.774 5                  38220891.004
        33.400
 107014260.410 7                  20040311.828    20040311.729
        43.800
 124625643.830 7                  23715469.332
        47.400
 109535371.443 8  85194231.980 7  20519651.088    20519650.723    20519655.318
        48.800          43.700
 107748485.653 7                  20142393.912    20142393.759
        42.400
 198907190.268 6                  37850775.454
        41.500
 202057588.109 7                  38450285.993
        46.100
 118720092.836 7  92337861.096 6  22177906.046    22177906.212    22177918.517
        42.300          38.900


 110689949.493 7  86092210.466 6  20721377.330    20721378.930    20721378.917
        44.700          40.900


 142911986.512 5                  27195241.227
        31.900
 144081190.788 5                  27417740.442
        32.100
 124874274.420 5                  23426072.230    23426072.752
        32.300
 126191761.499 7                  24013477.111
        44.500
 127458110.673 5  99134130.885 5  23835326.549    23835327.690    23835314.135
        31.700          34.500
 25  1  1  2 18 15.0000000  0 28G06G19G12G11G20E27G24G25G05E34S35R13
                                E15R22E36R23S31S33R07G17R12E21E02E13
                                R14E30R24R08
 110049097.709 8  85752593.29547  20941632.880    20941632.6264   20941635.9894
        49.300          47.0004
 111352615.693 7  86768275.48844  21189696.728    21189695.2574   21189696.1474
        45.700          29.3004
 109864467.607 8  85608732.01447  20906487.574    20906487.0694   20906487.2364
        48.400          46.3004
 108234485.256 8  84338584.93247  20596332.516    20596332.2714   20596333.0534
        48.900          42.3004
 113131591.894 7  88154466.04844  21528231.456    21528230.4104   21528231.0114
        43.900          27.2004
 128296062.079 7                  24413904.301
        46.100


 121932755.058 6  95012557.26944  23203031.804    23203031.1784   23203036.3374
        36.400          24.1004
 128692526.310 5 100279892.44442  24489375.963    24489375.0204   24489376.6014
        32.400          17.4004
 126746135.654 7                  24118969.739
        46.900
 200852078.964 5                  38220898.517
        33.400
 107014129.867 7                  20040288.602    20040287.542
        43.700
 124613493.682 8                  23713157.703
        48.100
 109563705.682 8  85216269.639 7  20524960.295    20524960.851    20524962.955
        51.100          42.800


 107738460.780 7                  20140521.500    20140520.163
        42.700
 198907192.218 6                  37850769.873
        40.400
 202057577.489 7                  38450280.359
        45.000
 118684604.469 7  92310258.988 6  22171281.687    22171278.954    22171290.759
        43.500          38.100
 124720238.630 5  97184613.69244  23733462.697    23733462.4654   23733470.1914
        34.200          24.3004
 110740373.716 7  86131429.293 7  20730817.835    20730818.789    20730819.692
        42.600          42.700


 142957083.159 5                  27203825.931
        33.300
 144045279.720 5                  27410908.722
        34.100
 124819216.919 6  97081539.176 5  23415747.761    23415746.596    23415752.838
        40.300          33.600
 126213759.710 7                  24017662.773
        42.800
                  99101791.209 5                                  23827532.237
                        34.700


 25  1  1  2 18 30.0000000  0 28G06G19G12G11G20E27G24G25G05E34S35R13
                                E15R22E36R23S31S33R07G17R12E21E02E13
                                R14E30R24R08
 110076120.379 8  85773649.91347  20946774.966    20946774.6944   20946777.3714
        51.200          46.6004
 111378689.457 7  86788592.68044  21194657.637    21194656.1574   21194657.9944
        43.400          25.1004
 109845623.063 8  85594047.97447  20902901.492    20902900.9964   20902901.6704
        49.000          46.9004
 108226581.645 8  84332426.26746  20594828.471    20594828.2434   20594828.6654
        49.000          41.5004
 113091004.711 7  88122839.66244  21520508.899    21520507.8624   21520509.2344
        44.200          27.5004
 128276246.251 7                  24410132.972
        45.900
 131933027.009 4 102804980.41242  25106023.444    25106023.5024   25106026.3364
        29.300          17.5004
 121886877.433 6  94976808.54944  23194302.229    23194301.3804   23194306.4244
        38.700          25.4004
 128633665.137 5 100234026.73342  24478174.776    24478174.0164   24478175.1244
        35.900          16.5004
 126769485.709 7                  24123413.692
        45.700
 200852118.236 5                  38220896.786
        30.500
 107014209.087 7                  20040300.459    20040300.707
        42.700
 124601411.041 8                  23710858.173
        48.500
 109592083.844 8  85238341.525 7  20530275.703    20530276.224    20530279.575
        48.900          44.800


 107728511.808 7                  20138661.284    20138659.574
        45.200
 198907196.737 6                  37850769.766
        41.200
 202057571.070 7                  38450283.677
        46.100
 118649254.843 7  92282764.939 5  22164676.568    22164676.456    22164682.090
        42.700          35.300
 124754945.302 6  97211657.83444  23740067.629    23740067.5044   23740070.1184
        38.800          29.1004
 110790926.838 7  86170748.371 7  20740280.528    20740281.945    20740285.581
        45.000          45.000


 143002204.713 5                  27212412.244
        33.400
 144009404.947 5                  27404077.646
        32.100
 124764255.047 6  97038791.080 5  23405431.184    23405431.667    23405441.630
        38.200          34.100
 126235848.446 7                  24021865.230
        42.300
 127375049.650 6  99069478.082 5  23819754.949    23819752.872    23819763.589
        36.900          33.400
 127198961.602 4                  23753507.385
        29.900
 25  1  1  2 18 45.0000000  0 27G06G19G12G11G20E27G24G25G05E34S35R13
                                E15R22E36R23S31S33R07G17R12E21E02E13
                                R14E30R24
 110103205.598 8  85794755.28947  20951928.752    20951928.4804   20951930.4384
        50.700          46.7004
 111404825.479 7  86808958.43743  21199631.141    21199629.6664   21199629.3514
        43.500          23.6004
 109826915.536 7  85579470.69047  20899341.464    20899340.9864   20899342.3304
        46.800          46.5004
 108218772.385 8  84326341.14947  20593341.630    20593341.4024   20593342.5394
        49.900          42.2004
 113050507.392 7  88091283.35444  21512801.473    21512800.4094   21512803.9984
        42.600          24.8004
 128256509.512 7                  24406377.651
        46.200
 131974101.932 5 102836986.83743  25113838.414    25113838.2584   25113844.6104
        35.300          18.7004
 121841075.852 6  94941119.06144  23185586.511    23185585.5994   23185590.5704
        36.800          24.5004
 128574806.695 6 100188163.08643  24466972.856    24466972.2264   24466973.3434
        36.300          18.0004
 126792870.819 7                  24127863.822
        46.400


 107014491.808 7                  20040355.801    20040354.706
        43.500
 124589389.833 8                  23708570.296
        48.800
 109620499.699 8  85260442.723 7  20535599.066    20535599.529    20535604.692
        50.700          45.000


 107718632.496 7                  20136813.794    20136813.568
        45.100
 198907196.769 7                  37850776.209
        42.500
 202057559.963 7                  38450278.642
        42.900
 118614038.020 6  92255374.123 5  22158097.865    22158096.683    22158103.072
        41.600          35.900
 124789679.166 6  97238723.15045  23746676.631    23746676.7834   23746677.2224
        40.900          31.1004
 110841601.842 6  86210162.320 7  20749763.154    20749764.683    20749770.554
        41.800          44.100




 143973560.386 6                  27397258.814
        37.600
                  96996112.942 5                                  23395151.912
                        33.800
 126258021.591 7                  24026086.041
        42.300
 127333532.187 6  99037186.791 6  23811991.834    23811992.322    23812000.799
        40.700          36.100
 25  1  1  2 19  0.0000000  0 27G06G19G12G11G20E27G24G25G05E34S35R13
                                E15R22E36R23S31S33R07G17R12E21E02E13
                                R14E30R24
 110130357.302 8  85815912.45147  20957095.720    20957095.4524   20957096.9244
        51.400          46.9004
 111431028.108 6  86829376.06843  21204616.181    21204614.7374   21204614.3924
        39.800          22.2004
 109808349.485 7  85565003.62247  20895808.653    20895808.1534   20895808.8364
        46.200          44.7004
 108211061.544 8  84320332.71047  20591874.658    20591874.4264   20591875.2704
        50.000          42.5004
 113010104.730 7  88059800.77243  21505114.174    21505113.0574   21505114.8464
        42.900          21.9004
 128236856.238 7                  24402638.121
        46.300
 132015185.103 5 102868999.75543  25121656.660    25121656.7984   25121664.3474
        31.800          18.1004
 121795354.896 6  94905492.46243  23176886.453    23176885.4834   23176887.8274
        36.400          22.4004
 128515955.152 6 100142304.84443  24455776.248    24455775.7974   24455774.7724
        37.100          18.9004
 126816294.965 7                  24132320.793
        46.600


 107014982.417 7                  20040448.043    20040447.627
        44.200
 124577434.179 8                  23706295.395
        49.700
 109648957.313 8  85282576.426 7  20540931.677    20540931.322    20540935.823
        52.100          46.000


 107708827.038 7                  20134979.564    20134979.433
        44.400
 198907197.459 6                  37850780.851
        40.300
 202057548.500 7                  38450276.773
        43.900
 118578958.687 6  92228090.359 5  22151544.455    22151541.593    22151549.386
        36.500          35.500
 124824444.332 6  97265812.82045  23753291.895    23753292.0114   23753291.8524
        39.400          31.0004
 110892402.987 7  86249674.359 7  20759274.962    20759275.762    20759281.145
        45.400          44.600




 143937750.304 5                  27390442.713
        31.200
 124654606.746 4  96953509.000 5  23384852.474    23384857.570    23384874.585
        28.800          33.600
 126280283.324 7                  24030321.945
        43.600
 127292046.969 4  99004920.544 5  23804229.004    23804226.562    23804245.386
        28.500          34.500
 25  1  1  2 19 15.0000000  0 26G06G19G12G11G20E27G24G25G05E34S35R13
                                E15R22R23S31S33R07G17R12E21E02E13R14
                                E30R24
 110157573.236 8  85837119.63347  20962274.320    20962274.0614   20962275.3354
        51.000          46.4004
 111457295.430 6  86849844.11043  21209616.328    21209614.9474   21209614.1714
        41.200          23.7004
 109789922.952 7  85550645.29447  20892302.286    20892301.7544   20892301.5374
        45.200          43.7004
 108203447.068 8  84314399.37947  20590426.212    20590425.9714   20590426.4824
        50.100          43.9004
 112969794.905 6  88028390.58641  21497442.838    21497441.8504   21497441.9584
        41.800           9.2004
 128217284.523 7                  24398913.739
        46.400
 132056274.614 5 102901017.32041  25129474.734    25129474.8544   25129485.8724
        33.800          11.0004
 121749712.915 6  94869927.29243  23168201.493    23168200.5864   23168200.6184
        37.500          23.3004
 128457108.937 5 100096450.75342  24444584.765    24444584.2564   24444577.9054
        30.300          17.2004
 126839755.950 8                  24136785.616
        48.100


 107015678.858 7                  20040576.518    20040577.930
        45.100
 124565541.997 8                  23704032.011
        48.600
 109677454.458 8  85304740.864 7  20546268.132    20546268.307    20546274.328
        51.500          46.400
 107699093.297 7                  20133160.310    20133160.306
        44.500
 198907196.536 7                  37850776.974
        42.600
 202057535.805 7                  38450274.081
        43.800
 118544015.904 6  92200912.526 5  22145018.189    22145017.254    22145019.230
        38.100          30.800
 124859238.603 6  97292925.18145  23759913.722    23759913.8114   23759912.8454
        40.200          32.2004
 110943327.592 7  86289282.301 7  20768810.240    20768810.035    20768813.196
        43.700          43.800




 143901972.896 5                  27383635.907
        30.900
 124599924.400 5                  23374603.174    23374600.187
        34.900
 126302631.573 6                  24034574.093
        40.900


 25  1  1  2 19 30.0000000  0 25G06G19G12G11G20E27G24G25G05E34S35R13
                                E15R22R23S31S33G17R12E21E02E13R14E30
                                R24
 110184857.044 8  85858379.76147  20967466.402    20967466.1434   20967467.6144
        49.900          46.7004
 111483631.337 6  86870365.64543  21214624.737    21214623.3834   21214626.8604
        37.500          21.8004
 109771640.120 7  85536398.95947  20888823.458    20888822.9264   20888822.3514
        45.100          45.1004
 108195932.755 8  84308544.08547  20588996.490    20588996.2494   20588996.6904
        50.000          43.5004
 112929582.173 7  87997055.94842  21489789.538    21489788.5734   21489787.6454
        44.500          13.3004
 128197798.491 8                  24395205.628
        48.100
 132097373.715 5 102933042.87241  25137295.156    25137295.3614   25137308.3674
        30.000           8.2004
 121704154.116 6  94834427.03444  23159531.743    23159530.8894   23159532.9274
        41.000          26.0004


 126863257.554 8                  24141257.804
        48.100


 107016585.013 7                  20040747.538    20040747.387
        43.900
 124553717.126 8                  23701781.754
        48.700
 109705994.970 8  85326939.028 7  20551616.578    20551616.631    20551621.552
        52.100          47.000
 107689434.819 7                  20131355.557    20131355.179
        45.800
 198907197.513 6                  37850773.763
        40.900
 202057524.490 7                  38450274.031
        46.400
 124894066.103 6  97320063.45745  23766540.660    23766540.7224   23766540.2904
        40.800          32.9004
 110994378.955 7  86328988.947 7  20778364.426    20778364.689    20778370.547
        42.200          44.900




 143866231.831 6                  27376834.825
        36.000
 124545338.871 6                  23364367.874    23364365.126
        37.500
 126325070.099 7                  24038845.612
        42.800
 127209171.469 5                  23788728.583    23788725.728
        31.600
 25  1  1  2 19 45.0000000  0 26G06G19G12G11G20E27G24G25G05E34S35R13
                                E15R22R23S31S33R07G17R12E21E02E13E30
                                R24R08
 110212204.648 8  85879689.54347  20972670.357    20972670.0854   20972672.4264
        49.300          46.7004
 111510031.796 6  86890937.42543  21219650.863    21219649.5404   21219650.6754
        36.600          22.2004
 109753497.240 7  85522261.65347  20885370.291    20885369.7104   20885370.0124
        44.500          44.6004
 108188514.650 8  84302763.76147  20587585.054    20587584.8094   20587585.4774
        51.800          45.0004
 112889462.809 6  87965794.31842  21482155.024    21482154.0774   21482152.9984
        40.200          13.6004
 128178394.413 7                  24391512.765
        46.300


 121658674.916 6  94798988.74144  23150875.826    23150874.9814   23150879.0954
        41.300          24.8004


 126886795.793 8                  24145737.097
        48.600


 107017697.108 7                  20040956.140    20040955.491
        45.000
 124541955.612 8                  23699543.943
        48.900
 109734574.724 8  85349167.719 8  20556969.732    20556969.955    20556975.770
        51.700          48.000
 107679847.893 8                  20129565.041    20129566.029
        48.300
 198907196.798 6                  37850772.601
        39.100
 202057512.830 7                  38450267.735
        45.200
 118474527.990 5  92146893.073 6  22132039.926    22132046.159    22132048.564
        34.200          36.900
 124928922.903 7  97347224.54045  23773174.767    23773174.8384   23773174.7744
        42.500          34.1004
 111045552.750 7  86368790.710 7  20787945.196    20787945.400    20787951.414
        42.200          45.600


 143228119.847 5                  27255407.178
        34.700
 143830523.404 5                  27370038.731
        35.000
 126347594.963 6                  24043132.113
        41.100


 126904163.851 5                  23698462.771
        30.700
 25  1  1  2 20  0.0000000  0 25G06G19G12G11G20E27G24G25G05E34S35R13
                                E15R22R23S31S33R07G17R12E21E02E13E30
                                R24
 110239619.873 8  85901052.04747  20977887.066    20977886.7854   20977890.3094
        48.100          46.6004
 111536500.614 4  86911562.53642  21224687.484    21224686.1884   21224687.7164
        29.300          17.8004
 109735498.632 8  85508236.79547  20881946.356    20881945.7574   20881944.7674
        49.600          47.0004
 108181196.721 8  84297061.48747  20586192.281    20586192.0404   20586193.1574
        52.300          45.6004
 112849441.273 6  87934608.71242  21474541.048    21474540.1454   21474540.2934
        39.200          17.7004
 128159076.458 7                  24387837.251
        46.700


 121613279.777 6  94763615.98744  23142237.459    23142236.6104   23142242.4334
        38.800          24.9004


 126910374.483 7                  24150223.477
        45.900


 107019019.182 7                  20041203.410    20041203.112
        45.300
 124530261.461 8                  23697318.397
        48.600
 109763197.689 8  85371429.992 7  20562332.807    20562333.192    20562337.054
        52.000          47.200
 107670336.365 7                  20127787.496    20127787.848
        47.300
 198907198.593 6                  37850770.718
        41.000
 202057503.017 7                  38450267.713
        44.400
                  92120041.376 5                                  22125596.617
                        34.300
 124963813.031 6  97374411.63245  23779812.391    23779812.4314   23779815.5184
        41.100          32.4004
 111096852.357 7  86408690.387 7  20797547.370    20797547.632    20797554.957
        42.700          46.200


 143273371.936 6                  27264016.045
        38.200
 143794851.768 5                  27363247.643
        32.000
 126370210.105 7                  24047435.692
        43.700
 127126295.482 5                  23773263.721    23773265.245
        35.200
 25  1  1  2 20 15.0000000  0 26G06G19G12G11G20E27G24G25G05E34S35R13
                                E15R22R23S31S33R07G17R12E21E02E13R14
                                E30R24
 110267100.683 7  85922465.65947  20983116.875    20983116.5804   20983119.9024
        47.200          45.8004
 111563036.353 5  86932239.77743  21229737.658    21229736.2724   21229737.5694
        34.800          18.5004
 109717642.743 8  85494323.13548  20878547.428    20878546.8564   20878547.2334
        49.700          48.4004
 108173977.104 8  84291435.81347  20584818.191    20584817.9634   20584819.1304
        52.000          45.3004
 112809515.800 6  87903497.95142  21466944.477    21466943.5384   21466945.5954
        37.100          17.3004
 128139843.084 7                  24384177.389
        46.800


 121567967.200 6  94728307.59843  23133615.183    23133614.3204   23133620.6754
        37.500          22.9004


 126933991.722 7                  24154718.113
        46.300


 107020549.269 7                  20041491.617    20041491.246
        45.400
 124518632.830 7                  23695105.451
        47.300
 109791861.819 8  85393724.301 7  20567702.128    20567702.077    20567706.234
        51.200          46.800
 107660898.395 7                  20126021.893    20126021.378
        44.800
 198907201.276 6                  37850781.432
        41.500
 202057492.419 7                  38450264.699
        44.000
 118405618.750 6  92093298.759 5  22119167.479    22119164.841    22119171.101
        36.400          33.100
 124998734.389 6  97401623.04645  23786457.914    23786457.9984   23786461.9594
        40.500          31.5004
 111148275.739 6  86448686.355 7  20807171.558    20807171.901    20807181.157
        40.200          45.100


 143318646.179 6                  27272632.033
        37.400
 143759215.168 5                  27356467.375
        30.000
 124382160.280 7                  23333752.694    23333754.383
        44.800
 126392913.747 7                  24051755.235
        44.600


 25  1  1  2 20 30.0000000  0 26G06G19G12G11G20E27G24G25G05E34S35R13
                                E15R22R23S31S33R07G17R12E21E02E13R14
                                E30R24
 110294644.763 8  85943928.55347  20988358.842    20988358.5384   20988361.5974
        49.000          47.2004
 111589636.935 6  86952967.55743  21234799.011    21234797.6034   21234799.1504
        38.200          22.3004
 109699927.674 8  85480519.19648  20875177.255    20875176.7014   20875176.8734
        50.300          49.5004
 108166853.663 8  84285885.08147  20583462.375    20583462.1524   20583463.3614
        50.800          44.7004
 112769684.877 6  87872460.87443  21459363.654    21459362.6664   21459367.8584
        38.200          18.1004
 128120692.366 7                  24380532.998
        47.700


 121522735.557 6  94693062.19343  23125009.327    23125008.4474   23125012.1584
        38.900          21.3004


 126957645.290 7                  24159219.284
        47.100


 107022285.434 7                  20041815.881    20041815.626
        42.700
 124507067.581 7                  23692904.277
        46.900
 109820564.964 8  85416048.921 7  20573078.618    20573078.541    20573083.776
        50.000          47.000
 107651531.633 7                  20124269.923    20124270.778
        45.700
 198907201.860 6                  37850780.059
        41.200
 202057483.199 7                  38450266.358
        43.700
 118371374.107 7  92066664.041 5  22112772.994    22112773.283    22112776.336
        45.300          34.000
 125033685.107 6  97428857.32244  23793107.791    23793107.8754   23793113.4394
        39.700          27.9004
 111199820.332 7  86488776.577 7  20816826.513    20816826.774    20816831.527
        47.200          44.800


 143363940.396 5                  27281248.458
        32.700


 124327961.580 7  96699451.215 5  23323586.390    23323587.000    23323590.202
        46.100          32.300
 126415703.758 7                  24056091.838
        44.600
 127043715.980 6  98811840.799 6  23757828.741    23757826.869    23757822.419
        41.500          36.400
 25  1  1  2 20 45.0000000  0 25G06G19G12G11G20E27G25G05E34S35R13E15
                                R22R23S31S33R07G17R12E21E02E13R14E30
                                R24
 110322253.940 8  85965442.19947  20993611.876    20993611.5594   20993615.4094
        48.900          46.7004
 111616304.240 6  86973747.25544  21239874.910    21239873.5334   21239874.2364
        39.000          24.1004
 109682355.585 8  85466826.67048  20871832.623    20871832.0914   20871832.9224
        50.200          48.7004
 108159828.290 8  84280410.78647  20582126.135    20582125.9124   20582126.4804
        50.400          44.5004
 112729950.642 6  87841499.08442  21451802.092    21451801.1094   21451805.6924
        40.000          16.4004
 128101626.448 8                  24376904.917
        48.600
 121477587.035 6  94657881.60843  23116417.111    23116416.2314   23116418.4334
        39.500          21.6004
 128104266.462 5  99821477.81042  24377428.873    24377428.9534   24377425.0544
        35.600          17.8004
 126981337.070 7                  24163727.833
        46.600


 107024229.453 6                  20042179.792    20042178.212
        40.900
 124495567.644 7                  23690716.125
        46.400
 109849308.890 8  85438405.311 7  20578463.642    20578463.435    20578467.618
        50.700          46.300
 107642238.024 7                  20122532.147    20122532.113
        44.600
 198907203.269 6                  37850790.702
        41.700
 202057472.094 7                  38450264.104
        42.000
 118337270.763 7  92040139.301 5  22106410.311    22106410.124    22106403.800
        43.700          33.200
 125068667.396 6  97456116.19644  23799766.857    23799766.8794   23799768.2514
        36.600          26.7004
 111251487.384 7  86528962.086 6  20826496.767    20826496.939    20826503.441
        47.000          41.800


 143409256.401 5                  27289872.526
        31.900


 124273861.378 6  96657373.222 5  23313434.086    23313433.354    23313443.675
        40.000          34.400
 126438582.064 7                  24060444.463
        43.500
 127002508.886 5  98779749.573 6  23750115.373                    23750105.194
        35.500          37.500
 25  1  1  2 21  0.0000000  0 26G06G19G12G11G20E27G24G25G05E34S35R13
                                E15R22R23S31S33R07G17R12E21E02E13R14
                                E30R24
 110349928.534 7  85987006.81647  20998877.824    20998877.5164   20998881.7914
        47.900          46.4004
 111643039.017 5  86994579.56143  21244961.592    21244960.2334   21244961.5124
        35.400          23.0004
 109664927.292 8  85453246.19547  20868515.341    20868514.8144   20868515.8774
        49.600          47.9004
 108152901.447 8  84275013.24247  20580807.734    20580807.5114   20580808.0544
        50.900          43.6004
 112690314.337 7  87810613.71542  21444258.445    21444257.4984   21444261.8724
        42.200          15.1004
 128082646.086 8                  24373292.784
        48.100


 121432522.679 6  94622766.58843  23107841.868    23107840.9474   23107844.3784
        41.700          23.6004
 128045482.335 6  99775672.10543  24366241.190    24366241.3594   24366238.4584
        36.800          20.0004
 127005067.402 7                  24168243.274
        47.700


 107026382.009 7                  20042583.951    20042583.395
        42.100
 124484133.526 7                  23688540.354
        46.100
 109878094.077 8  85460793.772 7  20583856.792    20583857.101    20583861.280
        51.400          47.200
 107633018.186 7                  20120809.361    20120809.318
        44.900
 198907205.962 6                  37850786.552
        39.200
 202057462.651 7                  38450263.156
        42.300
 118303309.803 6  92013725.422 5  22100060.737    22100066.926    22100062.485
        41.800          32.800
 125103681.783 5  97483400.13643  23806429.778    23806429.8044   23806428.4384
        34.900          23.3004
 111303276.992 7  86569242.845 6  20836193.494    20836192.557    20836196.546
        46.400          40.600


 143454594.616 4                  27298497.814
        29.300


 124219860.877 6  96615372.771 5  23303302.746    23303300.751    23303313.304
        41.900          34.300
 126461548.985 7                  24064815.387
        44.600


 25  1  1  2 21 15.0000000  0 25G06G12G11G20E27G24G25G05E34S35R13E15
                                R22R23S31S33R07G17R12E21E02E13R14E30
                                R24
 110377662.195 7  86008617.47547  21004155.549    21004155.2504   21004159.4414
        45.800          44.8004
 109647637.096 7  85439773.31347  20865225.831    20865225.3044   20865225.5504
        46.400          46.7004
 108146067.057 8  84269687.77047  20579507.136    20579506.9134   20579506.9824
        51.500          43.4004
 112650769.581 7  87779799.62042  21436732.859    21436731.8854   21436735.2864
        43.100          16.5004
 128063745.407 8                  24369696.277
        48.700


 121387536.738 6  94587712.66844  23099281.131    23099280.1924   23099284.1594
        41.200          25.0004
 127986702.886 5  99729870.11342  24355058.260    24355058.5284   24355051.9304
        31.000          16.0004
 127028830.163 7                  24172765.168
        45.200


 107028736.980 7                  20043024.877    20043024.775
        42.900
 124472759.149 7                  23686376.617
        47.200
 109906914.156 8  85483209.425 8  20589255.747    20589255.910    20589260.027
        50.600          48.200
 107623865.767 7                  20119098.758    20119098.529
        43.500
 198907203.264 6                  37850776.920
        40.300
 202057448.848 7                  38450254.285
        45.200
                  91987417.702 5                                  22093741.520
                        30.900
 125138722.160 6  97510704.28843  23813095.748    23813095.7924   23813096.4724
        36.700          21.2004
 111355182.655 7  86609613.858 6  20845908.366    20845908.155    20845913.350
        44.100          40.600


 143499948.574 5                  27307130.256
        31.500
 143617041.701 5                  27329413.922
        30.900
 124165954.512 7  96573445.593 5  23293191.565    23293191.419    23293199.727
        42.800          34.600
 126484598.587 7                  24069201.371
        44.900
 126920082.663 6  98715639.687 6  23734683.172    23734687.135    23734689.736
        38.300          38.000
 25  1  1  2 21 30.0000000  0 26G06G19G12G11G20E27G24G25G05E34S35R13
                                E15R22R23S31S33R07G17R12E21E02E13R14
                                E30R24
 110405465.558 8  86030282.43147  21009447.231    21009446.9324   21009450.0734
        48.600          45.6004
 111696703.424 7  87036395.94743  21255171.148    21255169.8114   21255172.4174
        42.100          22.8004
 109630495.701 6  85426416.38147  20861964.203    20861963.6854   20861963.6314
        41.200          45.5004
 108139335.681 8  84264442.54447  20578226.155    20578225.9364   20578225.6744
        50.600          42.9004
 112611327.437 6  87749065.53643  21429227.925    21429226.9104   21429228.5464
        40.900          18.0004
 128044935.274 7                  24366116.824
        47.900
 132426425.190 4                  25199908.505
        28.200
 121342640.216 7  94552728.29444  23090737.953    23090737.0374   23090740.1094
        43.300          24.9004


 127052635.845 7                  24177295.390
        46.900


 107031305.299 6                  20043502.121    20043501.513
        38.600
 124461455.094 8                  23684225.206
        48.700
 109935779.865 8  85505660.542 8  20594663.351    20594663.077    20594668.047
        48.600          48.300
 107614791.595 7                  20117403.789    20117404.302
        44.600
 198907206.320 6                  37850783.033
        41.000
 202057439.823 7                  38450253.569
        43.600
 118235834.268 6  91961225.098 5  22087452.292    22087453.793    22087450.153
        38.000          34.500
 125173799.230 5  97538037.02543  23819774.288    23819774.2714   23819772.6854
        34.400          21.5004
 111407214.592 6  86650083.173 6  20855648.429    20855647.402    20855654.440
        39.800          41.600






 124112153.362 7  96531600.273 6  23283100.830    23283100.040    23283109.060
        43.600          39.600
 126507741.438 7                  24073605.662
        45.000
 126878920.281 5  98683624.769 5  23726998.471    23727002.052    23726991.815
        32.700          34.200
 25  1  1  2 21 45.0000000  0 25G06G19G12G11G20E27G24G25G05E34S35R13
                                E15R22R23S31S33R07G17R12E21E02E13R14
                                E30
 110433325.545 8  86051991.49847  21014748.527    21014748.2324   21014751.1594
        50.000          45.4004
 111723630.920 7  87057378.40444  21260298.346    21260297.0454   21260296.1054
        42.300          28.6004
 109613490.785 7  85413165.82147  20858728.491    20858727.9824   20858727.4594
        43.800          45.4004
 108132694.561 8  84259267.66147  20576962.305    20576962.0914   20576962.1194
        51.000          43.6004
 112571975.748 7  87718401.76543  21421740.418    21421739.4574   21421739.6964
        43.500          20.0004
 128026203.154 7                  24362551.713
        46.900
 132467570.535 5 103221516.70342  25207738.875    25207738.9774   25207748.3444
        30.900          15.8004
 121297820.770 7  94517804.15444  23082208.994    23082208.0914   23082210.9634
        44.500          25.9004


 127076471.621 7                  24181830.729
        44.500


 107034073.959 6                  20044021.128    20044021.035
        37.900
 124450208.599 8                  23682084.893
        49.600
 109964678.177 8  85528137.022 7  20600076.051    20600076.530    20600081.014
        49.100          45.600
 107605782.508 7                  20115721.138    20115720.951
        47.700
 198907203.061 6                  37850777.882
        41.900
 202057424.492 7                  38450250.502
        45.200
 118202293.358 5  91935137.833 6  22081187.325    22081188.402    22081187.802
        32.300          38.700
 125208900.450 6  97565388.66143  23826453.916    23826453.8724   23826453.2184
        38.800          23.4004
 111459359.546 6  86690640.313 6  20865408.336    20865408.225    20865416.100
        38.300          41.400






 124058445.215 7  96489827.292 6  23273027.608    23273027.777    23273035.545
        44.100          36.400
 126530964.782 7                  24078024.714
        45.200
 25  1  1  2 22  0.0000000  0 26G06G19G12G11G20E27G24G25G05E34S35R13
                                E15R22R23S31S33R07G17R12E21E02E13R14
                                E30R08
 110461252.687 8  86073752.86647  21020062.815    21020062.5344   21020065.5754
        49.600          47.0004
 111750628.280 7  87078415.26144  21265437.786    21265436.4854   21265433.6914
        44.000          29.1004
 109596633.087 7  85400029.94247  20855520.772    20855520.2584   20855519.3034
        47.400          46.2004
 108126154.277 8  84254171.35447  20575718.079    20575717.8604   20575717.9124
        51.100          43.9004
 112532725.331 6  87687817.00743  21414269.936    21414268.9354   21414271.4564
        41.700          19.3004
 128007559.840 7                  24359004.305
        46.700
 132508723.488 5 103253583.94743  25215567.907    25215567.9654   25215579.1704
        32.600          19.3004
 121253089.465 7  94482948.70244  23073696.726    23073695.8374   23073696.0144
        42.200          26.4004
 127810387.460 5  99592447.45342  24321506.980    24321507.4004   24321493.2174
        32.800          14.5004
 127100348.003 7                  24186374.164
        45.000
 200852590.189 6                  38220979.100
        37.900
 107037053.483 6                  20044579.264    20044579.733
        38.800
 124439030.297 8                  23679957.792
        48.500
 109993619.749 8  85550647.134 7  20605498.529    20605499.111    20605502.704
        50.000          45.100
 107596849.272 7                  20114047.219    20114046.548
        43.200
 198907202.894 7                  37850779.232
        42.500
 202057413.366 7                  38450251.651
        45.500
                  91909165.029 6                                  22074948.543
                        38.600
 125244036.093 6  97592766.99343  23833138.207    23833138.1404   23833139.0944
        40.300          21.7004
 111511627.723 6  86731293.334 6  20875191.786    20875192.413    20875199.934
        40.200          41.000






 124004841.556 7  96448135.622 6  23262973.738    23262973.414    23262977.945
        45.000          37.400
 126554279.126 7                  24082460.896
        43.900
 126373614.436 5                  23599375.384
        31.400
 25  1  1  2 22 15.0000000  0 25G06G19G12G11G20E27G24G25G05E34S35R13
                                E15R22R23S31S33R07G17R12E02E13R14E30
                                R08
 110489246.184 8  86095565.98247  21025389.577    21025389.2964   21025391.8324
        48.400          45.8004
 111777695.088 6  87099506.28444  21270586.212    21270584.8934   21270584.9604
        40.900          28.6004
 109579922.319 8  85387008.56147  20852339.746    20852339.2144   20852339.2064
        48.100          46.7004
 108119714.279 8  84249153.16947  20574492.532    20574492.3134   20574492.7774
        51.000          43.6004
 112493576.059 6  87657311.10743  21406819.755    21406818.7724   21406824.2774
        41.600          20.9004
 127989005.039 7                  24355473.024
        47.200
 132549883.338 5 103285656.68443  25223399.427    25223399.3834   25223412.4074
        33.100          20.3004
 121208446.141 6  94448161.75444  23065201.510    23065200.6434   23065200.2044
        41.500          27.5004


 127124264.348 7                  24190925.520
        42.400


 107040243.971 6                  20045180.103    20045180.469
        41.500
 124427919.631 8                  23677843.878
        48.700
 110022603.940 8  85573190.368 7  20610927.575    20610927.996    20610930.377
        48.600          44.000
 107587991.477 7                  20112390.965    20112390.634
        45.900
 198907206.234 6                  37850772.744
        40.800
 202057404.652 7                  38450245.082
        46.800
                  91883306.187 6                                  22068737.450
                        36.700
 125279205.880 6  97620172.02543  23839830.196    23839830.1124   23839829.6124
        39.200          18.7004
 111564018.384 7  86772041.505 6  20885003.952    20885005.407    20885006.891
        43.400          41.300




 123951341.898 7  96406524.812 6  23252934.681    23252935.480    23252940.713
        42.700          37.000
 126577684.082 7                  24086914.544
        43.200
 126314684.521 5                  23588379.534    23588381.825
        33.700
 25  1  1  2 22 30.0000000  0 26G06G19G12G11G20E27G24G25G05E34S35R13
                                E15R22R23S31S33R07G17R12E02E13R14E30
                                R24R08
 110517300.991 8  86117426.86147  21030728.245    21030727.9734   21030730.4894
        49.100          46.0004
 111804826.566 7  87120647.70145  21275749.911    21275748.6374   21275748.1324
        42.000          30.7004
 109563353.844 7  85374098.06647  20849186.546    20849186.0144   20849186.9264
        47.900          46.9004
 108113369.503 8  84244209.20547  20573284.896    20573284.6734   20573285.6274
        51.400          43.9004
 112454523.055 6  87626880.25342  21399389.622    21399388.7514   21399394.8644
        41.700          16.5004
 127970534.042 7                  24351958.072
        45.400
 132591044.637 6 103317730.41843  25231233.983    25231234.0724   25231244.3334
        36.900          21.7004
 121163886.314 6  94413439.90044  23056721.835    23056720.9814   23056723.0724
        39.200          29.7004
 127692931.548 6  99500940.90843  24299157.584    24299158.0494   24299151.8194
        36.200          19.0004
 127148215.669 7                  24195484.174
        43.500


 107043639.822 6                  20045815.511    20045815.167
        40.900
 124416871.629 8                  23675741.141
        48.700
 110051625.572 8  85595762.791 6  20616364.831    20616365.802    20616366.819
        48.500          40.800
 107579203.838 7                  20110747.928    20110749.231
        44.800
 198907208.185 7                  37850787.777
        42.900
 202057394.799 7                  38450249.268
        45.800
 118102564.656 6  91857558.248 6  22062550.286    22062545.631    22062555.624
        37.600          39.500
 125314405.188 6  97647600.03042  23846528.776    23846528.6964   23846525.0084
        37.500          17.2004
 111616525.652 7  86812880.515 6  20894832.445    20894834.485    20894837.606
        44.300          40.300


 143440063.410 5                  27295734.749
        32.000
 123897942.278 7  96364991.825 6  23242914.747    23242917.584    23242923.200
        44.800          36.500
 126601174.521 7                  24091384.983
        44.500
 126714588.254 4                  23696270.133    23696273.849
        28.000
 126255758.077 5                  23577366.333    23577366.890
        30.400
 25  1  1  2 22 45.0000000  0 24G06G19G12G11G20E27G24G25G05E34S35R13
                                E15R22R23S31S33R07G17R12E02E13R14E30
 110545416.484 7  86139335.02447  21036077.930    21036077.6674   21036080.9194
        46.500          44.1004
 111832022.257 6  87141839.15544  21280925.510    21280924.2364   21280923.7144
        41.400          28.7004
 109546927.455 8  85361298.29447  20846060.357    20846059.8344   20846061.6654
        48.000          47.8004
 108107119.624 8  84239339.17947  20572095.301    20572095.0784   20572096.2294
        51.600          43.3004
 112415566.437 7  87596524.03741  21391975.990    21391975.0784   21391982.6174
        43.200           7.3004
 127952146.644 7                  24348459.304
        47.100
 132632206.770 5 103349804.88043  25239065.953    25239065.9934   25239075.5754
        35.300          21.3004
 121119409.769 7  94378782.89645  23048258.647    23048257.8204   23048260.7554
        42.500          30.4004
 127634218.062 5  99455192.08142  24287988.951    24287989.4294   24287977.2294
        30.200          16.3004
 127172201.388 7                  24200047.650
        44.000


 107047241.016 6                  20046489.532    20046489.903
        40.700
 124405885.935 8                  23673650.482
        49.000
 110080684.222 8  85618363.968 7  20621808.893    20621809.381    20621811.883
        49.700          42.200
 107570486.014 7                  20109120.043    20109120.183
        43.300
 198907208.055 6                  37850776.075
        38.700
 202057382.709 7                  38450245.189
        45.200
 118069602.577 7  91831921.129 5  22056391.784    22056392.410    22056394.676
        45.600          34.300
 125349633.608 6  97675050.69542  23853232.582    23853232.5114   23853226.4634
        38.700          14.6004
 111669148.791 5  86853809.527 6  20904679.097    20904679.906    20904690.562
        34.900          41.800


 143404770.744 5                  27289017.345
        33.800
 123844642.547 6  96323536.534 6  23232915.891    23232917.310    23232925.842
        41.900          36.600
 126624750.103 7                  24095870.713
        43.500
 25  1  1  2 23  0.0000000  0 24G06G19G12G11G20E27G24G25G05E34S35R13
                                E15R22R23S31S33R07G17R12E02E13R14E30
 110573598.369 7  86161294.93947  21041440.572    21041440.2954   21041444.1844
        45.200          42.8004
 111859288.001 6  87163085.16544  21286115.536    21286114.2404   21286112.1914
        36.400          27.9004
 109530649.386 8  85348614.07948  20842963.378    20842962.8604   20842964.0914
        50.000          48.8004
 108100970.390 8  84234547.57847  20570925.108    20570924.8944   20570925.9254
        50.200          43.3004
 112376712.546 6  87566248.18741  21384582.570    21384581.6674   21384591.3294
        41.100          11.6004
 127933848.896 7                  24344976.938
        46.200
 132673375.178 5 103381884.15143  25246900.153    25246900.1494   25246910.2874
        34.900          20.7004
 121075022.910 7  94344195.80745  23039811.717    23039810.9134   23039814.9954
        42.900          30.1004


 127196227.308 7                  24204618.728
        42.400


 107051053.010 6                  20047202.485    20047202.273
        41.100
 124394968.282 8                  23671573.264
        49.800
 110109785.669 8  85640998.400 6  20627259.280    20627260.101    20627259.460
        49.100          38.400
 107561843.721 7                  20107505.977    20107506.120
        45.100
 198907211.182 6                  37850776.554
        41.000
 202057374.325 7                  38450241.755
        45.300
 118036789.657 7  91806400.009 5  22050259.466    22050257.912    22050263.353
        43.200          34.100
 125384897.136 6  97702528.76941  23859942.818    23859942.7924   23859935.0154
        38.000          10.7004
 111721864.702 5  86894832.998 6  20914565.697                    20914562.322
        33.500          41.000




 123791449.451 7  96282164.018 5  23222938.347    23222939.264    23222940.346
        42.400          32.100
 126648416.617 6                  24100374.422
        41.900
 25  1  1  2 23 15.0000000  0 26G06G19G12G11G20E27G24G25G05E34S35R13
                                E15R22R23S31S33R07G17R12E21E02E13R14
                                E30R24
 110601839.650 7  86183301.13247  21046815.547    21046815.3244   21046818.8324
        47.800          44.5004
 111886617.342 6  87184380.75644  21291313.912    21291312.7364   21291311.8204
        38.000          25.0004
 109514513.050 7  85336040.32248  20839893.579    20839893.0794   20839893.1114
        46.700          48.9004
 108094914.904 8  84229829.02447  20569772.596    20569772.3734   20569773.6864
        50.200          42.9004
 112337954.634 7  87536047.21642  21377207.277    21377206.3564   21377217.8434
        42.000          13.6004
 127915634.238 7                  24341511.258
        45.400
 132714542.810 5 103413962.76543  25254734.868    25254734.8514   25254743.2824
        35.500          18.3004
 121030719.248 6  94309673.50244  23031380.190    23031379.3724   23031385.0304
        39.400          27.8004


 127220286.483 6                  24209197.787
        41.500


 107055069.584 7                  20047955.493    20047955.750
        42.400
 124384111.921 8                  23669507.140
        49.100
 110138922.851 8  85663660.639 6  20632717.426    20632718.204    20632720.683
        49.400          39.500
 107553270.236 7                  20105901.405    20105901.662
        43.800
 198907212.284 6                  37850779.263
        41.400
 202057364.025 7                  38450239.122
        43.900
 118004119.080 7  91780989.544 5  22044154.439    22044156.141    22044163.617
        43.800          35.000
 125420188.691 6  97730028.70442  23866659.251    23866659.1754   23866650.4984
        38.900          13.8004


 149628309.672 5                  28473322.051
        31.600


 143334260.224 5                  27275602.675
        33.700
 123738356.336 5  96240869.547 4  23212971.323    23212970.063    23212979.052
        35.800          29.900
 126672167.136 7                  24104894.305
        44.500
 126591721.984 5                  23673291.534
        30.400
 25  1  1  2 23 30.0000000  0 24G06G19G12G11G20E27G24G25E34S35R13E15
                                R22R23S31S33R07G17R12E21E02E13R14E30
 110630145.383 8  86205357.54647  21052201.793    21052201.6014   21052205.5554
        49.600          44.8004
 111914015.469 7  87205729.91244  21296528.782    21296527.6424   21296524.3154
        44.800          26.4004
 109498523.772 8  85323581.17348  20836850.165    20836849.6744   20836849.7824
        48.700          48.1004
 108088958.483 8  84225187.67047  20568639.444    20568639.2304   20568640.0274
        49.900          42.7004
 112299298.311 6  87505925.36941  21369849.754    21369848.8914   21369863.0344
        38.500          11.0004
 127897508.135 7                  24338062.414
        46.200
 132755714.604 5 103446044.61941  25262567.171    25262567.2204   25262575.8254
        30.400          10.7004
 120986504.501 6  94275220.44745  23022966.874    23022966.0564   23022975.0174
        38.800          30.0004
 127244384.079 7                  24213783.677
        43.500


 107059295.556 7                  20048747.433    20048747.264
        43.900
 124373322.050 8                  23667454.087
        48.900
 110168101.123 8  85686354.808 6  20638184.913    20638184.579    20638186.397
        49.300          39.400
 107544770.467 7                  20104314.315    20104313.762
        46.500
 198907215.534 7                  37850786.141
        42.800
 202057355.206 7                  38450239.117
        43.400
 117971597.061 7  91755694.634 5  22038080.626    22038080.928    22038087.634
        43.200          34.500
 125455513.712 7  97757554.78642  23873380.609    23873380.5424   23873373.7574
        42.100          14.5004
 111827701.991 6  86977149.677 6  20934371.901    20934371.463    20934375.670
        40.500          39.600
 149585804.308 4                  28465236.010
        29.900


 143299075.937 4                  27268909.092
        29.500
 123685369.311 7  96199657.366 5  23203040.135    23203037.266    23203041.094
        42.200          31.200
 126696007.096 7                  24109431.571
        45.300
 25  1  1  2 23 45.0000000  0 25G06G19G12G11G20E27G24G25E34S35R13E15
                                R22R23S31S33R07G17R12E21E02E13R14E30
                                R24
 110658509.938 8  86227459.75447  21057599.207    21057599.0334   21057602.5044
        50.200          43.3004
 111941476.791 6  87227128.27044  21301753.257    21301752.1264   21301749.7954
        39.200          26.0004
 109482676.244 7  85311232.45547  20833834.580    20833834.0894   20833833.5214
        46.900          47.5004
 108083095.498 8  84220619.12347  20567523.910    20567523.6874   20567523.9774
        50.800          43.4004
 112260738.521 6  87475878.55541  21362509.748    21362508.8184   21362526.4214
        38.900           9.3004
 127879465.206 7                  24334628.609
        45.300


 120942373.459 7  94240832.70644  23014568.557    23014567.7174   23014578.3524
        43.400          29.1004
 127268514.541 7                  24218375.389
        44.800


 107063725.580 7                  20049576.913    20049575.770
        43.700
 124362593.152 8                  23665412.918
        49.900
 110197314.679 8  85709076.463 7  20643656.916    20643658.001    20643661.085
        51.300          42.100
 107536339.086 7                  20102735.734    20102736.151
        46.100
 198907215.573 7                  37850785.622
        43.300
 202057343.605 7                  38450241.675
        43.700
 117939218.315 7  91730511.356 4  22032034.067    22032031.332    22032036.948
        45.100          28.700
 125490866.591 6  97785102.51342  23880108.031    23880107.9154   23880106.7104
        39.500          17.0004
 111880791.057 6  87018441.886 6  20944306.935    20944308.928    20944315.922
        41.800          41.900






                                                  23193114.105

 126719930.826 7                  24113983.954
        45.100
 126509936.598 5                  23657981.838    23657978.082
        32.400
 25  1  1  2 24  0.0000000  0 25G06G19G12G11G20E27G25E34S35R13E15R22
                                R23S31S33R07G17R12E21E02E13R14E30R24
                                R08
 110686937.539 8  86249611.11846  21063007.091    21063006.9354   21063011.4184
        48.500          40.5004
 111969005.816 7  87248579.39544  21306992.864    21306991.6804   21306989.1954
        42.000          26.9004
 109466975.336 7  85298997.98847  20830846.130    20830845.6394   20830845.6144
        47.300          47.1004
 108077330.455 8  84216126.89047  20566426.655    20566426.4274   20566426.9364
        49.900          44.2004
 112222279.764 6  87445910.67541  21355194.420    21355193.7054   21355208.3294
        40.900          10.0004
 127861510.222 7                  24331212.021
        47.300
 120898331.067 7  94206514.00144  23006187.132    23006186.2524   23006196.4794
        44.200          27.3004
 127292682.150 6                  24222973.163
        41.800


 107068364.002 7                  20050444.707    20050444.253
        44.200
 124351929.707 8                  23663383.612
        50.000
 110226567.976 8  85731829.043 6  20649137.171    20649137.210    20649140.486
        49.200          41.800
 107527980.316 7                  20101173.823    20101174.365
        45.800
 198907217.565 6                  37850776.214
        39.800
 202057333.803 6                  38450244.702
        37.800
 117906988.070 7  91705443.450 6  22026010.987    22026011.044    22026020.594
        46.600          37.200
 125526252.044 6  97812675.45042  23886840.643    23886840.4784   23886842.6554
        40.800          12.6004
 111933999.665 6  87059825.011 6  20954268.182    20954272.593    20954272.705
        41.900          36.500




 143228795.749 5                  27255537.756
        30.100
 123579554.124 6                  23183214.577    23183214.957
        38.300
 126743942.749 7                  24118553.078
        43.300


 125902433.090 5                  23511364.596    23511371.903
        35.600
 25  1  1  2 24 15.0000000  0 25G06G19G12G11G20E27G24G25G05E34S35R13
                                E15R22R23S31S33R07G17R12E21E02E13E30
                                R24
 110715427.704 7  86271811.25446  21068429.495    21068429.3394   21068432.0364
        46.400          40.4004
 111996602.404 6  87270083.20044  21312244.663    21312243.4524   21312241.6354
        41.500          28.6004
 109451421.075 7  85286877.81247  20827887.020    20827886.5294   20827885.5614
        46.500          46.0004
 108071662.871 8  84211710.59247  20565348.285    20565348.0404   20565348.5684
        49.500          43.8004
 112183922.157 7  87416020.81641  21347896.673    21347896.1414   21347910.2974
        42.700          10.0004
 127843643.016 7                  24327811.255
        47.500


 120854377.299 7  94172264.32645  22997823.613    22997822.7014   22997831.6474
        43.800          30.0004


 127316886.490 7                  24227580.049
        45.200


 107073210.687 7                  20051352.308    20051351.590
        44.200
 124341331.295 8                  23661366.280
        49.100
 110255860.577 8  85754612.206 7  20654625.407    20654625.349    20654628.884
        51.200          43.100
 107519693.882 7                  20099623.907    20099623.933
        44.300
 198907220.898 6                  37850786.744
        37.500
 202057325.397 7                  38450237.887
        42.000
 117874906.223 7  91680490.809 6  22020015.906    22020016.427    22020023.938
        47.800          36.800
 125561669.811 6  97840273.65842  23893581.174    23893580.9644   23893585.4504
        40.700          14.6004
 111987322.654 7  87101298.363 6  20964251.679    20964253.532    20964254.927
        42.200          40.200




 143193716.406 6                  27248861.189
        36.600
 126768042.470 7                  24123138.985
        43.100
 126428218.548 5                  23642697.355    23642698.306
        35.800
 25  1  1  2 24 30.0000000  0 25G06G19G12G11G20E27G24G25G05E34S35R13
                                E15R22R23S31S33R07G17R12E21E02E13E30
                                R24
 110743973.760 8  86294054.99746  21073862.099    21073861.9164   21073863.4924
        48.400          38.0004
 112024260.000 7  87291634.55145  21317507.484    21317506.2774   21317505.2354
        44.600          30.1004
 109436006.939 7  85274866.81147  20824954.242    20824953.7464   20824952.6064
        47.600          47.0004
 108066086.288 8  84207365.22747  20564287.392    20564287.1564   20564287.2694
        50.200          43.3004
 112145659.555 6  87386205.32741  21340615.657    21340615.1794   21340629.8694
        41.800          11.3004
 127825857.283 7                  24324427.138
        46.400


 120810506.085 7  94138078.94544  22989475.842    22989474.9084   22989481.8754
        43.000          29.2004


 127341120.979 6                  24232192.627
        40.400


 107078259.017 7                  20052296.981    20052296.480
        42.400
 124330791.443 8                  23659360.894
        50.200
 110285185.744 8  85777420.618 7  20660118.197    20660118.715    20660122.581
        49.500          43.500
 107511473.232 7                  20098087.754    20098088.852
        46.000
 198907218.255 6                  37850776.299
        41.800
 202057310.512 7                  38450236.081
        44.900
 117842966.959 7  91655649.306 5  22014048.342    22014051.059    22014059.675
        47.000          35.000
 125597113.518 6  97867891.82742  23900326.521    23900326.1284   23900331.4884
        38.000          12.0004
 112040754.525 7  87142856.466 6  20974255.389    20974254.280    20974260.688
        45.600          40.800


 144091426.785 5                  27419686.650
        31.100
 143158666.894 5                  27242191.448
        34.500
 126792223.573 6                  24127739.104
        41.300
 126387433.551 6                  23635071.516    23635070.867
        37.300
 25  1  1  2 24 45.0000000  0 26G06G19G12G11G20E27G24G25G05E34S35R13
                                E15R22R23S31S33R07G17R12E21E02E13R14
                                E30R24
 110772581.331 8  86316346.55946  21079306.053    21079305.8434   21079304.7724
        49.500          38.3004
 112051984.453 6  87313237.96044  21322782.043    21322780.8274   21322780.7124
        40.700          26.0004
 109420739.120 7  85262969.81548  20822048.381    20822047.8634   20822048.1314
        46.300          48.7004
 108060606.393 8  84203095.19247  20563244.425    20563244.1934   20563243.9864
        50.900          43.8004
 112107498.069 7  87356469.10542  21333353.556    21333353.0064   21333368.7374
        43.300          12.7004
 127808159.065 7                  24321059.865
        47.100


 120766723.573 7  94103962.59845  22981142.886    22981141.9704   22981153.2734
        44.500          31.7004
 127164982.975 5  99089592.96342  24198703.240    24198702.8964   24198691.7604
        33.300          16.6004
 127365391.329 7                  24236810.935
        45.000


 107083514.604 7                  20053281.543    20053281.740
        43.900
 124320315.929 8                  23657366.816
        50.500
 110314549.334 8  85800258.905 7  20665619.844    20665620.139    20665623.499
        50.900          44.200
 107503323.946 7                  20096563.990    20096564.279
        45.300
 198907216.302 7                  37850774.854
        42.400
 202057297.995 7                  38450232.401
        45.300
 117811176.451 7  91630923.223 4  22008109.536    22008110.459    22008115.301
        46.600          29.200
 125632588.688 6  97895534.96743  23907079.768    23907079.3754   23907083.7004
        40.600          20.4004
 112094300.830 7  87184503.545 7  20984278.360    20984277.248    20984282.636
        43.100          42.800


 144137056.859 5                  27428370.862
        31.700
 143123653.048 5                  27235530.082
        32.700
 123421838.748 5  95994804.861 5  23153651.440    23153651.701    23153630.081
        35.900          34.200
 126816491.591 6                  24132358.381
        38.800
 126346681.104 6                  23627449.744    23627449.117
        40.700
 25  1  1  2 25  0.0000000  0 26G06G19G12G11G20E27G24G25G05E34S35R13
                                E15R22R23S31S33R07G17R12E21E02E13R14
                                E30R24
 110801249.555 8  86338685.45546  21084762.148    21084761.9384   21084759.5484
        48.800          38.7004
 112079775.125 7  87334892.94244  21328070.053    21328068.7844   21328068.3934
        43.400          24.3004
 109405617.063 8  85251186.38448  20819171.472    20819170.9814   20819170.9994
        49.200          48.2004
 108055222.535 8  84198899.98947  20562219.509    20562219.2814   20562219.5064
        50.800          43.7004
 112069437.364 7  87326811.51242  21326111.011    21326110.4264   21326126.3314
        42.700          12.3004
 127790547.882 7                  24317708.008
        46.500


 120723029.572 7  94069915.35744  22972828.669    22972827.7624   22972839.1224
        42.800          28.4004


 127389696.788 7                  24241436.093
        44.900


 107088976.835 7                  20054302.644    20054302.548
        42.300
 124309904.057 8                  23655385.640
        49.800
 110343950.518 8  85823126.492 7  20671127.127    20671127.496    20671131.067
        50.400          43.500
 107495245.504 7                  20095055.023    20095055.030
        47.100
 198907215.002 7                  37850785.510
        43.000
 202057284.617 7                  38450225.635
        44.900
 117779534.662 6                  22002200.136    22002198.652
        41.900
 125668094.875 6  97923202.08544  23913835.551    23913835.1404   23913840.9754
        39.500          24.1004
 112147960.365 7  87226238.755 7  20994321.263    20994320.888    20994327.684
        42.700          42.800


 144182705.196 5                  27437058.766
        32.200
 143088674.598 4                  27228871.970
        27.200
                  95954080.021 6                                  23143812.991
                        39.200
 126840846.116 7                  24136993.102
        43.300
 126305960.392 6  98237938.448 6  23619834.584    23619833.205    23619844.450
        41.300          39.700
 25  1  1  2 25 15.0000000  0 27G06G19G12G11G20E27G24G25G05E34S35R13
                                E15R22R23S31S33R07G17R12E21E02E13R14
                                E30R24R08
 110829980.502 7  86361073.19146  21090229.466    21090229.2794   21090227.2344
        46.900          40.2004
 112107634.354 7  87356601.39344  21333370.931    21333369.6174   21333370.7314
        42.600          24.1004
 109390643.394 8  85239518.60247  20816321.851    20816321.3424   20816321.1234
        49.100          47.8004
 108049936.841 8  84194781.28647  20561213.898    20561213.6794   20561214.0844
        51.000          44.4004
 112031479.903 6  87297234.32141  21318886.211    21318885.6574   21318902.6354
        40.600          11.9004
 127773026.176 7                  24314373.951
        45.500
 133043886.830 5 103670605.74042  25317409.373    25317409.4894   25317420.8574
        32.400          16.8004
 120679426.593 7  94035938.96244  22964531.738    22964530.8044   22964540.1444
        42.400          27.6004


 127414039.420 7                  24246068.622
        45.300


 107094648.245 7                  20055365.618    20055365.972
        44.400
 124299558.009 8                  23653416.947
        49.400
 110373391.441 8  85846024.976 7  20676643.498    20676643.502    20676646.246
        50.600          42.800
 107487240.064 7                  20093558.860    20093558.709
        47.500
 198907216.094 6                  37850781.365
        41.700
 202057273.593 7                  38450227.477
        45.200
 117748044.510 7  91581799.668 5  21996318.749    21996317.163    21996322.801
        44.000          34.700
 125703634.528 6  97950895.25644  23920598.234    23920597.8504   23920605.9234
        38.800          25.1004
 112201734.868 7  87268063.369 7  21004389.388    21004390.123    21004396.580
        46.000          44.400


 144228374.006 5                  27445746.163
        32.600
 143053733.621 4                  27222223.427
        29.100
 123317226.283 6  95913439.982 6  23134006.463    23134005.314    23134009.750
        37.500          40.600
 126865289.174 7                  24141644.820
        43.300
 126265274.020 7  98206293.579 6  23612228.927    23612227.423    23612234.665
        42.000          36.800
                                                  23456427.480

 25  1  1  2 25 30.0000000  0 25G06G19G12G11G20E27G24G25E34S35R13E15
                                R22R23S31S33R07G17R12E21E02E13R14E30
                                R24
 110858772.552 8  86383508.55346  21095708.667    21095708.4934   21095707.5024
        48.100          41.1004
 112135560.764 7  87378362.22644  21338685.719    21338684.3784   21338685.4294
        42.700          24.2004
 109375816.891 8  85227965.48647  20813500.492    20813499.9834   20813498.7464
        48.800          46.7004
 108044747.874 8  84190737.94947  20560226.607    20560226.3794   20560227.0814
        50.600          44.5004
 111993624.774 5  87267736.82242  21311680.487    21311679.8484   21311698.4354
        32.900          12.1004
 127755592.742 7                  24311056.749
        46.200


 120635913.636 7  94002032.76244  22956252.028    22956251.0724   22956259.3884
        42.500          26.4004
 127438417.751 7                  24250708.300
        47.800


 107100527.143 7                  20056466.633    20056467.690
        46.100
 124289276.383 8                  23651460.950
        50.100
 110402870.591 8  85868953.199 7  20682165.397    20682165.853    20682168.266
        48.600          42.600
 107479306.020 7                  20092073.640    20092073.478
        47.000
 198907217.169 7                  37850779.939
        42.100
 202057262.278 7                  38450219.111
        44.700
 117716704.920 7  91557424.462 6  21990464.221    21990465.911    21990469.098
        42.300          37.100
 125739206.150 6  97978613.30743  23927368.051    23927367.6944   23927373.3304
        41.100          22.8004
 112255622.530 7  87309975.929 7  21014479.123    21014480.746    21014484.632
        47.200          44.500


 144274061.907 5                  27454439.073
        30.700


 123265083.578 6  95872884.538 6  23124225.529    23124225.496    23124227.973
        41.300          41.100
 126889819.359 7                  24146312.473
        44.700
 126224620.283 6  98174674.028 6  23604624.624    23604623.303    23604632.071
        39.000          36.000
 25  1  1  2 25 45.0000000  0 26G06G19G12G11G20E27G24G25G05E34S35R13
                                E15R22R23S31S33R07G17R12E21E02E13R14
                                E30R24
 110887626.201 8  86405991.91646  21101198.936    21101198.7584   21101200.0104
        48.200          41.5004
 112163555.025 7  87400175.94244  21344013.207    21344011.9064   21344010.5014
        44.300          24.7004
 109361138.510 8  85216527.78847  20810707.405    20810706.8914   20810705.0244
        48.000          46.1004
 108039656.240 8  84186770.44447  20559258.001    20559257.7734   20559258.6704
        50.900          44.9004
 111955872.953 5  87238319.81241  21304497.793    21304497.1674   21304514.5504
        35.400           8.8004
 127738248.430 7                  24307755.843
        46.500


 120592491.769 6  93968197.57444  22947988.729    22947987.7504   22947996.0984
        41.900          24.9004
 126930688.548 5  98906980.37442  24154110.594    24154110.6024   24154094.7844
        34.500          14.2004
 127462832.327 7                  24255353.829
        47.600


 107106614.022 7                  20057606.521    20057607.020
        46.600
 124279059.781 8                  23649516.636
        49.400
 110432388.553 7  85891911.633 7  20687694.268    20687693.780    20687699.377
        46.700          43.200
 107471443.998 8                  20090603.934    20090604.845
        48.000
 198907220.754 7                  37850787.496
        42.900
 202057254.498 7                  38450215.324
        44.900
 117685516.978 6  91533167.183 6  21984636.078    21984636.046    21984642.672
        37.100          36.800
 125774810.544 6  98006356.87043  23934140.797    23934140.4584   23934145.7104
        38.600          20.7004
 112309623.385 7  87351976.580 7  21024590.638    21024591.058    21024592.967
        47.200          44.200


 144319769.262 5                  27463137.681
        31.900


 123213050.114 6  95832414.026 6  23114458.606    23114459.302    23114467.056
        36.300          41.300
 126914437.220 7                  24150996.841
        45.700
 126184000.072 6  98143080.552 5  23597031.948    23597031.794    23597033.805
        38.500          32.700
 25  1  1  2 26  0.0000000  0 26G06G19G12G11G20E27G24G25G05E34S35R13
                                E15R22R23S31S33R07G17R12E21E02E13R14
                                E30R24
 110916536.296 8  86428519.26247  21106699.848    21106699.6924   21106702.8064
        48.100          42.8004
 112191612.158 7  87422038.66844  21349352.702    21349351.4154   21349347.6864
        45.100          25.2004
 109346603.354 7  85205201.69247  20807941.782    20807941.2684   20807939.4554
        47.400          46.3004
 108034656.950 8  84182874.90347  20558306.657    20558306.4254   20558307.8024
        51.500          45.8004
 111918219.376 5  87208979.43041  21297332.134    21297331.6074   21297349.7594
        34.400           6.9004
 127720988.482 7                  24304471.272
        46.700


 120549156.379 7  93934429.70343  22939742.527    22939741.5214   22939749.1024
        42.700          23.0004
 126872157.288 5  98861371.68442  24142970.854    24142970.9124   24142964.1244
        34.000          14.0004
 127487278.082 7                  24260005.210
        46.700
 200853266.147 5                  38221106.778
        33.000
 107112903.997 8                  20058785.587    20058785.637
        48.300
 124268903.227 8                  23647583.920
        49.800
 110461940.162 7  85914896.221 7  20693229.398    20693230.096    20693236.811
        46.400          43.200
 107463648.868 8                  20089147.614    20089148.527
        48.500
 198907221.011 7                  37850782.121
        43.100
 202057242.756 7                  38450217.331
        45.400
 117654476.149 6  91509024.469 6  21978837.124    21978837.416    21978843.188
        36.900          37.200
 125810442.501 6  98034121.87943  23940921.592    23940921.2394   23940922.8524
        37.600          19.1004
 112363732.016 6  87394061.100 7  21034716.199    21034715.621    21034723.272
        41.300          45.200


 144365491.115 5                  27471838.864
        33.100


 123161121.892 4  95792025.384 6  23104713.866    23104709.618    23104724.647
        27.400          39.800
 126939137.821 7                  24155696.670
        44.400
 126143408.431 7  98111509.294 5  23589443.248    23589444.340    23589445.533
        42.900          34.700
 25  1  1  2 26 15.0000000  0 26G06G19G12G11G20E27G24G25G05E34S35R13
                                E15R22R23S31S33R07G17R12E21E02E13R14
                                E30R24
 110945504.943 8  86451092.24647  21112213.187    21112213.0674   21112215.8704
        48.500          42.6004
 112219734.432 7  87443952.12544  21354704.047    21354702.7284   21354699.0384
        43.600          26.8004
 109332213.783 7  85193989.04947  20805202.968    20805202.4324   20805202.0934
        46.600          47.0004
 108029752.182 8  84179053.00747  20557372.989    20557372.7664   20557374.3604
        51.600          45.9004
 111880666.755 6  87179718.2244   21290186.917    21290186.4394   21290204.4374
        36.200           2.4004
 127703815.361 7                  24301203.297
        47.000


 120505910.158 7  93900731.29344  22931512.716    22931511.7014   22931520.6734
        42.900          25.4004
 126813641.386 5  98815774.89842  24131834.468    24131834.3754   24131831.6804
        35.800          12.2004
 127511757.195 7                  24264663.733
        47.000
 200853300.439 5                  38221120.502
        30.500
 107119399.354 8                  20060002.199    20060001.945
        48.300
 124258808.965 8                  23645663.046
        50.000
 110491527.568 7  85937908.700 7  20698771.127    20698770.718    20698779.128
        43.400          42.400
 107455922.889 7                  20087702.532    20087703.110
        46.000
 198907220.032 7                  37850778.275
        42.300
 202057230.410 7                  38450218.758
        44.500
 117623585.255 6  91484998.275 6  21973096.145    21973082.026    21973072.488
        39.500          36.500
 125846104.579 6  98061910.41343  23947707.020    23947706.5964   23947709.0534
        37.600          18.8004
 112417950.086 5  87436230.792 7  21044861.406    21044859.756    21044872.831
        33.200          44.600


 144411229.395 5                  27480541.395
        30.800
 142914435.060 6                  27195707.147
        37.500
 123109301.510 5  95751720.620 6  23094998.296    23094994.168    23095002.535
        30.700          37.100
 126963923.351 7                  24160413.646
        42.700
 126102847.343 7  98079961.861 5  23581859.295    23581860.920    23581862.023
        42.300          34.200
 25  1  1  2 26 30.0000000  0 26G06G19G12G11G20E27G24G25G05E34S35R13
                                E15R22R23S31S33R07G17R12E21E02E13R14
                                E30R24
 110974535.798 7  86473713.67746  21117737.054    21117736.9474   21117739.7644
        47.900          41.8004
 112247925.670 7  87465919.32644  21360068.842    21360067.4744   21360065.0124
        44.500          28.3004
 109317973.920 8  85182893.07447  20802492.984    20802492.4614   20802492.7464
        49.500          47.5004
 108024945.768 8  84175307.75347  20556458.114    20556457.9094   20556459.3944
        50.800          45.2004
 111843219.305 5  87150538.26241  21283061.860    21283061.4854   21283078.3834
        35.900          11.7004
 127686733.113 7                  24297952.444
        47.500


 120462757.304 6  93867105.72444  22923300.145    22923299.1444   22923309.0164
        41.100          26.4004
 126755144.727 5  98770193.23141  24120701.661    24120701.2594   24120701.1414
        32.800          11.4004
 127536273.397 8                  24269328.781
        48.100
 200853337.654 5                  38221107.722
        32.300
 107126103.825 8                  20061257.693    20061257.787
        48.500
 124248780.836 8                  23643754.830
        50.000
 110521154.687 7  85960952.018 6  20704321.950    20704322.886    20704327.799
        44.600          40.800
 107448270.001 7                  20086272.641    20086272.312
        45.700
 198907222.134 6                  37850781.387
        41.200
 202057219.889 7                  38450208.312
        42.700
 117592848.731 5  91461092.166 5  21967325.305    21967328.537    21967332.253
        35.600          34.800
 125881800.617 6  98089725.47443  23954500.242    23954499.8134   23954501.9944
        37.100          19.6004
 112472281.362 7  87478488.359 7  21055033.750    21055035.126    21055043.255
        44.000          43.800


 144456988.104 5                  27489247.345
        30.000
 142879671.925 5                  27189088.983
        35.700
 123057593.527 5  95711503.274 5  23085294.655    23085291.364    23085301.233
        31.800          35.300
 126988797.625 6                  24165148.073
        41.500
 126062320.959 5  98048441.536 5  23574271.834    23574272.662    23574284.778
        31.700          34.400
 25  1  1  2 26 45.0000000  0 27G06G19G12G11G20E27G24G25G05E34S35R13
                                E15R22R23S31S33R07G17R12E21E02E13R14
                                E30R24R08
 111003627.834 7  86496382.77446  21123273.556    21123273.4454   21123275.5124
        46.400          40.4004
 112276185.171 7  87487939.73245  21365446.811    21365445.4394   21365444.4194
        44.500          30.1004
 109303883.245 8  85171913.32647  20799810.877    20799810.3504   20799811.0524
        49.300          47.4004
 108020236.748 8  84171638.38247  20555561.792    20555561.6004   20555563.0534
        50.400          44.3004
 111805876.346 6  87121439.72741  21275956.903    21275956.4524   21275972.1664
        38.200          10.6004
 127669741.075 7                  24294719.114
        47.900


 120419697.342 6  93833552.58344  22915106.748    22915105.7834   22915115.2024
        41.000          26.7004
 126696667.060 5  98724626.34741  24109575.594    24109575.2864   24109572.7034
        31.700          10.1004
 127560825.681 7                  24274000.399
        47.700


 107133016.750 8                  20062552.778    20062552.549
        48.800
 124238817.892 8                  23641858.429
        48.500
 110550820.423 7  85984025.359 6  20709880.945    20709881.261    20709884.970
        45.400          40.100
 107440689.263 7                  20084856.581    20084856.592
        47.400
 198907226.301 6                  37850783.252
        41.500
 202057213.330 7                  38450212.994
        44.500
                                                  21961620.265

 125917529.810 6  98117566.39343  23961300.455    23961299.9994   23961301.8834
        36.600          21.0004
 112526724.362 7  87520832.800 7  21065228.729    21065231.883    21065233.421
        45.000          42.100


 144502765.994 5                  27497959.067
        32.400
 142844946.298 6                  27182469.829
        38.200
 123005997.594 5  95671373.030 5  23075624.322    23075620.908    23075623.748
        35.800          34.400
 127013759.701 7                  24169898.866
        43.500
 126021828.517 6  98016947.610 5  23566708.387    23566707.258    23566707.073
        36.600          31.800
 125255379.341 4                  23390535.493    23390541.690
        27.700
 25  1  1  2 27  0.0000000  0 26G06G19G12G11G20E27G24G25G05E34S35R13
                                E15R22R23S31S33R07G17R12E21E02E13R14
                                E30R24
 111032775.868 7  86519095.52546  21128820.397    21128820.2994   21128821.5534
        47.100          39.9004
 112304508.251 7  87510009.66945  21370835.541    21370834.1694   21370834.8664
        44.800          30.0004
 109289937.180 8  85161046.27447  20797157.038    20797156.5244   20797156.4864
        49.600          46.9004
 108015620.094 8  84168040.99047  20554683.753    20554683.5614   20554684.3124
        51.300          44.8004
 111768633.352 6  87092419.23742  21268867.035    21268866.5664   21268883.1374
        39.800          15.9004
 127652834.456 7                  24291502.349
        47.900


 120376725.629 5  93800068.13144  22906928.525    22906927.6494   22906936.8414
        35.800          25.9004
 126638204.043 5  98679070.91142  24098450.803    24098450.5804   24098447.0564
        30.500          13.3004
 127585409.001 7                  24278678.646
        47.300
 200853406.304 6                  38221125.492
        36.400
 107140132.984 7                  20063885.540    20063884.722
        47.200
 124228915.158 8                  23639974.425
        48.900
 110580519.650 7  86007124.743 6  20715444.515    20715446.244    20715451.380
        46.300          39.400
 107433175.435 7                  20083450.936    20083450.928
        47.000
 198907227.656 7                  37850785.989
        43.100
 202057202.866 7                  38450213.132
        44.500
 117531833.023 7  91413639.558 5  21955934.611    21955935.639    21955933.653
        43.500          33.700
 125953287.363 6  98145429.42844  23968104.461    23968104.0194   23968108.3544
        37.900          24.0004
 112581273.399 7  87563259.729 7  21075441.740    21075441.044    21075446.111
        43.800          42.300


 144548558.103 4                  27506672.317
        27.400
 142810253.371 5                  27175866.282
        35.200
                  95631326.531 5                                  23065961.909
                        33.300
 127038804.592 7                  24174664.884
        44.200
 125981365.062 5  97985476.135 5  23559136.679    23559142.752    23559139.478
        31.400          31.000
 25  1  1  2 27 15.0000000  0 26G06G19G12G11G20E27G24G25G05E34S35R13
                                E15R22R23S31S33R07G17R12E21E02E13R14
                                E30R24
 111061983.560 8  86541854.76246  21134378.041    21134377.9524   21134379.6914
        49.000          40.5004
 112332898.626 7  87532132.03245  21376237.968    21376236.5874   21376237.3824
        45.000          30.0004
 109276139.591 8  85150294.92247  20794531.504    20794530.9904   20794530.0884
        49.500          46.8004
 108011099.609 8  84164518.54047  20553823.071    20553822.8844   20553823.7894
        51.000          45.1004
 111731494.547 7  87063479.91943  21261800.298    21261799.8654   21261808.0244
        42.200          22.2004
 127636017.314 8                  24288302.020
        48.400


 120333846.456 4  93766655.86043  22898766.749    22898765.9544   22898774.4354
        29.700          21.8004
 126579759.785 5  98633530.05642  24087330.894    24087330.7744   24087325.2364
        33.500          17.3004
 127610027.103 7                  24283363.038
        46.700
 200853443.768 5                  38221146.160
        34.000
 107147456.030 7                  20065256.463    20065254.519
        44.700
 124219076.456 8                  23638101.890
        48.900
 110610256.234 7  86030253.251 6  20721015.356    20721015.614    20721018.657
        45.100          38.200
 107425732.390 7                  20082059.921    20082060.656
        47.700
 198907229.828 6                  37850783.453
        41.500
 202057192.120 7                  38450209.627
        45.800
 117501553.681 6  91390089.045 5  21950286.473    21950287.488    21950275.933
        38.900          30.600
 125989077.156 6  98173317.54044  23974916.036    23974915.5944   23974921.1534
        39.600          26.7004
 112635931.841 7  87605771.866 7  21085671.790    21085673.020    21085680.658
        44.500          45.200


 144594368.202 4                  27515391.559
        25.100
 142775597.017 5                  27169273.185
        35.200
 122903100.316 4  95591367.023 5  23056309.128                    23056325.245
        24.900          33.300
 127063936.107 7                  24179446.625
        46.100
                  97954030.096 5                                  23551581.183
                        33.200
 25  1  1  2 27 30.0000000  0 26G06G19G12G11G20E27G24G25G05E34S35R13
                                E15R22R23S31S33R07G17R12E21E02E13R14
                                E30R24
 111091242.741 7  86564654.10646  21139945.644    21139945.5644   21139947.4874
        47.300          40.6004
 112361348.431 7  87554300.69345  21381651.142    21381649.7344   21381651.1174
        44.500          30.2004
 109262482.756 8  85139653.24647  20791933.272    20791932.7674   20791930.9624
        50.700          47.7004
 108006667.250 8  84161064.74947  20552980.049    20552979.8844   20552980.7234
        51.200          45.4004
 111694452.135 7  87034615.71744  21254752.032    21254751.5994   21254753.5654
        44.500          28.6004
 127619281.800 8                  24285117.444
        48.600




 126521326.437 5  98587997.68942  24076209.928    24076209.7994   24076205.6254
        33.400          17.4004
 127634671.831 7                  24288053.235
        45.300


 107154978.108 7                  20066664.867    20066664.019
        45.500
 124209293.738 7                  23636240.285
        47.100
 110640021.876 7  86053404.331 6  20726590.792    20726592.103    20726594.945
        45.200          38.000
 107418351.852 7                  20080680.244    20080680.450
        47.400
 198907225.207 7                  37850779.071
        42.500
 202057176.660 7                  38450209.806
        45.500
                  91366652.200 5                                  21944651.892
                        31.400
 126024890.966 6  98201224.39344  23981730.806    23981730.3504   23981736.0534
        37.000          24.3004
 112690691.265 7  87648362.586 7  21095924.031    21095924.550    21095931.857
        46.100          45.900


 144640187.990 5                  27524112.167
        31.100
 142740969.310 6                  27162683.966
        36.000
 122851828.224 6  95551488.848 5  23046703.588    23046699.473    23046705.912
        41.100          34.400
 127089146.165 7                  24184243.734
        47.100


 25  1  1  2 27 45.0000000  0 27G06G19G12G11G20E27G24G25G05E34S35R13
                                E15R22R23S31S33R07G17R12E21E02E13R14
                                E30R24R08
 111120568.976 7  86587505.69346  21145526.505    21145526.4384   21145527.7994
        47.700          39.1004
 112389873.254 7  87576527.84545  21387079.539    21387078.1264   21387079.2824
        43.300          30.0004
 109248982.490 8  85129133.56848  20789364.505    20789364.0094   20789362.8154
        51.000          48.5004
 108002338.697 8  84157691.86047  20552155.924    20552155.7684   20552157.3094
        52.400          45.2004
 111657522.166 7  87005839.15645  21247724.528    21247724.1134   21247724.2914
        45.500          30.4004
 127602643.953 7                  24281951.415
        47.000




 126462920.188 5  98542486.39843  24065094.298    24065094.1154   24065094.1534
        34.800          20.3004
 127659358.916 7                  24292750.996
        44.100


 107162714.818 7                  20068114.285    20068113.665
        47.300
 124199582.743 8                  23634392.547
        48.000
 110669832.519 7  86076590.365 6  20732176.289    20732177.535    20732179.349
        46.600          38.200
 107411049.881 7                  20079314.959    20079315.845
        47.800
 198907230.043 6                  37850789.186
        41.800
 202057168.546 7                  38450207.699
        44.000
 117441450.523 6  91343341.720 5  21939049.616    21939050.949    21939045.819
        40.600          32.900
 126060744.867 4  98229162.50743  23988552.072    23988551.6034   23988557.5764
        29.200          18.6004
 112745567.172 7  87691043.844 7  21106195.403    21106196.739    21106206.000
        44.700          46.400


 144686033.223 5                  27532835.840
        30.400
 142706386.126 6                  27156105.296
        36.100
 122800676.792 7  95511704.387 5  23037106.367    23037105.061    23037114.273
        44.200          33.600
 127114450.482 7                  24189058.414
        47.200


 125020416.225 5                  23346703.011
        30.900
 25  1  1  2 28  0.0000000  0 27G06G19G12G11G20E27G24G25G05E34S35R13
                                E15R22R23S31S33R07G17R12E21E02E13R14
                                E30R24R08
 111149945.562 7  86610396.51946  21151116.641    21151116.5434   21151119.0354
        46.300          39.0004
 112418456.545 6  87598800.52644  21392519.032    21392517.6064   21392519.1864
        41.200          29.4004
 109235622.554 8  85118723.23248  20786822.160    20786821.6694   20786821.4894
        51.400          49.4004
 107998097.348 8  84154386.92847  20551349.268    20551349.1164   20551350.0874
        51.000          44.8004
 111620688.424 7  86977137.57244  21240714.805    21240714.3634   21240714.4734
        45.100          28.4004
 127586087.358 7                  24278801.093
        47.100






 127684071.681 7                  24297454.038
        45.200


 107170649.571 7                  20069599.857    20069599.290
        47.300
 124189926.908 8                  23632554.827
        48.200
 110699671.168 7  86099798.256 6  20737766.632    20737767.712    20737767.849
        46.900          38.700
 107403809.501 7                  20077960.771    20077960.845
        46.700
 198907226.411 7                  37850782.300
        43.800
 202057153.511 7                  38450208.442
        44.400
 117411626.344 6  91320145.257 5  21933477.663    21933472.859    21933476.852
        38.500          34.500
 126096622.079 5  98257118.73742  23995380.504    23995380.1334   23995384.3134
        34.100          15.7004
 112800542.243 7  87733802.192 7  21116489.124    21116490.307    21116495.387
        45.700          44.900


 144731887.273 5                  27541562.541
        34.900
 142671831.005 5                  27149527.631
        33.000
 122749630.077 7  95472001.530 5  23027529.197    23027528.102    23027535.848
        44.400          30.000
 127139832.462 7                  24193887.372
        44.100
 125820034.695 6                  23528923.365    23528926.116
        39.100
                  97192542.019 5                                  23335730.388
                        30.400
 25  1  1  2 28 15.0000000  0 27G06G19G12G11G20E27G24G25G05E34S35R13
                                E15R22R23S31S33R07G17R12E21E02E13R14
                                E30R24R08
 111179381.079 7  86633333.28646  21156718.469    21156718.3404   21156721.3264
        45.100          36.5004
 112447107.213 6  87621125.71545  21397970.835    21397969.3644   21397971.3144
        41.900          30.1004
 109222411.953 8  85108429.26148  20784308.316    20784307.8344   20784308.0084
        51.000          49.6004
 107993951.915 8  84151156.72947  20550560.514    20550560.3714   20550560.5154
        51.300          44.2004
 111583959.951 7  86948518.02345  21233725.799    21233725.3344   21233725.2064
        46.900          30.1004
 127569621.005 7                  24275667.650
        47.800


 120163215.246 5  93633700.97543  22866302.379    22866302.4374   22866307.1734
        35.800          20.5004


 127708818.784 7                  24302162.356
        44.500


 107178791.250 7                  20071124.815    20071124.123
        46.800
 124180334.950 8                  23630729.018
        48.400
 110729546.791 7  86123034.854 6  20743363.086    20743363.322    20743365.752
        47.400          40.400
 107396639.712 7                  20076621.766    20076620.816
        46.900
 198907224.468 7                  37850783.753
        42.400
 202057139.857 7                  38450200.107
        44.700
 117381958.001 7  91297069.858 6  21927941.849    21927939.633    21927935.680
        45.800          37.200
 126132531.629 5  98285100.17642  24002212.642    24002212.3214   24002217.0324
        35.000          15.0004
 112855624.759 7  87776644.170 7  21126799.057    21126797.862    21126805.312
        43.000          43.100


 144777758.726 5                  27550293.847
        33.300
 142637312.636 5                  27142958.201
        30.200
 122698697.449 7                  23017969.812    23017971.203
        42.000
 127165300.796 7                  24198734.799
        42.200
 125779726.245 6  97828480.626 5  23521388.073    23521388.083    23521393.595
        37.900          33.400
 124903203.480 5  97146846.780 5  23324788.895                    23324774.233
        30.800          31.800
 25  1  1  2 28 30.0000000  0 27G06G19G12G11G20E27G24G25G05E34S35R13
                                E15R22R23S31S33R07G17R12E21E02E13R14
                                E30R24R08
 111208878.409 7  86656318.19045  21162331.415    21162331.2504   21162334.0084
        43.000          35.1004
 112475828.384 6  87643505.82744  21403436.570    21403435.1444   21403436.7334
        40.300          29.9004
 109209353.915 8  85098254.17548  20781823.102    20781822.6244   20781822.9674
        51.600          49.4004
 107989905.403 8  84148003.60647  20549790.122    20549789.9884   20549789.7594
        51.000          43.7004
 111547340.158 7  86919983.15544  21226758.047    21226757.5384   21226755.4004
        47.100          29.3004
 127553248.170 7                  24272551.273
        47.800


 120120798.268 5  93600648.90643  22858229.110    22858228.7484   22858237.2684
        31.600          20.7004


 127733603.202 7                  24306878.710
        42.500


 107187142.675 7                  20072687.587    20072687.626
        45.600
 124170809.890 8                  23628916.748
        49.000
 110759462.283 7  86146302.471 6  20748966.338    20748966.712    20748970.703
        46.300          40.500
 107389543.460 7                  20075295.355    20075295.820
        47.700
 198907227.188 6                  37850781.043
        39.400
 202057130.534 7                  38450200.482
        45.800
 117352448.790 7  91274118.390 6  21922417.715    21922419.218    21922423.238
        44.200          38.300
 126168476.736 6  98313109.30642  24009058.664    24009058.3384   24009056.4064
        37.000          13.8004
 112910817.507 7  87819571.819 6  21137129.064    21137129.269    21137138.458
        43.800          41.200


 144823650.435 5                  27559026.683
        32.000
 142602834.336 5                  27136398.407
        30.500
 122647882.512 6                  23008437.668    23008437.082
        41.300
 127190858.528 7                  24203598.964
        42.300
 125739453.640 6  97797157.460 5  23513855.137    23513854.763    23513864.125
        36.800          35.200


 25  1  1  2 28 45.0000000  0 27G06G19G12G11G20E27G24G25G05E34S35R13
                                E15R22R23S31S33R07G17R12E21E02E13R14
                                E30R24R08
 111238435.082 6  86679349.33345  21167955.947    21167955.7374   21167957.5884
        41.700          32.6004
 112504617.857 6  87665939.15245  21408914.307    21408912.8594   21408915.4364
        39.200          30.1004
 109196446.383 8  85088196.36848  20779366.610    20779366.1324   20779366.3824
        51.300          49.4004
 107985955.506 8  84144925.76147  20549038.757    20549038.6284   20549038.0934
        50.300          43.5004
 111510826.962 8  86891531.36345  21219809.901    21219809.3744   21219804.9654
        49.100          31.1004
 127536966.742 7                  24269452.729
        46.800


 120078476.880 6  93567671.29943  22850177.441    22850177.4284   22850184.7524
        37.100          23.1004


 127758422.507 7                  24311601.614
        44.400


 107195701.625 7                  20074291.882    20074291.503
        46.700
 124161349.461 8                  23627116.466
        49.500
 110789415.217 7  86169599.197 6  20754579.581    20754578.294    20754580.604
        46.300          39.500
 107382518.284 7                  20073981.829    20073982.791
        47.900
 198907231.419 6                  37850782.192
        38.800
 202057122.743 7                  38450203.778
        45.700
 117323097.205 6  91251289.382 7  21916934.412    21916933.387    21916942.383
        39.000          42.800
 126204454.639 5  98341144.03241  24015900.538    24015900.1584   24015902.3974
        30.100          10.5004
 112966117.718 7  87862582.997 6  21147484.381    21147485.578    21147490.711
        47.600          41.000


 144869560.045 4                  27567763.883
        27.600
 142568393.831 5                  27129843.797
        32.800
 122597183.567 7                  22998927.953    22998926.961
        42.800
 127216503.351 7                  24208478.846
        43.300
                  97765860.748 5                  23506335.931    23506333.912
                        31.800
 124785845.133 6                  23302873.206    23302872.579
        40.100
 25  1  1  2 29  0.0000000  0 26G06G19G12G11G20E27G24G25G05E34S35R13
                                E15R22R23S31S33R07R12E21E02E13R14E30
                                R24R08
 111268045.615 6  86702422.45945  21173591.841    21173591.5644   21173591.6764
        41.900          33.8004
 112533470.220 7  87688421.49145  21414405.117    21414403.7134   21414406.3164
        42.300          31.9004
 109183684.206 8  85078251.82548  20776938.487    20776938.0184   20776937.2724
        50.200          49.1004
 107982096.807 8  84141918.98447  20548304.343    20548304.2094   20548304.0854
        50.700          43.5004
 111474415.229 8  86863158.60445  21212880.625    21212880.0714   21212876.5484
        49.100          33.2004
 127520771.569 7                  24266371.455
        47.500


 120036246.022 6  93534764.18244  22842141.635    22842141.5954   22842148.1194
        37.800          24.6004
 126171210.759 5  98315243.88643  24009581.978    24009581.5054   24009584.7014
        30.900          19.4004
 127783271.275 6                  24316328.989
        41.400


 107204462.440 7                  20075931.279    20075931.408
        43.900
 124151948.249 8                  23625327.362
        49.900
 110819400.162 7  86192920.851 6  20760195.935    20760195.506    20760196.483
        46.400          39.000
 107375558.876 7                  20072679.632    20072681.647
        45.000
 198907232.414 7                  37850791.435
        42.100
 202057111.732 7                  38450197.567
        45.400
 117293898.130 6  91228579.068 7  21911478.384    21911477.722    21911486.763
        38.600          42.700
 113021519.406 8  87905673.152 6  21157855.870    21157857.167    21157861.249
        48.800          41.400


 144915482.326 4                  27576506.237
        28.900
 142533985.867 5                  27123295.926
        30.300
 122546595.490 7                  22989439.645    22989437.748
        44.600
 127242229.811 7                  24213375.100
        45.800


 124727243.409 6                  23291927.402    23291927.840
        40.700
 25  1  1  2 29 15.0000000  0 25G06G19G12G11G20E27G24G25G05E34S35R13
                                E15R22R23S31S33R07R12E21E02E13R14E30
                                R24
 111297709.489 7  86725537.19545  21179235.949    21179235.6544   21179236.7014
        43.800          35.5004
 112562385.156 6  87710952.61045  21419907.299    21419905.8514   21419908.4334
        40.900          31.5004
 109171067.388 8  85068420.54148  20774537.349    20774536.9024   20774536.0334
        50.000          48.6004
 107978328.899 8  84138982.95447  20547587.428    20547587.2904   20547587.6114
        51.200          43.9004
 111438105.052 8  86834864.99445  21205971.160    21205970.5844   21205968.2084
        48.800          33.6004
 127504662.517 7                  24263305.634
        47.700


 119994105.774 6  93501927.73343  22834121.974    22834121.9704   22834127.5134
        39.200          23.3004


 127808149.141 6                  24321063.847
        41.800


 107213424.848 6                  20077608.406    20077608.105
        41.100
 124142605.941 8                  23623549.456
        49.500
 110849416.629 7  86216266.955 6  20765817.903    20765818.187    20765821.373
        46.900          41.500
 107368664.737 7                  20071390.608    20071390.618
        44.100
 198907230.432 6                  37850788.721
        41.100
 202057098.190 7                  38450192.491
        44.900
 117264851.809 6  91205987.513 7  21906052.170    21906051.877    21906061.084
        40.200          44.200
 113077021.518 7  87948841.470 6  21168244.277    21168243.923    21168253.050
        46.000          41.600


 144961416.572 4                  27585247.193
        29.500
 142499610.224 4                  27116759.764
        28.500
 122496118.777 7                  22979969.201    22979968.059
        44.300
 127268037.599 7                  24218285.814
        46.100
                  97703329.628 5                  23491299.290    23491303.573
                        33.900
 25  1  1  2 29 30.0000000  0 26G06G19G12G11G20E27G24G25G05E34S35R13
                                E15R22R23S31S33R07R12E21E02E13R14E30
                                R24R08
 111327433.465 7  86748698.74046  21184890.996    21184890.6484   21184893.6174
        44.900          37.8004
 112591369.814 7  87733538.05045  21425424.796    21425423.3124   21425423.3164
        42.500          31.5004
 109158602.871 8  85058707.94848  20772165.297    20772164.8594   20772164.0034
        50.700          48.7004
 107974658.704 8  84136123.06047  20546888.997    20546888.8634   20546889.5104
        51.400          44.4004
 111401903.678 8  86806656.15045  21199082.031    21199081.4284   21199081.0024
        49.500          34.7004
 127488646.761 7                  24260257.913
        47.400


 119952063.541 6  93469167.68543  22826122.807    22826122.8074   22826123.9264
        39.800          21.8004


 127833062.840 6                  24325804.702
        41.800


 107222595.881 7                  20079326.373    20079327.288
        43.200
 124133329.442 8                  23621783.959
        48.400
 110879471.613 7  86239643.040 7  20771448.191    20771449.324    20771452.152
        46.500          44.300
 107361842.844 7                  20070114.557    20070114.981
        43.400
 198907232.041 6                  37850785.412
        41.100
 202057087.807 7                  38450191.239
        46.500
 117235965.934 7  91183520.668 7  21900660.814    21900660.603    21900664.497
        42.000          44.100
 113132631.096 8  87992093.328 6  21178655.179    21178655.095    21178663.077
        48.200          40.500
 148571282.055 5                  28272178.376
        31.800
 145007369.666 5                  27593989.799
        31.700
 142465273.682 5                  27110230.025
        32.400
 122445760.700 7  95235672.345 5  22970521.346    22970520.983    22970534.997
        43.900          34.000
 127293933.582 7                  24223212.881
        44.700
 125578391.639 6  97672104.286 5  23483790.381    23483789.706    23483796.814
        36.900          34.800
 124610096.921 5                  23270057.299    23270052.770
        34.000
 25  1  1  2 29 45.0000000  0 25G06G19G12G11G20E27G24G25G05E34S35R13
                                E15R22R23S31S33R07R12E21E02E13R14E30
                                R24
 111357210.249 7  86771901.43646  21190557.440    21190557.0474   21190560.6524
        45.500          39.4004
 112620417.017 6  87756172.24045  21430952.329    21430950.8494   21430950.2694
        41.600          30.6004
 109146283.843 8  85049108.71348  20769821.227    20769820.7984   20769820.2644
        49.200          48.6004
 107971079.007 8  84133333.68247  20546207.682    20546207.5444   20546208.7774
        51.200          44.0004
 111365804.268 8  86778526.71845  21192212.158    21192211.5194   21192213.2654
        48.500          35.3004
 127472717.348 7                  24257226.527
        46.400


 119910112.486 6  93436478.66743  22818139.343    22818139.2854   22818138.3464
        40.400          23.6004


 127858005.247 7                  24330551.655
        42.700


 107231968.245 7                  20081080.804    20081082.073
        44.600
 124124111.555 8                  23620030.000
        48.400
 110909557.790 7  86263043.372 7  20777083.435    20777083.300    20777088.543
        45.100          43.900
 107355085.899 7                  20068853.725    20068854.609
        44.100
 198907229.374 7                  37850787.925
        42.700
 202057073.025 7                  38450185.104
        45.500
 117207233.217 7  91161173.050 7  21895291.549    21895291.682    21895295.831
        43.400          42.400
 113188340.230 8  88035422.603 6  21189086.219    21189086.796    21189090.686
        50.100          39.400
 148529265.094 5                  28264182.471
        31.700
 145053334.205 5                  27602734.684
        30.800
 142430969.564 4                  27103700.968
        25.100
 122395514.766 7  95196592.297 5  22961095.604    22961095.536    22961104.104
        43.600          32.500
 127319910.530 7                  24228156.662
        44.100
 125538272.385 6  97640900.403 6  23476285.745    23476287.656    23476295.783
        41.000          37.200
 25  1  1  2 30  0.0000000  0 25G06G19G12G11G20E27G24G25G05E34S35R13
                                E15R22R23S31S33R07R12E21E02E13R14E30
                                R24
 111387048.602 7  86795152.11446  21196235.437    21196235.0534   21196238.8214
        46.400          39.9004
 112649535.599 7  87778862.04944  21436492.535    21436491.1274   21436490.7304
        42.000          29.7004
 109134119.519 8  85039630.02148  20767506.804    20767506.3804   20767506.1554
        48.400          48.8004
 107967598.729 8  84130621.77547  20545545.711    20545545.5594   20545546.6504
        50.600          43.9004
 111329815.941 8  86750483.88045  21185363.747    21185363.0954   21185365.7354
        49.200          35.1004
 127456883.432 7                  24254213.300
        45.400


 119868262.000 6  93403868.00443  22810176.552    22810176.4274   22810172.8744
        40.700          23.4004


 127882985.166 7                  24335304.371
        42.100


 107241550.853 7                  20082876.589    20082876.696
        45.800
 124114961.242 8                  23618288.810
        48.800
 110939684.135 7  86286474.951 7  20782729.503    20782729.381    20782732.388
        46.100          44.200
 107348402.936 7                  20067604.100    20067605.841
        44.900
 198907232.712 6                  37850782.268
        41.300
 202057063.977 7                  38450185.171
        45.900
 117178663.517 6  91138952.274 7  21889950.932    21889950.642    21889958.789
        40.900          42.400
 113244157.307 8  88078835.867 6  21199534.078    21199535.757    21199538.475
        50.200          38.800
 148487275.811 5                  28256188.877
        30.500
 145099319.194 4                  27611486.677
        28.400
 142396706.804 4                  27097181.195
        24.400
 122345390.423 7  95157606.755 5  22951690.552    22951690.408    22951702.746
        42.200          35.400
 127345977.445 6                  24233116.442
        41.500
 125498190.390 5  97609725.558 6  23468789.239    23468785.123    23468801.729
        32.700          38.000
 25  1  1  2 30 15.0000000  0 26G06G19G12G11G20E27G25G05E34S35R13E15
                                R22R23S31S33R07G17R12E21E02E13R14E30
                                R24R08
 111416940.295 7  86818444.32746  21201923.611    21201923.2224   21201927.1764
        46.700          41.2004
 112678717.644 7  87801601.32344  21442046.052    21442044.6894   21442044.2574
        42.800          29.0004
 109122101.860 8  85030265.60548  20765220.164    20765219.7444   20765219.4844
        48.800          49.0004
 107964209.721 8  84127980.98047  20544901.107    20544900.9424   20544901.5034
        49.700          43.0004
 111293931.041 8  86722521.61745  21178534.875    21178534.2094   21178536.0204
        49.400          34.5004
 127441137.094 7                  24251216.818
        45.400
 119826504.365 6  93371329.68243  22802229.428    22802229.2904   22802227.6334
        41.200          23.7004


 127907994.406 7                  24340064.025
        43.400


 107251335.219 7                  20084708.845    20084708.832
        47.000
 124105870.363 8                  23616558.757
        49.500
 110969842.274 6  86309931.295 7  20788377.782    20788376.941    20788381.255
        41.500          44.100
 107341785.645 6                  20066366.407    20066367.327
        41.700
 198907233.393 6                  37850786.181
        41.800
 202057053.428 7                  38450183.866
        45.200
 117150249.155 7  91116852.190 7  21884648.336    21884646.770    21884651.733
        43.100          42.900
 126420952.672 5                  24057099.593
        30.300
 113300073.890 7  88122326.471 6  21210000.623    21210001.876    21210007.765
        47.900          40.800
 148445306.684 5                  28248200.750
        30.300




 122295380.393 7  95118710.121 5  22942307.612    22942307.316    22942318.719
        42.400          33.900
 127372126.099 7                  24238091.766
        42.100
 125458137.204 5  97578573.226 6  23461300.905    23461298.522    23461313.022
        32.900          37.300
 124434675.749 5                  23237268.712
        34.600
 25  1  1  2 30 30.0000000  0 26G06G19G12G11G20E27G24G25G05E34S35R13
                                E15R22R23S31S33R07R12E21E02E13R14E30
                                R24R08
 111446888.148 7  86841780.31846  21207622.953    21207622.5734   21207625.1464
        46.100          40.8004
 112707966.312 6  87824392.51444  21447612.541    21447611.1964   21447610.8104
        37.300          25.3004
 109110234.321 8  85021018.17548  20762961.576    20762961.1344   20762961.0914
        50.100          49.2004
 107960914.907 8  84125413.59947  20544273.971    20544273.7934   20544274.1254
        51.100          43.1004
 111258152.896 8  86694642.55745  21171727.019    21171726.3264   21171726.4374
        48.700          34.5004
 127425481.586 7                  24248237.746
        45.300


 119784842.945 6  93338866.31443  22794301.713    22794301.6024   22794297.7784
        39.400          20.3004


 127933035.942 6                  24344828.733
        41.300


 107261324.679 7                  20086580.250    20086580.108
        47.500
 124096841.943 8                  23614840.831
        48.700
 111000035.363 7  86333414.722 7  20794036.043    20794035.207    20794037.437
        42.700          43.800
 107335237.154 5                  20065141.710    20065139.912
        31.800
 198907233.934 7                  37850785.631
        42.100
 202057041.979 7                  38450180.973
        47.100
 117121993.591 7  91094875.742 7  21879367.096    21879366.526    21879374.056
        43.000          42.600
 113356092.385 7  88165896.424 7  21220487.254    21220485.859    21220496.085
        46.400          43.300
 148403360.329 4                  28240225.019
        29.900




 122245487.939 6  95079904.889 5  22932949.624    22932948.389    22932963.557
        40.100          35.700
 127398359.497 6                  24243082.038
        39.600
                  97547445.667 6                                  23453828.062
                        37.500
 124376201.367 6  96736941.961 5  23226349.554    23226351.804    23226352.104
        38.500          35.000
 25  1  1  2 30 45.0000000  0 27G06G19G12G11G20E27G24G25G05E34S35R13
                                E15R22R23S31S33R07G17R12E21E02E13R14
                                E30R24R08
 111476891.249 7  86865159.34847  21213332.678    21213332.2944   21213334.2004
        47.900          42.2004
 112737280.834 6  87847235.03544  21453190.030    21453188.6224   21453190.2324
        39.200          24.7004
 109098516.210 8  85011887.19448  20760730.916    20760730.4604   20760731.0524
        49.500          48.8004
 107957713.496 8  84122918.99047  20543664.923    20543664.7364   20543664.7104
        49.800          42.3004
 111222481.009 8  86666846.29345  21164938.793    21164938.0744   21164938.2864
        50.200          35.0004
 127409916.315 7                  24245276.158
        46.400


 119743277.340 6  93306477.51843  22786392.300    22786392.1934   22786384.2144
        38.300          18.3004
 125763505.160 6  97997562.62444  23932008.337    23932007.6624   23932005.5424
        36.100          24.7004
 127958108.837 6                  24349598.974
        39.500


 107271518.280 7                  20088489.616    20088488.865
        46.600
 124087875.129 8                  23613135.038
        49.800
 111030262.377 7  86356924.604 7  20799698.271    20799697.663    20799698.560
        42.300          43.600
 107328756.304 6                  20063930.499    20063930.713
        38.600
 198907234.611 6                  37850782.362
        39.600
 202057031.070 7                  38450179.179
        44.900
 117093896.598 7  91073022.527 6  21874121.384    21874123.097    21874124.371
        46.100          40.300
 126493338.662 6  98566236.1294   24070881.082    24070881.4214   24070883.1304
        36.300           5.3004
 113412211.612 7  88209544.720 7  21230991.581    21230991.891    21231001.572
        46.300          43.600




 142294016.336 5                  27077651.067
        35.300
 122195712.903 6  95041191.006 5  22923610.985    22923610.644    22923624.006
        37.900          34.500
 127424676.796 6                  24248090.644
        39.100
                  97516342.379 5                  23446338.176    23446343.188
                        32.600
 124317749.666 6  96691479.623 5  23215436.462    23215437.033    23215432.580
        36.700          30.000
 25  1  1  2 31  0.0000000  0 26G06G19G12G11G20E27G24G25G05E34S35R13
                                E15R22R23S31S33R07G17R12E21E02E13R14
                                E30R24
 111506947.755 8  86888579.97247  21219052.333    21219051.9534   21219053.6474
        48.800          42.2004
 112766659.508 7  87870127.50144  21458780.874    21458779.5154   21458780.7094
        42.100          24.9004
 109086945.966 8  85002871.43148  20758529.248    20758528.7884   20758528.8814
        49.400          48.4004
 107954603.755 8  84120495.83346  20543072.800    20543072.6084   20543072.5734
        50.500          41.4004
 111186914.014 8  86639131.79145  21158170.811    21158170.0564   21158170.7584
        51.000          35.8004
 127394439.806 7                  24242331.206
        47.200


 119701806.317 6  93274162.48843  22778501.472    22778501.3524   22778492.3104
        37.600          21.8004
 125705359.853 6  97952254.66544  23920943.721    23920943.0334   23920942.4484
        37.800          28.9004
 127983211.315 6                  24354379.166
        37.700
 200853903.051 5                  38221229.368
        35.800
 107281914.103 7                  20090436.017    20090435.380
        45.300
 124078968.291 8                  23611440.389
        50.100
 111060521.455 6  86380459.535 7  20805364.914    20805362.520    20805368.426
        39.400          45.300
                                                  20062742.876

 198907234.101 6                  37850785.255
        41.600
 202057017.683 7                  38450172.454
        43.900
 117065956.611 7  91051291.498 5  21868896.631    21868898.020    21868902.039
        43.600          34.000
 126529590.771 5  98594484.51442  24077776.541    24077776.5724   24077776.1854
        32.600          13.4004
 113468429.454 7  88253269.656 7  21241516.807    21241517.840    21241524.990
        47.700          43.500




 142259893.036 5                  27071157.181
        35.700
 122146054.254 6  95002567.571 5  22914301.479    22914301.906    22914308.176
        39.600          33.100
 127451076.288 6                  24253116.864
        37.100
 125338307.917 7  97485262.190 5  23438878.250    23438877.042    23438868.446
        42.100          31.600
 25  1  1  2 31 15.0000000  0 26G06G19G12G11G20E27G24G25G05E34S35R13
                                E15R22R23S31S33R07G17R12E21E02E13R14
                                E30R24
 111537058.765 7  86912043.07847  21224781.316    21224780.9684   21224784.2284
        47.900          42.5004
 112796103.665 7  87893070.96644  21464382.586    21464381.2854   21464382.3504
        42.200          24.5004
 109075525.093 8  84993972.06848  20756355.720    20756355.2474   20756355.7624
        49.500          48.4004
 107951586.940 8  84118145.09046  20542498.792    20542498.5964   20542497.8764
        50.600          41.4004
 111151453.640 8  86611500.37645  21151422.866    21151422.0794   21151423.0444
        50.500          35.6004
 127379053.571 8                  24239403.978
        48.500


 119660431.544 6  93241922.45243  22770626.400    22770626.2754   22770620.7524
        39.300          23.8004
 125647236.812 5  97906964.04944  23909882.784    23909882.3954   23909883.4724
        33.300          28.5004
 128008344.698 6                  24359161.229
        39.000
 200853936.556 5                  38221247.062
        33.200
 107292513.428 7                  20092419.843    20092419.408
        44.200
 124070122.671 8                  23609756.856
        49.600
 111090814.156 7  86404020.499 7  20811043.031    20811040.672    20811043.491
        46.200          45.500
 107315994.477 6                  20061541.376    20061541.512
        36.400
 198907232.123 6                  37850781.329
        41.900
 202057004.471 7                  38450170.885
        44.400
 117038175.781 7  91029684.403 5  21863707.459    21863706.600    21863717.935
        42.400          33.800
 126565873.232 5  98622756.46942  24084682.836    24084682.6584   24084679.2534
        34.600          15.6004
 113524746.575 8  88297071.844 7  21252060.654    21252061.819    21252066.823
        49.100          42.200




 142225805.270 5                  27064671.356
        34.200
 122096513.485 5                  22905017.895
        30.500
 127477559.215 6                  24258155.561
        38.800
                  97454206.088 5                  23431396.388    23431404.709
                        32.400
 25  1  1  2 31 30.0000000  0 27G06G19G12G11G20E27G24G25G05E34S35R13
                                E15R22R23S31S33R07G17R12E21E02E13R14
                                E30R24R08
 111567225.961 8  86935549.95246  21230521.831    21230521.5014   21230525.2694
        48.000          41.9004
 112825615.260 7  87916066.99744  21469998.622    21469997.3214   21469996.6874
        44.100          24.0004
 109064255.564 8  84985190.62348  20754210.955    20754210.4864   20754211.4944
        48.700          48.0004
 107948664.778 8  84115868.08047  20541942.699    20541942.5034   20541941.4904
        51.400          42.3004
 111116101.588 8  86583953.37346  21144696.062    21144695.2754   21144695.5594
        51.000          36.1004
 127363759.573 8                  24236493.375
        48.200


 119619155.196 6  93209759.08444  22762771.082    22762770.9264   22762768.3324
        39.000          26.9004
 125589138.145 5  97861692.38844  23898827.151    23898827.0754   23898828.1194
        33.900          25.8004
 128033510.627 6                  24363950.057
        39.300
 200853971.868 5                  38221250.286
        33.400
 107303318.092 7                  20094444.121    20094442.441
        44.000
 124061340.022 8                  23608085.373
        48.800
 111121141.936 7  86427608.768 7  20816722.192    20816720.294    20816724.818
        44.100          45.800
 107309716.403 6                  20060370.098    20060369.598
        40.700
 198907231.934 6                  37850782.139
        41.400
 202056992.595 7                  38450169.194
        44.900
 117010556.394 7  91008202.691 6  21858549.566    21858549.509    21858560.549
        43.600          37.300
 126602187.879 6  98651053.53543  24091592.848    24091592.4104   24091589.7164
        38.200          19.9004
 113581164.428 8  88340952.397 6  21262620.643    21262621.193    21262628.062
        48.300          41.000




 142191754.858 5                  27058192.925
        34.800
 122047092.731 5                  22895793.561
        33.900
 127504127.387 6                  24263211.489
        41.800
 125258481.725 4  97423175.411 5  23423931.104    23423929.642    23423941.173
        29.500          30.400
 124142356.029 5  96555196.237 6  23182710.354    23182708.360    23182715.708
        35.800          37.000
 25  1  1  2 31 45.0000000  0 27G06G19G12G11G20E27G24G25G05E34S35R13
                                E15R22R23S31S33R07G17R12E21E02E13R14
                                E30R24R08
 111597447.631 7  86959099.28546  21236272.704    21236272.3744   21236277.0634
        47.200          41.7004
 112855193.028 6  87939114.56943  21475627.946    21475626.6014   21475624.9264
        40.400          22.6004
 109053136.165 7  84976526.15247  20752095.382    20752094.9174   20752095.7904
        47.900          47.9004
 107945835.743 8  84113663.63147  20541403.999    20541403.8164   20541403.7154
        50.900          43.3004
 111080856.799 8  86556489.94245  21137989.093    21137988.2984   21137988.0094
        50.500          35.9004
 127348556.562 8                  24233600.608
        48.000


 119577976.168 6  93177671.54944  22754936.288    22754936.0964   22754934.1834
        40.900          28.8004
 125531063.046 4  97816439.17043  23887775.950    23887775.9064   23887776.1554
        26.200          22.4004
 128058707.464 6                  24368744.328
        39.600
 200854006.392 4                  38221246.561
        28.800
 107314326.638 7                  20096506.362    20096505.259
        45.600
 124052618.851 8                  23606425.338
        48.200
 111151503.336 7  86451223.187 7  20822410.749    20822409.808    20822413.558
        47.700          47.200
 107303505.948 6                  20059209.995    20059208.787
        39.600
 198907232.149 6                  37850790.044
        40.200
 202056978.818 7                  38450170.773
        45.400
 116983097.361 7  90986845.579 6  21853423.297    21853422.968    21853428.879
        45.200          36.600
 126638533.797 6  98679374.97643  24098508.628    24098508.2134   24098505.3224
        37.200          19.6004
 113637680.979 8  88384909.684 6  21273202.732    21273203.937    21273208.162
        50.700          41.200




 142157740.329 6                  27051723.910
        37.400
                                                  22886491.182

 127530779.199 7                  24268282.719
        43.700
 125218616.446 5                  23416485.263    23416483.192
        34.100
 124084001.476 6  96509809.375 6  23171814.538    23171814.048    23171817.630
        39.400          38.900
 25  1  1  2 32  0.0000000  0 25G06G19G12G11G20E27G24G25G05E34S35R13
                                E15R22R23S31S33G17R12E21E02E13E30R24
                                R08
 111627725.573 7  86982692.46846  21242034.886    21242034.5824   21242039.5314
        46.200          41.3004
 112884838.641 7  87962215.04944  21481269.697    21481268.3874   21481267.2114
        42.300          24.1004
 109042169.078 7  84967980.37747  20750009.400    20750008.9314   20750008.6964
        47.300          47.3004
 107943101.704 8  84111533.21747  20540883.712    20540883.5434   20540884.5244
        49.600          43.6004
 111045721.548 7  86529111.85645  21131302.604    21131301.7864   21131301.9054
        45.700          34.2004
 127333446.652 7                  24230724.106
        47.300


 119536896.816 6  93145661.65844  22747118.756    22747118.5644   22747118.0964
        39.900          29.7004


 128083937.167 6                  24373545.002
        41.300


 107325540.486 7                  20098606.076    20098605.629
        46.300
 124043961.048 8                  23604778.017
        48.600
 111181900.176 7  86474865.164 7  20828102.393    20828102.331    20828108.724
        47.600          47.900
 107297364.939 7                  20058062.821    20058063.547
        44.900
 198907233.121 6                  37850788.810
        40.800
 202056968.704 7                  38450168.291
        44.500
 126674912.676 5  98707722.13743  24105431.041    24105430.5994   24105427.7924
        34.600          20.0004
 113694297.670 8  88428944.902 6  21283801.581    21283802.152    21283808.255
        50.200          40.400




 142123763.848 5                  27045252.836
        34.900
 127557516.561 7                  24273370.223
        43.000


 124025674.672 5  96464444.108 6  23160934.737    23160930.454    23160924.167
        32.700          37.100
 25  1  1  2 32 15.0000000  0 27G06G19G12G11G20E27G24G25G05E34S35R13
                                E15R22R23S31S33R07G17R12E21E02E13R14
                                E30R24R08
 111658056.193 8  87006326.70347  21247806.880    21247806.5724   21247811.9004
        48.200          43.0004
 112914548.563 7  87985365.58244  21486923.604    21486922.3304   21486921.2294
        45.100          24.6004
 109031351.192 7  84959550.88047  20747950.822    20747950.3314   20747949.4614
        45.400          46.3004
 107940459.186 8  84109474.12347  20540380.805    20540380.6364   20540381.9984
        49.800          44.0004
 111010692.739 7  86501816.68845  21124636.257    21124635.4304   21124637.4754
        46.800          34.7004
 127318426.589 8                  24227866.509
        48.600


 119495913.950 7  93113727.00045  22739319.339    22739319.1524   22739320.7314
        43.400          33.7004
 125415061.452 5  97726014.23143  23865694.170    23865694.0944   23865689.3804
        34.900          22.8004
 128109196.182 6                  24378352.513
        41.800


 107336956.494 7                  20100743.025    20100742.685
        45.300
 124035363.211 7                  23603141.587
        47.700
 111212328.958 8  86498531.967 7  20833804.522    20833804.857    20833808.531
        48.500          46.300
 107291289.910 7                  20056926.169    20056927.933
        45.800
 198907233.397 7                  37850791.046
        42.300
 202056957.082 7                  38450165.362
        44.100
 116928664.496 7  90944533.784 6  21843250.466    21843252.679    21843257.682
        44.800          36.200
 126711321.051 6  98736092.28343  24112359.059    24112358.5994   24112357.1704
        38.000          19.3004
 113751010.626 8  88473054.913 6  21294418.150    21294417.708    21294425.868
        49.100          41.200




 142089821.893 6                  27038802.600
        38.000
 121899553.188 6  94810859.745 6  22868055.962    22868057.307    22868069.667
        38.000          36.600
 127584335.946 7                  24278474.154
        44.200
 125138934.260 5  97330221.421 5  23401611.648                    23401597.154
        30.700          33.200
 123967378.965 6  96419098.286 6  23150032.060    23150029.926    23150035.579
        36.400          37.100
 25  1  1  2 32 30.0000000  0 27G06G19G12G11G20E27G24G25G05E34S35R13
                                E15R22R23S31S33R07G17R12E21E02E13R14
                                E30R24R08
 111688439.520 7  87030001.99246  21253588.173    21253587.8474   21253594.0704
        45.300          40.4004
 112944323.309 7  88008566.68644  21492588.803    21492587.5344   21492586.7614
        45.800          24.3004
 109020682.711 8  84951237.77547  20745920.603    20745920.0944   20745918.6294
        48.200          47.1004
 107937908.342 8  84107486.46447  20539895.449    20539895.2844   20539896.6484
        50.600          44.8004
 110975770.914 7  86474604.91345  21117990.739    21117989.8854   21117992.8804
        46.300          34.1004
 127303496.795 7                  24225025.193
        46.200
 134235980.908 5                  25544256.343
        30.300
 119455028.262 7  93081868.08445  22731539.989    22731539.8064   22731542.1564
        42.900          35.9004
 125357057.960 5  97680816.80942  23854658.327    23854658.4344   23854648.3764
        31.600          17.9004
 128134484.606 7                  24383164.907
        43.300


 107348574.557 7                  20102918.117    20102917.570
        44.000
 124026825.484 8                  23601516.913
        48.000
 111242789.810 7  86522223.692 7  20839512.148    20839510.916    20839513.230
        47.000          45.300
 107285281.060 7                  20055802.890    20055803.463
        44.600
 198907232.093 6                  37850786.065
        41.900
 202056943.912 7                  38450158.471
        45.000
 116901688.236 7  90923552.231 6  21838212.385    21838213.719    21838221.030
        43.400          39.100
 126747759.344 6  98764485.67443  24119295.149    24119294.6894   24119291.3784
        39.200          21.0004
 113807819.537 7  88517239.620 6  21305052.290    21305053.256    21305059.744
        47.900          39.000




 142055914.920 5                  27032357.683
        31.100
 121850613.247 7  94772795.327 5  22858875.401    22858877.576    22858888.746
        43.500          34.700
 127611237.595 7                  24283594.051
        43.700
 125099107.161 5  97299287.607 5  23394163.651                    23394161.029
        34.900          33.500
 123909102.806 5  96373772.467 5  23139145.305    23139150.151    23139154.310
        35.800          34.500
 25  1  1  2 32 45.0000000  0 26G06G19G12G11G20E27G25G05E34S35R13E15
                                R22R23S31S33R07G17R12E21E02E13R14E30
                                R24R08
 111718877.192 7  87053719.65946  21259381.376    21259381.0144   21259385.2414
        45.100          38.5004
 112974164.689 7  88031819.68544  21498268.112    21498266.8294   21498264.8634
        45.100          25.3004
 109010165.626 8  84943042.65548  20743918.639    20743918.1214   20743917.5284
        49.300          48.7004
 107935450.878 8  84105571.55747  20539427.919    20539427.7594   20539428.8544
        51.300          44.8004
 110940958.066 7  86447478.04945  21111366.362    21111365.5134   21111367.9484
        45.500          32.5004
 127288659.252 7                  24222202.392
        46.200
 119414241.930 6  93050086.53945  22723781.012    22723780.7624   22723782.1554
        41.400          35.2004
 125299079.996 5  97635639.33742  23843622.721    23843622.9494   23843612.0054
        33.500          17.7004
 128159804.100 7                  24387981.796
        43.100


 107360396.364 7                  20105131.640    20105131.538
        44.400
 124018349.620 8                  23599904.332
        48.200
 111273284.378 7  86545941.718 7  20845222.176    20845222.439    20845227.763
        45.700          45.900
 107279339.970 7                  20054693.478    20054694.412
        47.100
 198907231.314 6                  37850786.986
        41.800
 202056932.129 7                  38450158.476
        45.500
 116874874.718 7  90902697.326 6  21833203.221    21833203.535    21833210.062
        43.600          40.800
 126784229.278 6  98792903.79043  24126234.018    24126233.5804   24126232.5974
        39.000          21.7004
 113864725.769 7  88561499.928 6  21315706.163    21315706.490    21315712.482
        47.500          39.300






 121801795.483 7  94734825.823 6  22849715.953    22849717.386    22849728.972
        42.500          37.900
 127638223.131 7                  24288728.870
        43.200


                  96328468.794 5                                  23128273.717
                        33.900
 25  1  1  2 33  0.0000000  0 26G06G19G12G11G20E27G25G05E34S35R13E15
                                R22R23S31S33R07G17R12E21E02E13R14E30
                                R24R08
 111749368.627 7  87077479.23646  21265183.186    21265182.8244   21265186.2424
        46.700          37.6004
 113004072.306 7  88055124.29044  21503958.798    21503957.5204   21503956.8054
        45.300          25.5004
 108999799.809 8  84934965.39048  20741946.003    20741945.5214   20741945.0914
        49.400          48.9004
 107933086.291 8  84103729.02547  20538977.904    20538977.7484   20538978.6024
        51.600          44.5004
 110906254.070 7  86420435.98645  21104762.165    21104761.2894   21104763.1924
        46.200          31.3004
 127273913.749 7                  24219396.774
        44.600
 119373555.022 5  93018382.37445  22716038.133    22716037.7804   22716041.3304
        31.800          30.9004
 125241127.240 5  97590481.50142  23832594.562    23832595.1564   23832584.0184
        32.600          17.1004
 128185154.210 7                  24392805.616
        42.600


 107372421.426 7                  20107385.472    20107385.102
        45.800
 124009935.155 8                  23598303.178
        48.600
 111303812.161 7  86569685.539 7  20850940.353    20850941.532    20850947.004
        45.700          45.300
 107273466.198 7                  20053595.585    20053596.722
        46.900
 198907230.614 6                  37850779.017
        41.000
 202056919.686 7                  38450158.480
        45.800
 116848223.782 7  90881968.813 6  21828221.251    21828224.231    21828230.168
        42.400          38.700
 126820730.617 5  98821346.36042  24133179.574    24133179.1054   24133177.5504
        34.800          17.7004
 113921728.366 7  88605835.222 6  21326376.123    21326376.452    21326380.459
        45.200          36.900




 141988201.313 5                  27019457.337
        31.800
 121753099.837 7  94696951.387 6  22840581.659    22840580.721    22840592.012
        43.700          38.600
 127665292.174 7                  24293880.466
        42.300


                  96283187.099 5                                  23117401.373
                        30.200
 25  1  1  2 33 15.0000000  0 27G06G19G12G11G20E27G24G25G05E34S35R13
                                E15R22R23S31S33R07G17R12E21E02E13R14
                                E30R24R08
 111779914.638 7  87101281.30046  21270995.635    21270995.2734   21270997.8264
        47.300          38.7004
 113034047.090 7  88078481.26044  21509662.915    21509661.6374   21509661.5094
        45.400          26.3004
 108989586.432 8  84927006.92848  20740002.451    20740001.9914   20740001.6174
        50.700          49.2004
 107930815.581 8  84101959.63847  20538545.881    20538545.7254   20538545.9194
        50.200          43.6004
 110871660.158 7  86393479.69145  21098178.982    21098178.0754   21098179.4434
        46.700          31.1004
 127259261.432 7                  24216608.888
        46.100


 119332968.619 6  92986756.67445  22708312.573    22708312.1804   22708318.0594
        36.700          30.4004
 125183201.109 4  97545344.47142  23821562.387    23821562.9454   23821562.6764
        27.100          17.9004
 128210535.800 7                  24397636.367
        44.400


 107384650.892 7                  20109674.579    20109674.000
        44.900
 124001583.098 8                  23596713.919
        49.200
 111334374.198 7  86593455.976 7  20856666.159    20856665.920    20856673.270
        46.100          45.900
 107267660.858 7                  20052510.012    20052510.386
        46.000
 198907232.048 6                  37850781.767
        40.300
 202056907.815 7                  38450152.587
        46.200
 116821737.101 6  90861368.125 6  21823272.724    21823273.546    21823281.012
        40.800          38.000
 126857264.185 5  98849813.97241  24140127.914    24140127.4274   24140129.7604
        30.600          11.0004
 113978827.750 7  88650245.779 6  21337066.432    21337066.689    21337070.127
        46.500          38.000




 141954405.228 5                  27013025.947
        32.100
 121704527.974 6  94659173.346 6  22831466.722    22831465.703    22831480.419
        41.700          38.100
 127692445.604 7                  24299047.635
        42.600
                  97206635.177 5                                  23371885.713
                        34.700
 123734424.831 6  96237928.838 6  23106534.478                    23106541.649
        37.200          36.100
 25  1  1  2 33 30.0000000  0 26G06G19G12G11G20E27G24G25G05E34S35R13
                                E15R22R23S31S33R07R12E21E02E13R14E30
                                R24R08
 111810513.477 7  87125124.51846  21276818.083    21276817.7624   21276820.1074
        45.100          39.6004
 113064087.603 7  88101889.45744  21515378.910    21515377.6234   21515378.5274
        43.900          27.0004
 108979524.166 8  84919166.20748  20738087.161    20738086.6924   20738087.3694
        50.400          49.5004
 107928637.050 8  84100262.09447  20538131.391    20538131.2394   20538130.8454
        49.400          42.8004
 110837175.025 7  86366608.21144  21091617.314    21091616.3674   21091616.1124
        45.100          29.4004
 127244700.944 7                  24213836.453
        46.200


 119292481.742 5  92955208.48345  22700605.897    22700605.5044   22700613.0604
        33.800          30.2004
 125125300.622 5  97500227.35043  23810561.398    23810561.9394   23810546.8514
        35.300          19.0004
 128235947.227 7                  24402471.670
        42.800
 200854285.477 5                  38221295.069
        33.000
 107397082.542 7                  20112002.470    20112000.608
        42.300
 123993291.821 8                  23595136.317
        49.700
 111364968.766 7  86617251.734 7  20862399.809    20862399.341    20862404.575
        47.600          44.500
 107261922.275 7                  20051437.258    20051438.029
        45.200
 198907232.615 6                  37850785.170
        40.300
 202056896.689 7                  38450155.149
        46.100
 116795413.711 7  90840894.367 5  21818353.760    21818355.440    21818361.029
        44.300          34.900
 114036021.972 7  88694730.105 6  21347773.254    21347773.801    21347777.906
        47.200          39.900




 141920645.077 5                  27006603.021
        35.300
 121656078.856 7  94621490.694 5  22822379.013    22822377.309    22822389.007
        42.900          35.400
 127719681.811 7                  24304230.027
        42.800
                  97175800.236 5                                  23364474.741
                        32.600
 123676264.399 6  96192693.070 6  23095672.769    23095673.240    23095683.109
        41.800          38.900
 25  1  1  2 33 45.0000000  0 25G06G19G12G11G20E27G24G25G05E34S35R13
                                E15R22R23S31S33R07R12E21E13R14E30R24
                                R08
 111841165.439 7  87149009.15046  21282650.792    21282650.4624   21282653.2444
        46.700          39.5004
 113094194.333 7  88125349.23244  21521107.440    21521106.1714   21521107.5174
        44.100          25.3004
 108969613.514 8  84911443.63848  20736202.146    20736201.6734   20736201.4354
        50.100          49.0004
 107926551.119 8  84098636.71647  20537733.786    20537733.6394   20537733.7964
        49.300          42.2004
 110802799.441 7  86339822.06544  21085075.749    21085074.7794   21085073.6634
        46.400          28.6004
 127230232.952 7                  24211083.365
        46.100


 119252095.094 6  92923738.36945  22692920.377    22692919.9214   22692927.1374
        38.700          30.7004
 125067426.967 5  97455130.99443  23799538.262    23799538.6914   23799535.2794
        32.000          19.5004
 128261388.835 7                  24407313.230
        42.400
 200854321.294 5                  38221299.756
        34.000
 107409717.080 7                  20114368.510    20114367.049
        42.700
 123985061.727 8                  23593570.244
        50.100
 111395596.235 8  86641073.125 6  20868135.772    20868136.285    20868139.275
        48.600          40.300
 107256250.549 7                  20050375.839    20050375.459
        44.000
 198907233.581 6                  37850786.060
        39.300
 202056885.991 7                  38450155.963
        43.400
 116769254.043 6  90820548.010 5  21813468.353    21813467.215    21813472.352
        38.300          34.500
 114093310.895 7  88739288.120 7  21358496.005    21358495.013    21358505.279
        44.700          42.400


 141886921.430 5                  27000185.623
        35.500
 121607753.353 6  94583904.194 5  22813311.028    22813306.810    22813321.978
        38.600          35.700
 127747001.208 7                  24309429.407
        42.500
 124900767.261 6                  23357074.851
        36.400
 123618133.958 6  96147480.627 6  23084814.023    23084815.184    23084822.670
        41.400          37.800
 25  1  1  2 34  0.0000000  0 26G06G19G12G11G20E27G24G25G05E34S35R13
                                E15R22R23S31S33R07R12E21E02E13R14E30
                                R24R08
 111871868.350 7  87172933.47746  21288493.060    21288492.7474   21288496.5554
        45.300          40.3004
 113124365.339 7  88148859.08044  21526849.272    21526848.0204   21526847.9314
        43.300          24.6004
 108959852.576 8  84903837.70548  20734344.644    20734344.1714   20734343.6464
        51.000          49.4004
 107924555.709 8  84097081.86947  20537354.356    20537354.2004   20537354.7194
        48.200          42.0004
 110768531.710 7  86313119.96244  21078554.098    21078553.0924   21078552.1954
        44.100          27.7004
 127215855.575 7                  24208348.087
        46.500


 119211807.124 6  92892345.19345  22685253.385    22685252.9254   22685258.4884
        40.700          31.2004
 125009577.946 5  97410053.80243  23788523.312    23788523.9514   23788528.1884
        33.900          23.9004
 128286858.475 6                  24412159.617
        38.500
 200854355.676 6                  38221304.746
        37.400
 107422552.231 7                  20116772.072    20116771.252
        44.100
 123976890.794 8                  23592015.464
        51.000
 111426254.477 7  86664918.369 6  20873879.163    20873878.211    20873881.473
        47.000          36.500
 107250644.017 7                  20049329.220    20049329.985
        46.900
 198907232.866 7                  37850786.185
        42.000
 202056873.470 7                  38450146.089
        43.800
 116743256.767 7  90800328.006 6  21808616.494    21808617.087    21808617.628
        46.000          36.300
 114150692.140 7  88783917.967 6  21369237.707    21369237.201    21369245.580
        45.300          41.200




 141853232.477 5                  26993773.496
        32.800
 121559550.214 6  94546412.911 6  22804269.830    22804268.700    22804279.284
        39.700          38.300
 127774401.643 7                  24314643.353
        43.000
 124861183.632 4                  23349669.863    23349667.286
        28.200
 123560032.351 6  96102290.646 6  23073958.590    23073960.043    23073974.209
        40.000          36.000
 25  1  1  2 34 15.0000000  0 27G06G19G12G11G20E27G24G25G05E34S35R13
                                E15R22R23S31S33R07G17R12E21E02E13R14
                                E30R24R08
 111902625.226 7  87196899.86246  21294345.466    21294345.2074   21294349.5384
        42.900          38.2004
 113154603.776 7  88172421.49144  21532604.573    21532603.3354   21532602.1624
        46.500          26.3004
 108950244.854 8  84896351.19048  20732516.248    20732515.7834   20732515.2584
        51.700          49.4004
 107922653.975 7  84095599.99547  20536992.899    20536992.7304   20536993.5194
        47.900          42.0004
 110734375.318 7  86286504.62344  21072054.865    21072053.8414   21072051.3724
        45.600          27.0004
 127201572.228 7                  24205630.106
        47.600


 119171621.373 7  92861031.64845  22677608.064    22677607.6404   22677609.2724
        42.800          32.0004
 124951757.333 6  97364998.82244  23777521.834    23777522.4824   23777526.0834
        36.300          25.4004
 128312359.378 7                  24417013.444
        45.400


 107435591.394 7                  20119215.505    20119215.235
        47.300
 123968782.171 8                  23590471.950
        50.300
 111456946.647 8  86688789.946 6  20879630.295    20879630.157    20879630.777
        48.900          36.000
 107245105.461 7                  20048293.437    20048293.262
        46.400
 198907233.599 7                  37850780.095
        42.000
 202056862.057 7                  38450145.835
        46.000
 116717425.301 7  90780236.876 6  21803790.749    21803791.415    21803793.695
        45.400          38.200
 127003692.414 6  98963918.80443  24167998.876    24167999.4264   24168000.3424
        37.600          19.5004
 114208168.272 7  88828621.614 6  21379997.785    21379998.576    21380004.729
        45.600          40.600




 141819581.269 5                  26987368.770
        30.000
 121511472.684 6  94509019.269 6  22795251.201    22795246.436    22795257.835
        36.900          38.200
 127801886.372 7                  24319874.517
        44.700
 124821632.517 5                  23342250.455    23342250.130
        32.900
 123501963.153 6  96057125.699 5  23063118.699    23063119.667    23063122.712
        41.900          33.300
