     2.11           OBSERVATION DATA    M (MIXED)           RINEX VERSION / TYPE
teqc  2019Feb25                         20260317 16:18:01UTCPGM / RUN BY / DATE
Linux 2.4.21-27.ELsmp|Opteron|gcc -static|Linux 64|=+       COMMENT
BIT 2 OF LLI FLAGS DATA COLLECTED UNDER A/S CONDITION       COMMENT
-Unknown-                                                   MARKER NAME
-Unknown-           -Unknown-                               OBSERVER / AGENCY
-Unknown-           -Unknown-           -Unknown-           REC # / TYPE / VERS
-Unknown-           -Unknown-                               ANT # / TYPE
        0.0000        0.0000        0.0000                  APPROX POSITION XYZ
        0.0000        0.0000        0.0000                  ANTENNA: DELTA H/E/N
     1     1                                                WAVELENGTH FACT L1/2
     7    L1    L2    C1    P1    P2    S1    S2            # / TYPES OF OBSERV
 SNR is mapped to RINEX snr flag value [0-9]                COMMENT
  L1 & L2: min(max(int(snr_dBHz/6), 0), 9)                  COMMENT
  2025     1     1    18     0    0.0000000     GPS         TIME OF FIRST OBS
    18                                                      LEAP SECONDS
                                                            END OF HEADER
 25  1  1 18  0  0.0000000  0 22E31G07G30G08G16G27G04R18R10E09G09E04
                                R07R09E21S35S31E06S33R08R11E19
 129604334.566 6                  24662883.991
        41.000
 117130515.042 7  91270472.80746  22289186.687    22289186.0934   22289187.6804
        43.700          37.7004
 131085068.358 5 102144228.09442  24944658.488    24944658.9084   24944661.2124
        35.100          16.0004
 110771005.568 7  86315110.69247  21079020.083    21079019.4494   21079027.2824
        47.400          47.9004
 114964064.031 6  89582419.98441  21876931.772    21876931.3484   21876936.8914
        39.500           7.9004
 109875768.348 8  85617482.02847  20908660.714    20908660.1154   20908662.9224
        49.400          43.0004
 107621692.305 7  83861051.45345  20479720.764    20479720.5104   20479727.1094
        46.100          33.3004
 122565633.599 5                  22960674.070
        35.800
 107762635.818 6                  20215995.666    20215995.278
        39.200
 134678384.616 7                  25628448.373
        42.900
 106087143.631 8  82665299.84748  20187720.899    20187720.3674   20187723.5294
        49.100          49.7004
 122616137.946 8                  23333060.080
        48.500
 106790243.042 8  83059100.756 7  19949324.216    19949324.260    19949331.601
        48.600          44.300
 106950278.117 8  83183561.396 7  20028343.542    20028344.226    20028346.023
        50.700          46.300
 139249912.021 5                  26498375.416
        35.600


 198903258.572 7                  37850056.095
        42.100
 125779622.869 7                  23935070.499
        45.100
 202043530.654 7                  38447630.144
        45.500
 109410488.896 7  85097057.894 7  20431637.459    20431636.379    20431642.640
        44.500          47.200
                  98331632.742 5                                  23658957.668
                        33.600
 134438444.720 6                  25582786.345
        36.800
 25  1  1 18  0 15.0000000  0 24E31G07G26G30G08G16G27G04R19R18R10E09
                                G09E04R07R09E21S35S31E06S33R08R11E19
 129578574.509 7                  24657981.430
        43.800
 117099345.021 7  91246184.52046  22283255.435    22283254.8504   22283256.0234
        43.800          38.7004


 131042520.235 4 102111073.81941  24936556.877    24936556.9844   24936561.9454
        29.300          10.7004
 110734151.406 8  86286393.29547  21072006.743    21072006.1174   21072013.5244
        48.000          44.5004
 115009102.783 6  89617514.98341  21885502.541    21885501.9114   21885505.5404
        37.600          11.0004
 109870916.729 8  85613701.58947  20907737.199    20907736.6144   20907740.4764
        48.300          43.5004
 107649182.715 7  83882472.52245  20484952.791    20484952.5234   20484957.4234
        43.900          31.7004


 122572706.494 6  95334324.498 5  22961990.772    22961990.869    22962001.822
        40.400          34.200
 107748230.419 6                  20213293.606    20213293.224
        36.900
 134646088.259 6                  25622302.380
        38.900
 106087861.415 8  82665859.14948  20187857.206    20187856.6524   20187860.3294
        49.900          49.6004
 122620668.819 8                  23333922.224
        48.300
 106826944.504 7  83087646.206 7  19956181.182    19956181.976    19956187.971
        47.600          46.400
 106971894.135 8  83200373.882 7  20032391.290    20032392.283    20032392.569
        51.300          45.300
 139286459.474 6                  26505331.399
        37.400


 198903251.155 6                  37850055.317
        40.300
 125762917.895 8                  23931892.226
        48.700
 202043543.184 6                  38447627.054
        41.800
 109386344.029 7  85078278.547 7  20427128.398    20427127.772    20427133.407
        46.000          46.200


 134479601.293 6                  25590618.480
        36.900
 25  1  1 18  0 30.0000000  0 23E31G07G30G08G16G27G04R19R18R10E09G09
                                E04R07R09E21S35S31E06S33R08R11E19
 129552874.904 7                  24653090.599
        42.000
 117068193.988 7  91221911.03446  22277327.052    22277326.4894   22277328.1544
        45.300          38.0004


 110697417.967 8  86257770.01046  21065015.885    21065015.2464   21065021.7664
        49.600          41.9004
 115054195.788 5  89652652.52942  21894086.096    21894085.4394   21894086.0924
        34.800          12.7004
 109866233.645 7  85610052.55747  20906846.232    20906845.6204   20906849.8134
        47.500          45.1004
 107676803.813 6  83903995.39045  20490209.867    20490209.6044   20490212.8634
        40.800          30.2004


 122579967.971 4  95339972.403 5  22963350.948    22963349.531    22963356.983
        28.600          30.600
 107733906.074 6                  20210607.598    20210606.874
        41.100
 134613849.049 7                  25616166.442
        42.600
 106088730.704 8  82666536.50448  20188022.648    20188022.1034   20188025.9894
        50.100          51.1004
 122625297.587 8                  23334803.287
        48.700
 106863819.911 7  83116327.008 7  19963067.803    19963069.169    19963077.074
        47.900          47.100
 106993566.825 8  83217230.411 7  20036448.403    20036450.142    20036452.207
        50.800          44.700
 139323018.428 5                  26512291.758
        31.300


 198903245.341 7                  37850058.559
        42.600
 125746298.327 7                  23928729.715
        47.100
 202043556.803 6                  38447629.259
        41.700
 109362389.311 7  85059647.174 7  20422655.193    20422653.154    20422661.775
        46.300          47.900
                  98265950.976 5                                  23643171.637
                        34.100
 134520804.559 6                  25598459.256
        37.500
 25  1  1 18  0 45.0000000  0 23E31G07G26G30G08G16G27G04R10E09G09E04
                                R07R09E21S35S31E06S33R08R11E19R16
 129527227.804 7                  24648210.820
        45.400
 117037054.001 7  91197646.14246  22271402.025    22271401.4894   22271401.5334
        46.600          39.3004




 110660797.611 8  86229234.77946  21058046.813    21058046.1654   21058050.6994
        50.800          41.7004
 115099334.570 5  89687825.54942  21902671.437    21902670.7004   21902675.2964
        32.300          12.7004
 109861711.231 8  85606528.66047  20905985.969    20905985.3524   20905990.5464
        49.600          45.6004
 107704547.650 7  83925613.90445  20495489.258    20495488.9864   20495493.4154
        43.700          32.6004
 107719654.304 7                  20207936.160    20207936.895
        44.000
 134581659.339 6                  25610041.018
        40.300
 106089743.652 8  82667325.75848  20188215.346    20188214.8014   20188218.7344
        48.900          48.9004
 122630016.387 8                  23335701.307
        48.200
 106900861.035 7  83145136.699 7  19969988.118    19969989.998    19969996.244
        47.500          45.300
 107015288.097 7  83234124.756 7  20040514.919    20040515.482    20040520.284
        46.800          47.600
 139359581.119 5                  26519243.707
        32.500


 198903233.093 7                  37850058.728
        43.900
 125729756.413 8                  23925582.279
        48.800
 202043563.294 6                  38447619.815
        40.700
 109338617.344 7  85041157.843 7  20418218.160    20418215.077    20418220.234
        43.500          45.800


 134562046.321 6                  25606306.605
        36.800
 127055947.890 5                  23785144.377
        31.600
 25  1  1 18  1  0.0000000  0 23E31G07G26G30G08G27G04R18R10E09G09E04
                                R07R09E21S35S31E06S33R08R11E19R16
 129501646.590 7                  24643342.515
        42.900
 117005938.530 7  91173400.34546  22265480.960    22265480.4104   22265479.1774
        44.600          37.8004


 130914808.278 5 102011571.72541  24912258.932    24912258.7134   24912268.8454
        33.800           7.4004
 110624304.081 8  86200798.33647  21051102.764    21051102.0984   21051105.8444
        48.700          42.3004
 109857362.914 8  85603140.40947  20905158.983    20905158.3804   20905163.7934
        49.100          47.3004
 107732427.390 7  83947338.29345  20500794.080    20500793.7724   20500799.2284
        45.200          33.1004
 122595048.159 6                  22966180.882    22966176.294
        37.000
 107705488.297 7                  20205275.439    20205276.186
        43.100
 134549532.668 6                  25603927.157
        41.500
 106090913.729 8  82668237.47048  20188438.032    20188437.4694   20188441.0994
        50.200          48.4004
 122634838.627 8                  23336619.538
        49.300
 106938080.619 7  83174085.205 7  19976938.014    19976940.750    19976949.791
        44.000          46.500
 107037071.252 7  83251067.260 7  20044594.418    20044593.932    20044599.597
        45.800          46.500
 139396160.440 5                  26526206.075
        33.200


 198903227.531 7                  37850056.783
        42.500
 125713305.696 7                  23922450.840
        47.200
 202043577.979 7                  38447633.400
        42.500
 109315041.946 7  85022821.482 7  20413814.882    20413812.971    20413817.420
        44.000          44.400
 126257694.578 4  98200455.617 6  23627403.321                    23627415.366
        28.400          40.000
 134603340.137 5                  25614162.656
        31.600
 127101934.935 4                  23793743.903
        27.200
 25  1  1 18  1 15.0000000  0 23E31G07G26G30G08G16G27G04R18R10E09G09
                                E04R07R09E21S35S31E06S33R08R11E19
 129476124.612 7                  24638485.572
        44.200
 116974841.078 7  91149168.57046  22259564.047    22259563.4894   22259561.2844
        45.600          39.4004




 110587930.996 7  86172455.74547  21044181.240    21044180.5654   21044186.2904
        47.700          45.7004
 115189753.271 6  89758269.24742  21919884.468    21919884.4014   21919884.1214
        38.700          13.0004
 109853182.020 8  85599882.61248  20904363.472    20904362.8694   20904368.2964
        50.400          48.0004
 107760436.147 7  83969163.24945  20506123.808    20506123.5184   20506129.0404
        47.000          34.4004
 122602872.856 4                  22967643.890    22967644.086
        28.100
 107691401.486 7                  20202633.655    20202633.775
        43.200
 134517462.459 7                  25597824.480
        45.000
 106092234.191 8  82669266.38647  20188689.536    20188688.9694   20188691.4834
        50.200          47.8004
 122639757.667 8                  23337555.127
        50.000
 106975471.621 7  83203167.032 7  19983927.958    19983928.081    19983933.965
        43.400          45.800
 107058909.164 7  83268052.206 7  20048683.118    20048682.878    20048689.482
        46.200          47.300
 139432749.419 5                  26533168.274
        35.900


 198903222.455 7                  37850057.418
        43.200
 125696939.557 8                  23919337.086
        49.300
 202043592.617 7                  38447639.150
        44.500
 109291656.423 7  85004632.764 7  20409446.268    20409446.655    20409450.353
        47.900          45.400


 134644678.548 5                  25622031.146
        34.700
 25  1  1 18  1 30.0000000  0 23E31G07G26G30G08G16G27G04R18R10E09G09
                                E04R07R09E21S35S31E06S33R08R11E19
 129450662.044 8                  24633640.124
        48.200
 116943761.928 7  91124951.08846  22253648.875    22253648.2814   22253648.1804
        44.200          38.9004




 110551678.844 8  86144207.43747  21037283.155    21037282.4944   21037289.5554
        48.200          46.3004
 115235055.122 5  89793569.41642  21928504.274    21928503.8454   21928503.6114
        35.300          13.5004
 109849168.800 8  85596755.49847  20903599.339    20903598.7454   20903604.6504
        50.200          47.3004
 107788573.985 7  83991088.74745  20511477.568    20511477.2824   20511483.5264
        46.900          34.2004
                  95364013.059 5                                  22969148.285
                        33.100
 107677393.869 7                  20200006.491    20200006.227
        46.500
 134485449.127 7                  25591732.731
        46.200
 106093705.327 8  82670412.71048  20188969.188    20188968.6254   20188971.3894
        50.400          48.3004
 122644773.733 8                  23338509.574
        49.400
 107013034.101 7  83232382.196 7  19990942.720    19990942.496    19990951.899
        44.900          46.900
 107080802.058 7  83285079.886 8  20052783.904    20052784.273    20052790.921
        45.200          48.900
 139469348.338 5                  26540131.878
        33.400


 198903217.773 7                  37850051.328
        43.200
 125680658.408 8                  23916238.805
        49.100
 202043606.987 7                  38447643.586
        43.100
 109268461.422 7  84986592.165 7  20405114.719    20405114.498    20405118.715
        46.600          44.600
                  98135082.369 6                                  23611683.460
                        39.700
 134686062.031 5                  25629907.174
        30.400
 25  1  1 18  1 45.0000000  0 24E31G07G26G30G08G16G27G04R19R18R10E09
                                G09E04R07R09E21S35S31E06S33R08R11E19
 129425258.560 7                  24628805.726
        47.100
 116912700.683 7  91100747.51146  22247737.663    22247737.0874   22247738.1134
        44.900          40.1004


 130787057.800 5 101912016.73242  24887947.583    24887947.4584   24887954.7504
        35.300          15.7004
 110515547.703 7  86116053.39247  21030407.010    21030406.3534   21030414.9724
        46.300          46.5004
 115280408.220 5  89828909.55042  21937135.015    21937134.6354   21937134.6394
        33.300          12.2004
 109845323.020 7  85593758.85847  20902866.739    20902866.1494   20902872.2974
        47.400          44.7004
 107816840.334 7  84013114.43145  20516857.057    20516856.7944   20516862.6514
        46.600          34.0004
 121240490.164 5  94298216.517 5  22664630.957                    22664645.027
        34.400          31.600
 122619086.335 5  95370391.050 5  22970671.349                    22970687.753
        33.900          31.900
 107663464.759 7                  20197391.921    20197391.468
        45.100
 134453492.602 7                  25585651.765
        45.900
 106095326.757 8  82671676.18348  20189277.777    20189277.2234   20189280.4274
        49.600          48.2004
 122649886.458 8                  23339482.621
        48.900
 107050766.942 7  83261729.896 7  19997990.580    19997991.920    19997999.248
        46.000          45.900
 107102749.727 8  83302150.296 8  20056895.276    20056895.429    20056900.969
        48.300          48.900
 139505956.704 5                  26547100.284
        30.900


 198903212.944 6                  37850041.839
        39.700
 125664462.035 8                  23913156.948
        50.100
 202043622.010 7                  38447645.258
        45.500
 109245456.832 7  84968699.752 7  20400819.686    20400817.546    20400823.784
        44.900          46.300
 126131759.141 6  98102439.596 6  23603837.017                    23603829.502
        37.400          39.400
 134727490.003 6                  25637792.276
        36.400
 25  1  1 18  2  0.0000000  0 25E31G07G26G30G08G16G27G04R19R18R06R10
                                E09G09E04R07R09E21S35S31E06S33R08R11
                                E19
 129399914.457 8                  24623983.251
        48.300
 116881657.921 7  91076558.35846  22241829.550    22241829.0054   22241830.7734
        44.600          39.4004


 130744458.587 5 101878822.65242  24879842.579    24879842.5034   24879848.0074
        33.900          17.4004
 110479538.129 7  86087994.06947  21023554.763    21023554.1244   21023562.9844
        46.600          46.7004
 115325812.940 5  89864289.82842  21945775.454    21945775.3164   21945775.9474
        34.400          17.4004
 109841644.968 8  85590892.95847  20902167.811    20902167.2124   20902171.5314
        48.400          43.1004
 107845235.353 7  84035240.33645  20522260.532    20522260.2824   20522266.3214
        47.200          33.5004
 121207755.811 5                  22658507.433    22658509.935
        30.700
 122627474.201 5  95376914.848 6  22972250.085    22972252.424    22972269.021
        34.500          36.300
 124068847.247 5                  23250449.599
        30.700
 107649614.729 7                  20194795.283    20194794.291
        46.100
 134421593.462 7                  25579582.055
        46.000
 106097098.910 8  82673057.06948  20189614.800    20189614.2504   20189618.0534
        49.900          48.3004
 122655096.246 8                  23340474.092
        49.100
 107088670.337 7  83291210.212 7  20005070.221    20005071.232    20005081.064
        43.600          46.400
 107124752.119 8  83319263.289 8  20061015.154    20061015.850    20061021.269
        48.800          48.100




 198903208.743 7                  37850047.876
        42.600
 125648350.901 8                  23910090.915
        50.700
 202043637.461 7                  38447653.661
        45.400
 109222643.288 7  84950955.882 7  20396559.483    20396556.823    20396563.522
        45.100          47.300
 126089826.875 5  98069826.213 6  23595968.338    23595967.677    23595982.345
        35.000          37.800
 134768962.794 5                  25645683.351
        35.700
 25  1  1 18  2 15.0000000  0 24E31G07G26G30G08G16G27G04R19R06R10E09
                                G09E04R07R09E21S35S31E06S33R08R11E19
 129374623.749 8                  24619171.095
        50.300
 116850627.649 7  91052378.91746  22235926.269    22235925.7734   22235925.8934
        45.100          39.5004


 130701846.388 5 101845618.41443  24871730.878    24871730.6244   24871738.8404
        31.600          20.5004
 110443644.402 7  86060025.04147  21016723.126    21016722.4874   21016732.0444
        44.500          43.5004
 115371263.080 4  89899705.54041  21954419.941    21954419.7004   21954425.1294
        25.200          11.9004
 109838128.716 7  85588153.10747  20901498.441    20901497.8424   20901501.8874
        46.700          44.4004
 107873752.897 8  84057461.71945  20527687.508    20527687.2634   20527692.9844
        48.300          33.5004
 121175158.824 5  94247402.922 5  22652416.586    22652417.108    22652429.064
        32.200          30.900
 124137019.507 5                  23263213.815
        30.500
 107635837.438 7                  20192209.859    20192209.904
        46.000
 134389745.696 7                  25573520.930
        45.500
 106099015.787 8  82674550.67048  20189979.366    20189978.8164   20189983.2144
        50.900          49.5004
 122660397.096 7                  23341482.594
        47.700
 107126737.744 7  83320818.165 7  20012183.940    20012182.672    20012192.353
        45.100          46.300
 107146802.872 8  83336413.880 7  20065144.340    20065146.109    20065151.175
        49.800          47.500
 139579187.068 4                  26561034.756
        29.000


 198903198.956 6                  37850050.040
        41.200
 125632319.085 8                  23907039.643
        48.500
 202043646.565 7                  38447648.755
        43.000
 109200015.034 7  84933356.102 7  20392331.617    20392331.654    20392337.794
        44.900          47.500
 126047814.163 5  98037237.235 5  23588127.917    23588128.847    23588142.066
        32.900          30.400
 134810474.141 5                  25653581.045
        34.200
 25  1  1 18  2 30.0000000  0 22E31G07G26G30G08G27G04R19R10E09G09E04
                                R07R09E21S35S31E06S33R08R11E19
 129349394.854 7                  24614369.518
        47.800
 116819618.502 7  91028215.94546  22230024.585    22230024.0984   22230024.8004
        45.200          40.4004


 130659229.357 5 101812410.33743  24863623.446    24863623.3174   24863627.9074
        34.300          21.8004
 110407875.511 7  86032153.26047  21009918.006    21009917.3764   21009924.0974
        46.000          42.9004
 109834782.872 8  85585546.06347  20900862.398    20900861.8174   20900865.6874
        48.100          44.3004
 107902401.264 7  84079785.10945  20533139.410    20533139.1564   20533143.5834
        46.000          30.4004
 121142708.985 5  94222164.751 5  22646347.270    22646344.461    22646366.845
        30.500          35.900
 107622141.514 7                  20189641.388    20189641.131
        46.700
 134357958.081 7                  25567472.362
        45.900
 106101085.844 8  82676163.73748  20190373.070    20190372.5344   20190377.4914
        50.000          48.9004
 122665797.562 8                  23342510.453
        48.400
 107164977.117 7  83350559.828 7  20019328.061    20019329.108    20019336.503
        46.700          47.300
 107168910.291 8  83353608.534 7  20069283.706    20069284.157    20069289.760
        49.200          46.800
 139615820.350 5                  26568008.580
        31.600


 198903191.739 7                  37850045.810
        42.700
 125616375.241 8                  23904006.248
        50.200
 202043659.951 7                  38447650.419
        43.600
 109177580.786 7  84915907.299 8  20388143.959    20388142.982    20388149.574
        46.600          48.600
 126005953.041 4  98004679.673 5  23580305.551                    23580305.919
        28.000          35.400
 134852032.147 5                  25661491.053
        33.700
 25  1  1 18  2 45.0000000  0 23E31G07G30G08G16G27G04R19R18R10E09G09
                                E04R07R09E21S35S31E06S33R08R11E19
 129324227.083 8                  24609580.936
        48.500
 116788629.739 7  91004068.92546  22224129.005    22224128.5274   22224127.6914
        46.500          40.6004


 110372230.901 7  86004378.31047  21003133.529    21003132.8864   21003140.3864
        46.100          42.0004
 115462324.064 5  89970672.09741  21971751.719    21971751.2284   21971756.4944
        34.500          11.5004
 109831606.642 8  85583071.13647  20900257.251    20900256.6704   20900261.5264
        48.500          44.5004
 107931179.473 7  84102209.55744  20538615.573    20538615.3194   20538617.1984
        46.100          26.7004
 121110405.549 4  94197040.270 6  22640306.911    22640308.616    22640327.852
        29.600          37.400
 122653676.619 5                  22977180.355    22977184.235
        35.600
 107608526.209 7                  20187088.001    20187087.835
        46.800
 134326230.186 7                  25561435.677
        42.600
 106103308.496 8  82677895.65548  20190796.128    20190795.6054   20190800.7124
        48.600          48.8004
 122671296.870 7                  23343556.996
        47.600
 107203387.608 8  83380434.565 7  20026503.439    20026504.568    20026512.062
        49.000          47.300
 107191073.811 8  83370846.894 7  20073436.438    20073436.828    20073439.551
        52.300          46.200




 198903187.015 7                  37850041.182
        42.300
 125600518.859 8                  23900988.992
        49.200
 202043673.859 6                  38447651.125
        41.400
 109155340.381 8  84898609.183 7  20383991.131    20383991.027    20383995.204
        48.100          46.600
                  97972152.951 5                                  23572481.558
                        34.400
 134893636.049 5                  25669406.195
        32.400
 25  1  1 18  3  0.0000000  0 20E31G07G30G08G27G04R19R10E09G09E04R07
                                R09S35S31E06S33R08R11E19
 129299115.309 7                  24604801.759
        47.900
 116757656.452 7  90979933.92646  22218233.377    22218232.8684   22218233.2704
        47.500          40.2004


 110336705.721 7  85976696.47146  20996373.170    20996372.5044   20996379.2974
        46.700          41.5004
 109828594.873 7  85580724.36447  20899682.834    20899682.2674   20899689.3654
        47.200          45.3004
 107960082.307 7  84124731.17744  20544115.874    20544115.6244   20544115.6754
        45.800          26.7004
 121078243.492 4  94172025.670 5  22634295.242    22634292.056    22634314.249
        28.300          32.100
 107594985.782 7                  20184545.790    20184544.675
        43.500
 134294556.999 7                  25555407.856
        44.000
 106105678.532 7  82679742.42348  20191247.112    20191246.5984   20191251.5644
        47.500          48.6004
 122676889.983 8                  23344621.620
        48.900
 107241963.433 8  83410437.903 7  20033710.262    20033711.652    20033718.306
        48.800          46.700
 107213287.850 8  83388124.583 7  20077594.659    20077595.705    20077598.634
        51.800          45.900


 198903178.711 6                  37850035.221
        41.700
 125584744.878 8                  23897987.553
        50.300
 202043685.363 7                  38447659.044
        43.100
 109133288.660 7  84881457.853 8  20379874.500    20379875.162    20379877.864
        47.900          48.600
 125922357.096 6                  23564653.357    23564653.432
        40.300
 134935280.654 5                  25677331.651
        35.000
 25  1  1 18  3 15.0000000  0 22E31G07G30G08G16G27G04R19R18R10E09G09
                                E04R07R09S35S31E06S33R08R11E19
 129274063.511 7                  24600034.119
        47.000
 116726702.708 7  90955814.16246  22212343.497    22212343.0104   22212342.7164
        46.500          40.1004


 110301304.346 7  85949111.08047  20989636.967    20989636.2884   20989641.9484
        46.100          43.3004
 115553584.152 5  90041780.42841  21989114.345    21989113.8274   21989122.5774
        34.000          11.3004
 109825751.744 7  85578508.96647  20899142.014    20899141.4294   20899149.2824
        46.100          43.6004
 107989113.489 7  84147352.80744  20549640.880    20549640.6304   20549640.2494
        45.400          27.7004
 121046228.167 4  94147125.283 5  22628311.769    22628309.813    22628332.505
        29.200          30.100
 122672131.752 6                  22980629.287    22980627.429
        40.500
 107581524.430 7                  20182021.837    20182020.413
        42.900
 134262942.705 7                  25549390.785
        42.600
 106108200.016 7  82681707.20047  20191727.385    20191726.8764   20191731.0474
        47.300          47.2004
 122682580.856 8                  23345704.597
        49.400
 107280708.037 7  83440572.464 7  20040946.829    20040947.511    20040955.381
        47.900          46.700
 107235556.415 8  83405444.675 7  20081763.520    20081764.174    20081770.000
        49.500          47.400


 198903171.953 7                  37850037.980
        42.800
 125569057.474 8                  23895002.782
        51.300
 202043697.906 7                  38447660.462
        46.000
 109111429.936 8  84864456.567 8  20375791.292    20375792.902    20375796.314
        48.200          48.800
                  97907193.381 5                                  23556853.461
                        30.900
 134976969.706 5                  25685265.266
        32.400
 25  1  1 18  3 30.0000000  0 21E31G07G30G08G27G04R19R18R10E09G09E04
                                R07R09S35S31E06S33R08R11E19
 129249069.005 7                  24595277.398
        45.300
 116695765.959 7  90931707.62846  22206456.312    22206455.8304   22206456.6444
        47.200          40.6004


 110266024.349 8  85921620.28047  20982924.089    20982923.4194   20982928.7464
        48.300          45.9004
 109823074.512 6  85576422.87446  20898634.352    20898633.7804   20898638.4934
        41.900          38.8004
 108018270.196 7  84170072.24945  20555189.403    20555189.1264   20555191.5534
        46.900          31.2004
 121014356.475 4                  22622361.329    22622353.830
        26.500
 122681638.781 6                  22982407.616    22982409.541
        37.800
 107568139.524 7                  20179509.046    20179509.302
        42.600
 134231384.766 7                  25543386.297
        44.600
 106110870.256 7  82683787.86447  20192235.461    20192234.9614   20192238.8314
        46.800          47.4004
 122688366.912 8                  23346805.070
        48.200
 107319618.422 7  83470836.064 7  20048217.414    20048215.029    20048224.415
        46.100          46.900
 107257876.299 8  83422804.606 7  20085945.545    20085946.166    20085950.203
        50.800          46.200


 198903163.148 7                  37850044.987
        42.600
 125553454.097 8                  23892033.197
        49.900
 202043708.389 7                  38447663.436
        46.100
 109089761.771 7  84847603.565 7  20371743.942    20371743.624    20371749.156
        45.400          47.400
 125838896.368 6                  23549039.932    23549039.680
        38.000
 135018700.377 5                  25693207.625
        33.000
 25  1  1 18  3 45.0000000  0 21E31G07G26G30G08G16G27G04R10E09G09E04
                                R07R09S35S31E06S33R08R11E19
 129224141.245 7                  24590534.674
        47.500
 116664855.656 7  90907621.67246  22200574.820    22200574.3244   22200575.0294
        46.700          41.4004


 130446030.233 5 101646253.92942  24823051.172    24823051.0524   24823052.7664
        33.500          16.4004
 110230875.610 7  85894231.74847  20976234.679    20976233.9914   20976241.1354
        47.200          46.2004
 115645039.349 5  90113040.28541  22006517.740    22006517.4454   22006524.6074
        35.000          10.6004
 109820572.703 7  85574473.45046  20898157.460    20898156.8844   20898160.2804
        43.300          38.0004
 108047561.696 7  84192896.70245  20560762.863    20560762.5774   20560767.9754
        46.800          33.5004
 107554840.362 7                  20177015.770    20177015.040
        43.600
 134199892.958 7                  25537392.589
        43.800
 106113698.806 8  82685991.92447  20192773.379    20192772.8654   20192776.9954
        49.700          47.6004
 122694257.634 8                  23347926.464
        48.200
 107358703.964 8  83501235.800 7  20055517.140    20055516.684    20055526.324
        48.200          47.100
 107280257.123 8  83440211.930 7  20090136.195    20090137.180    20090142.291
        50.700          47.900


 198903162.057 7                  37850036.733
        42.000
 125537944.340 8                  23889081.518
        49.500
 202043726.980 7                  38447667.939
        45.100
 109068294.201 7  84830906.556 7  20367735.637    20367735.275    20367739.810
        44.900          46.700
 125797229.140 6                  23541248.025    23541250.104
        38.100
 135060482.133 5                  25701159.327
        35.200
 25  1  1 18  4  0.0000000  0 22E31G07G26G30G08G16G27G04R18R10E09G09
                                E04R07R09S35S31E06S33R08R11E19
 129199267.111 7                  24585801.014
        47.100
 116633958.662 8  90883546.08247  22194695.099    22194694.6034   22194696.0174
        49.700          44.5004


 130403370.179 5 101613012.40642  24814934.729    24814934.2204   24814933.9684
        33.600          16.7004
 110195845.211 7  85866935.41747  20969569.045    20969568.4024   20969576.0974
        46.600          46.9004
 115690838.310 5  90148705.80941  22015234.139    22015233.9034   22015235.6684
        33.200           9.9004
 109818233.181 7  85572650.47346  20897712.134    20897711.5444   20897714.0394
        44.300          36.7004
 108076974.643 8  84215815.81946  20566359.864    20566359.6104   20566366.0984
        48.500          36.1004
 122701224.158 6                  22986078.625    22986076.580
        36.300
 107541613.168 7                  20174534.528    20174534.309
        43.600
 134168454.244 7                  25531410.337
        45.500
 106116672.494 8  82688309.05547  20193339.046    20193338.5414   20193343.2234
        48.400          47.4004
 122700239.805 7                  23349064.933
        47.700
 107397950.503 8  83531760.822 7  20062851.139    20062850.842    20062857.795
        48.200          46.700
 107302685.314 8  83457656.163 8  20094334.693    20094335.582    20094341.475
        49.900          48.400


 198903155.620 7                  37850036.214
        43.100
 125522515.178 7                  23886145.431
        46.700
 202043740.045 7                  38447672.826
        45.100
 109047014.086 7  84814355.313 7  20363762.988    20363763.276    20363766.393
        46.200          47.300


 135102301.432 5                  25709115.111
        33.100
 25  1  1 18  4 15.0000000  0 21E31G07G26G30G08G16G27G04R10E09G09E04
                                R07R09S35S31E06S33R08R11E19
 129174449.878 8                  24581078.342
        48.300
 116603078.568 8  90859483.66847  22188818.504    22188818.0044   22188819.6744
        49.700          46.2004


 130360700.991 5 101579763.77142  24806816.135    24806815.7914   24806813.1354
        32.700          16.5004
 110160936.776 7  85839734.12448  20962925.287    20962924.6394   20962934.0604
        47.600          48.8004
 115736683.711 6  90184429.60041  22023957.348    22023957.3884   22023962.9784
        37.500          10.5004
 109816059.268 7  85570956.53646  20897298.825    20897298.2084   20897298.1874
        45.500          36.3004
 108106512.189 8  84238831.98945  20571980.140    20571979.8954   20571987.3394
        48.600          35.7004
 107528461.775 7                  20172066.138    20172065.504
        43.700
 134137072.150 7                  25525438.318
        45.000
 106119794.634 8  82690741.84447  20193933.189    20193932.6804   20193937.8554
        48.400          47.7004
 122706316.811 7                  23350221.038
        47.400
 107437361.472 8  83562413.676 7  20070211.748    20070212.564    20070220.550
        48.000          47.200
 107325164.282 8  83475139.879 8  20098545.707    20098545.883    20098550.623
        51.100          48.000


 198903147.246 7                  37850035.619
        42.100
 125507170.062 7                  23883225.201
        47.300
 202043751.257 7                  38447666.020
        45.700
 109025925.155 7  84797952.848 7  20359820.431    20359822.914    20359827.444
        47.300          46.300
 125713914.542 6                  23525653.974    23525651.940
        38.000
 135144161.625 5                  25717080.927
        32.700
 25  1  1 18  4 30.0000000  0 22E31G07G30G08G16G27G04R19R18R10E09G09
                                E04R07R09S35S31E06S33R08R11E19
 129149694.988 8                  24576367.311
        48.400
 116572220.817 8  90835438.68147  22182946.649    22182946.1714   22182947.2624
        51.400          46.4004
 130318028.086 6 101546512.22943  24798696.163    24798695.8154   24798693.8224
        36.400          19.0004
 110126156.062 7  85812632.33047  20956305.717    20956305.0474   20956315.5854
        44.000          45.8004
 115782580.006 4  90220192.8704   22032690.121    22032690.1524   22032696.9114
        27.300           5.9004
 109814056.481 7  85569395.92146  20896917.535    20896916.9014   20896918.2694
        45.500          40.6004
 108136179.544 8  84261949.29445  20577626.043    20577625.7894   20577631.8284
        48.100          33.6004
                  94024316.818 5                                  22598809.512
                        32.600
 122721599.178 5                  22989891.545    22989892.958
        32.000
 107515391.024 6                  20169614.571    20169613.091
        41.700
 134105752.268 7                  25519478.167
        46.000
 106123070.647 7  82693294.56247  20194557.014    20194556.5094   20194561.6114
        47.800          46.8004
 122712494.116 8                  23351396.561
        48.200
 107476941.370 7  83593197.975 7  20077604.629    20077604.451    20077613.765
        46.800          46.600
 107347699.258 8  83492667.093 7  20102765.728    20102766.397    20102769.889
        52.400          46.600


 198903141.925 6                  37850026.309
        39.800
 125491914.592 7                  23880322.121
        46.700
 202043764.950 7                  38447669.079
        45.100
 109005033.099 7  84781703.472 7  20355918.828    20355920.158    20355926.329
        46.500          46.600
 125672354.985 7                  23517877.810    23517877.474
        43.500
 135186067.707 6                  25725057.893
        36.800
 25  1  1 18  4 45.0000000  0 21E31G07G30G08G27G04R19R18R10E09G09E04
                                R07R09S35S31E06S33R08R11E19
 129125000.209 7                  24571667.938
        47.500
 116541383.159 8  90811409.37047  22177078.255    22177077.7864   22177078.8844
        51.100          46.6004
 130275349.282 5 101513256.08243  24790572.215    24790571.8004   24790573.5744
        34.100          20.1004
 110091501.203 7  85785628.64647  20949712.564    20949711.8984   20949720.6304
        47.800          46.3004
 109812222.475 7  85567966.82846  20896568.653    20896568.0144   20896571.1554
        44.400          40.8004
 108165974.362 7  84285166.05145  20583295.427    20583295.1954   20583302.1544
        47.300          33.4004
                  94000104.198 5                                  22592989.977
                        34.300
                                                  22991853.988

 107502399.088 7                  20167178.679    20167177.739
        43.300
 134074492.549 7                  25513529.536
        45.300
 106126498.385 7  82695965.50547  20195209.330    20195208.8254   20195214.0434
        46.500          46.0004
 122718769.524 8                  23352590.734
        48.400
 107516688.099 7  83624112.048 7  20085030.232    20085028.096    20085039.820
        43.300          46.300
 107370287.512 8  83510235.751 7  20106995.264    20106995.515    20107000.120
        52.200          47.300


 198903137.595 6                  37850037.886
        39.800
 125476746.664 7                  23877436.038
        44.900
 202043780.086 7                  38447677.096
        43.800
 108984335.739 7  84765605.535 7  20352055.238    20352056.063    20352061.421
        46.800          47.100
 125630833.718 6  97713034.447 6  23510103.842    23510103.371    23510119.072
        40.800          36.900
 135228017.459 6                  25733038.946
        36.800
 25  1  1 18  5  0.0000000  0 20E31G07G30G08G27G04R19R10E09G09E04R07
                                R09S35S31E06S33R08R11E19
 129100364.776 7                  24566979.935
        46.000
 116510564.770 8  90787395.05347  22171214.071    22171213.5984   22171214.5654
        50.400          47.2004
 130232663.771 6 101479994.65744  24782450.897    24782450.5444   24782453.7164
        38.200          26.3004
 110056971.688 7  85758722.65147  20943140.637    20943139.9584   20943149.0044
        46.100          44.1004
 109810556.704 7  85566668.87547  20896251.727    20896251.0934   20896255.0164
        47.400          44.4004
 108195895.639 7  84308481.31945  20588989.539    20588989.3034   20588996.5104
        47.800          34.8004
                  93976007.053 5                                  22587197.178
                        32.300
 107489484.735 7                  20164755.789    20164754.472
        43.900
 134043292.479 7                  25507592.481
        45.500
 106130077.104 8  82698754.09547  20195890.814    20195890.3184   20195894.9774
        49.400          47.7004
 122725142.305 8                  23353803.005
        48.600
 107556600.145 7  83655154.610 7  20092486.186    20092487.411    20092494.891
        47.900          46.100
 107392928.517 8  83527845.461 8  20111236.436    20111237.140    20111241.325
        52.500          48.200


 198903133.494 6                  37850027.946
        41.500
 125461665.707 7                  23874566.444
        45.700
 202043795.786 7                  38447673.224
        44.700
 108963832.619 7  84749658.726 7  20348226.142    20348225.645    20348233.426
        45.500          47.300
 125589350.265 6  97680769.928 5  23502343.331    23502341.908    23502356.925
        40.500          35.000
 135270009.988 5                  25741028.997
        35.400
 25  1  1 18  5 15.0000000  0 20E31G07G30G08G27G04R19R10E09G09E04R07
                                R09S35S31E06S33R08R11E19
 129075789.383 7                  24562303.338
        46.600
 116479766.976 8  90763396.77847  22165353.348    22165352.8664   22165353.9944
        48.600          45.7004
 130189972.546 6 101446728.77244  24774326.880    24774326.4914   24774332.6594
        37.700          28.4004
 110022568.653 7  85731915.20747  20936593.657    20936592.9554   20936601.6374
        45.700          44.4004
 109809059.802 8  85565502.49347  20895965.578    20895964.9354   20895971.0594
        48.400          46.0004
 108225943.968 8  84331895.61145  20594708.266    20594708.0254   20594714.9384
        48.700          34.5004
                  93952026.773 5                                  22581434.674
                        33.100
 107476648.615 7                  20162346.812    20162346.325
        43.600
 134012153.031 7                  25501666.808
        45.400
 106133807.541 8  82701660.93247  20196600.718    20196600.2494   20196604.0694
        48.500          47.8004
 122731613.201 8                  23355035.495
        50.000
 107596677.939 7  83686326.169 7  20099971.768    20099972.147    20099981.617
        47.500          45.700
 107415622.740 8  83545496.577 7  20115484.973    20115486.125    20115491.351
        51.500          47.500


 198903130.502 7                  37850034.264
        42.500
 125446672.537 7                  23871712.620
        46.600
 202043812.058 7                  38447683.531
        45.500
 108943525.003 7  84733863.877 7  20344436.266    20344434.666    20344440.743
        47.000          46.400
                                                  23494589.582

 135312045.921 6                  25749029.497
        36.500
 25  1  1 18  5 30.0000000  0 24G20E31G07G26G30G08G16G27G04R19R10E09
                                G09E04R07R09E21S35S31E06S33R08R11E19
 132817223.556 5                  25274276.615
        32.900
 129051268.673 7                  24557637.097
        47.100
 116448984.127 7  90739410.16547  22159495.284    22159494.7754   22159494.9974
        47.900          43.2004


 130147270.204 5 101413454.16844  24766202.029    24766201.5824   24766208.3384
        35.400          29.1004
 109988286.919 7  85705202.27147  20930069.771    20930069.0784   20930077.1554
        47.400          43.1004
 115966653.708 6                  22067717.683
        36.300
 109807726.443 8  85564463.52447  20895712.934    20895712.2914   20895717.2994
        48.200          46.7004
 108256113.731 8  84355404.44745  20600449.360    20600449.1064   20600455.3034
        48.100          32.8004
                  93928158.768 5                                  22575699.894
                        34.400
 107463885.229 7                  20159952.859    20159952.728
        44.300
 133981069.002 7                  25495752.268
        45.200
 106137684.285 8  82704681.74447  20197338.375    20197337.9154   20197341.0024
        48.200          46.3004
 122738176.870 8                  23356284.264
        49.800
 107636915.420 7  83717621.875 7  20107488.646    20107490.206    20107499.349
        47.900          45.700
 107438364.574 8  83563184.701 7  20119743.940    20119744.844    20119750.389
        50.700          47.600
 140056124.552 5                  26651790.879
        31.900


 198903122.880 7                  37850022.101
        42.000
 125431761.952 7                  23868874.882
        47.600
 202043824.167 7                  38447684.135
        45.300
 108923407.465 8  84718216.870 7  20340680.899    20340679.325    20340684.146
        48.500          46.200
 125506493.223 7  97616326.469 5  23486839.749    23486842.308    23486852.661
        42.600          32.700
 135354119.626 5                  25757036.909
        35.100
 25  1  1 18  5 45.0000000  0 24G20E31G07G26G30G08G16G27G04R19R10E09
                                G09E04R07R09E21S35S31E06S33R08R11E19
 132814659.673 5                  25273787.680
        32.400
 129026809.002 7                  24552982.429
        47.000
 116418222.968 7  90715440.43947  22153640.918    22153640.4044   22153640.0164
        47.800          42.3004


 130104563.092 6 101380175.87744  24758076.214    24758075.7764   24758082.5994
        37.100          29.4004
 109954133.164 7  85678589.04447  20923570.610    20923569.9134   20923577.0884
        46.700          42.8004
 116012785.481 6  90399599.50741  22076496.754    22076496.8034   22076502.5094
        39.900           8.7004
 109806563.008 8  85563556.96847  20895491.679    20895491.0584   20895495.6324
        48.000          47.1004
 108286411.094 8  84379012.65745  20606215.259    20606215.0094   20606218.2764
        48.400          30.7004
                  93904408.931 5                                  22569991.564
                        33.200
 107451201.335 7                  20157571.749    20157571.830
        43.500
 133950046.886 7                  25489849.368
        46.300
 106141713.756 7  82707821.55847  20198105.262    20198104.8064   20198107.4744
        47.600          45.3004
 122744839.693 8                  23357551.933
        49.100
 107677318.624 8  83749046.475 7  20115039.670    20115039.955    20115047.654
        49.300          46.200
 107461160.142 8  83580914.562 7  20124011.795    20124013.169    20124019.353
        50.000          47.600
 140092864.283 4                  26658783.305
        29.300


 198903117.738 7                  37850028.509
        43.900
 125416940.396 8                  23866054.823
        49.200
 202043838.123 7                  38447688.003
        46.100
 108903486.851 8  84702723.036 7  20336959.190    20336960.004    20336963.385
        50.600          45.600
 125465120.572 6  97584148.015 5  23479101.455    23479101.719    23479105.440
        37.800          32.400
 135396237.267 5                  25765051.891
        34.200
 25  1  1 18  6  0.0000000  0 22G20E31G07G30G08G16G27G04R10E09G09E04
                                R07R09E21S35S31E06S33R08R11E19
 132812215.687 5                  25273329.808
        32.800
 129002405.933 7                  24548339.270
        47.400
 116387478.976 8  90691484.09647  22147790.631    22147790.1174   22147789.5824
        48.200          42.9004
 130061846.832 6 101346890.48544  24749945.767    24749945.2314   24749953.1804
        37.700          28.3004
 109920103.283 7  85652072.35947  20917095.822    20917095.1034   20917101.6294
        44.400          43.3004
 116058961.036 6  90435580.35841  22085281.614    22085281.7484   22085284.6914
        37.100           8.5004
 109805565.000 8  85562779.32148  20895301.630    20895301.0044   20895305.3464
        49.200          48.0004
 108316831.448 7  84402716.70945  20612003.498    20612003.2484   20612005.5754
        46.700          30.3004
 107438591.848 7                  20155207.285    20155206.829
        44.400
 133919082.455 7                  25483956.932
        45.800
 106145891.455 7  82711076.90047  20198900.157    20198899.6574   20198902.6584
        47.500          46.0004
 122751597.216 7                  23358837.656
        47.600
 107717882.790 8  83780596.298 7  20122616.227    20122616.824    20122623.745
        50.100          46.000
 107484005.017 8  83598682.778 7  20128291.176    20128291.009    20128296.925
        50.600          46.800
 140129608.518 4                  26665772.851
        24.700


 198903109.861 7                  37850025.925
        43.100
 125402203.568 8                  23863250.572
        49.600
 202043850.062 7                  38447689.478
        46.100
 108883758.701 8  84687378.949 7  20333275.192    20333274.998    20333278.348
        49.400          43.100
                  97551996.638 5                                  23471368.863
                        32.800
 135438394.231 4                  25773073.247
        27.400
 25  1  1 18  6 15.0000000  0 24G20E31G07G26G30G08G16G27G04R18R10E09
                                G09E04R07R09E21S35S31E06S33R08R11E19
 132809896.699 4                  25272886.804
        25.200
 128978064.713 8                  24543707.621
        48.000
 116356757.571 8  90667545.38447  22141944.852    22141944.3474   22141944.1604
        49.500          44.5004
 130762169.239 4                  24883211.421
        29.900
 130019126.776 6 101313602.17644  24741815.330    24741814.7454   24741822.2014
        39.000          26.9004
 109886202.925 7  85625656.60647  20910644.808    20910644.0844   20910651.5594
        45.100          43.7004
 116105185.268 5  90471599.16241  22094077.378    22094076.9894   22094080.0154
        33.600           6.0004
 109804737.882 8  85562134.84048  20895143.471    20895142.8454   20895148.0574
        48.800          48.1004
 108347379.898 7  84426520.63445  20617817.881    20617817.6584   20617820.4514
        46.200          31.6004
 122798569.337 4                  23004316.747    23004313.351
        29.300
 107426062.050 7                  20152857.068    20152857.059
        44.700
 133888181.262 7                  25478076.843
        46.400
 106150222.780 8  82714451.94847  20199724.399    20199723.9304   20199727.9004
        48.500          46.8004
 122758454.843 7                  23360142.098
        46.400
 107758612.505 8  83812274.863 7  20130225.472    20130225.724    20130233.396
        50.800          46.600
 107506904.109 8  83616493.126 7  20132579.916    20132580.458    20132583.713
        50.600          45.100




 198903105.002 7                  37850028.487
        43.600
 125387556.981 8                  23860463.757
        50.200
 202043864.309 7                  38447689.608
        46.500
 108864229.077 8  84672189.246 7  20329627.670    20329626.919    20329630.662
        48.100          42.100
 125382485.261 5  97519876.658 5  23463633.396    23463635.865    23463647.457
        35.300          35.800
 135480595.712 5                  25781106.560
        30.300
 25  1  1 18  6 30.0000000  0 23E31G07G26G30G08G16G27G04R18R10E09G09
                                E04R07R09E21S35S31E06S33R08R11E19
 128953780.272 8                  24539085.710
        48.200
 116326053.787 8  90643620.34847  22136102.233    22136101.7284   22136102.1644
        49.000          44.8004
 130812320.269 4                  24892754.634
        27.700
 129976397.932 6 101280307.02444  24733685.660    24733685.0844   24733688.7184
        38.800          28.3004
 109852427.222 7  85599337.93547  20904218.100    20904217.3584   20904225.2074
        45.800          45.5004
 116151452.835 5  90507651.78241  22102884.787    22102884.4074   22102883.6024
        31.500           9.5004
 109804076.437 8  85561619.44247  20895017.805    20895017.2024   20895022.7854
        48.200          47.4004
 108378051.040 8  84450420.21145  20623653.313    20623653.0904   20623657.8504
        48.200          31.1004
 122810318.737 4  95519230.297 5  23006516.625    23006511.350    23006530.380
        29.500          31.300
 107413606.720 7                  20150520.221    20150520.422
        44.300
 133857338.372 7                  25472207.362
        46.500
 106154702.564 7  82717942.68447  20200575.976    20200575.5204   20200580.4294
        46.400          46.4004
 122765407.320 7                  23361465.558
        44.600
 107799502.345 8  83844077.923 7  20137862.649    20137864.114    20137871.795
        49.500          46.500
 107529852.297 8  83634341.624 7  20136876.684    20136877.821    20136882.230
        51.100          45.500
 140203121.563 5                  26679767.348
        33.900
 200832898.952 5                  38217219.257
        33.200
 198903097.546 7                  37850033.365
        45.100
 125372995.634 8                  23857692.429
        49.300
 202043876.826 6                  38447674.507
        38.000
 108844892.805 7  84657149.949 7  20326017.199    20326016.097    20326019.845
        47.800          42.500
 125341222.575 5  97487784.038 5  23455906.646    23455905.745    23455920.811
        34.700          33.900
 135522836.460 4                  25789143.601
        27.800
 25  1  1 18  6 45.0000000  0 23E31G07G30G08G16G27G04R19R18R10E09G09
                                E04R07R09E21S35S31E06S33R08R11E19
 128929557.676 8                  24534476.229
        48.000
 116295372.727 8  90619713.06047  22130263.561    22130263.0794   22130264.0904
        50.700          45.2004
 129933665.391 6 101247008.95744  24725552.718    24725552.1284   24725555.7314
        37.700          25.4004
 109818781.548 7  85573120.63747  20897815.175    20897814.4424   20897823.0114
        46.700          44.6004
 116197768.687 5  90543741.98742  22111697.114    22111696.5874   22111697.5374
        35.500          13.9004
 109803585.724 8  85561237.07547  20894924.813    20894924.2104   20894928.9214
        48.100          46.2004
 108408849.870 7  84474419.24745  20629513.937    20629513.7234   20629519.2934
        46.100          30.1004


 122822256.794 5  95528514.560 5  23008754.333    23008751.472    23008768.181
        30.500          35.700
 107401230.938 7                  20148197.680    20148197.932
        44.000
 133826559.033 7                  25466350.453
        47.400
 106159335.894 7  82721553.05047  20201458.861    20201458.3924   20201462.1304
        47.300          46.1004
 122772459.857 7                  23362807.520
        43.900
 107840557.261 8  83876009.444 8  20145531.979    20145533.590    20145542.533
        48.900          48.000
 107552854.439 8  83652232.094 7  20141185.271    20141185.514    20141188.519
        51.000          44.400
 140239865.050 5                  26686762.652
        34.600


 198903093.327 7                  37850033.607
        43.600
 125358524.664 8                  23854938.713
        50.000
 202043891.384 6                  38447690.663
        40.900
 108825755.101 7  84642265.036 7  20322443.211    20322442.649    20322447.457
        46.600          42.000
 125300000.387 6  97455722.656 6  23448193.563    23448196.252    23448209.212
        37.400          36.200


 25  1  1 18  7  0.0000000  0 22E31G07G30G08G16G27G04R18R10E09G09E04
                                R07R09E21S35S31E06S33R08R11E19
 128905394.419 8                  24529878.521
        48.400
 116264712.041 8  90595821.61147  22124428.886    22124428.4214   22124430.0044
        49.100          46.3004
 129890926.715 5 101213706.16043  24717420.666    24717420.0724   24717420.7494
        33.800          23.4004
 109785263.789 7  85547003.01147  20891436.359    20891435.6174   20891445.2834
        47.100          44.1004
 116244129.799 5  90579867.48941  22120518.546    22120518.0054   22120520.0174
        31.400          10.1004
 109803263.385 7  85560985.93047  20894862.620    20894862.0084   20894867.1634
        46.500          45.7004
 108439773.691 7  84498515.65444  20635397.355    20635397.1454   20635403.7524
        44.300          29.7004
 122834381.290 6  95537944.804 5  23011030.638    23011030.721    23011033.456
        40.800          33.100
 107388932.194 7                  20145890.867    20145889.757
        42.500
 133795840.957 7                  25460504.798
        47.700
 106164120.343 7  82725281.17147  20202369.625    20202369.1524   20202372.1454
        47.600          46.2004
 122779610.003 7                  23364168.422
        46.000
 107881774.006 7  83908066.834 8  20153231.302    20153231.386    20153242.618
        46.400          48.600
 107575907.973 8  83670162.584 7  20145502.051    20145502.790    20145505.750
        50.800          44.500
 140276640.508 6                  26693760.678
        36.000


 198903089.357 7                  37850030.423
        44.000
 125344141.815 8                  23852201.572
        49.900
 202043906.643 7                  38447700.626
        44.900
 108806813.827 8  84627532.984 7  20318905.602    20318905.954    20318911.714
        48.000          43.900
 125258815.972 6  97423690.665 5  23440486.037    23440486.150    23440510.540
        39.200          33.100


 25  1  1 18  7 15.0000000  0 22E31G07G30G08G16G27G04R18R10E09G09E04
                                R07R09E21S35S31E06S33R08R11E19
 128881287.445 8                  24525290.908
        48.400
 116234068.760 8  90571943.77847  22118597.936    22118597.4894   22118599.0494
        50.300          46.3004
 129848178.835 5 101180396.13743  24709284.988    24709284.3624   24709286.7114
        35.500          21.6004
 109751871.123 7  85520982.82547  20885081.192    20885080.4644   20885090.1424
        46.200          43.0004
 116290533.167 4  90616025.88742  22129348.136    22129347.6854   22129350.6444
        28.700          12.8004
 109803106.283 7  85560863.54747  20894831.807    20894831.1904   20894837.4144
        46.200          45.3004
 108470819.174 7  84522706.89544  20641305.548    20641305.3164   20641310.9894
        44.300          26.2004
 122846688.998 5  95547517.532 5  23013331.111    23013332.086    23013341.238
        33.200          31.300
 107376707.062 6                  20143596.630    20143595.694
        40.200
 133765181.290 7                  25454670.526
        46.400
 106169052.814 7  82729124.63947  20203307.933    20203307.4464   20203311.3074
        45.800          46.3004
 122786854.671 8                  23365546.841
        48.000
 107923149.122 8  83940247.395 8  20160962.407    20160962.191    20160972.622
        48.000          48.800
 107599009.641 8  83688130.468 7  20149827.848    20149828.656    20149834.271
        51.000          45.100
 140313419.606 6                  26700758.449
        39.000


 198903082.278 7                  37850024.588
        42.100
 125329844.143 8                  23849481.133
        49.400
 202043919.592 7                  38447702.902
        46.000
 108788066.114 7  84612951.393 7  20315403.423    20315403.927    20315410.228
        46.900          42.500
 125217666.159 5                  23432786.202    23432783.365
        32.800


 25  1  1 18  7 30.0000000  0 22G20E31G07G30G08G16G27G04R10E09G09E04
                                R07R09E21S35S31E06S33R08R11E19
 132800150.328 5                  25271029.352
        30.700
 128857241.044 8                  24520715.172
        49.200
 116203447.310 8  90548082.91647  22112771.208    22112770.7524   22112771.9034
        50.500          47.6004
 129805426.194 7 101147082.44344  24701153.189    24701152.6134   24701152.8704
        42.100          28.0004
 109718608.189 8  85495063.75647  20878751.489    20878750.7614   20878759.4784
        49.700          42.0004
 116336982.176 6  90652219.88443  22138191.899    22138191.4174   22138190.4254
        41.700          18.5004
 109803118.771 7  85560873.34347  20894831.954    20894831.2934   20894840.2714
        42.400          45.0004
 108501990.452 6  84546996.13344  20647238.133    20647237.8884   20647242.6904
        39.500          25.6004
 107364560.021 6                  20141318.595    20141318.636
        41.800
 133734584.511 7                  25448847.753
        45.900
 106174137.651 7  82733086.81247  20204275.190    20204274.7254   20204279.4984
        45.700          45.8004
 122794198.220 7                  23366943.785
        47.600
 107964686.287 8  83972553.997 7  20168720.764    20168721.028    20168731.558
        48.100          47.500
 107622163.543 8  83706138.994 7  20154164.182    20154164.752    20154169.840
        48.700          45.000
 140350207.006 4                  26707756.311
        27.400


 198903076.916 7                  37850017.040
        42.400
 125315636.119 8                  23846776.941
        48.900
 202043932.848 7                  38447706.260
        44.400
 108769516.657 8  84598524.066 7  20311941.270    20311942.605    20311945.860
        49.300          42.700




 25  1  1 18  7 45.0000000  0 23G20E31G07G30G08G16G27G04R18R10E09G09
                                E04R07R09E21S35S31E06S33R08R11E19
 132798559.978 5                  25270729.002
        30.300
 128833250.216 8                  24516149.768
        48.800
 116172842.840 8  90524235.29147  22106947.160    22106946.7044   22106947.7354
        50.100          46.9004
 129762663.940 6 101113761.20844  24693014.456    24693013.9654   24693015.5684
        40.800          27.7004
 109685470.283 8  85469242.12246  20872445.508    20872444.7984   20872450.4434
        49.300          39.2004
 116383471.859 6  90688445.53743  22147035.236    22147034.7224   22147038.7694
        39.300          19.1004
 109803295.845 7  85561011.36047  20894868.424    20894867.7634   20894874.3144
        45.200          46.3004
 108533282.484 7  84571379.46844  20653195.100    20653194.8284   20653197.3674
        42.400          27.1004
 122871979.759 5                  23018060.291
        31.500
 107352485.648 6                  20139054.768    20139054.265
        41.600
 133704045.884 7                  25443036.498
        46.100
 106179369.753 7  82737163.77847  20205270.256    20205269.8234   20205275.2174
        46.000          46.3004
 122801635.671 8                  23368360.144
        49.000
 108006380.269 7  84004982.587 7  20176510.704    20176508.314    20176518.764
        44.200          45.500
 107645364.852 7  83724184.423 7  20158509.325    20158508.017    20158515.426
        45.900          45.100
 140386996.996 5                  26714761.083
        31.800


 198903068.013 7                  37850020.349
        42.700
 125301512.862 8                  23844089.393
        49.700
 202043943.697 7                  38447706.211
        46.300
 108751160.563 7  84584247.048 7  20308511.216    20308511.810    20308517.709
        47.200          42.000
                  97327676.277 6                                  23417419.832
                        37.900


 25  1  1 18  8  0.0000000  0 22E31G07G30G08G16G27G04R18R10E09G09E04
                                R07R09E21S35S31E06S33R08R11E19
 128809319.141 8                  24511595.877
        50.300
 116142259.582 8  90500404.18947  22101127.098    22101126.6294   22101127.7084
        50.800          47.6004
 129719896.094 7 101080435.65944  24684878.212    24684877.8104   24684876.8394
        42.700          28.0004
 109652461.878 7  85443521.42846  20866163.763    20866163.0664   20866166.3294
        47.900          37.6004
 116430006.210 6  90724706.05542  22155891.147    22155890.6244   22155894.8574
        36.200          17.1004
 109803641.632 7  85561280.85147  20894934.409    20894933.7394   20894939.8684
        46.100          46.6004
 108564699.071 7  84595859.87944  20659172.212    20659171.9624   20659175.7254
        45.200          28.1004
 122884844.029 6                  23020464.225    23020463.390
        38.700
 107340488.063 7                  20136802.751    20136802.315
        43.100
 133673569.699 7                  25437237.223
        45.600
 106184753.375 7  82741358.81547  20206295.498    20206295.0514   20206300.0104
        46.400          47.4004
 122809171.176 8                  23369794.042
        48.500
 108048234.730 7  84037535.927 7  20184331.731    20184328.878    20184337.011
        43.900          44.400
 107668617.187 7  83742269.595 7  20162862.638    20162862.635    20162867.647
        47.500          44.400
 140423793.933 5                  26721765.700
        30.000


 198903059.609 7                  37850020.147
        43.900
 125287478.653 8                  23841418.978
        49.800
 202043954.552 7                  38447706.453
        47.000
 108733002.378 8  84570124.024 6  20305121.051    20305121.381    20305125.930
        48.300          41.500
 125094594.535 6  97295756.973 6  23409737.476    23409733.872    23409734.642
        37.700          36.000
 135777172.811 5                  25837536.538
        35.100
 25  1  1 18  8 15.0000000  0 23E31G07G30G08G16G27G04R18R10E09G09E04
                                R07R09E21S35S31E06S33R08R11E19R01
 128785449.212 8                  24507053.267
        48.900
 116111699.085 8  90476590.83548  22095311.733    22095311.2604   22095312.4754
        49.900          48.0004
 129677124.356 6 101047107.09444  24676737.565    24676737.1414   24676738.1774
        38.100          26.0004
 109619584.752 7  85417903.01446  20859907.769    20859907.0634   20859910.7444
        46.800          38.8004
 116476586.502 5  90761002.35142  22164754.476    22164753.9354   22164759.6034
        35.700          15.1004
 109804157.666 7  85561683.00447  20895032.623    20895031.9134   20895037.6534
        44.800          47.0004
 108596241.483 7  84620438.32744  20665172.986    20665172.7184   20665178.5034
        44.200          29.1004
 122897896.019 5                  23022906.015    23022903.698
        34.000
 107328569.193 7                  20134567.441    20134566.835
        43.000
 133643157.688 7                  25431449.565
        45.700
 106190289.946 7  82745673.00347  20207349.450    20207348.9814   20207353.3184
        46.600          47.9004
 122816806.231 8                  23371246.287
        48.500
 108090250.613 7  84070214.800 7  20192178.581    20192179.259    20192185.330
        46.500          42.900
 107691922.194 8  83760395.761 7  20167227.363    20167227.703    20167231.334
        49.100          44.400




 198903054.055 7                  37850011.182
        42.800
 125273535.088 8                  23838765.953
        49.800
 202043967.119 7                  38447709.775
        46.400
 108715043.556 7  84556156.038 6  20301767.226    20301767.271    20301770.786
        47.600          40.500
 125053594.760 6  97263868.606 6  23402048.747    23402051.106    23402057.725
        39.100          36.300
 135819701.196 5                  25845629.620
        34.400
 129173169.739 5                  24164515.263
        33.400
 25  1  1 18  8 30.0000000  0 22E31G07G30G08G16G27G04R10E09G09E04R07
                                R09E21S35S31E06S33R08R11E19R01
 128761635.415 8                  24502521.677
        48.500
 116081156.509 8  90452791.45047  22089500.235    22089499.7704   22089500.5104
        49.200          47.1004
 129634343.474 5 101013771.55943  24668609.163    24668608.7884   24668597.8934
        35.700          23.3004
 109586834.072 7  85392383.09047  20853675.310    20853674.6044   20853680.8304
        46.700          42.2004
 116523207.189 5  90797330.22441  22173627.984    22173627.3944   22173631.4724
        34.000          11.2004
 109804838.801 7  85562213.80647  20895162.382    20895161.6494   20895166.8384
        46.500          47.5004
 108627904.442 7  84645110.66844  20671198.750    20671198.4694   20671204.8594
        44.400          29.7004
 107316723.096 7                  20132344.304    20132343.495
        42.900
 133612804.950 7                  25425674.365
        45.700
 106195974.402 7  82750102.41248  20208431.294    20208430.8164   20208434.7134
        47.000          48.5004
 122824535.749 8                  23372717.266
        48.600
 108132422.535 7  84103015.141 7  20200055.713    20200054.815    20200064.374
        43.000          44.400
 107715274.257 8  83778558.541 7  20171601.003    20171601.446    20171606.141
        50.600          46.700




 198903044.791 7                  37850012.429
        42.900
 125259677.247 8                  23836128.333
        49.500
 202043978.538 7                  38447714.189
        46.400
 108697279.349 7  84542339.491 6  20298449.904    20298450.087    20298453.017
        47.500          40.500
 125012629.537 6  97232007.129 5  23394385.145    23394384.147    23394392.416
        40.000          35.700
 135862267.052 5                  25853730.126
        32.600
 129113385.099 5                  24153328.755    24153329.360
        33.000
 25  1  1 18  8 45.0000000  0 24E31G07G30G08G16G27G04R19R18R10E09G09
                                E04R07R09E21S35S31E06S33R08R11E19R01
 128737881.591 8                  24498001.417
        48.900
 116050635.665 8  90429008.98147  22083691.889    22083691.4244   22083692.7224
        48.700          46.9004
 129591557.223 4 100980432.04943  24660474.378    24660473.8874   24660458.0284
        29.000          19.0004
 109554214.044 8  85366964.95247  20847468.180    20847467.4744   20847476.3374
        49.400          46.0004
 116569871.908 6  90833692.30642  22182509.879    22182509.2674   22182511.9274
        37.700          13.6004
 109805688.925 7  85562876.26747  20895323.696    20895322.9414   20895328.1124
        45.500          46.3004
 108659691.667 7  84669879.86744  20677248.457    20677248.1674   20677254.6704
        43.900          29.7004


 122924475.384 5                  23027898.941
        35.100
 107304953.669 7                  20130137.150    20130136.114
        43.500
 133582515.492 7                  25419910.008
        45.600
 106201810.629 8  82754650.08348  20209541.338    20209540.8604   20209545.1654
        48.300          48.9004
 122832363.652 8                  23374206.183
        48.000
 108174753.908 7  84135939.467 7  20207963.380    20207960.728    20207974.384
        42.400          45.100
 107738677.066 8  83796760.742 7  20175982.394    20175982.917    20175988.761
        49.000          47.900




 198903036.592 7                  37850018.667
        43.600
 125245909.151 8                  23833508.959
        49.500
 202043989.072 7                  38447716.572
        46.200
 108679714.122 7  84528677.651 6  20295168.429    20295168.395    20295173.632
        46.800          41.500
 124971702.489 6  97200175.422 6  23386724.670    23386723.376    23386734.060
        40.000          38.000
 135904873.753 5                  25861837.851
        31.400
 129053667.947 6                  24142164.043    24142162.373
        37.100
 25  1  1 18  9  0.0000000  0 23E31G07G30G08G16G27G04R18R10E09G09E04
                                R07R09E21S35S31E06S33R08R11E19R01
 128714191.602 8                  24493493.070
        49.800
 116020140.619 8  90405246.61847  22077889.118    22077888.6674   22077889.6214
        48.000          45.2004
 129548770.312 5 100947091.80842  24652327.353    24652326.7864   24652317.6054
        32.600          16.2004
 109521728.844 8  85341651.89448  20841286.627    20841285.9214   20841296.4254
        51.400          48.6004
 116616584.150 5  90870091.43041  22191397.658    22191397.0504   22191401.5574
        32.900          10.8004
 109806711.924 7  85563673.42947  20895518.469    20895517.6694   20895522.4224
        45.800          46.1004
 108691606.802 7  84694748.74944  20683321.888    20683321.5674   20683327.4684
        43.900          28.5004
 122938087.012 5                  23030443.906
        32.000
 107293264.925 7                  20127944.397    20127943.919
        43.800
 133552293.498 7                  25414159.100
        45.300
 106207802.465 7  82759319.02648  20210681.497    20210681.0374   20210685.3304
        47.900          49.5004
 122840293.844 7                  23375715.860
        47.500
 108217248.389 7  84168990.654 7  20215901.281    20215899.316    20215914.090
        42.600          46.200
 107762134.820 8  83815005.666 8  20180376.209    20180376.442    20180381.933
        48.700          48.700
 140571044.154 5                  26749779.483
        35.200


 198903033.511 7                  37850009.000
        42.400
 125232234.801 8                  23830906.555
        50.100
 202044005.018 7                  38447716.724
        45.700
 108662351.708 7  84515173.541 7  20291925.377    20291926.183    20291930.977
        45.800          42.600
 124930817.866 6  97168376.589 6  23379072.449    23379072.493    23379086.571
        39.400          39.900
 135947525.237 5                  25869953.833
        31.100
 128994022.731 5                  24130999.575    24131001.766
        34.600
 25  1  1 18  9 15.0000000  0 22E31G07G30G08G27G04R19R10E09G09E04R07
                                R09E21S35S31E06S33R08R11E19R01
 128690557.510 8                  24488995.861
        49.700
 115989663.463 7  90381498.19047  22072089.481    22072089.0434   22072089.3984
        47.800          43.7004
 129505974.433 5 100913744.41542  24644181.295    24644180.7724   24644174.2794
        31.000          16.1004
 109489370.790 8  85316437.91948  20835128.946    20835128.2364   20835138.7064
        51.800          48.8004
 109807899.844 7  85564599.10547  20895744.942    20895744.1514   20895748.9994
        44.700          46.0004
 108723641.702 7  84719710.95544  20689418.161    20689417.8044   20689422.1564
        43.200          27.9004
                  93584347.911 4                                  22493058.439
                        29.400
 107281648.939 7                  20125766.484    20125765.882
        44.900
 133522131.199 7                  25408419.196
        45.100
 106213941.970 7  82764103.02548  20211850.003    20211849.5304   20211853.8554
        47.900          49.9004
 122848318.354 7                  23377242.794
        47.600
 108259897.133 7  84202161.833 7  20223868.389    20223868.163    20223879.243
        47.200          45.100
 107785639.290 8  83833286.920 8  20184777.964    20184777.936    20184783.789
        48.100          48.900
 140607871.970 6                  26756787.323
        36.200


 198903027.292 7                  37850011.593
        42.700
 125218646.392 8                  23828320.926
        49.800
 202044017.918 7                  38447717.216
        44.300
 108645184.491 7  84501821.256 7  20288722.511    20288720.257    20288726.724
        44.200          45.300
 124889967.324 6  97136604.221 6  23371430.178    23371430.449    23371440.024
        41.400          39.300
 135990213.413 4                  25878076.784
        28.800
 128934441.851 5                  24119855.040    24119856.431
        33.000
 25  1  1 18  9 30.0000000  0 21E31G07G30G08G27G04R10E09G09E04R07R09
                                E21S35S31E06S33R08R11E19R01
 128666983.152 8                  24484509.715
        48.900
 115959208.274 7  90357766.88947  22066293.427    22066292.9944   22066293.4384
        47.300          42.4004


 109457144.075 8  85291326.28847  20828996.624    20828995.9144   20829004.7094
        51.300          47.8004
 109809256.538 7  85565656.29847  20896002.215    20896001.4644   20896007.8934
        44.500          45.8004
 108755800.028 7  84744769.33144  20695537.494    20695537.1284   20695540.9184
        42.600          28.6004
 107270109.276 7                  20123600.704    20123600.409
        44.600
 133492032.593 7                  25402691.925
        44.700
 106220232.972 7  82769005.06748  20213047.672    20213047.1944   20213050.8724
        47.800          50.2004
 122856441.092 7                  23378788.320
        46.600
 108302703.685 7  84235455.744 7  20231865.821    20231864.914    20231873.731
        46.600          43.000
 107809193.999 7  83851607.256 8  20189187.923    20189188.226    20189194.795
        47.000          49.200
 140644705.888 6                  26763797.612
        36.700


 198903021.635 7                  37850006.737
        42.400
 125205147.910 8                  23825752.369
        50.200
 202044031.783 7                  38447719.389
        44.900
 108628216.638 7  84488623.965 7  20285553.780    20285554.165    20285558.297
        45.500          47.100
 124849154.871 6  97104861.475 6  23363791.947    23363793.678    23363800.078
        38.800          37.800
 136032941.854 4                  25886208.294
        29.000
 128874929.787 5                  24108720.405    24108725.247
        31.300
 25  1  1 18  9 45.0000000  0 23E31G07G30G08G27G04R19R18R10E09G09E04
                                R07R09E21S35S31E06S33R08R11E19R01
 128643465.180 7                  24480034.494
        47.700
 115928771.785 7  90334050.15246  22060501.575    22060501.1374   22060500.9964
        45.500          41.6004


 109425045.610 8  85266314.62047  20822888.919    20822888.2094   20822895.0414
        50.000          46.4004
 109810778.644 7  85566842.39747  20896292.123    20896291.3954   20896297.7794
        44.900          46.0004
 108788078.182 7  84769921.06944  20701680.051    20701679.7124   20701683.8954
        42.600          28.8004


 122980021.747 6                  23038305.475    23038305.974
        38.500
 107258642.490 7                  20121449.393    20121449.022
        43.100
 133461994.555 7                  25396976.246
        44.300
 106226672.104 8  82774022.55248  20214273.258    20214272.7714   20214275.9994
        48.600          50.7004
 122864658.687 7                  23380352.703
        46.500
 108345663.998 7  84268869.206 7  20239892.581    20239891.660    20239900.021
        47.600          42.900
 107832795.574 7  83869964.108 8  20193608.376    20193608.336    20193615.467
        46.500          49.500
 140681542.512 6                  26770807.478
        37.000


 198903013.198 6                  37850004.975
        41.600
 125191736.118 8                  23823200.209
        50.100
 202044042.722 7                  38447722.170
        44.400
 108611444.855 7  84475579.215 7  20282420.553    20282423.220    20282426.266
        46.200          47.800
 124808377.082 5  97073145.676 5  23356156.299    23356156.380    23356166.858
        31.600          34.000
 136075707.181 5                  25894347.198
        30.000
 128815483.892 5                  24097599.732    24097599.220
        31.400
 25  1  1 18 10  0.0000000  0 21E31G07G30G08G27G04R10E09G09E04R07R09
                                E21S35S31E06S33R08R11E19R01
 128620010.924 7                  24475570.940
        47.000
 115898361.522 7  90310353.83846  22054714.546    22054714.1404   22054714.0464
        43.900          40.5004


 109393083.047 8  85241408.84547  20816806.234    20816805.5374   20816812.0794
        49.700          46.0004
 109812473.461 7  85568163.06947  20896614.979    20896614.2914   20896620.3484
        46.500          46.6004
 108820483.331 6  84795171.76444  20707846.637    20707846.2664   20707851.2914
        41.900          28.8004
 107247255.916 7                  20119314.249    20119313.120
        42.100
 133432024.596 7                  25391273.270
        44.100
 106233266.726 8  82779161.21348  20215527.867    20215527.3894   20215530.6824
        49.700          51.6004
 122872978.520 7                  23381935.480
        47.300
 108388785.403 7  84302407.952 7  20247948.186    20247947.234    20247956.306
        45.700          44.000
 107856451.318 8  83888363.056 8  20198039.128    20198040.367    20198044.086
        49.400          48.400
 140718389.022 6                  26777819.446
        37.800


 198903010.015 7                  37850002.802
        43.300
 125178418.533 8                  23820665.842
        50.000
 202044058.505 7                  38447727.031
        45.200
 108594876.654 7  84462692.798 8  20279321.534    20279323.585    20279331.997
        42.900          48.000
 124767641.609 5  97041462.689 5  23348542.921    23348540.750    23348543.340
        34.900          32.500
 136118516.503 5                  25902494.895
        32.400
 128756111.801 5                  24086492.432    24086492.237
        30.400
 25  1  1 18 10 15.0000000  0 24E31G07G30G08G16G27G04R19R18R10E09G09
                                E04R07R09E21S35S31E06S33R08R11E19R01
 128596612.716 7                  24471118.177
        47.200
 115867969.881 7  90286672.03046  22048931.750    22048931.3394   22048931.0804
        44.000          40.5004


 109361249.037 8  85216603.24047  20810747.659    20810746.9624   20810754.1394
        49.500          46.0004
 116850687.339 5  91052515.69841  22235957.599    22235957.9614   22235956.3624
        35.200          11.3004
 109814333.361 8  85569612.38047  20896968.864    20896968.1894   20896973.9294
        48.000          47.4004
 108853007.613 6  84820515.29844  20714036.225    20714035.8054   20714041.0414
        40.300          27.7004
 120210608.840 5  93497190.954 5  22472105.947    22472105.226    22472119.601
        33.600          34.500
 123008906.054 5  95673654.345 5  23043712.772    23043712.014    23043730.967
        35.900          35.000
 107235941.736 6                  20117190.822    20117191.451
        40.400
 133402115.312 7                  25385581.427
        44.600
 106240009.133 8  82784415.03748  20216810.683    20216810.2234   20216813.6894
        50.700          52.3004
 122881392.934 8                  23383536.399
        48.000
 108432059.574 7  84336065.551 7  20256028.776    20256029.620    20256042.641
        44.400          45.000
 107880153.041 8  83906797.693 8  20202477.254    20202478.966    20202483.106
        49.300          48.300
 140755237.717 6                  26784831.264
        36.500


 198903003.520 7                  37850005.176
        43.600
 125165187.658 8                  23818147.672
        49.500
 202044071.093 7                  38447727.322
        44.800
 108578504.762 6  84449959.098 8  20276272.723    20276268.564    20276274.780
        40.500          48.600
 124726940.395 6  97009806.520 5  23340923.162    23340921.785    23340929.106
        38.400          34.700
 136161362.226 5                  25910646.478
        32.900
 128696806.185 4                  24075404.828    24075415.134
        29.700
 25  1  1 18 10 30.0000000  0 22E31G07G30G08G27G04R19R18R10E09G09E04
                                R07R09E21S35S31E06S33R08R11E19
 128573275.010 7                  24466676.865
        46.700
 115837601.294 7  90263008.19946  22043153.250    22043152.8034   22043152.6354
        44.100          41.3004
 129291918.673 6 100746893.08843  24603433.588    24603433.0254   24603427.8804
        36.900          21.3004
 109329548.252 8  85191901.45247  20804715.539    20804714.8464   20804721.5184
        48.600          46.1004
 109816362.718 8  85571193.73148  20897355.554    20897354.8794   20897359.4904
        49.800          48.1004
 108885655.297 7  84845955.00344  20720250.232    20720249.8124   20720253.0814
        42.300          26.7004
 120183005.955 5  93475722.258 5  22466947.643    22466950.478    22466953.478
        33.800          32.600
 123023625.283 6  95685102.184 5  23046472.321    23046471.049    23046487.682
        38.300          30.700
 107224704.093 6                  20115083.913    20115082.487
        38.800
 133372271.298 7                  25379901.973
        45.000
 106246903.786 8  82789787.48048  20218122.332    20218121.8764   20218126.1874
        50.300          52.7004
 122889906.384 7                  23385156.637
        47.900
 108475490.658 7  84369845.174 7  20264144.574    20264147.511    20264155.658
        45.700          44.700
 107903905.068 7  83925271.484 8  20206924.388    20206925.579    20206931.459
        47.300          48.300
 140792092.899 5                  26791844.546
        33.700


 198902998.250 7                  37850004.099
        43.600
 125152048.001 8                  23815647.174
        48.000
 202044085.650 7                  38447732.088
        44.800
 108562333.825 6  84437381.703 8  20273251.408    20273248.944    20273254.852
        39.600          48.400
 124686277.971 6  96978180.620 5  23333311.584    23333312.608    23333319.250
        38.900          34.200
 136204248.400 5                  25918806.578
        31.600
 25  1  1 18 10 45.0000000  0 23E31G07G30G08G16G27G04R19R18R10E09G09
                                E04R07R09E21S35S31E06S33R08R11E19
 128549995.494 7                  24462247.090
        47.000
 115807253.701 7  90239360.72147  22037378.588    22037378.1414   22037378.1384
        46.500          43.8004
 129249089.660 6 100713519.88944  24595282.827    24595282.5144   24595285.9454
        36.700          26.9004
 109297978.791 7  85167301.98247  20798708.330    20798707.6554   20798713.8974
        47.700          46.7004
 116944651.626 4  91125724.96241  22253839.682    22253840.3034   22253837.5494
        29.900          10.9004
 109818559.337 8  85572905.44048  20897773.209    20897772.5524   20897776.4964
        48.700          48.0004
 108918423.889 7  84871488.91844  20726483.823    20726483.4124   20726486.3984
        44.100          26.1004
 120155561.061 5                  22461821.396    22461819.300
        30.800
 123038528.071 4                  23049255.019    23049255.278
        27.800
 107213540.954 6                  20112989.252    20112989.271
        40.700
 133342490.547 7                  25374234.858
        45.800
 106253948.362 8  82795276.74148  20219463.167    20219462.7254   20219467.1324
        50.900          52.8004
 122898516.625 8                  23386795.651
        48.200
 108519075.697 7  84403744.543 7  20272288.896    20272289.249    20272297.651
        43.700          44.700
 107927705.255 7  83943782.729 7  20211380.224    20211381.797    20211387.784
        46.900          47.800
 140828952.234 5                  26798860.323
        33.300


 198902992.781 7                  37850004.519
        42.600
 125138997.492 7                  23813164.353
        47.700
 202044098.661 7                  38447733.278
        45.300
 108546361.849 6  84424958.996 8  20270269.064    20270266.001    20270272.669
        41.000          48.500
 124645651.972 6  96946583.020 5  23325709.177    23325710.962    23325716.154
        37.000          34.000
 136247172.552 5                  25926978.054
        31.400
 25  1  1 18 11  0.0000000  0 23E31G07G30G08G16G27G04R18R10E09G09E04
                                R07R09E21S35S31E06S33R08R11E19R01
 128526775.238 7                  24457827.778
        46.800
 115776928.218 7  90215730.47747  22031606.938    22031606.4784   22031607.7064
        47.700          44.6004
 129206255.685 6 100680142.81344  24587132.822    24587132.7294   24587139.7444
        36.500          29.5004
 109266541.971 7  85142805.85947  20792726.190    20792725.5064   20792732.4724
        46.300          46.7004
 116991693.862 6  91162381.11241  22262792.871    22262793.0274   22262792.5144
        36.500          10.2004
 109820924.161 8  85574748.23047  20898223.126    20898222.4784   20898226.0824
        50.000          47.8004
 108951314.187 6  84897117.64943  20732742.029    20732741.6234   20732744.4884
        41.000          22.9004
 123053615.924 4                  23052080.919    23052078.446
        29.900
 107202452.817 6                  20110907.498    20110907.279
        39.500
 133312774.286 7                  25368579.870
        46.500
 106261143.959 8  82800883.69348  20220831.772    20220831.3254   20220836.2904
        50.100          52.0004
 122907224.721 8                  23388453.009
        49.200
 108562815.411 6  84437764.254 7  20280457.791    20280459.060    20280468.030
        41.100          43.800
 107951554.428 7  83962332.043 7  20215848.173    20215849.368    20215852.869
        46.600          47.000
 140865816.574 5                  26805874.502
        32.100


 198902987.135 7                  37850006.039
        42.900
 125126037.255 7                  23810697.634
        47.400
 202044112.101 7                  38447731.409
        45.500
 108530589.934 6  84412692.004 8  20267323.144    20267317.901    20267327.824
        38.000          48.500
                  96915014.727 5                  23318104.240    23318120.974
                        32.200
 136290135.582 5                  25935147.898
        31.700
 128519353.860 5                  24042201.616
        31.200
 25  1  1 18 11 15.0000000  0 24E31G07G26G30G08G16G27G04R18R10E09G09
                                E04R07R09E21S35S31E06S33R08R11E19R01
 128503613.316 7                  24453420.653
        47.000
 115746624.002 8  90192116.82947  22025841.020    22025840.5474   22025840.7794
        48.600          45.7004


 129163415.575 6 100646760.91345  24578981.386    24578981.2664   24578989.0274
        39.600          30.6004
 109235237.170 7  85118412.60547  20786769.245    20786768.5614   20786776.3024
        47.800          47.1004
 117038775.645 6  91199068.09641  22271752.206    22271752.4784   22271752.6404
        36.100           9.8004
 109823456.302 8  85576721.37847  20898704.377    20898703.7254   20898708.7624
        48.200          47.7004
 108984325.083 6  84922840.36143  20739024.612    20739024.1834   20739026.3174
        40.400          22.2004
 123068887.444 6                  23054950.289    23054952.112
        38.200
 107191439.152 6                  20108839.166    20108837.432
        36.800
 133283121.784 7                  25362937.547
        46.900
 106268489.588 8  82806607.57448  20222230.149    20222229.7204   20222233.8064
        49.600          51.3004
 122916029.759 8                  23390128.296
        49.500
 108606708.381 6  84471903.213 7  20288660.372    20288658.080    20288667.792
        38.200          42.600
 107975451.672 7  83980918.797 7  20220322.946    20220323.709    20220328.082
        47.200          46.700
 140902684.964 5                  26812891.726
        33.600


 198902980.860 6                  37849996.908
        41.600
 125113166.538 8                  23808248.233
        49.000
 202044125.244 7                  38447739.690
        45.700
 108515017.449 7  84400580.004 8  20264414.079    20264415.277    20264420.455
        44.900          48.900
                                                  23310520.958

 136333136.831 4                  25943334.371
        29.500
                                                  24031154.155

 25  1  1 18 11 30.0000000  0 23E31G07G26G30G08G16G27G04R18R10E09G09
                                E04R09E21S35S31E06S33R08R11E19R01
 128480512.193 8                  24449024.898
        48.500
 115716343.993 7  90168522.02247  22020078.121    22020077.6614   22020078.0164
        46.900          44.9004


 129120572.223 6 100613376.51544  24570826.626    24570826.5064   24570835.3684
        36.100          29.3004
 109204067.217 7  85094124.42947  20780836.545    20780835.8394   20780844.1984
        45.100          43.4004
 117085899.127 4  91235787.57641  22280718.501    22280718.5594   22280718.6864
        29.500           7.1004
 109826158.229 7  85578826.84147  20899219.129    20899218.4594   20899223.6344
        46.300          46.1004
 109017458.876 6  84948658.89744  20745329.780    20745329.3474   20745333.3304
        40.800          24.0004
 123084344.916 5                  23057841.695    23057843.678
        33.100
 107180502.040 7                  20106790.599    20106789.357
        42.600
 133253535.813 7                  25357306.585
        45.400
 106275987.780 7  82812450.29748  20223656.906    20223656.4644   20223660.7104
        47.500          50.5004
 122924934.272 8                  23391822.844
        49.300
 107999399.076 8  83999544.537 7  20224808.650    20224808.635    20224812.927
        48.000          47.200
 140939559.681 5                  26819907.379
        32.800


 198902976.545 6                  37849994.936
        37.500
 125100388.005 7                  23805816.055
        47.600
 202044140.459 7                  38447744.672
        45.200
 108499647.083 7  84388625.274 8  20261541.581    20261540.842    20261549.016
        44.400          48.300
 124523849.499 5                  23302941.200    23302939.251
        33.800
 136376178.075 5                  25951528.107
        32.700
 128401360.812 5                  24020127.662
        30.300
 25  1  1 18 11 45.0000000  0 23E31G07G26G30G08G27G04R18R10E09G09E04
                                R07R09E21S35S31E06S33R08R11E19R01
 128457463.688 8                  24444639.052
        49.100
 115686079.719 8  90144939.49347  22014320.214    22014319.8034   22014318.6334
        50.200          46.4004


 129077717.343 6 100579983.04744  24562672.259    24562672.1214   24562679.2004
        38.800          29.2004
 109173024.165 7  85069935.17447  20774930.130    20774929.3974   20774935.8174
        47.000          44.4004
 109829021.705 7  85581058.19347  20899765.464    20899764.8034   20899768.2374
        46.700          45.6004
 109050707.105 6  84974566.56943  20751655.938    20751655.5184   20751662.0764
        40.800          23.3004
 123099984.351 5                  23060775.186    23060774.286
        33.700
 107169633.223 6                  20104750.699    20104750.722
        41.900
 133224008.210 7                  25351688.622
        46.100
 106283630.259 8  82818405.47848  20225111.418    20225110.9764   20225115.1674
        50.600          51.5004
 122933930.044 8                  23393534.441
        49.200
 108695009.481 6  84540536.482 6  20305146.784    20305144.246    20305151.851
        40.300          39.700
 108023388.365 8  84018202.920 7  20229300.025    20229300.608    20229305.692
        49.100          47.800
 140976432.231 5                  26826923.844
        30.200
 200832102.649 5                  38217097.101
        33.600
 198902965.985 6                  37849989.852
        38.900
 125087693.565 8                  23803401.191
        48.900
 202044148.563 7                  38447744.922
        45.400
 108484470.647 7  84376821.388 7  20258708.677    20258707.769    20258715.497
        42.900          47.800
 124483367.756 6                  23295366.007    23295364.260
        38.600
 136419251.226 5                  25959724.001
        30.600
 128342478.913 5                  24009110.816    24009114.458
        32.000
 25  1  1 18 12  0.0000000  0 22E31G07G26G30G08G27G04R10E09G09E04R07
                                R09E21S35S31E06S33R08R11E19R01
 128434480.214 8                  24440265.086
        48.900
 115655843.964 8  90121379.17947  22008565.820    22008565.4274   22008565.1354
        50.500          46.6004


 129034863.392 6 100546590.41044  24554515.948    24554515.8054   24554523.2864
        41.400          29.0004
 109142120.616 7  85045854.61447  20769047.496    20769046.7184   20769054.6404
        46.400          43.1004
 109832059.127 7  85583425.07647  20900342.091    20900341.3984   20900346.2574
        46.400          46.5004
 109084082.019 7  85000572.95943  20758007.555    20758007.1134   20758014.1374
        42.600          23.8004
 107158845.358 7                  20102728.827    20102729.808
        43.700
 133194551.655 7                  25346082.582
        43.100
 106291429.437 8  82824482.75148  20226594.780    20226594.3024   20226599.4294
        50.400          52.1004
 122943029.485 8                  23395266.047
        49.700
                  84575033.477 6                  20313424.229    20313435.881
                        36.600
 108047431.997 8  84036903.495 7  20233804.119    20233803.934    20233808.312
        49.300          46.900
 141013315.163 5                  26833938.676
        33.000


 198902961.331 6                  37849995.938
        41.300
 125075095.708 8                  23801003.478
        49.300
 202044163.160 7                  38447747.802
        44.200
 108469501.227 7  84365178.482 7  20255913.876    20255912.039    20255920.670
        45.300          46.400
 124442929.385 5                  23287795.321    23287792.738
        35.600
 136462368.532 5                  25967929.406
        33.000
 128283676.278 4                  23998108.806
        28.000
 25  1  1 18 12 15.0000000  0 23E31G07G26G30G08G27G04R19R18R10E09G09
                                E04R07R09E21S35S31E06S33R08R11E19
 128411554.675 8                  24435902.449
        48.000
 115625629.667 8  90097835.60547  22002815.049    22002814.6834   22002815.0264
        49.400          43.8004


 128992003.433 6 100513193.05143  24546359.592    24546359.4144   24546360.3574
        37.200          22.0004
 109111349.930 8  85021877.57847  20763192.716    20763191.9614   20763199.6724
        48.200          46.1004
 109835263.412 7  85585921.97947  20900951.301    20900950.6224   20900955.5924
        47.400          45.0004
 109117576.370 7  85026672.38944  20764380.671    20764380.2424   20764388.2244
        43.700          26.6004
 119994239.882 4                  22431654.611    22431653.506
        27.200
 123131818.969 6                  23066739.722    23066740.208
        36.700
 107148130.758 6                  20100715.367    20100714.524
        40.500
 133165159.440 7                  25340490.603
        42.400
 106299378.216 8  82830676.60748  20228108.036    20228107.5584   20228112.0674
        49.600          51.6004
 122952225.583 8                  23397015.798
        48.600
 108783868.193 7  84609647.891 6  20321739.557    20321740.767    20321752.580
        42.800          41.400
 108071522.610 8  84055640.657 8  20238314.449    20238315.068    20238320.174
        48.600          48.200
 141050201.104 6                  26840961.129
        36.200


 198902955.941 7                  37850004.881
        43.800
 125062587.578 8                  23798624.017
        50.600
 202044177.108 7                  38447747.292
        43.300
 108454731.739 8  84353691.063 7  20253156.274    20253157.292    20253160.539
        48.900          44.700
 124402527.359 7                  23280237.541    23280236.076
        42.400
 136505522.813 5                  25976143.520
        32.400
 25  1  1 18 12 30.0000000  0 23E31G07G26G30G08G27G04R19R10E09G09E04
                                R07R09E21S35S31E06S33R08R11E19R01
 128388689.322 8                  24431551.504
        49.000
 115595439.197 7  90074310.56547  21997069.361    21997068.9554   21997070.4544
        47.300          43.9004


 128949139.759 7 100479792.78844  24538203.455    24538203.2814   24538204.3864
        43.500          26.4004
 109080714.527 7  84998005.94747  20757362.975    20757362.2474   20757370.4614
        46.700          46.0004
 109838636.750 7  85588550.61447  20901592.927    20901592.2434   20901597.1084
        44.100          42.5004
 109151192.067 7  85052866.38044  20770778.479    20770778.0904   20770783.9374
        42.800          24.3004
 119967919.057 4                  22426736.308    22426732.870
        29.200
 107137492.105 7                  20098721.628    20098720.596
        42.600
 133135833.769 6                  25334909.221
        41.800
 106307478.849 8  82836988.76948  20229649.748    20229649.2664   20229653.6234
        48.300          50.8004
 122961520.537 8                  23398784.720
        49.300
 108828525.581 7  84644381.316 6  20330084.294    20330084.994    20330092.537
        45.200          38.300
 108095662.318 8  84074415.936 7  20242835.055    20242836.058    20242840.318
        50.700          47.800
 141087092.361 5                  26847979.952
        35.700


 198902951.692 6                  37849992.696
        40.700
 125050171.510 8                  23796260.500
        49.600
 202044191.123 7                  38447758.373
        42.500
 108440164.472 7  84342361.026 7  20250435.119    20250434.941    20250441.631
        47.300          45.800
 124362163.834 7                  23272683.372    23272683.948
        44.700
 136548715.897 5                  25984359.472
        30.200
 128166243.068 4                  23976149.884
        28.000
 25  1  1 18 12 45.0000000  0 21G20E31G07G30G08G27G04R19R10E09G09E04
                                R07R09E21S35S31E06S33R08E19
 132792303.495 5                  25269533.079
        31.100
 128365884.966 8                  24427212.026
        48.300
 115565273.482 7  90050804.85146  21991330.139    21991329.7104   21991329.6324
        46.200          40.9004
 128906273.348 5 100446390.39043  24530046.001    24530045.7964   24530042.8704
        33.600          19.9004
 109050215.613 8  84974240.66947  20751559.344    20751558.6114   20751566.7514
        49.200          47.0004
 109842179.992 7  85591311.66146  20902266.815    20902266.1364   20902270.5894
        43.900          40.5004
 109184929.872 7  85079155.49044  20777197.840    20777197.4344   20777204.1634
        43.300          25.8004
 119941762.224 4                  22421842.332    22421840.034
        28.200
 107126929.663 7                  20096740.580    20096740.419
        42.500
 133106575.881 7                  25329342.192
        43.500
 106315732.128 8  82843419.90848  20231220.192    20231219.6964   20231223.8564
        49.900          49.3004
 122970915.279 8                  23400572.468
        49.300
 108873336.203 7  84679233.841 6  20338450.302    20338449.141    20338465.055
        42.400          41.200
 108119851.995 8  84093230.150 7  20247365.725    20247366.316    20247370.931
        49.500          47.500
 141123989.713 5                  26855001.055
        35.300
 200831987.295 5                  38217064.038
        34.100
 198902948.810 7                  37849993.868
        43.700
 125037848.553 8                  23793916.185
        49.800
 202044208.301 7                  38447752.546
        44.800
 108425800.628 8  84331189.232 7  20247753.779    20247755.281    20247757.459
        49.800          42.300
 136591948.892 5                  25992587.770
        30.000
 25  1  1 18 13  0.0000000  0 22E31G07G30G08G16G27G04R18R10E09G09E04
                                R07R09E21S35S31E06S33R08R11E19
 128343132.876 7                  24422882.077
        47.600
 115535123.961 8  90027311.75147  21985593.801    21985593.3454   21985592.8634
        48.500          45.0004
 128863395.361 6 100412979.00543  24521887.122    24521886.9704   24521885.0394
        36.000          19.8004
 109019844.626 8  84950575.07047  20745779.964    20745779.2364   20745787.2774
        48.500          46.9004
 117369538.911 5                  22334678.820
        34.500
 109845884.354 7  85594198.26646  20902972.258    20902971.6464   20902975.2984
        45.400          41.4004
 109218780.680 7  85105532.64944  20783641.350    20783640.9574   20783646.1434
        46.200          28.0004
                  95807451.087 5                                  23075955.264
                        33.200
 107116434.746 7                  20094769.399    20094769.922
        42.600
 133077377.123 7                  25323784.966
        45.000
 106324129.281 7  82849963.11047  20232816.801    20232816.3104   20232820.1094
        46.900          45.8004
 122980400.995 8                  23402377.461
        48.600
 108918290.498 5  84714198.314 6  20346854.361    20346850.967    20346863.429
        35.300          41.800
 108144082.428 7  84112076.081 8  20251903.929    20251904.235    20251909.149
        47.700          48.400
 141160884.010 5                  26862023.957
        34.300


 198902940.088 7                  37849987.885
        42.500
 125025610.002 8                  23791587.708
        49.600
 202044218.655 7                  38447760.210
        45.000
 108411631.579 7  84320168.898 6  20245105.829    20245107.321    20245110.237
        47.300          41.000
 124281546.048 7  96663457.110 5  23257596.042    23257595.907    23257605.339
        42.000          34.900


 25  1  1 18 13 15.0000000  0 21E31G07G30G08G27G04R18R10E09G09E04R07
                                R09E21S35S31E06S33R08R11E19
 128320442.842 8                  24418564.414
        48.000
 115505000.521 8  90003838.95847  21979861.190    21979860.7484   21979861.2224
        49.800          46.5004
 128820515.924 5 100379566.47543  24513726.215    24513726.0554   24513728.4194
        32.900          21.6004
 108989611.778 7  84927017.08247  20740026.642    20740025.9184   20740034.0164
        47.400          46.8004
 109849759.567 7  85597218.00447  20903710.089    20903709.4814   20903712.9114
        46.700          42.5004
 109252754.234 7  85132005.50544  20790105.232    20790104.8524   20790111.5334
        47.600          29.9004
 123197676.387 5                  23079093.614
        35.500
 107106017.031 7                  20092818.133    20092818.055
        45.100
 133048247.573 7                  25318241.761
        45.700
 106332680.091 7  82856626.04747  20234443.577    20234443.0814   20234446.5544
        45.400          44.8004
 122989987.550 8                  23404202.183
        48.800
 108963398.133 5  84749281.940 7  20355277.485    20355276.304    20355289.298
        31.500          42.800
 108168363.580 8  84130961.443 7  20256450.751    20256451.902    20256455.206
        49.200          47.300
 141197785.220 6                  26869047.330
        37.300


 198902934.418 7                  37849988.967
        42.500
 125013465.864 8                  23789276.475
        49.200
 202044231.236 7                  38447759.759
        44.700
 108397667.365 7  84309307.917 6  20242497.195    20242497.883    20242502.619
        44.200          41.600
 124241292.957 5  96632149.466 6  23250060.094    23250058.370    23250077.335
        34.300          37.000


 25  1  1 18 13 30.0000000  0 21E31G07G30G08G27G04R18R10E09G09E04R07
                                R09E21S35S31E06S33R08R11E19
 128297810.236 7                  24414257.337
        46.300
 115474898.631 8  89980382.93447  21974133.030    21974132.5884   21974133.3734
        50.400          47.9004
 128777630.186 5 100346149.00143  24505567.498    24505567.2534   24505570.3194
        34.700          20.8004
 108959512.612 8  84903563.25947  20734298.979    20734298.2514   20734306.0334
        48.300          46.9004
 109853800.960 7  85600367.20747  20904479.130    20904478.5274   20904482.2714
        44.800          42.5004
 109286845.582 7  85158570.15045  20796592.314    20796591.9664   20796599.5534
        47.300          30.8004


 107095672.052 7                  20090877.576    20090878.068
        45.400
 133019182.745 7                  25312711.341
        47.000
 106341379.866 7  82863405.07847  20236100.459    20236099.9634   20236103.1074
        46.100          46.4004
 122999670.256 8                  23406045.099
        48.700
 109008672.119 5  84784480.862 7  20363739.217    20363735.912    20363743.965
        32.900          42.600
 108192690.448 7  84149882.378 7  20261005.826    20261005.816    20261010.641
        46.600          46.200
 141234688.462 6                  26876070.029
        36.000


 198902927.120 7                  37849986.373
        42.400
 125001411.611 8                  23786982.525
        48.200
 202044243.826 7                  38447764.678
        45.700
 108383903.342 7  84298602.558 7  20239927.878    20239928.542    20239932.979
        45.900          43.200
 124201075.399 6  96600869.310 6  23242538.027    23242536.023    23242548.719
        38.200          39.300


 25  1  1 18 13 45.0000000  0 20E31G07G30G08G27G04R10E09G09E04R07R09
                                E21S35S31E06S33R08R11E19
 128275238.907 7                  24409962.001
        47.100
 115444822.527 8  89956947.01047  21968409.454    21968409.0254   21968410.3534
        49.900          47.9004
 128734742.383 6 100312729.92543  24497406.202    24497405.9254   24497410.2834
        37.200          23.0004
 108929551.364 7  84880216.89447  20728596.816    20728596.0704   20728604.1774
        46.400          46.9004
 109858012.441 7  85603648.92746  20905279.334    20905278.7224   20905284.3954
        43.300          40.3004
 109321058.455 7  85185229.47244  20803102.619    20803102.2664   20803110.7954
        45.600          29.4004
 107085403.584 7                  20088950.199    20088951.080
        44.200
 132990186.741 7                  25307193.593
        46.900
 106350232.496 7  82870303.21747  20237785.084    20237784.5884   20237788.9804
        47.300          47.7004
 123009453.056 8                  23407906.604
        49.200
                  84819797.691 7                                  20372226.758
                        42.600
 108217066.864 7  84168841.822 7  20265570.837    20265570.520    20265573.851
        47.900          44.400
 141271597.599 5                  26883095.831
        30.800


 198902922.168 7                  37849988.528
        42.300
 124989451.264 7                  23784706.659
        47.000
 202044257.454 7                  38447766.721
        45.100
 108370344.131 8  84288056.410 7  20237401.780    20237402.371    20237401.897
        48.400          45.300
 124160897.641 5  96569620.273 6  23235017.500    23235014.665    23235027.786
        31.000          37.700


 25  1  1 18 14  0.0000000  0 24E31G07G26G30G08G16G27G04R19R18R10E09
                                G09E04R07R09E21S35S31E06S33R08R11E19
 128252726.409 8                  24405678.352
        48.200
 115414769.586 8  89933529.13447  21962690.722    21962690.2804   21962691.8104
        50.200          47.6004


 128691849.929 6 100279307.27944  24489241.927    24489241.7264   24489246.1154
        41.700          24.3004
 108899725.780 8  84856976.26248  20722921.554    20722920.8084   20722928.1774
        50.100          48.8004
 117559355.639 6                  22370800.336
        39.300
 109862391.473 7  85607061.19346  20906112.031    20906111.3524   20906117.8754
        43.800          38.7004
 109355390.118 7  85211981.35244  20809636.794    20809636.4414   20809643.6304
        42.300          27.1004
                  93188211.261 5                                  22397855.194
                        31.800


 107075208.882 7                  20087035.515    20087036.439
        42.200
 132961257.312 8                  25301689.044
        48.300
 106359235.483 7  82877318.52248  20239497.658    20239497.1354   20239502.8644
        46.400          48.3004
 123019333.474 7                  23409786.388
        47.800
 109099578.661 6  84855230.157 6  20380723.144    20380723.499    20380736.605
        41.200          40.600
 108241490.323 8  84187837.881 7  20270143.703    20270145.540    20270148.670
        48.800          44.400
 141308510.103 4                  26890120.125
        27.000


 198902917.270 7                  37849988.283
        43.000
 124977582.501 7                  23782447.840
        47.000
 202044271.593 7                  38447765.974
        44.800
 108356986.917 7  84277667.523 7  20234899.467    20234901.178    20234907.613
        46.200          46.500




 25  1  1 18 14 15.0000000  0 24E31G07G26G30G08G16G27G04R18R10E09G09
                                E04R07R09E21S35S31E06S33R08R11E19R01
 128230269.481 7                  24401404.888
        47.800
 115384736.749 8  89910126.91247  21956975.536    21956975.0854   21956976.4734
        50.200          46.7004


 128648949.728 6 100245878.65343  24481078.510    24481078.3634   24481077.9324
        40.600          23.0004
 108870032.957 8  84833839.10448  20717270.817    20717270.0844   20717278.0094
        51.200          49.7004
 117606896.821 5                  22379858.764
        34.700
 109866934.776 7  85610601.45946  20906978.044    20906977.3424   20906981.8234
        42.800          37.5004
 109389837.096 7  85238823.12344  20816191.578    20816191.1984   20816198.3264
        43.300          26.7004
 123266504.658 6                  23091974.245    23091977.054
        37.300
 107065084.310 7                  20085136.171    20085136.836
        42.400
 132932391.381 7                  25296196.258
        47.900
 106368385.494 7  82884448.41248  20241239.522    20241239.0134   20241243.9084
        47.900          48.9004
 123029308.273 8                  23411684.621
        48.200
 109145279.713 6  84890775.323 6  20389260.495    20389261.517    20389272.226
        41.000          38.700
 108265957.315 8  84206867.768 7  20274725.820    20274726.221    20274728.872
        48.000          43.300


 200831767.584 6                  38217016.245
        36.100
 198902909.086 7                  37849985.609
        42.700
 124965802.137 7                  23780206.129
        47.900
 202044282.833 7                  38447763.372
        43.600
 108343828.749 7  84267433.350 7  20232444.787    20232443.677    20232450.300
        44.900          47.100
 124080685.858 5  96507206.338 6  23220006.419                    23220007.261
        35.400          37.400


 127757809.876 5                  23899744.564
        33.900
 25  1  1 18 14 30.0000000  0 25E31G07G26G30G08G16G27G04R19R18R10E09
                                G09E04R07R09E21S35S31E06S33R08R11E19
                                R01
 128207873.576 7                  24397143.351
        47.500
 115354729.694 8  89886744.77947  21951265.525    21951265.0784   21951266.2064
        50.600          47.0004


 128606047.429 6 100212448.34744  24472915.888    24472915.7724   24472911.6544
        38.800          24.2004
 108840478.672 8  84810809.92148  20711646.782    20711646.0634   20711653.8894
        51.300          50.0004
 117654476.857 5                  22388902.298
        32.500
 109871647.802 7  85614273.99246  20907874.534    20907873.8414   20907877.1454
        43.800          37.7004
 109424404.685 7  85265758.89044  20822767.599    20822767.2024   20822775.9624
        44.400          25.0004
                  93149169.510 6                                  22388476.704
                        38.200
                  95887749.666 5                                  23095294.925
                        35.900
 107055035.488 6                  20083252.101    20083251.680
        41.900
 132903594.715 7                  25290716.367
        47.300
 106377688.045 7  82891697.14148  20243009.626    20243009.1444   20243013.7994
        47.800          49.1004
 123039382.996 7                  23413601.377
        47.100
 109191130.917 7  84926437.219 5  20397829.940    20397831.069    20397831.980
        45.300          32.200
 108290473.155 7  84225935.640 7  20279315.482    20279315.975    20279320.012
        47.700          43.400


 200831732.211 5                  38217036.247
        31.200
 198902903.072 7                  37849987.741
        43.500
 124954115.896 8                  23777982.297
        49.000
 202044295.604 7                  38447772.083
        44.800
 108330875.550 7  84257358.571 8  20230028.378    20230025.920    20230031.644
        46.900          48.400
 124040618.615 6  96476043.226 5  23212514.803    23212514.269    23212508.605
        40.900          35.900


 127699764.476 4                  23888879.516
        27.900
 25  1  1 18 14 45.0000000  0 23E31G07G30G08G16G27G04R18R10E09G09E04
                                R07R09E21S35S31E06S33R08R11E19R01
 128185538.511 8                  24392892.985
        48.600
 115324748.272 8  89863382.64247  21945560.187    21945559.7224   21945560.5144
        49.700          46.2004
 128563142.784 6 100179016.21644  24464751.819    24464751.6944   24464748.9714
        38.600          25.6004
 108811062.915 8  84787888.68148  20706049.548    20706048.8604   20706056.1334
        50.800          49.6004
 117702095.364 5                  22397959.572
        34.000
 109876530.285 7  85618078.56446  20908803.600    20908802.9484   20908806.1874
        44.100          38.9004
 109459092.443 6  85292788.24943  20829368.374    20829368.0214   20829375.1114
        40.100          23.2004
                  95901625.659 5                                  23098635.571
                        33.200
 107045062.615 6                  20081379.819    20081379.126
        40.400
 132874867.232 7                  25285250.049
        46.700
 106387142.878 8  82899064.50748  20244809.132    20244808.6814   20244812.9204
        48.200          49.1004
 123049557.356 7                  23415537.716
        47.100
 109237130.953 7  84962214.891 5  20406423.168    20406424.159    20406427.780
        44.200          34.300
 108315037.673 8  84245041.375 7  20283916.589    20283917.037    20283921.066
        48.500          44.600




 198902899.378 7                  37849983.686
        42.200
 124942523.626 8                  23775776.598
        50.300
 202044310.667 7                  38447776.031
        45.200
 108318127.042 8  84247443.028 8  20227647.853    20227646.753    20227652.249
        48.200          49.900
 124000590.334 6  96444910.512 6  23205020.602    23205020.474    23205018.311
        37.200          37.000


 127641799.658 4                  23878041.678
        26.600
 25  1  1 18 15  0.0000000  0 22E31G07G30G08G16G27G04R19R10E09G09E04
                                R07R09E21S35S31E06S33R08R11E19
 128163261.070 7                  24388653.435
        47.300
 115294789.446 8  89840038.10147  21939859.072    21939858.6074   21939858.4134
        50.100          44.1004
 128520232.736 6 100145579.85544  24456588.619    24456588.5124   24456586.4404
        39.200          26.6004
 108781782.844 7  84765073.19347  20700477.700    20700476.9984   20700483.9104
        46.400          47.0004
 117749748.934 4                  22407025.229
        26.200
 109881579.084 7  85622012.71647  20909765.635    20909765.0014   20909768.0604
        45.700          42.1004
 109493896.982 7  85319908.61343  20835992.921    20835992.5864   20835996.4714
        43.100          21.5004
                  93110645.564 5                                  22379214.484
                        32.700
 107035161.617 7                  20079524.191    20079524.516
        43.100
 132846206.010 7                  25279796.373
        47.900
 106396746.737 8  82906548.00248  20246636.553    20246636.1024   20246641.0094
        49.200          49.9004
 123059828.189 7                  23417492.020
        47.600
 109283276.645 6  84998105.990 6  20415044.264    20415042.889    20415050.405
        40.800          37.100
 108339647.624 8  84264182.528 7  20288526.219    20288526.073    20288530.401
        49.100          46.200
 141456203.438 5                  26918220.468
        32.800


 198902893.982 6                  37849980.913
        41.000
 124931022.297 8                  23773587.503
        50.500
 202044324.782 7                  38447774.542
        44.200
 108305580.163 7  84237684.359 8  20225303.843    20225301.843    20225308.766
        45.200          49.200
 123960598.054 5  96413805.800 6  23197532.847    23197534.276    23197536.848
        35.400          37.400


 25  1  1 18 15 15.0000000  0 22E31G07G30G08G16G27G04R19R10E09G09E04
                                R07R09E21S35S31E06S33R08R11E19
 128141040.109 7                  24384424.373
        46.200
 115264852.390 8  89816710.55747  21934161.899    21934161.4214   21934160.9984
        49.000          43.2004
 128477316.158 6 100112138.43744  24448420.778    24448420.6444   24448422.5364
        36.100          26.3004
 108752637.576 8  84742362.73247  20694931.767    20694931.0574   20694937.5154
        49.100          47.0004
 117797403.972 5                  22416101.607
        33.000
 109886792.900 8  85626075.39547  20910758.076    20910757.4684   20910761.2934
        49.300          44.3004
 109528816.904 7  85347118.91443  20842637.788    20842637.4534   20842640.3324
        44.000          23.0004
                  93091574.631 5                                  22374628.473
                        31.100
 107025331.786 6                  20077679.485    20077678.997
        40.800
 132817610.038 7                  25274353.561
        47.000
 106406498.433 8  82914146.72048  20248492.518    20248492.0714   20248497.1044
        49.300          50.8004
 123070194.414 8                  23419465.036
        48.600
 109329566.221 6  85034108.959 5  20423689.117    20423686.983    20423697.607
        41.200          35.700
 108364301.670 8  84283357.929 7  20293142.028    20293142.192    20293147.548
        48.400          45.400




 198902886.508 6                  37849980.189
        40.700
 124919610.894 8                  23771416.152
        50.700
 202044335.768 7                  38447777.243
        44.400
 108293234.080 7  84228081.864 8  20222997.243    20222996.091    20223003.863
        45.700          50.300
 123920640.733 5  96382728.281 6  23190057.101    23190054.230    23190060.613
        33.600          36.800


 25  1  1 18 15 30.0000000  0 21E31G07G30G08G16G27G04R10E09G09E04R07
                                R09E21S35S31E06S33R08R11E19
 128118879.942 7                  24380207.457
        46.700
 115234941.430 8  89793403.29946  21928469.606    21928469.1244   21928469.1904
        48.600          41.6004


 108723631.650 7  84719760.82847  20689411.467    20689410.7574   20689417.8604
        47.800          46.7004
 117845128.575 5                  22425181.904
        34.000
 109892176.011 8  85630270.09047  20911781.859    20911781.2564   20911785.6794
        49.000          44.7004
 109563856.301 7  85374422.25444  20849305.934    20849305.6044   20849309.0824
        45.200          25.7004
 107015576.777 6                  20075850.244    20075848.185
        40.400
 132789083.865 7                  25268925.793
        45.400
 106416402.327 8  82921864.02148  20250377.044    20250376.6064   20250381.8304
        49.400          50.5004
 123080660.278 8                  23421456.268
        48.100
 109376003.888 7  85070227.019 6  20432366.016    20432366.219    20432376.767
        46.200          37.000
 108389003.727 8  84302570.686 7  20297768.094    20297767.683    20297773.674
        48.000          46.100




 198902880.607 6                  37849978.163
        40.200
 124908293.922 8                  23769262.384
        49.900
 202044350.337 7                  38447785.869
        44.000
 108281093.478 7  84218639.092 8  20220731.948    20220731.022    20220735.561
        47.700          49.200
 123880722.809 6  96351681.261 5  23182587.443    23182587.394    23182584.842
        39.500          31.800


 25  1  1 18 15 45.0000000  0 21E31G07G30G08G16G27G04R10E09G09E04R07
                                R09E21S35S31E06S33R08R11E19
 128096779.885 7                  24376001.490
        47.600
 115205055.956 8  89770115.92747  21922783.155    21922782.6554   21922782.6554
        48.800          42.8004


 108694764.726 8  84697267.23547  20683917.863    20683917.1574   20683924.3114
        49.400          47.6004
 117892889.689 5                  22434269.259
        31.300
 109897727.748 7  85634596.09147  20912837.880    20912837.2724   20912841.1564
        47.000          43.6004
 109599014.350 7  85401818.03444  20855995.578    20855995.2574   20856001.1024
        45.100          27.2004
 107005896.678 7                  20074033.919    20074034.454
        42.400
 132760627.039 7                  25263510.672
        45.200
 106426457.608 8  82929699.28948  20252290.701    20252290.2774   20252295.1704
        48.100          50.3004
 123091225.203 7                  23423466.363
        47.400
 109422587.980 8  85106458.860 6  20441071.472    20441073.094    20441077.400
        48.600          37.300
 108413753.323 7  84321820.366 7  20302402.078    20302402.193    20302409.097
        47.700          44.800




 198902877.505 6                  37849976.741
        36.600
 124897070.771 8                  23767126.451
        49.000
 202044365.245 7                  38447790.787
        45.400
 108269157.532 7  84209355.593 8  20218500.776    20218500.939    20218506.574
        47.000          49.300
 123840843.278 5                  23175128.563    23175136.352
        34.200


 25  1  1 18 16  0.0000000  0 21E31G07G30G08G27G04R19R10E09G09E04R07
                                R09E21S35S31E06S33R08R11E19
 128074738.651 8                  24371807.786
        48.700
 115175194.705 8  89746847.42647  21917101.458    21917100.9674   21917100.9984
        49.200          44.3004


 108666035.755 8  84674881.10448  20678451.004    20678450.2944   20678457.8064
        50.600          49.3004
 109903446.717 8  85639052.44147  20913926.262    20913925.6634   20913928.6644
        48.400          43.9004
 109634289.482 7  85429305.09944  20862708.637    20862708.3334   20862714.5684
        45.600          27.7004
 119616612.370 5                  22361060.147    22361057.636
        32.200
 106996289.677 7                  20072233.623    20072232.323
        42.100
 132732238.478 7                  25258109.142
        46.400
 106436663.035 8  82937651.55548  20254233.293    20254232.8694   20254236.4944
        48.100          49.5004
 123101887.851 7                  23425495.941
        47.400
 109469316.865 7  85142803.553 6  20449798.590    20449796.711    20449808.717
        44.800          40.100
 108438548.684 8  84341105.652 7  20307045.742    20307047.028    20307052.564
        49.300          42.900




 198902872.717 6                  37849976.947
        40.100
 124885940.333 8                  23765008.761
        48.300
 202044379.948 7                  38447797.584
        42.200
 108257425.214 7  84200230.428 8  20216308.197    20216309.169    20216315.430
        46.800          48.600
 123801000.961 6  96289681.094 6  23167672.204    23167672.691    23167670.778
        38.000          37.600


 25  1  1 18 16 15.0000000  0 20E31G07G30G08G27G04R10E09G09E04R07R09
                                E21S35S31E06S33R08R11E19
 128052754.871 8                  24367624.062
        49.500
 115145356.680 8  89723597.00746  21911422.512    21911422.0124   21911423.8844
        48.100          41.7004
 128305615.473 5  99978418.27443  24415748.498    24415748.0074   24415750.6124
        31.500          22.2004
 108637443.693 8  84652601.70048  20673010.196    20673009.4864   20673017.1964
        50.800          49.4004
 109909331.569 8  85643638.04747  20915045.614    20915045.0294   20915049.0024
        49.100          46.0004
 109669680.087 7  85456882.14444  20869443.694    20869443.3774   20869449.6414
        43.500          27.3004
 106986754.260 7                  20070443.172    20070443.545
        44.500
 132703917.058 7                  25252719.111
        46.500
 106447017.219 7  82945719.74047  20256203.585    20256203.1344   20256206.2754
        47.900          47.9004
 123112646.853 7                  23427543.960
        47.300
 109516188.992 7  85179259.566 6  20458555.944    20458555.202    20458564.641
        46.300          39.300
 108463388.896 8  84360425.756 7  20311698.790    20311698.786    20311702.685
        51.000          43.200




 198902867.253 6                  37849985.524
        40.400
 124874901.361 8                  23762908.067
        48.700
 202044393.465 7                  38447788.525
        42.200
 108245895.403 8  84191262.750 8  20214158.042    20214158.681    20214162.683
        48.500          48.800
 123761194.174 5  96258720.728 5  23160205.797                    23160218.390
        35.900          32.500


 25  1  1 18 16 30.0000000  0 22E31G07G30G08G27G04R19R18R10E09G09E04
                                R07R09E21S35S31E06S33R08R11E19
 128030824.826 7                  24363450.895
        47.900
 115115538.072 8  89700361.70646  21905748.643    21905748.1344   21905749.6094
        48.200          41.3004
 128262676.478 5  99944959.30343  24407578.205    24407577.7184   24407579.6384
        33.800          20.9004
 108608985.002 8  84630426.23948  20667594.913    20667594.2074   20667601.0384
        51.100          49.5004
 109915378.419 7  85648349.91847  20916196.055    20916195.4704   20916201.6214
        47.300          46.5004
 109705182.252 7  85484546.10644  20876200.399    20876200.0784   20876205.7804
        42.900          28.7004
                  92998165.906 5                                  22352179.381
                        35.400
 123432000.091 5                  23122973.770
        33.100
 106977286.491 7                  20068666.969    20068667.412
        44.000
 132675659.231 7                  25247341.118
        45.500
 106457516.296 8  82953900.83047  20258201.206    20258200.7334   20258203.8964
        48.300          46.8004
 123123498.502 7                  23429608.503
        47.600
 109563199.830 8  85215823.395 6  20467336.184    20467337.241    20467345.558
        50.100          39.500
 108488269.515 8  84379777.186 6  20316358.537    20316358.874    20316359.830
        50.400          38.900
 141677793.093 5                  26960389.620
        33.000


 198902857.360 7                  37849987.294
        42.600
 124863950.210 8                  23760824.295
        48.700
 202044402.643 7                  38447794.897
        43.300
 108234564.396 8  84182449.700 8  20212042.119    20212042.718    20212046.322
        49.400          48.300
 123721419.819 6                  23152773.787    23152770.544
        36.900


 25  1  1 18 16 45.0000000  0 24E31G07G30G08G16G27G04R19R18R10E09G09
                                E04R07R09E21S35S31E06S33R08R11E19R01
 128008959.480 7                  24359289.804
        47.500
 115085750.124 8  89677150.32646  21900080.323    21900079.7964   21900080.7234
        50.000          40.7004


 108580671.046 8  84608363.53748  20662206.557    20662205.8604   20662211.9954
        50.700          50.4004
 118084353.217 5                  22470699.993
        32.500
 109921598.312 7  85653196.65147  20917380.600    20917379.9704   20917385.3224
        43.800          44.2004
 109740806.737 7  85512305.38044  20882979.816    20882979.5124   20882985.3234
        43.500          29.7004
                  92979878.861 5                                  22347781.532
                        35.700
 123451229.516 4                  23126578.872
        29.200
 106967897.485 7                  20066906.221    20066906.733
        43.900
 132647476.221 6                  25241977.327
        38.200
 106468171.266 8  82962203.38447  20260228.300    20260227.8134   20260231.0404
        48.300          45.6004
 123134453.840 8                  23431693.715
        48.300
 109610359.934 8  85252503.433 6  20476146.681    20476146.794    20476156.416
        48.500          40.900
 108513201.792 8  84399168.981 6  20321028.179    20321028.182    20321029.796
        50.500          40.100
 141714735.038 5                  26967420.756
        34.000
 200831391.055 6                  38216961.691
        36.800
 198902852.974 7                  37849980.412
        42.000
 124853098.106 8                  23758759.401
        50.400
 202044416.480 6                  38447799.020
        41.100
 108223443.521 7  84173800.164 8  20209962.728    20209963.029    20209969.804
        46.200          48.600






 25  1  1 18 17  0.0000000  0 24E31G07G30G08G16G27G04R19R18R10E09G09
                                E04R07R09E21S35S31E06S33R08R11E19R01
 127987151.196 7                  24355140.288
        47.700
 115055985.380 8  89653957.01446  21894416.695    21894416.1724   21894416.1524
        49.200          40.2004


 108552494.396 8  84586407.82448  20656844.918    20656844.2394   20656850.0234
        50.800          50.5004
 118132285.443 5                  22479816.844
        30.300
 109927983.590 7  85658172.25147  20918595.842    20918595.1814   20918600.1774
        43.300          44.7004
 109776545.682 7  85540153.84845  20889779.337    20889779.0564   20889785.8114
        45.700          31.5004
                  92961721.723 6                                  22343419.902
                        36.000
 123470702.007 5                  23130230.378
        30.600
 106958579.596 7                  20065157.590    20065158.185
        44.100
 132619360.593 6                  25236627.037
        36.600
 106478974.445 7  82970621.42947  20262284.541    20262284.0854   20262286.8774
        47.100          45.0004
 123145505.189 8                  23433796.422
        48.200
 109657661.320 8  85289293.313 6  20484981.885    20484982.130    20484990.849
        48.700          39.200
 108538177.787 8  84418594.757 6  20325704.660    20325704.780    20325708.124
        49.600          39.300
 141751677.364 5                  26974445.707
        34.300
 200831354.963 4                  38216951.129
        28.900
 198902846.802 7                  37849981.875
        43.300
 124842337.484 8                  23756711.859
        50.900
 202044429.022 7                  38447799.172
        43.900
 108212525.214 7  84165308.117 7  20207924.829    20207925.677    20207930.346
        47.800          45.700
 123641952.531 6                  23137911.621    23137915.004
        38.600




 25  1  1 18 17 15.0000000  0 22G20E31G07G30G08G16G27G04R10E09G09E04
                                R07R09E21S35S31E06S33R08R11E19
 132827835.941 5                  25276296.846
        31.700
 127965398.697 7                  24351000.404
        46.800
 115026242.697 8  89630780.93546  21888756.994    21888756.4714   21888756.1964
        49.200          40.2004
 128133827.590 6  99844560.87444  24383060.152    24383059.7014   24383061.7144
        39.100          26.7004
 108524454.121 8  84564558.40348  20651508.896    20651508.2174   20651513.9914
        51.200          51.2004
 118180248.384 6                  22488941.338
        40.000
 109934532.828 7  85663275.63247  20919841.566    20919840.8824   20919846.2224
        44.800          45.1004
 109812397.635 7  85568090.35845  20896602.499    20896602.2274   20896607.5674
        44.200          31.9004
 106949331.038 6                  20063422.788    20063422.234
        40.300
 132591311.197 6                  25231290.613
        40.200
 106489924.491 8  82979153.91847  20264368.056    20264367.6184   20264370.9534
        48.200          44.6004
 123156651.275 7                  23435917.140
        47.400
 109705101.992 7  85326191.530 6  20493843.702    20493843.325    20493852.742
        46.200          39.600
 108563196.107 8  84438053.398 6  20330389.233    20330390.262    20330394.340
        48.100          40.900
 141788618.597 5                  26981474.505
        30.000


 198902837.820 6                  37849973.320
        41.900
 124831667.179 8                  23754681.030
        50.500
 202044439.713 7                  38447798.988
        44.800
 108201808.301 7  84156972.759 7  20205923.643    20205924.528    20205927.694
        47.800          45.500
                                                  23130517.657



 25  1  1 18 17 30.0000000  0 23E31G07G30G08G16G27G04R19R18R10E09G09
                                E04R07R09E21S35S31E06S33R08R11E19
 127943702.100 7                  24346871.651
        45.700
 114996522.364 8  89607622.21646  21883100.879    21883100.3434   21883100.4034
        49.000          40.4004
 128090872.989 6  99811089.76744  24374886.175    24374885.4204   24374888.0264
        38.000          28.3004
 108496550.431 8  84542815.38348  20646198.756    20646198.0864   20646204.2344
        50.500          51.6004
 118228241.945 7                  22498073.286
        42.600
 109941246.122 7  85668506.83547  20921118.559    20921117.8404   20921123.3214
        45.100          44.2004
 109848362.375 7  85596114.78045  20903446.788    20903446.5024   20903451.7214
        46.100          33.3004
                  92925795.402 5                                  22334785.382
                        35.500
 123510180.347 6                  23137629.046    23137629.356
        36.100
 106940151.940 7                  20061700.354    20061699.953
        42.100
 132563328.423 6                  25225964.763
        39.900
 106501021.501 7  82987800.93847  20266478.806    20266478.3734   20266482.8514
        47.600          44.9004
 123167892.238 7                  23438056.501
        47.400
 109752681.945 8  85363198.082 7  20502732.816    20502733.219    20502743.897
        48.200          42.000
 108588256.739 8  84457544.894 6  20335082.037    20335082.506    20335085.644
        48.200          40.700




 198902826.263 6                  37849973.088
        41.800
 124821087.473 8                  23752668.099
        50.900
 202044446.442 7                  38447800.866
        44.500
 108191293.036 8  84148794.207 7  20203960.987    20203963.100    20203964.589
        49.200          45.800
 123562638.427 5  96104318.614 5  23123063.844    23123066.731    23123072.595
        32.500          33.800


 25  1  1 18 17 45.0000000  0 23E31G07G30G08G16G27G04R19R10E09G09E04
                                R07R09E21S35S31E06S33R08R11E19R01
 127922072.647 7                  24342756.226
        46.900
 114966835.723 7  89584489.75946  21877452.013    21877451.4724   21877450.8484
        47.100          39.6004
 128047923.520 6  99777622.67745  24366712.736    24366711.9944   24366715.7654
        40.600          30.6004
 108468795.046 8  84521187.93548  20640917.094    20640916.4104   20640923.1814
        49.500          52.2004
 118276277.376 6                  22507215.922
        41.900
 109948134.754 7  85673874.66047  20922429.873    20922429.1134   20922433.5564
        45.400          44.0004
 109884451.046 7  85624235.75945  20910313.865    20910313.5614   20910320.1824
        46.300          34.9004
 119453171.650 5  92908035.732 6  22330506.101    22330507.543    22330517.514
        34.100          36.900
 106931053.855 7                  20059994.419    20059994.409
        44.200
 132535423.784 7                  25220655.379
        42.200
 106512276.697 7  82996571.22047  20268620.542    20268620.0954   20268625.2014
        46.500          44.9004
 123179239.372 7                  23440215.381
        46.400
 109800411.695 8  85400321.112 7  20511648.072    20511648.597    20511659.695
        48.100          42.600
 108613371.209 7  84477078.280 6  20339786.269    20339786.590    20339791.768
        47.000          41.900




 198902822.713 6                  37849963.322
        39.800
 124810609.791 8                  23750674.298
        51.400
 202044461.994 7                  38447804.274
        44.500
 108180991.003 8  84140781.528 7  20202039.611    20202042.390    20202041.242
        50.000          45.500
 123523091.725 5  96073533.076 5  23115658.178                    23115668.849
        32.600          35.700


 126952498.890 5                  23749088.451
        33.000
 25  1  1 18 18  0.0000000  0 23E31G07G30G08G16G27G04R19R10E09G09E04
                                R07R09E21S35S31E06S33R08R11E19R01
 127900504.208 7                  24338651.801
        46.300
 114937176.883 7  89561379.00146  21871808.749    21871808.2404   21871806.5024
        46.900          39.1004
 128004973.245 6  99744154.94545  24358538.951    24358538.1964   24358542.9534
        38.000          30.2004
 108441182.028 8  84499671.41548  20635663.075    20635662.3914   20635668.9984
        49.900          52.1004
 118324348.177 6                  22516363.150
        39.300
 109955192.420 7  85679374.17547  20923772.368    20923771.6044   20923776.0584
        44.900          42.8004
 109920657.258 7  85652448.31845  20917203.102    20917202.7944   20917210.6534
        45.700          33.8004
 119430510.298 5  92890410.350 6  22326272.964    22326273.752    22326279.440
        35.200          36.700
 106922030.513 7                  20058301.613    20058301.659
        45.100
 132507591.291 7                  25215359.173
        44.200
 106523683.899 7  83005459.97147  20270791.800    20270791.3674   20270796.3034
        46.900          44.7004
 123190686.533 7                  23442393.657
        46.700
 109848284.982 8  85437555.771 7  20520592.238    20520593.010    20520603.763
        49.700          44.400
 108638532.937 7  84496648.482 6  20344496.866    20344499.041    20344502.470
        47.500          40.300


 200831267.924 6                  38216919.090
        36.700
 198902821.822 7                  37849975.199
        42.300
 124800228.101 8                  23748698.683
        50.800
 202044480.455 7                  38447808.263
        44.500
 108170896.196 8  84132930.017 7  20200150.916    20200152.862    20200156.985
        48.200          46.800
 123483549.350 5  96042778.206 5  23108266.703    23108266.000    23108260.551
        35.100          31.000


 126895605.008 6                  23738444.286    23738445.504
        37.700
 25  1  1 18 18 15.0000000  0 24E31G07G30G08G16G27G04R19R18R10E09G09
                                E04R07R09E21S35S31E06S33R08R11E19R01
 127878989.142 7                  24334557.437
        47.100
 114907538.172 7  89538283.91646  21866167.775    21866167.2704   21866166.6284
        45.700          39.1004
 127962014.484 5  99710680.63944  24350363.794    24350363.0574   24350368.3894
        34.400          28.7004
 108413704.001 8  84478260.10048  20630433.565    20630432.8814   20630440.2714
        50.100          51.6004
 118372446.293 6                  22525516.576
        41.200
 109962411.420 7  85684999.41446  20925146.592    20925145.8144   20925148.9004
        43.700          41.8004
 109956973.106 7  85680746.32245  20924113.804    20924113.4784   20924121.3624
        44.200          33.6004
 119408014.398 5  92872913.670 5  22322070.900    22322072.167    22322075.989
        34.900          35.900
 123570782.916 6                  23148975.288    23148973.179
        36.500
 106913074.108 7                  20056622.952    20056623.258
        45.800
 132479823.499 7                  25210074.851
        45.700
 106535235.314 7  83014461.08947  20272990.034    20272989.6104   20272994.6874
        46.700          45.9004
 123202226.005 7                  23444589.248
        45.500
 109896293.155 7  85474895.318 7  20529561.210    20529562.955    20529571.540
        47.500          42.500
 108663734.038 7  84516249.318 6  20349216.095    20349216.003    20349220.962
        45.900          40.600




 198902815.992 7                  37849967.914
        42.200
 124789934.861 8                  23746739.736
        51.300
 202044493.168 7                  38447811.370
        44.600
 108161001.028 8  84125233.781 7  20198303.318    20198305.053    20198308.519
        48.800          46.500
 123444038.652 6  96012047.954 5  23100877.077    23100875.861    23100866.548
        36.700          35.400


 126838791.687 6                  23727818.242    23727818.505
        38.200
 25  1  1 18 18 30.0000000  0 24E31G07G30G08G16G27G04R19R18R10E09G09
                                E04R07R09E21S35S31E06S33R08R11E19R01
 127857531.387 8                  24330474.047
        48.100
 114877923.791 6  89515207.77046  21860532.093    21860531.5884   21860531.1224
        41.700          36.8004
 127919051.332 6  99677202.87944  24342189.455    24342188.7044   24342193.2534
        39.000          29.3004
 108386365.162 8  84456957.20748  20625230.844    20625230.1474   20625237.5924
        50.100          51.6004
 118420575.687 6  92275737.42341  22534673.918    22534673.4624   22534677.6304
        39.900           9.3004
 109969795.761 7  85690753.49547  20926552.382    20926551.6314   20926554.2414
        43.200          42.5004
 109993402.382 7  85709132.70445  20931046.304    20931045.9964   20931052.5524
        44.200          33.0004
 119385688.130 5  92855548.884 6  22317898.443    22317898.314    22317902.181
        33.300          37.700
 123591335.759 5                  23152824.130    23152824.681
        34.000
 106904188.410 7                  20054954.794    20054954.533
        44.300
 132452124.652 7                  25204804.407
        47.000
 106546935.003 8  83023577.68847  20275216.372    20275215.9574   20275220.3794
        49.000          45.6004
 123213861.873 7                  23446803.258
        44.100
 109944439.774 7  85512342.616 6  20538555.928    20538557.946    20538565.144
        47.400          40.300
 108688978.652 7  84535884.073 6  20353943.877    20353944.020    20353949.949
        46.200          41.100




 198902807.927 6                  37849967.731
        40.900
 124779734.249 8                  23744798.667
        50.500
 202044504.490 7                  38447811.987
        45.700
 108151309.688 8  84117696.045 7  20196494.179    20196496.152    20196499.641
        50.300          46.600
 123404563.394 6  95981345.257 6  23093484.362    23093483.245    23093484.570
        38.200          37.800


 126782062.922 5                  23717216.518    23717213.162
        35.800
 25  1  1 18 18 45.0000000  0 23E31G07G30G08G16G27G04R19R18R10E09G09
                                E04R07R09S35S31E06S33R08R11E19R01
 127836130.527 8                  24326401.225
        48.400
 114848333.560 7  89492150.46946  21854900.811    21854900.2664   21854900.5134
        42.800          37.0004
 127876083.415 6  99643721.39045  24334012.909    24334012.1674   24334016.5874
        40.300          32.5004
 108359165.443 8  84435762.72048  20620054.347    20620053.6504   20620061.4254
        50.500          50.7004
 118468735.516 6  92313264.56341  22543838.532    22543838.1484   22543842.2164
        41.900          10.7004
 109977344.874 7  85696635.92047  20927988.078    20927987.3274   20927991.2204
        46.500          44.0004
 110029944.366 7  85737606.90145  20938000.315    20938000.0164   20938004.9724
        45.700          33.3004
 119363532.495 5  92838316.012 6  22313755.783    22313756.442    22313759.313
        30.100          37.800
 123612066.420 5  96142804.349 5  23156706.879    23156705.209    23156729.068
        32.300          34.100
 106895372.881 6                  20053299.679    20053299.098
        41.500
 132424494.479 7                  25199546.023
        47.700
 106558782.411 8  83032809.42247  20277470.789    20277470.3604   20277474.2024
        48.200          45.2004
 123225593.624 7                  23449036.391
        44.600
 109992723.945 7  85549896.906 6  20547572.453    20547573.586    20547583.177
        46.400          40.900
 108714266.197 7  84555552.208 6  20358678.736    20358678.636    20358685.079
        44.400          39.400


 198902798.957 7                  37849971.156
        42.400
 124769625.918 8                  23742875.153
        50.700
 202044514.577 7                  38447815.989
        44.800
 108141821.870 8  84110316.613 7  20194723.952    20194725.090    20194727.876
        50.300          45.600
                  95950670.137 6                                  23086105.208
                        40.200


 126725419.348 5                  23706618.289    23706616.034
        32.400
 25  1  1 18 19  0.0000000  0 23E31G07G30G08G16G27G04R19R18R10E09G09
                                E04R07R09S35S31E06S33R08R11E19R01
 127814793.996 8                  24322340.968
        48.400
 114818774.818 6  89469117.65746  21849276.433    21849275.8614   21849276.3884
        41.500          36.2004
 127833118.212 6  99610242.01645  24325835.831    24325835.0674   24325841.0704
        38.700          33.2004
 108332112.433 8  84414682.56648  20614906.422    20614905.7344   20614912.7774
        50.300          50.1004
 118516932.847 6  92350820.80841  22553007.930    22553007.4704   22553013.4334
        39.700           8.3004
 109985066.100 8  85702652.49247  20929457.559    20929456.8224   20929461.1544
        48.500          45.1004
 110066606.302 7  85766174.57845  20944976.942    20944976.6214   20944980.6184
        45.600          33.4004
                  92821221.314 6                                  22309652.878
                        36.200
 123632982.111 5                  23160630.003    23160627.006
        33.000
 106886635.151 7                  20051662.478    20051661.353
        42.500
 132396940.639 7                  25194302.971
        47.400
 106570784.904 8  83042161.98547  20279755.292    20279754.8724   20279758.5894
        48.600          46.7004
 123237428.727 7                  23451288.378
        44.600
 110041152.926 8  85587563.698 6  20556623.179    20556624.280    20556631.072
        48.600          41.600
 108739603.935 7  84575259.397 6  20363424.662    20363424.428    20363430.276
        44.100          40.200


 198902796.032 6                  37849966.103
        40.800
 124759617.423 8                  23740970.381
        49.000
 202044530.082 7                  38447818.511
        45.300
 108132545.238 8  84103101.473 7  20192990.873    20192991.934    20192997.135
        50.300          46.500
                  95920028.240 6                                  23078727.930
                        37.200


 126668868.766 5                  23696041.733    23696041.152
        34.600
 25  1  1 18 19 15.0000000  0 22E31G07G30G08G16G27G04R19R10E09G09E04
                                R07R09S35S31E06S33R08R11E19R01
 127793514.672 7                  24318291.473
        47.200
 114789240.767 7  89446104.10446  21843656.895    21843656.2924   21843656.9814
        43.200          37.3004
 127790148.845 6  99576759.37945  24317660.313    24317659.5494   24317663.8904
        39.000          33.0004
 108305199.267 8  84393711.35748  20609785.182    20609784.5164   20609791.2934
        51.800          50.0004
 118565160.536 5  92388400.85341  22562188.404    22562188.1274   22562189.9494
        34.700           6.8004
 109992952.299 7  85708797.57347  20930957.840    20930957.0894   20930961.9384
        46.700          45.2004
 110103380.817 7  85794829.98445  20951975.815    20951975.4854   20951978.8114
        47.400          35.0004
                  92804259.354 5                                  22305574.374
                        35.700
 106877967.839 7                  20050035.361    20050035.149
        43.100
 132369456.216 7                  25189072.679
        47.100
 106582935.362 8  83051629.85547  20282067.056    20282066.6274   20282071.4244
        48.300          47.2004
 123249360.038 7                  23453559.108
        45.700
 110089718.896 8  85625337.119 7  20565695.568    20565696.362    20565708.470
        48.500          43.200
 108764984.416 7  84594999.831 6  20368179.930    20368177.127    20368184.992
        43.700          41.600


 198902791.164 7                  37849967.963
        42.100
 124749701.773 7                  23739083.134
        47.900
 202044544.602 7                  38447821.700
        44.500
 108123472.529 8  84096044.968 7  20191294.726    20191295.705    20191300.709
        48.700          44.200
 123286487.653 5  95889414.178 5  23071381.363                    23071361.200
        34.800          35.300


 126612404.323 5                  23685474.724    23685474.762
        34.700
 25  1  1 18 19 30.0000000  0 23E31G07G30G08G16G27G04R18R10E09G09E04
                                R07R09E21S35S31E06S33R08R11E19R01
 127772291.429 7                  24314252.735
        45.800
 114759730.353 7  89423108.96946  21838041.185    21838040.5774   21838041.0434
        44.900          38.4004
 127747174.247 6  99543272.69445  24309482.478    24309481.7054   24309485.5874
        39.700          31.1004
 108278425.149 8  84372848.49848  20604689.710    20604689.0494   20604696.1934
        51.900          49.2004
 118613417.289 6  92426003.45141  22571369.886    22571369.4304   22571372.3914
        38.400           8.5004
 110001002.277 7  85715070.29747  20932490.451    20932489.7144   20932493.5674
        43.500          44.4004
 110140266.584 8  85823572.07046  20958994.680    20958994.3504   20958999.1284
        48.700          36.9004
 123675345.193 6                  23168566.436    23168570.230
        40.900
 106869369.440 6                  20048422.775    20048422.382
        40.900
 132342040.320 7                  25183855.470
        45.800
 106595232.561 7  83061212.08147  20284407.209    20284406.8074   20284411.8134
        47.500          47.0004
 123261386.488 7                  23455847.635
        46.600
 110138420.257 7  85663215.875 7  20574792.233    20574792.250    20574803.527
        46.700          43.300
 108790406.867 7  84614772.840 6  20372939.664    20372939.110    20372944.382
        46.300          41.700




 198902783.776 7                  37849964.561
        42.000
 124739878.008 7                  23737213.527
        47.900
 202044556.270 7                  38447823.412
        45.700
 108114602.995 7  84089146.459 7  20189638.487    20189637.676    20189644.353
        46.300          43.800
                  95858826.890 5                                  23064008.587
                        33.000


 126556025.847 6                  23674927.425    23674925.775
        36.000
 25  1  1 18 19 45.0000000  0 24E31G07G30G08G16G27G04R19R18R10E09G09
                                E04R07R09E21S35S31E06S33R08R11E19R01
 127751128.940 7                  24310225.943
        45.800
 114730248.447 7  89400136.08146  21832431.087    21832430.4884   21832430.6504
        44.000          38.0004
 127704199.120 6  99509785.62045  24301304.481    24301303.6634   24301307.4554
        41.500          30.8004
 108251795.066 8  84352097.93048  20599621.834    20599621.1824   20599628.5654
        50.700          48.1004
 118661707.383 6  92463632.13941  22580560.331    22580559.7904   22580561.9424
        38.000           7.0004
 110009220.645 7  85721474.23847  20934053.641    20934052.9084   20934057.5844
        44.800          44.6004
 110177268.077 8  85852404.36646  20966035.927    20966035.6144   20966041.0934
        49.900          38.7004
                  92770735.705 5                                  22297519.086
                        33.700
 123696795.885 5                  23172583.805    23172581.906
        35.400
 106860844.704 7                  20046823.001    20046822.373
        42.200
 132314697.836 7                  25178652.351
        44.600
 106607681.166 7  83070912.28447  20286775.118    20286774.7164   20286780.8834
        46.600          45.5004
 123273512.757 7                  23458155.455
        46.600
 110187261.254 7  85701203.256 7  20583916.669    20583915.626    20583927.756
        44.300          44.100
 108815875.482 7  84634581.716 6  20377708.459    20377706.182    20377713.157
        44.400          41.600




 198902779.594 7                  37849967.038
        42.500
 124730150.941 8                  23735362.847
        48.100
 202044570.113 7                  38447822.438
        45.100
 108105941.421 8  84082409.653 7  20188020.709    20188021.301    20188027.848
        49.600          43.800
 123207743.713 6                  23056651.725
        39.900
 137816995.407 5                  26225699.599
        32.500
 126499738.267 5                  23664393.709    23664393.445
        35.500
 25  1  1 18 20  0.0000000  0 22E31G07G30G08G16G27G04R18R10E09G09E04
                                R07R09E21S35S31E06S33R08R11E19
 127730025.360 7                  24306209.940
        46.800
 114700793.377 7  89377184.10645  21826825.283    21826824.6804   21826823.7184
        42.700          35.8004
 127661221.831 6  99476296.91144  24293124.237    24293123.4104   24293125.0614
        39.700          27.5004
 108225307.345 8  84331458.28047  20594581.758    20594581.1014   20594588.3544
        50.200          47.7004
 118710028.696 5  92501284.96941  22589754.712    22589754.0514   22589757.3954
        35.700           8.1004
 110017605.492 7  85728007.92347  20935649.032    20935648.3534   20935653.6004
        45.300          44.8004
 110214383.131 8  85881325.12646  20973097.982    20973097.6744   20973104.3524
        50.200          39.2004
 123718425.548 6                  23176638.199    23176636.707
        38.900
 106852391.793 6                  20045237.321    20045236.562
        41.000
 132287427.126 7                  25173462.710
        45.500
 106620279.220 7  83080728.95247  20289173.394    20289172.9744   20289178.3444
        46.100          45.2004
 123285736.974 7                  23460480.847
        44.300
 110236239.475 8  85739297.258 7  20593067.026    20593067.065    20593077.470
        49.200          44.600
 108841388.536 8  84654425.149 7  20382487.551    20382487.576    20382491.220
        48.500          42.800




 198902774.898 6                  37849958.300
        41.500
 124720518.853 8                  23733529.952
        48.600
 202044584.788 7                  38447830.334
        44.800
 108097486.164 8  84075833.331 7  20186442.701    20186444.146    20186450.000
        50.800          45.600
 123168493.473 6  95797726.526 5  23049301.635    23049301.763    23049308.615
        36.800          35.500
 137861244.067 5                  26234119.028
        30.700
 25  1  1 18 20 15.0000000  0 24E31G07G30G08G16G27G04R19R18E24R10E09
                                G09E04R07R09E21S35S31E06S33R08R11E19
 127708975.445 7                  24302204.274
        45.900
 114671360.068 6  89354249.05245  21821223.152    21821222.5134   21821221.5674
        40.900          34.6004
 127618237.228 6  99442802.46044  24284944.316    24284943.4804   24284944.9254
        37.500          27.5004
 108198957.035 8  84310925.67948  20589567.088    20589566.4184   20589574.1894
        50.200          48.1004
 118758375.899 6  92538958.0394   22598955.704    22598954.8734   22598957.7004
        38.100           4.4004
 110026151.534 7  85734667.20547  20937274.568    20937273.9164   20937280.0374
        42.200          43.6004
 110251606.373 8  85910330.18246  20980181.546    20980181.2424   20980188.0424
        48.500          38.3004
                  92737749.528 6                                  22289587.251
                        36.600
 123740228.428 6                  23180724.292    23180727.928
        36.200
 151995440.885 4                  28923769.853
        29.600
 106844005.512 6                  20043663.201    20043663.248
        40.000
 132260223.191 7                  25168285.734
        44.200
 106633021.491 7  83090657.98047  20291599.302    20291598.8694   20291602.7284
        47.500          46.0004
 123298053.916 7                  23462825.301
        44.500
 110285349.250 7  85777493.631 7  20602239.233    20602240.022    20602250.874
        46.200          43.500
 108866940.432 7  84674298.772 7  20387270.814    20387271.586    20387276.987
        47.200          44.700




 198902765.675 6                  37849957.674
        41.300
 124710976.635 8                  23731714.047
        49.100
 202044594.430 7                  38447829.230
        44.600
 108089231.975 8  84069413.362 7  20184901.877    20184903.511    20184908.265
        51.800          45.400
                  95767223.645 5                                  23041965.062
                        34.500
 137905520.324 4                  26242543.288
        29.200
 25  1  1 18 20 30.0000000  0 23E31G07G30G08G16G27G04R18E24R10E09G09
                                E04R07R09E21S35S31E06S33R08R11E19
 127687986.593 7                  24298210.191
        46.700
 114641955.947 6  89331336.75345  21815628.873    21815628.2394   21815626.0694
        41.200          35.1004
 127575252.843 6  99409308.14344  24276765.582    24276764.7154   24276767.3204
        36.400          26.9004
 108172751.763 8  84290506.10648  20584580.400    20584579.7574   20584587.3424
        50.500          48.1004
 118806755.937 6  92576656.68741  22608163.028    22608162.0494   22608164.1504
        40.500           6.1004
 110034865.991 7  85741457.71147  20938933.196    20938932.5754   20938937.9094
        42.800          42.5004
 110288944.946 8  85939425.11646  20987287.510    20987287.2334   20987292.9094
        48.100          37.0004
 123762212.147 5                  23184836.958    23184835.239
        33.200
 151957869.102 5                  28916620.525
        30.300
 106835693.200 6                  20042104.352    20042103.676
        38.300
 132233093.616 7                  25163123.645
        44.800
 106645915.280 8  83100705.06147  20294052.564    20294052.1174   20294055.8604
        48.200          45.7004
 123310470.962 7                  23465187.676
        45.800
 110334597.302 7  85815797.614 7  20611438.118    20611439.098    20611450.066
        47.000          42.600
 108892538.620 8  84694208.446 7  20392065.593    20392066.203    20392071.188
        49.000          45.600




 198902759.447 6                  37849956.449
        41.300
 124701531.799 8                  23729916.854
        49.500
 202044606.351 7                  38447830.473
        45.700
 108081186.304 8  84063155.634 7  20183398.953    20183399.231    20183405.040
        49.500          43.000
                  95736751.616 6                                  23034637.906
                        38.800
 137949831.727 4                  26250977.598
        28.400
 25  1  1 18 20 45.0000000  0 23E31G07G30G08G16G27G04R19R18R10E09G09
                                E04R07R09E21S35S31E06S33R08R11E19
 127667056.264 7                  24294227.139
        45.200
 114612578.715 6  89308445.42245  21810038.317    21810037.7004   21810036.2504
        40.000          35.6004
 127532266.021 5  99375811.91444  24268584.528    24268583.6434   24268588.3424
        33.600          25.7004
 108146689.332 8  84270197.82248  20579620.864    20579620.2254   20579628.0534
        52.400          49.1004
 118855166.233 6  92614379.09641  22617373.018    22617372.0304   22617376.2474
        37.700           7.3004
 110043746.285 7  85748377.45847  20940621.748    20940621.1454   20940627.9454
        44.000          43.6004
 110326396.047 7  85968607.74946  20994413.926    20994413.6454   20994419.1684
        45.900          36.1004
 119192529.599 5  92705303.914 6  22281786.629    22281786.457    22281788.178
        32.100          37.200
 123784373.975 6                  23188999.743    23188999.397
        37.800
 106827451.787 6                  20040558.336    20040557.836
        41.100
 132206036.084 7                  25157974.682
        45.500
 106658958.004 8  83110868.19447  20296534.335    20296533.8884   20296537.4764
        48.100          45.5004
 123322985.594 7                  23467568.494
        45.400
 110383980.738 7  85854206.828 7  20620664.730    20620665.870    20620676.436
        47.200          42.300
 108918180.515 8  84714152.093 7  20396867.124    20396867.983    20396873.818
        48.800          46.200




 198902752.729 6                  37849959.745
        41.600
 124692181.969 8                  23728137.581
        48.700
 202044618.896 7                  38447835.812
        46.500
 108073346.936 8  84057058.310 7  20181934.259    20181934.368    20181941.013
        49.000          45.400
                  95706308.229 5                  23027301.546    23027308.031
                        33.800
 137994175.256 5                  26259416.220
        30.800
 25  1  1 18 21  0.0000000  0 24E31G07G30G08G16G27G04R19R18R10E09G09
                                E04R07R09E21S35S31E06S33R08R11E19R20
 127646186.032 7                  24290255.441
        45.800
 114583230.224 7  89285576.45346  21804453.222    21804452.6284   21804453.0674
        43.400          37.9004
 127489278.781 5  99342315.34744  24260404.421    24260403.4424   24260409.4984
        34.700          25.0004
 108120771.489 8  84250002.19548  20574688.753    20574688.1194   20574695.6124
        51.500          49.2004
 118903608.087 5  92652126.00541  22626588.310    22626587.3714   22626594.4884
        30.200           6.9004
 110052794.063 7  85755427.70347  20942345.000    20942344.3924   20942350.2624
        44.800          45.5004
 110363961.058 7  85997879.13045  21001563.296    21001562.9924   21001567.6974
        44.000          35.0004
 119171934.879 5  92689285.959 6  22277933.119    22277937.297    22277936.832
        31.400          36.000
 123806715.123 5  96294196.893 5  23193177.493    23193180.002    23193186.574
        34.800          30.000
 106819283.614 6                  20039025.671    20039026.632
        41.600
 132179052.391 7                  25152840.050
        45.500
 106672151.220 8  83121148.60247  20299044.819    20299044.3724   20299048.2974
        48.500          45.7004
 123335599.413 7                  23469969.439
        45.200
 110433500.717 7  85892722.294 7  20629916.460    20629916.839    20629927.906
        44.400          42.400
 108943867.547 7  84734130.847 7  20401678.025    20401677.316    20401683.008
        46.500          45.200




 198902747.754 6                  37849958.314
        39.600
 124682928.868 8                  23726376.730
        49.700
 202044633.038 7                  38447839.161
        45.000
 108065715.783 7  84051122.982 7  20180509.713    20180508.850    20180515.495
        46.600          45.100
 123011909.295 6  95675895.004 5  23019988.740    23019987.335    23019990.686
        39.200          33.300
 138038552.870 5                  26267860.666
        30.700


 25  1  1 18 21 15.0000000  0 23E31G07G30G08G16G27G04R19R18R10E09G09
                                E04R07R09E21S35S31E06S33R08R11E19
 127625373.124 7                  24286295.432
        46.400
 114553907.630 7  89262727.67846  21798873.804    21798873.2194   21798874.0744
        43.300          40.0004
 127446288.352 4  99308816.22644  24252224.242    24252223.1654   24252230.9234
        26.600          25.1004
 108094995.750 8  84229917.29648  20569784.374    20569783.7574   20569789.6394
        51.000          48.1004
 118952078.589 4  92689895.18741  22635811.031    22635810.4054   22635818.1174
        25.100           6.0004
 110062006.348 7  85762606.14847  20944097.989    20944097.3954   20944103.3714
        44.800          46.1004
 110401636.991 7  86027236.90945  21008732.938    21008732.6524   21008737.6484
        43.300          34.4004
 119151513.933 4  92673403.107 6  22274123.386    22274122.766    22274121.272
        29.500          36.900
                  96311710.378 5                  23197386.511    23197407.383
                        33.300
 106811185.413 7                  20037507.057    20037507.232
        42.500
 132152139.951 7                  25147718.409
        46.200
 106685491.992 8  83131543.94847  20301584.110    20301583.6774   20301586.4034
        49.900          44.6004
 123348309.616 6                  23472387.034
        40.600
 110483153.991 7  85931341.376 6  20639193.183    20639191.356    20639203.692
        44.700          39.200
 108969596.853 7  84754142.433 7  20406497.049    20406497.265    20406499.746
        46.800          44.400




 198902741.960 7                  37849956.896
        42.900
 124673769.816 8                  23724634.248
        50.500
 202044645.791 7                  38447842.417
        46.500
 108058289.787 7  84045347.197 7  20179121.483    20179121.543    20179128.358
        46.900          43.500
 122972842.042 6  95645509.631 4  23012677.646    23012678.294    23012679.364
        40.100          29.500
 138082961.406 5                  26276313.132
        33.000
 25  1  1 18 21 30.0000000  0 20E31G07G30G08G27G04R18R10E09G09E04R07
                                R09S35S31E06S33R08R11E19
 127604620.102 7                  24282345.934
        47.100
 114524613.604 7  89239901.13846  21793300.040    21793299.4774   21793299.1194
        45.500          40.1004
 127403297.276 5  99275316.70444  24244045.087    24244044.0374   24244049.7364
        30.600          25.3004
 108069364.922 8  84209945.33147  20564906.746    20564906.1614   20564911.6354
        51.000          47.1004
 110071385.616 7  85769914.70547  20945882.505    20945881.9384   20945888.4204
        46.400          45.9004
 110439426.136 7  86056682.90145  21015923.071    21015922.8084   21015929.5154
        44.500          33.6004
 123851929.219 5  96329363.291 6  23201642.336    23201641.448    23201663.192
        32.100          36.100
 106803159.385 7                  20036000.556    20036000.868
        43.000
 132125301.572 7                  25142611.540
        46.300
 106698982.918 8  83142056.31846  20304150.835    20304150.4114   20304151.4384
        48.600          41.9004
 123361118.759 6                  23474826.646
        40.100
 110532942.454 7  85970065.607 6  20648492.203    20648491.839    20648502.346
        44.400          37.700
 108995370.894 7  84774188.878 7  20411324.223    20411323.693    20411327.739
        45.600          45.400


 198902737.824 7                  37849950.953
        43.100
 124664707.517 8                  23722909.500
        49.300
 202044660.367 7                  38447841.464
        44.400
 108051071.814 7  84039733.245 7  20177775.086    20177774.552    20177780.182
        45.600          43.700
 122933813.076 6  95615154.111 5  23005372.733    23005372.123    23005384.421
        37.100          35.700
 138127403.029 5                  26284769.176
        32.500
 25  1  1 18 21 45.0000000  0 23E31G07G30G08G16G27G04R19R18R10E09G09
                                E04R07R09E21S35S31E06S33R08R11E19
 127583922.003 7                  24278407.515
        47.700
 114495343.480 7  89217093.24246  21787730.079    21787729.5034   21787728.8814
        47.100          40.4004
 127360300.787 5  99241812.93044  24235861.485    24235860.6274   24235867.2714
        30.000          24.4004
 108043874.287 8  84190082.59447  20560055.585    20560054.9954   20560060.8554
        50.900          46.7004
 119049176.147 5                  22654302.450
        33.700
 110080926.888 7  85777349.49047  20947698.149    20947697.5914   20947704.2164
        46.100          45.8004
 110477323.299 7  86086213.06945  21023134.303    21023134.0264   21023141.1434
        42.300          31.9004
                  92642046.223 5                                  22266582.224
                        32.900
 123874799.522 6  96347151.455 6  23205928.240    23205927.887    23205945.844
        37.000          36.000
 106795200.608 7                  20034508.881    20034508.245
        43.500
 132098532.494 7                  25137518.050
        46.200
 106712618.896 7  83152681.70846  20306745.827    20306745.4034   20306745.4404
        46.800          40.4004
 123374021.922 6                  23477281.511
        41.800
 110582860.742 7  86008890.681 5  20657816.854    20657818.369    20657823.748
        45.800          34.500
 109021184.608 7  84794266.153 7  20416157.534    20416157.651    20416163.271
        46.400          46.900




 198902729.913 7                  37849947.922
        42.700
 124655737.153 8                  23721203.270
        49.200
 202044671.248 7                  38447845.346
        45.400
 108044056.936 7  84034277.215 7  20176464.720    20176464.872    20176470.180
        45.700          44.100
 122894817.400 6  95584824.272 5  22998081.787    22998080.914    22998085.977
        41.200          35.800
 138171872.759 5                  26293232.663
        34.500
 25  1  1 18 22  0.0000000  0 23E31G07G30G08G16G27G04R19R18R10E09G09
                                E04R07R09E21S35S31E06S33R08R11E19
 127563284.944 8                  24274480.539
        48.600
 114466103.706 7  89194309.00546  21782165.761    21782165.1894   21782165.0114
        46.900          40.6004
 127317305.188 5  99208309.85744  24227687.103    24227686.2364   24227684.2424
        34.300          25.2004
 108018530.315 8  84170334.13647  20555232.790    20555232.1874   20555238.3394
        48.900          46.7004
 119097734.731 5                  22663532.046
        32.200
 110090636.196 7  85784915.22447  20949546.565    20949545.9984   20949551.7174
        47.000          45.7004
 110515334.362 6  86115832.01845  21030367.144    21030366.8634   21030374.0824
        40.200          30.1004
                  92626573.569 5                                  22262861.687
                        31.300
 123897849.047 6  96365078.853 5  23210250.353    23210247.175    23210262.301
        36.800          33.300
 106787315.215 7                  20033029.389    20033029.278
        44.000
 132071839.061 7                  25132438.283
        47.800
 106726406.063 7  83163424.91546  20309369.744    20309369.3114   20309369.8754
        45.000          39.7004
 123387025.196 7                  23479755.237
        43.400
 110632914.513 7  86047821.202 6  20667168.103    20667167.007    20667176.531
        43.800          37.700
 109047044.004 7  84814379.027 7  20421000.422    20421000.964    20421006.624
        46.200          46.900




 198902724.831 7                  37849952.997
        42.300
 124646864.969 8                  23719514.891
        49.900
 202044684.977 7                  38447843.074
        45.100
 108037251.642 8  84028984.165 7  20175195.956    20175196.125    20175199.649
        48.000          44.700
 122855861.233 6  95554525.272 5  22990787.336    22990789.268    22990794.554
        39.400          32.800
 138216376.579 5                  26301699.633
        35.600
 25  1  1 18 22 15.0000000  0 21E31G07G30G08G27G04R18R10E09G09E04R07
                                R09E21S35S31E06S33R08R11E19
 127542705.703 7                  24270563.834
        47.700
 114436891.040 7  89171545.87346  21776606.201    21776605.6564   21776605.8864
        46.400          40.9004
 127274307.089 5  99174804.91044  24219494.450    24219493.5344   24219501.8124
        35.500          24.5004
 107993329.965 8  84150697.59947  20550437.748    20550437.1314   20550443.3294
        49.200          46.0004
 110100510.282 7  85792609.38747  20951425.313    20951424.7414   20951429.8704
        42.800          42.4004
 110553455.938 6  86145537.05844  21037621.711    21037621.4704   21037627.7644
        39.600          27.8004
 123921074.132 5  96383142.702 5  23214611.939                    23214612.036
        34.900          32.900
 106779500.000 6                  20031562.415    20031562.036
        41.900
 132045218.282 7                  25127371.932
        47.400
 106740341.091 7  83174283.35746  20312021.642    20312021.2094   20312022.9384
        44.700          40.3004
 123400125.410 7                  23482247.623
        42.800
 110683100.071 7  86086854.231 6  20676544.689    20676545.319    20676558.849
        45.400          39.500
 109072945.931 7  84834524.944 7  20425850.727    20425851.217    20425856.135
        45.100          46.600
 142527751.522 4                  27122129.729
        29.600


 198902719.505 7                  37849960.626
        43.600
 124638087.918 8                  23717844.619
        49.700
 202044698.512 7                  38447846.025
        44.700
 108030652.577 7  84023851.545 7  20173963.444    20173962.968    20173966.608
        46.400          44.500
 122816941.352 6                  22983503.426    22983501.355
        36.400
 138260911.286 5                  26310174.658
        33.100
 25  1  1 18 22 30.0000000  0 23E31G07G30G08G27G04R19R18R10E09G09E04
                                R07R09E21S35S31E06S33R08R11E19R01
 127522183.761 8                  24266658.599
        48.000
 114407705.193 7  89148803.65646  21771052.407    21771051.8934   21771051.9874
        44.900          39.3004


 107968272.958 8  84131172.74247  20545669.082    20545668.4394   20545675.0104
        48.900          46.9004
 110110548.456 7  85800431.35547  20953334.676    20953334.1094   20953339.5214
        43.500          42.1004
 110591687.176 6  86175327.57944  21044895.694    21044895.4444   21044902.9784
        40.300          26.2004
                  92596041.519 5                                  22255526.057
                        35.800
 123944474.785 6  96401342.865 5  23219007.772                    23218996.762
        37.400          32.000
 106771754.274 6                  20030108.218    20030108.231
        39.800
 132018669.836 8                  25122320.088
        48.000
 106754423.378 7  83185256.53847  20314701.237    20314700.8084   20314704.8524
        46.000          42.1004
 123413321.985 7                  23484759.497
        44.900
 110733416.278 7  86125989.035 7  20685945.113    20685947.258    20685956.577
        45.400          44.000
 109098889.341 7  84854703.115 7  20430710.845    20430711.732    20430712.701
        43.000          44.400
 142564709.560 5                  27129160.886
        34.900


 198902712.933 7                  37849957.808
        44.300
 124629405.582 8                  23716192.118
        49.600
 202044710.858 7                  38447852.008
        45.700
 108024259.406 8  84018879.018 7  20172768.794    20172769.505    20172772.631
        48.200          44.000


 138305476.043 6                  26318654.467
        36.100
 125886539.241 5                  23549685.266    23549683.739
        34.300
 25  1  1 18 22 45.0000000  0 23E31G07G30G08G16G27G04R18R10E09G09E04
                                R07R09E21S35S31E06S33R08R11E19R01
 127501721.759 7                  24262764.580
        47.900
 114378549.046 6  89126084.59345  21765504.089    21765503.5984   21765503.0304
        39.700          32.5004
 127188305.631 4  99107766.90042  24203131.093    24203130.8034   24203127.5974
        29.500          15.1004
 107943362.179 8  84111761.82047  20540929.137    20540928.4944   20540934.4064
        50.300          47.4004
 119243448.088 5                  22691292.106
        31.400
 110120753.307 7  85808383.20746  20955277.834    20955277.2584   20955280.3354
        42.500          40.7004
 110630030.324 5  86205205.18742  21052214.314    21052214.1404   21052199.5714
        30.900          17.3004
 123968053.056 5                  23223389.043    23223396.129
        30.800
 106764080.700 6                  20028669.519    20028667.881
        36.800
 131992196.521 8                  25117282.655
        48.600
 106768655.508 7  83196346.46346  20317408.834    20317408.4014   20317413.5734
        44.000          40.3004
 123426617.610 7                  23487289.145
        45.200
 110783865.522 7  86165227.245 7  20695366.085    20695369.227    20695380.852
        44.900          45.400
 109124877.218 6  84874915.896 6  20435573.524    20435575.162    20435577.742
        39.900          41.000
 142601668.811 5                  27136193.236
        31.900


 198902707.790 7                  37849952.505
        43.600
 124620820.704 8                  23714557.918
        48.600
 202044724.627 7                  38447851.391
        46.400
 108018074.856 8  84014068.784 7  20171614.820    20171616.596    20171617.486
        48.400          43.300
 122739110.085 6                  22968960.942    22968963.193
        37.400
 138350073.423 6                  26327141.416
        36.700
 125831355.444 5                  23539363.685    23539362.089
        35.500
 25  1  1 18 23  0.0000000  0 22E31G07G30G08G27G04R19E24R10E09G09E04
                                R07R09E21S35S31E06S33R08R11E19
 127481317.144 8                  24258881.816
        48.300
 114349419.991 6  89103386.65244  21759960.052    21759959.4804   21759956.9844
        36.300          28.6004
 127145302.476 5  99074258.06442  24194951.194    24194950.4394   24194944.1794
        31.400          12.0004
 107918595.382 8  84092463.09547  20536216.481    20536215.8424   20536221.1684
        50.200          47.2004
 110131122.120 7  85816462.79046  20957251.627    20957251.0694   20957252.5714
        45.500          41.0004
 110668483.178 6  86235168.54744  21059510.007    21059509.9094   21059516.8674
        40.900          24.1004
                  92566058.029 5                                  22248315.561
                        31.900
 151583388.065 4                  28845363.063
        27.500
 106756476.214 6                  20027241.939    20027242.028
        37.900
 131965796.083 8                  25112258.301
        48.300
 106783034.897 6  83207551.16146  20320144.861    20320144.3834   20320148.4764
        41.600          38.6004
 123440009.673 7                  23489838.212
        44.700
 110834444.506 7  86204566.401 7  20704815.181    20704819.151    20704828.715
        44.700          45.100
 109150906.539 5  84895160.958 7  20440448.477    20440446.552    20440453.738
        33.800          42.000
 142638626.538 4                  27143225.496
        29.100


 198902702.370 7                  37849953.471
        43.300
 124612330.891 8                  23712942.545
        48.700
 202044737.984 7                  38447855.228
        46.400
 108012096.413 8  84009418.841 7  20170498.509    20170500.492    20170501.543
        48.400          44.500


 138394700.591 5                  26335634.051
        33.900
 25  1  1 18 23 15.0000000  0 23E31G07G30G08G16G27G04R18E24R10E09G09
                                E04R07R09E21S35S31E06S33R08R11E19
 127460968.790 7                  24255009.967
        47.400
 114320317.098 6  89080709.10444  21754423.669    21754423.0084   21754417.9364
        38.800          29.1004
 127102295.899 5  99040746.51942  24186769.718    24186768.4534   24186764.1334
        35.900          15.0004
 107893971.646 8  84073275.85447  20531530.668    20531530.0204   20531535.1814
        49.100          47.2004
 119340899.604 5                  22709816.401
        32.400
 110141653.827 7  85824669.30047  20959255.229    20959254.6624   20959256.1134
        47.200          42.5004
 110707043.835 6  86265215.74344  21066848.033    21066847.8994   21066854.2004
        41.600          26.1004
 124015768.536 5                  23232330.432    23232331.352
        35.900
 151546056.458 4                  28838261.990
        27.000
 106748940.025 6                  20025827.300    20025827.654
        38.200
 131939467.575 8                  25107248.692
        48.600
 106797560.272 7  83218869.62646  20322909.293    20322908.8024   20322912.4974
        45.000          39.4004
 123453497.091 7                  23492405.156
        44.500
 110885151.631 7  86244005.123 7  20714293.343    20714294.251    20714302.080
        46.100          45.400
 109176976.335 6  84915437.444 7  20445332.013    20445331.384    20445336.016
        39.800          42.500
 142675581.734 5                  27150259.553
        32.400


 198902695.147 7                  37849954.245
        43.400
 124603935.135 8                  23711344.937
        48.600
 202044749.607 7                  38447857.316
        45.700
 108006323.165 7  84004928.546 7  20169416.960    20169419.160    20169424.240
        47.400          44.600
 122661525.576 6                  22954426.116    22954429.767
        37.600
 138439356.287 4                  26344132.866
        28.200
 25  1  1 18 23 30.0000000  0 22E31G07G30G08G27G04R18R10E09G09E04R07
                                R09E21S35S31E06S33R08R11E19R01
 127440680.530 8                  24251149.224
        49.800
 114291244.417 6  89058055.03545  21748889.617    21748888.9114   21748886.7404
        41.200          30.5004


 107869495.035 8  84054203.28347  20526872.839    20526872.1784   20526877.4984
        48.600          47.1004
 110152352.088 7  85833005.65947  20961290.876    20961290.2774   20961292.4004
        45.500          44.1004
 110745716.121 6  86295349.89244  21074207.327    21074207.2074   21074213.5164
        41.500          26.6004
 124039872.990 6  96475549.788 5  23236853.625    23236854.385    23236870.419
        40.100          32.700
 106741475.954 6                  20024429.841    20024428.117
        36.200
 131913215.073 8                  25102252.610
        49.000
 106812235.307 7  83230304.75745  20325700.195    20325699.6904   20325706.5464
        42.000          35.5004
 123467083.671 7                  23494991.200
        43.300
 110935990.275 7  86283546.308 7  20723786.730    20723787.278    20723797.522
        47.900          44.900
 109203090.442 6  84935748.444 6  20450217.347    20450219.422    20450225.552
        39.000          39.000




 198902689.131 7                  37849955.971
        44.900
 124595637.415 8                  23709766.087
        48.900
 202044762.335 6                  38447855.125
        40.500
 108000759.066 7  84000600.917 6  20168381.034    20168380.952    20168384.753
        46.300          40.800
 122622789.252 5                  22947183.306    22947182.537
        35.300
 138484044.403 5                  26352638.167
        33.100
 125666372.870 5                  23508497.088    23508496.536
        30.100
 25  1  1 18 23 45.0000000  0 23E31G07G30G08G27G04R19R18R10E09G09E04
                                R07R09E21S35S31E06S33R08R11E19R01
 127420448.547 8                  24247299.340
        49.200
 114262198.369 7  89035421.79845  21743361.411    21743360.7274   21743361.5594
        43.500          33.1004


 107845162.027 8  84035242.65947  20522241.849    20522241.2014   20522247.0264
        49.000          47.4004
 110163213.001 7  85841468.71947  20963357.746    20963357.1474   20963360.1374
        46.400          43.2004
 110784495.741 6  86325567.71643  21081587.580    21081587.4284   21081593.3484
        36.100          23.4004
                  92522104.668 5                                  22237754.555
                        34.600
 124064150.812 5  96494432.276 5  23241393.587    23241394.674    23241417.308
        31.300          32.800
 106734079.739 6                  20023041.191    20023040.885
        38.700
 131887034.971 8                  25097270.484
        49.100
 106827056.436 7  83241853.67746  20328522.898    20328522.4024   20328527.1124
        43.000          36.7004
 123480765.601 7                  23497594.998
        45.200
 110986956.260 8  86323186.370 7  20733308.240    20733309.567    20733318.085
        48.000          44.100
 109229244.917 6  84956090.808 7  20455118.308    20455121.720    20455125.158
        40.300          43.600


 200830349.608 5                  38216750.380
        35.200
 198902681.787 7                  37849947.425
        44.900
 124587434.055 8                  23708204.440
        49.200
 202044774.200 6                  38447838.084
        41.800
 107995400.353 8  83996432.968 6  20167380.163    20167381.205    20167382.788
        48.200          40.700
 122584057.768 5  95343193.985 5  22939941.009    22939940.145    22939948.311
        31.300          35.100


                                                  23498242.618

 25  1  1 18 24  0.0000000  0 23E31G07G30G08G16G27G04R19R10E09G09E04
                                R07R09E21S35S31E06S33R08R11E19R01
 127400281.271 8                  24243461.550
        48.800
 114233187.515 7  89012815.95946  21737842.312    21737841.6424   21737842.3294
        45.500          38.2004


 107820981.245 8  84016400.61747  20517640.435    20517639.8014   20517645.5704
        49.200          47.5004
 119487157.566 5                  22737635.046
        35.800
 110174244.903 7  85850065.04247  20965456.321    20965455.7224   20965459.9394
        45.200          43.3004
 110823391.185 6  86355875.84344  21088989.460    21088989.3174   21088995.0774
        40.600          24.2004
                  92507738.976 5                                  22234301.291
                        35.400
 106726760.099 6                  20021667.106    20021665.732
        38.700
 131860935.839 7                  25092303.878
        47.700
 106842031.718 7  83253522.72446  20331373.505    20331373.0094   20331376.4974
        45.400          38.7004
 123494551.331 7                  23500218.149
        45.600
 111038057.279 7  86362931.518 7  20742853.381    20742854.205    20742864.686
        45.000          44.100
 109255447.948 7  84976470.960 7  20460035.325    20460034.209    20460033.108
        43.500          46.000




 198902681.065 7                  37849950.515
        46.100
 124579333.533 8                  23706662.937
        49.700
 202044791.923 6                  38447856.690
        40.100
 107990255.594 8  83992431.501 7  20166418.435    20166418.040    20166423.071
        49.500          43.100
 122545401.789 5  95313126.729 5  22932717.145    22932713.748    22932711.419
        34.800          34.100


 125556871.838 5                  23488012.383
        30.000
 25  1  1 18 24 15.0000000  0 23E31G07G30G08G27G04R19R18R10E09G09E04
                                R07R09E21S35S31E06S33R08R11E19R01
 127380163.881 7                  24239632.974
        47.200
 114204197.126 7  88990226.00547  21732325.780    21732325.1144   21732326.6674
        46.300          42.5004
 126930532.290 4                  24154064.271
        28.300
 107796938.172 8  83997665.84947  20513065.545    20513064.9024   20513069.6114
        48.700          46.3004
 110185433.015 7  85858783.05747  20967585.111    20967584.5304   20967588.7044
        46.300          43.0004
 110862387.474 5  86386262.54343  21096410.477    21096410.3614   21096415.7534
        34.200          19.2004
                  92493506.055 6                                  22230881.349
                        36.200
 124113230.943 5                  23250594.596    23250588.366
        30.100
 106719501.810 6                  20020307.463    20020306.479
        41.300
 131834903.166 8                  25087350.444
        48.100
 106857146.443 7  83265300.45346  20334249.497    20334248.9974   20334252.1174
        44.400          37.8004
 123508426.047 7                  23502857.889
        46.600
 111089278.042 7  86402769.712 6  20752423.896    20752422.391    20752431.968
        44.700          41.000
 109281684.652 6  84996877.266 7  20464934.700    20464936.869    20464945.834
        40.500          46.800




 198902671.526 7                  37849942.225
        44.300
 124571321.272 8                  23705138.933
        50.700
 202044801.012 7                  38447861.475
        45.300
 107985309.856 8  83988584.855 7  20165495.487    20165495.611    20165500.369
        48.700          43.400
 122506771.887 5  95283081.538 6  22925484.302    22925484.149    22925485.917
        35.000          37.000


 125502316.411 5                  23477801.972
        32.200
 25  1  1 18 24 30.0000000  0 21E31G07G30G08G27G04R18R10E09G09E04R07
                                R09E21S35S31E06S33R08R11E19
 127360106.880 7                  24235816.028
        44.900
 114175237.922 7  88967660.39047  21726815.600    21726814.9574   21726817.0024
        45.100          42.9004
 126887520.092 5  98873263.57143  24145862.560    24145862.0024   24145855.0744
        35.300          20.3004
 107773043.462 8  83979046.70447  20508519.191    20508518.5524   20508522.2444
        48.900          47.1004
 110196787.520 7  85867630.73947  20969745.660    20969745.0884   20969749.1284
        46.500          43.8004


 124138001.326 5                  23255236.323    23255239.658
        35.700
 106712315.665 7                  20018960.351    20018959.644
        43.700
 131808947.606 7                  25082411.290
        47.800
 106872410.881 7  83277194.79546  20337153.215    20337152.7284   20337155.9974
        47.200          38.5004
 123522400.181 7                  23505517.549
        47.200
 111140628.759 7  86442708.996 7  20762017.546    20762016.968    20762028.643
        47.200          43.900
 109307965.576 6  85017317.948 7  20469861.893    20469861.069    20469867.002
        41.100          46.400




 198902664.544 7                  37849940.168
        42.000
 124563407.804 8                  23703633.219
        50.600
 202044813.261 7                  38447872.184
        47.800
 107980573.881 8  83984901.280 7  20164611.805    20164612.296    20164616.249
        50.300          44.700
 122468181.194 6  95253066.483 6  22918260.382    22918268.994    22918263.374
        40.200          38.600


 25  1  1 18 24 45.0000000  0 23E31G07G30G08G16G27G04R18R10E09G09E04
                                R07R09E21S35S31E06S33R08R11E19R01
 127340107.105 7                  24232009.945
        44.000
 114146306.904 7  88945116.72847  21721310.205    21721309.5624   21721311.8274
        46.600          42.9004


 107749294.368 7  83960541.00347  20503997.923    20503997.2974   20504003.2984
        47.600          47.4004
 119633645.177 5                  22765512.866
        34.300
 110208305.250 7  85876605.61047  20971937.169    20971936.6064   20971940.6844
        44.400          42.4004
 110940684.916 6  86447294.06443  21111318.380    21111317.7904   21111318.0344
        41.000          23.7004
 124162977.297 5                  23259922.186    23259922.310
        35.900
 106705198.307 7                  20017622.924    20017622.674
        43.400
 131783066.300 7                  25077485.780
        47.400
 106887821.895 7  83289203.38046  20340086.038    20340085.5784   20340087.3874
        46.100          37.1004
 123536470.699 7                  23508194.775
        47.900
 111192105.720 7  86482746.508 7  20771631.830    20771632.656    20771645.976
        46.300          44.800
 109334287.134 7  85037790.276 7  20474791.015    20474790.729    20474795.665
        43.200          45.300




 198902657.055 7                  37849946.835
        42.600
 124555590.199 8                  23702145.655
        50.900
 202044823.682 7                  38447869.935
        46.000
 107976044.934 8  83981378.730 7  20163764.978    20163765.920    20163769.288
        50.200          43.700
 122429626.105 6  95223079.285 5  22911063.063    22911059.553    22911043.756
        37.000          34.700


 125393397.155 5                  23457426.724    23457427.226
        31.000
 25  1  1 18 25  0.0000000  0 23E31G07G30G08G16G27G04R19R10E09G09E04
                                R07R09E21S35S31E06S33R08R11E19R01
 127320166.848 7                  24228215.709
        45.100
 114117406.498 7  88922596.91846  21715809.912    21715809.2784   21715811.3334
        45.900          40.7004


 107725693.274 8  83942150.59948  20499506.594    20499505.9644   20499512.2514
        48.300          48.7004
 119682528.902 4                  22774816.564
        29.300
 110219988.498 7  85885709.50447  20974160.794    20974160.2624   20974165.1644
        43.500          43.3004
 110980009.101 6  86477936.20444  21118799.080    21118798.3834   21118803.5534
        39.100          24.1004
                  92451649.103 5                                  22220820.337
                        33.400
 106698152.045 7                  20016303.151    20016302.955
        45.100
 131757261.703 8                  25072575.755
        48.000
 106903381.707 7  83301327.88346  20343047.198    20343046.7694   20343048.8224
        47.800          41.0004
 123550639.762 7                  23510891.254
        47.700
 111243710.563 6  86522883.511 7  20781272.612    20781271.077    20781285.278
        41.900          43.800
 109360651.912 7  85058296.117 7  20479729.505    20479729.636    20479733.208
        45.500          46.100




 198902650.410 7                  37849940.485
        43.200
 124547870.848 8                  23700676.436
        51.300
 202044836.132 7                  38447876.723
        46.000
 107971724.854 8  83978018.672 7  20162958.580    20162958.471    20162962.473
        49.800          43.600
                  95193121.709 5                                  22903840.352
                        33.400


 125339087.238 4                  23447264.352    23447261.340
        29.100
 25  1  1 18 25 15.0000000  0 23E31G07G30G08G16G27G04R19R18R10E09G09
                                E04R07R09E21S35S31E06S33R08R11E19
 127300286.689 7                  24224432.700
        46.900
 114088537.410 7  88900101.57146  21710315.691    21710315.0394   21710316.0944
        46.000          39.4004


 107702241.085 8  83923876.23748  20495044.194    20495043.6134   20495049.9744
        49.600          50.4004
 119731440.530 5                  22784126.518
        32.500
 110231837.651 7  85894942.65947  20976415.666    20976415.1524   20976420.5754
        46.000          45.0004
 111019443.183 7  86508664.00644  21126302.910    21126302.2804   21126308.4654
        42.500          25.8004
                  92437978.848 5                                  22217534.844
                        35.700
                                                  23269376.420

 106691177.425 7                  20014993.951    20014993.105
        43.800
 131731534.662 8                  25067680.548
        48.400
 106919090.795 8  83313568.70247  20346036.692    20346036.2634   20346039.6494
        49.000          42.5004
 123564908.016 7                  23513606.124
        46.600
 111295443.554 6  86563120.225 6  20790935.837    20790932.295    20790946.080
        39.900          39.300
 109387060.412 7  85078836.109 7  20484674.894    20484674.137    20484679.909
        45.800          47.400




 198902646.231 7                  37849939.779
        42.800
 124540250.471 8                  23699226.073
        51.400
 202044851.358 7                  38447879.169
        45.900
 107967614.877 8  83974822.046 7  20162191.611    20162190.617    20162195.286
        49.000          44.500
 122352630.948 6  95163194.287 5  22896634.983    22896634.296    22896640.061
        40.700          33.700


 25  1  1 18 25 30.0000000  0 21E31G07G30G08G16G27G04R10E09G09E04R07
                                R09E21S35S31E06S33R08R11E19
 127280461.533 7                  24220660.342
        47.400
 114059694.724 7  88877626.78246  21704827.158    21704826.5324   21704825.7734
        44.000          38.2004


 107678932.862 8  83905714.08348  20490608.622    20490608.0504   20490614.9794
        50.200          51.4004
 119780374.581 4                  22793443.408
        29.400
 110243847.537 7  85904301.06347  20978701.120    20978700.5844   20978705.9684
        45.200          46.1004
 111058981.833 6  86539473.27644  21133824.990    21133824.1324   21133832.7084
        40.400          24.6004
 106684269.084 7                  20013698.341    20013697.260
        43.000
 131705880.220 8                  25062798.562
        49.500
 106934943.926 8  83325921.75947  20349053.063    20349052.6304   20349056.4794
        49.300          44.1004
 123579270.333 7                  23516339.047
        45.100
 111347298.852 7  86603451.954 5  20800620.838    20800622.127    20800631.423
        43.400          34.900
 109413507.161 7  85099405.787 7  20489626.004    20489624.572    20489632.374
        44.500          47.000




 198902639.542 7                  37849936.617
        43.500
 124532724.054 8                  23697793.978
        50.900
 202044863.424 7                  38447881.606
        45.400
 107963709.452 8  83971784.481 7  20161462.721    20161462.418    20161467.283
        50.000          46.700
 122314186.231 7  95133292.889 5  22889441.639    22889441.928    22889442.439
        44.400          30.000


 25  1  1 18 25 45.0000000  0 22E31G07G30G08G16G27G04R18R10E09G09E04
                                R07R09E21S35S31E06S33R08R11E19
 127260696.575 7                  24216899.101
        46.600
 114030884.089 7  88855176.95746  21699345.572    21699344.9644   21699342.6294
        44.100          38.2004


 107655774.022 8  83887668.33248  20486202.124    20486201.5614   20486208.2574
        49.600          50.3004
 119829336.112 5                  22802768.805
        31.100
 110256023.270 7  85913788.68647  20981018.098    20981017.5934   20981022.7914
        46.400          47.4004
 111098630.048 6  86570367.88644  21141370.776    21141369.9054   21141377.1584
        40.600          24.5004
 124264626.548 5                  23278966.386    23278975.331
        30.500
 106677432.065 7                  20012414.925    20012414.978
        42.600
 131680303.824 8                  25057931.236
        49.700
 106950946.304 8  83338391.11447  20352098.264    20352097.8354   20352101.6404
        49.200          45.1004
 123593731.893 7                  23519091.201
        44.900
 111399281.464 7  86643882.673 5  20810336.300    20810337.380    20810342.597
        46.800          34.300
 109439997.487 7  85120009.388 7  20494586.209    20494585.520    20494591.941
        45.400          45.700




 198902634.953 7                  37849931.869
        42.800
 124525296.927 8                  23696380.815
        50.800
 202044876.834 7                  38447881.879
        45.600
 107960014.008 8  83968910.246 8  20160772.331    20160771.552    20160777.522
        48.700          48.100
 122275780.318 6  95103421.759 5  22882249.957    22882248.272    22882254.735
        40.400          30.500
 138887578.253 5                  26429425.329
        34.300
 25  1  1 18 26  0.0000000  0 21E31G07G30G08G27G04R19R10E09G09E04R07
                                R09E21S35S31E06S33R08R11E19
 127240988.122 7                  24213148.912
        46.300
 114002101.778 7  88832749.17046  21693868.642    21693868.0214   21693866.0274
        44.700          38.6004


 107632761.134 8  83869736.30548  20481823.182    20481822.6154   20481828.4424
        49.100          48.5004
 110268361.006 7  85923402.53147  20983366.002    20983365.5024   20983370.4334
        46.400          47.7004
 111138383.797 7  86601344.74443  21148936.298    21148935.4764   21148941.8154
        42.000          23.4004
                  92397805.482 5                                  22207878.062
                        32.900
 106670662.771 7                  20011145.345    20011145.846
        42.500
 131654801.981 8                  25053078.507
        49.300
 106967094.068 8  83350973.76847  20355170.509    20355170.1034   20355174.5754
        48.000          45.3004
 123608289.024 7                  23521860.756
        44.400
 111451386.817 7  86684408.869 5  20820066.985    20820068.346    20820076.931
        42.800          34.000
 109466527.693 8  85140643.945 7  20499556.066    20499556.256    20499559.944
        48.000          45.600




 198902628.214 6                  37849930.563
        40.900
 124517965.561 8                  23694985.846
        51.100
 202044889.684 7                  38447884.642
        45.800
 107956525.051 7  83966196.624 8  20160120.220    20160118.619    20160126.539
        47.400          48.700
 122237409.418 6  95073577.804 5  22875065.671    22875065.460    22875076.815
        36.600          34.600
 138932560.133 5                  26437983.266
        33.300
 25  1  1 18 26 15.0000000  0 22E31G07G30G08G16G27G04R19R18R10E09G09
                                E04R07R09E21S35S31E06S33R08E19
 127221337.822 7                  24209409.052
        45.500
 113973349.650 7  88810344.94646  21688397.971    21688397.3414   21688395.5564
        46.900          40.4004


 107609896.146 8  83851919.53447  20477471.786    20477471.2194   20477475.8184
        48.700          45.7004
 119927330.657 5                  22821397.584
        32.600
 110280862.338 7  85933143.86747  20985744.525    20985744.0164   20985749.4624
        45.700          47.4004
 111178244.609 6  86632405.02043  21156520.850    21156520.0684   21156525.8254
        41.100          20.1004
 118780302.818 5  92384696.284 5  22204720.424    22204720.386    22204728.533
        31.000          32.400
 124316634.267 5                  23288688.662    23288686.877
        33.600
 106663962.874 6                  20009887.569    20009888.006
        41.700
 131629376.604 8                  25048240.710
        49.600
 106983388.842 7  83363670.97047  20358271.468    20358271.0754   20358275.7664
        45.800          43.9004
 123622943.379 7                  23524649.439
        45.000
 111503616.433 7  86725031.790 5  20829827.067    20829824.501    20829834.861
        42.900          34.700
 109493099.025 8  85161310.561 7  20504531.785    20504531.477    20504536.530
        48.200          46.600




 198902622.492 7                  37849931.690
        42.600
 124510731.695 8                  23693608.733
        50.400
 202044902.499 7                  38447893.322
        44.600
 107953244.201 7  83963644.818 8  20159508.011    20159506.280    20159514.012
        47.100          49.300
 138977570.622 5                  26446550.892
        33.600
 25  1  1 18 26 30.0000000  0 24E31G07G30G08G16G27G04R19R18R10E09G09
                                E04R07R09E21S35S31E06S33R08R11E19R01
 127201743.397 7                  24205680.382
        46.100
 113944625.492 7  88787962.50346  21682931.534    21682930.9084   21682931.0814
        47.300          41.7004
 126543152.880 6  98604993.88642  24080359.692    24080359.7094   24080353.7004
        37.100          15.1004
 107587177.006 7  83834216.39247  20473147.775    20473147.2084   20473151.4554
        47.400          43.4004
 119976362.843 5                  22830736.977
        33.000
 110293524.865 7  85943010.80147  20988153.275    20988152.7574   20988159.4924
        45.300          46.0004
 111218209.895 6  86663546.72843  21164126.443    21164125.7244   21164131.2064
        40.400          19.3004
 118763627.571 5  92371726.805 5  22201604.859    22201606.415    22201612.639
        30.200          34.200
 124342821.437 5                  23293588.661    23293588.263
        31.800
 106657329.815 7                  20008644.322    20008644.094
        42.800
 131604025.563 8                  25043416.225
        49.900
 106999828.175 7  83376480.81546  20361400.734    20361400.3454   20361404.6414
        42.500          41.4004
 123637692.628 7                  23527456.561
        44.800
 111555967.284 7  86765748.928 6  20839605.088    20839604.597    20839618.852
        46.000          37.900
 109519709.291 7  85182007.426 7  20509513.685    20509514.135    20509519.862
        47.500          46.300




 198902615.114 7                  37849929.512
        42.600
 124503593.193 8                  23692250.870
        49.700
 202044913.099 7                  38447890.142
        45.600
 107950169.344 7  83961253.234 8  20158934.457    20158931.511    20158939.243
        44.300          48.400
 122160749.723 5                  22860728.933    22860725.293
        34.600
 139022607.487 5                  26455121.648
        32.400
 125015306.013 6                  23386697.451    23386701.530
        37.100
 25  1  1 18 26 45.0000000  0 25E31G07G30G08G16G27G04R19R18R10E09G09
                                E04R07R09E21S35S31E06S33R08R11E19R01
                                R20
 127182209.457 7                  24201962.669
        47.300
 113915934.288 7  88765605.71246  21677471.467    21677470.8554   21677472.3124
        46.500          41.6004
 126500137.573 6  98571475.50143  24072174.413    24072173.8594   24072178.0004
        37.300          22.3004
 107564608.550 7  83816630.65647  20468853.347    20468852.7714   20468857.1864
        46.800          42.9004
 120025421.861 5                  22840066.038
        34.700
 110306353.065 8  85953006.80447  20990594.693    20990594.1704   20990600.5204
        48.200          47.3004
 111258284.028 6  86694773.20843  21171752.986    21171752.3384   21171758.6544
        41.300          19.3004
 118747136.713 4  92358900.692 6  22198526.543                    22198529.836
        25.800          36.200
 124369183.487 4                  23298526.900    23298527.250
        28.300
 106650768.236 7                  20007413.237    20007413.817
        42.900
 131578753.723 8                  25038606.950
        49.800
 107016416.688 6  83389406.90646  20364558.083    20364557.6454   20364561.2264
        41.200          39.1004
 123652541.417 7                  23530282.520
        43.500
 111608443.681 7  86806563.730 5  20849408.012    20849407.833    20849419.611
        46.400          35.300
 109546363.108 7  85202738.119 7  20514506.602    20514506.580    20514510.332
        47.400          45.800




 198902609.470 6                  37849921.128
        41.000
 124496554.825 8                  23690911.611
        50.200
 202044926.711 7                  38447896.353
        45.100
 107947305.093 7  83959025.461 8  20158397.459    20158395.556    20158404.048
        43.200          48.600
 122122489.437 6                  22853572.795    22853571.014
        37.000
 139067675.154 5                  26463698.461
        34.100
 124961706.231 5                  23376675.330    23376666.950
        32.600


 25  1  1 18 27  0.0000000  0 23E31G07G30G08G27G04R19E24R10E09G09E04
                                R07R09E21S35S31E06S33R08R11E19R20
 127162736.777 7                  24198257.341
        47.200
 113887276.797 7  88743275.22646  21672018.195    21672017.6104   21672019.2364
        46.000          40.0004
 126457125.688 6  98537959.61643  24063990.805    24063990.2914   24063996.5234
        39.800          23.1004
 107542191.640 7  83799162.99147  20464586.358    20464585.8004   20464592.8104
        47.200          44.1004
 110319347.605 8  85963132.44247  20993066.363    20993065.8314   20993072.5184
        48.100          47.8004
 111298467.569 7  86726084.93643  21179398.671    21179398.1044   21179406.7384
        42.200          18.7004
                  92346218.938 6                                  22195481.110
                        36.100


 106644278.659 7                  20006195.225    20006194.955
        43.100
 131553562.067 8                  25033812.751
        49.300
 107033155.047 7  83402449.76646  20367741.883    20367741.3694   20367745.3714
        42.800          37.4004
 123667490.469 7                  23533128.149
        45.500
 111661045.626 7  86847476.196 5  20859236.035    20859234.792    20859244.338
        45.400          34.200
 109573061.124 7  85223503.270 7  20519506.324    20519504.661    20519510.567
        42.500          46.600




 198902607.741 7                  37849926.319
        43.300
 124489617.388 8                  23689591.449
        49.200
 202044943.554 7                  38447891.649
        45.200
 107944652.346 6  83956962.164 8  20157898.934    20157898.745    20157908.968
        41.400          48.100


 139112774.241 5                  26472280.515
        33.800


 25  1  1 18 27 15.0000000  0 22E31G07G30G08G27G04R18E24R10E09G09E04
                                R07R09E21S35S31E06S33R08R11E19
 127143317.873 7                  24194562.071
        45.900
 113858645.879 7  88720965.46546  21666568.635    21666568.0904   21666569.5264
        43.200          36.3004
 126414109.813 6  98504440.71442  24055804.962    24055804.4624   24055804.6044
        41.900          14.6004
 107519919.151 7  83781807.84647  20460347.340    20460346.8044   20460354.4054
        46.400          44.0004
 110332500.921 7  85973381.81247  20995570.012    20995569.4714   20995574.6814
        46.900          46.8004
 111338752.764 7  86757475.81143  21187064.803    21187064.3034   21187071.6404
        42.700          18.6004
                  96773011.758 5                                  23308517.385
                        32.000


 106637853.884 7                  20004992.434    20004991.271
        45.000
 131528443.349 8                  25029033.211
        49.000
 107050035.704 6  83415603.44046  20370952.777    20370952.2324   20370955.7054
        41.200          36.2004
 123682532.365 7                  23535989.704
        46.300
 111713765.213 7  86888480.157 6  20869084.895    20869082.096    20869093.883
        43.900          37.200
 109599795.624 7  85244296.770 7  20524511.667    20524510.262    20524518.333
        43.200          47.700




 198902602.018 7                  37849931.332
        44.800
 124482773.657 8                  23688288.993
        48.500
 202044956.760 7                  38447895.607
        46.300
 107942203.598 7  83955057.527 7  20157446.085    20157444.809    20157450.886
        43.300          47.100
 122046282.534 4                  22839295.493    22839262.515
        27.200
 139157897.061 5                  26480866.273
        34.000
 25  1  1 18 27 30.0000000  0 23E31G07G30G08G16G27G04R19E24R10E09G09
                                E04R07R09E21S35S31E06S33R08R11E19
 127123956.041 7                  24190877.679
        46.300
 113830044.827 6  88698678.93045  21661126.099    21661125.5454   21661125.9744
        40.800          34.6004
 126371093.467 7  98470921.28142  24047618.625    24047618.2104   24047618.2214
        43.300          13.5004
 107497794.675 7  83764568.06047  20456138.538    20456138.0064   20456143.9744
        47.300          45.6004
 120172699.663 5                  22868100.165
        35.900
 110345816.170 8  85983757.35747  20998104.380    20998103.8394   20998108.8174
        49.500          47.9004
 111379142.681 7  86788948.40543  21194750.251    21194749.7784   21194757.5734
        44.700          22.6004
                  92321274.545 6                                  22189486.310
                        36.600


 106631496.844 7                  20003798.840    20003798.760
        45.400
 131503401.067 8                  25024267.898
        49.800
 107067061.782 6  83428870.47346  20374193.783    20374193.2604   20374195.5744
        41.500          36.7004
 123697670.354 7                  23538870.546
        45.900
 111766605.520 8  86929578.021 6  20878953.883    20878955.546    20878966.161
        48.400          38.700
 109626570.063 7  85265121.323 7  20529524.012    20529523.268    20529531.800
        43.500          47.500




 198902595.760 7                  37849921.928
        43.000
 124476027.003 8                  23687004.842
        48.300
 202044969.171 7                  38447900.959
        45.400
 107939962.327 7  83953314.241 7  20157028.819    20157029.221    20157032.655
        44.700          47.200
 122007919.127 6                  22832125.993    22832129.781
        36.800
 139203046.848 5                  26489458.245
        34.900
 25  1  1 18 27 45.0000000  0 26E31G07G30G08G16G27G04R19R18E24R10E09
                                G09E04R07R09E21S35S31E06S33R08R11E19
                                R01R20
 127104650.675 7                  24187203.550
        46.900
 113801473.398 5  88676415.46145  21655689.724    21655689.0584   21655688.3564
        32.300          31.8004
 126328076.099 6  98437401.21643  24039431.855    24039431.4804   24039438.6004
        41.800          21.7004
 107475817.705 8  83747443.19647  20451956.918    20451956.3824   20451962.1134
        49.200          47.8004
 120221850.133 6  93679317.83541  22877450.464    22877450.3174   22877447.5194
        37.000           8.3004
 110359292.658 8  85994258.56048  21000669.886    21000669.3594   21000673.7624
        51.200          49.3004
 111419636.460 6  86820501.94543  21202457.388    21202456.9504   21202464.7634
        40.100          21.3004
                  92309014.480 5                                  22186535.817
                        31.200
 124476255.780 5  96814949.196 5  23318599.359                    23318612.789
        35.500          33.500


 106625207.275 7                  20002618.649    20002618.216
        44.000
 131478434.847 8                  25019516.892
        48.500
 107084232.614 7  83442250.33846  20377461.359    20377460.8414   20377464.8544
        43.300          41.2004
 123712903.822 7                  23541769.077
        45.000
 111819564.866 7  86970768.450 6  20888847.502    20888848.805    20888857.775
        46.400          37.300
 109653383.554 7  85285976.212 8  20534547.131    20534547.033    20534553.128
        46.400          48.000
 143340593.213 5                  27276804.245
        32.400


 198902587.866 7                  37849932.168
        43.800
 124469376.942 7                  23685739.294
        45.800
 202044979.802 7                  38447902.846
        45.300
 107937927.817 7  83951731.837 7  20156646.557    20156645.721    20156652.375
        46.000          47.200
 121969801.876 6                  22825001.081    22825002.551
        40.200
 139248222.801 4                  26498053.144
        29.500
 124748521.793 6                  23336758.993    23336758.318
        36.900


 25  1  1 18 28  0.0000000  0 26E31G07G30G08G16G27G04R19R18E24R10E09
                                G09E04R07R09E21S35S31E06S33R08R11E19
                                R01R20
 127085403.492 7                  24183541.336
        46.900
 113772933.566 5  88654176.64244  21650257.781    21650257.0264   21650256.9044
        31.100          29.2004
 126285059.582 6  98403881.77843  24031245.818    24031245.4384   24031262.4304
        40.800          22.8004
 107453990.218 8  83730434.82948  20447803.405    20447802.8644   20447808.6684
        51.200          49.2004
 120271024.307 5  93717635.35441  22886806.299    22886806.3214   22886808.9634
        35.600           8.6004
 110372932.004 8  86004886.65548  21003264.886    21003264.3544   21003269.5754
        51.400          50.0004
 111460235.595 7  86852137.63643  21210182.125    21210181.6924   21210188.9324
        43.000          19.5004


                  96836117.155 5                                  23323707.689
                        34.100
 150841077.275 5                  28704102.788
        31.300
 106618986.429 7                  20001451.710    20001450.980
        44.200
 131453546.582 8                  25014780.709
        48.200
 107101549.854 7  83455744.23846  20380756.474    20380755.9694   20380761.1514
        43.800          41.3004
 123728234.450 6                  23544685.487
        41.800
 111872645.069 7  87012052.904 6  20898764.731    20898761.333    20898774.689
        43.400          38.100
 109680237.911 8  85306862.919 7  20539576.806    20539577.193    20539582.800
        48.300          47.100
 143377517.348 5                  27283827.760
        32.500


 198902581.072 7                  37849928.117
        43.600
 124462825.287 7                  23684492.869
        46.100
 202044991.128 7                  38447900.356
        42.400
 107936101.996 7  83950311.692 7  20156306.133    20156306.946    20156311.186
        46.900          46.300


 139293426.349 5                  26506657.650
        30.700
 124695441.503 6                  23326831.377    23326831.660
        38.900


 25  1  1 18 28 15.0000000  0 25E31G07G30G08G16G27G04R18E24R10E09G09
                                E04R07R09E21S35G14S31E06S33R08R11E19
                                R01
 127066213.320 7                  24179888.788
        43.400
 113744423.899 6  88631961.34745  21644835.750    21644835.0224   21644834.1724
        39.600          34.9004
 126242042.822 5  98370361.96843  24023061.044    24023060.7364   24023085.7284
        33.800          23.7004
 107432311.310 8  83713542.26048  20443677.478    20443676.9374   20443683.1724
        50.900          48.9004
 120320220.593 5  93755970.1604   22896182.433    22896182.3084   22896172.1254
        30.600           4.0004
 110386732.897 8  86015640.60348  21005891.353    21005890.8354   21005895.9064
        52.100          49.7004
 111500938.601 7  86883854.17443  21217927.363    21217926.9034   21217934.4984
        43.200          22.8004
                  96857416.985 4                                  23328838.715
                        28.600
 150804200.095 4                  28697078.355
        29.800
 106612833.376 6                  20000296.480    20000295.271
        40.700
 131428735.402 8                  25010058.887
        48.800
 107119012.273 7  83469351.28947  20384078.757    20384078.2664   20384083.8614
        44.300          42.5004
 123743661.119 7                  23547621.339
        44.100
 111925844.183 7  87053429.843 6  20908703.245    20908701.008    20908710.943
        45.600          38.200
 109707131.987 8  85327780.563 7  20544612.460    20544613.514    20544618.079
        48.100          46.800
 143414438.350 5                  27290850.792
        32.400


 132873197.353 4                  25284928.185
        28.500
 198902572.994 7                  37849925.322
        44.000
 124456371.033 7                  23683264.705
        47.200
 202045002.368 7                  38447900.937
        44.500
 107934483.644 7  83949052.946 7  20156003.513    20156004.620    20156009.861
        47.500          47.300
 121893676.534 6                  22810749.594    22810750.497
        36.600
 139338656.658 5                  26515264.580
        31.500
                                                  23316921.288

 25  1  1 18 28 30.0000000  0 25E31G07G30G08G27G04R18E24R10E09G09E04
                                R07R09E21S35G14S31E06S33R08R11E19R01
                                R20
 127047085.114 7                  24176250.115
        44.000
 113715949.824 7  88609773.74446  21639414.375    21639413.6384   21639416.6224
        42.500          37.5004


 107410786.128 8  83696769.46348  20439581.058    20439580.5174   20439586.5754
        50.100          48.4004
 110400700.153 8  86026524.19747  21008548.993    21008548.4664   21008553.2354
        52.200          47.8004
 111541750.257 7  86915655.39243  21225694.530    21225694.0744   21225701.3754
        42.100          22.5004
 124558461.742 5  96878853.066 4  23333999.575                    23334003.018
        35.300          29.200


 106606752.818 6                  19999154.285    19999154.296
        40.200
 131404006.394 8                  25005353.398
        49.200
 107136624.614 7  83483075.15847  20387431.720    20387431.2644   20387435.5484
        44.700          42.4004
 123759188.701 7                  23550575.863
        44.400
 111979166.791 8  87094902.798 6  20918663.416    20918664.427    20918675.654
        48.200          40.100
 109734070.520 7  85348732.790 7  20549656.902    20549656.172    20549663.630
        46.000          46.800
 143451361.041 4                  27297902.224
        29.800


 132828001.509 4                  25276330.459
        27.200
 198902569.704 6                  37849927.026
        41.900
 124450019.225 8                  23682055.989
        48.600
 202045016.865 7                  38447909.379
        45.300
 107933077.892 8  83947959.537 7  20155742.828    20155743.406    20155747.346
        48.400          47.700
 121855672.486 6  94776751.463 5  22803649.644    22803645.317    22803650.143
        38.700          33.500
 139383918.035 4                  26523876.742
        28.000
 124589602.253 5                  23307035.224    23307035.072
        30.400


 25  1  1 18 28 45.0000000  0 26E31G07G30G08G27G04R19R18E24R10E09G09
                                E04R07R09E21S35G14S31E06S33R08R11E19
                                R01R20
 127028008.889 7                  24172619.385
        45.000
 113687501.457 7  88587606.17846  21634000.590    21633999.8804   21634002.4354
        43.300          37.1004
 126155975.154 7  98303474.32443  24006690.855    24006690.7884   24006712.4984
        42.100          21.8004
 107389404.975 8  83680108.86948  20435513.059    20435512.5364   20435517.5604
        50.500          48.0004
 110414823.733 8  86037529.59948  21011236.691    21011236.1504   21011241.0424
        51.000          48.2004
 111582660.333 7  86947533.26743  21233479.306    21233478.8864   21233485.6834
        43.300          23.7004
 118621783.033 5  92261407.783 5  22175087.889    22175087.364    22175095.820
        32.500          32.300
 124586186.947 5                  23339196.160    23339194.020
        30.100


 106600734.469 7                  19998027.992    19998027.081
        42.100
 131379349.843 8                  25000661.197
        49.800
 107154376.890 7  83496908.05046  20390808.502    20390808.0604   20390814.2884
        42.300          41.3004
 123774807.288 7                  23553548.496
        42.100
 112032602.196 7  87136463.595 6  20928645.183    20928645.245    20928656.861
        47.100          40.800
 109761043.485 7  85369711.739 7  20554708.927    20554708.421    20554715.075
        47.300          45.800






 198902560.893 7                  37849920.551
        42.800
 124443760.065 8                  23680864.590
        48.800
 202045027.003 7                  38447912.295
        45.400
 107931874.684 7  83947023.730 7  20155515.987    20155516.341    20155523.322
        47.100          47.400
 121817698.953 7  94747216.632 5  22796540.782    22796544.018    22796539.772
        42.400          35.000
 139429200.443 5                  26532497.134
        32.100
 124536839.143 4                  23297160.460    23297154.968
        29.400


 25  1  1 18 29  0.0000000  0 25E31G07G30G08G27G04R19E24R10E09G09E04
                                R07R09E21S35G14S31E06S33R08R11E19R01
                                R20
 127008992.810 7                  24169000.179
        45.100
 113659087.193 7  88565465.19146  21628594.057    21628593.4094   21628594.5764
        44.400          38.1004
 126112961.550 7  98269957.06644  23998505.395    23998505.2034   23998522.0464
        42.300          25.4004
 107368176.160 8  83663567.00747  20431472.967    20431472.4044   20431477.8964
        50.100          47.7004
 110429111.636 8  86048663.04648  21013955.627    21013955.0774   21013960.2584
        50.300          48.3004
 111623676.718 7  86979493.98944  21241283.752    21241283.3504   21241291.2624
        42.000          24.0004
 118606940.465 5  92249863.618 6  22172313.421    22172315.240    22172324.697
        34.000          37.900


 106594786.708 7                  19996911.470    19996911.098
        43.100
 131354774.080 8                  24995984.500
        49.300
 107172277.097 7  83510856.24046  20394215.936    20394215.5034   20394220.5784
        43.900          41.4004
 123790524.952 6                  23556539.852
        41.200
 112086158.118 7  87178118.003 6  20938650.111    20938649.865    20938661.003
        46.700          40.400
 109788058.771 8  85390723.567 7  20559767.574    20559768.925    20559773.405
        49.900          44.200






 198902554.279 7                  37849919.983
        42.500
 124437601.783 8                  23679692.985
        49.300
 202045039.004 7                  38447918.618
        45.900
 107930882.167 7  83946251.757 7  20155329.519    20155329.749    20155337.633
        46.400          46.400
 121779764.312 6  94717711.964 6  22789445.683    22789447.088    22789443.919
        40.800          37.400
 139474512.000 5                  26541118.325
        33.000
 124484185.549 5                  23287332.736
        30.800


 25  1  1 18 29 15.0000000  0 26E31G07G30G08G16G27G04R19R18E24R10E09
                                G09E04R07R09E21S35G14S31E06S33R08R11
                                E19R01
 126990036.402 7                  24165392.302
        43.200
 113630706.688 6  88543350.52846  21623193.634    21623192.9914   21623194.1174
        41.300          37.0004
 126069951.028 6  98236442.46044  23990320.145    23990320.1854   23990333.6154
        40.300          25.5004
 107347099.395 8  83647143.63747  20427461.993    20427461.4264   20427466.9004
        50.200          47.2004
 120517191.968 4                  22933662.505
        29.600
 110443563.238 8  86059924.03148  21016705.344    21016704.7944   21016709.8554
        51.300          48.4004
 111664798.652 6  87011536.92843  21249109.046    21249108.6894   21249116.4904
        38.600          22.5004
 118592284.945 5  92238464.867 6  22169577.258    22169577.776    22169580.512
        33.400          37.300
 124642140.680 6                  23349673.525    23349671.796
        36.200


 106588909.175 7                  19995808.687    19995808.552
        42.300
 131330278.867 8                  24991323.608
        48.700
 107190324.735 7  83524919.30946  20397650.535    20397650.0884   20397653.9444
        44.500          41.0004
 123806341.242 7                  23559549.763
        42.800
 112139833.504 8  87219865.351 7  20948676.742    20948678.467    20948689.878
        48.500          42.800
 109815116.052 7  85411768.082 6  20564833.443    20564833.114    20564838.180
        47.100          41.900




 132692448.249 5                  25250534.141
        34.500
 198902549.768 7                  37849922.398
        42.100
 124431544.016 8                  23678540.216
        48.800
 202045052.855 7                  38447919.950
        45.600
 107930100.283 7  83945643.623 7  20155183.309    20155184.856    20155190.821
        46.200          44.700
 121741868.024 6  94688237.253 6  22782353.047    22782354.496    22782348.474
        40.800          37.200
 139519852.039 5                  26549746.851
        33.500
 124431642.182 5                  23277494.299    23277494.031
        33.400
 25  1  1 18 29 30.0000000  0 25E31G07G30G08G16G27G04R19R18E24R10E09
                                G09E04R07R09E21S35G14S31E06S33R08R11
                                E19
 126971139.847 6                  24161797.040
        41.300
 113602360.384 6  88521262.47545  21617800.884    21617800.2184   21617799.4804
        40.900          35.6004
 126026943.597 6  98202930.23143  23982136.022    23982135.9554   23982146.0344
        36.900          23.8004
 107326175.043 8  83630839.04347  20423479.900    20423479.3374   20423484.0354
        49.500          45.7004
 120566503.869 6                  22943042.381
        39.400
 110458178.612 8  86071312.64148  21019486.638    21019486.0754   21019490.0104
        51.100          48.8004
 111706026.032 6  87043662.02343  21256954.657    21256954.3674   21256961.5904
        38.300          19.6004
 118577816.390 5  92227211.559 5  22166863.036    22166866.774    22166874.827
        31.900          34.600
 124670381.167 5                  23354962.675    23354965.871
        31.300


 106583101.621 7                  19994718.731    19994718.715
        42.600
 131305864.595 8                  24986677.537
        48.600
 107208519.800 7  83539097.26746  20401113.040    20401112.5804   20401114.4744
        47.600          41.1004
 123822256.260 7                  23562578.374
        43.800
 112193628.228 7  87261705.540 7  20958726.382    20958727.232    20958740.315
        47.500          42.800
 109842215.484 8  85432845.389 7  20569908.968    20569908.276    20569913.212
        48.600          43.000




 132647342.308 5                  25241946.547
        33.300
 198902547.965 6                  37849911.831
        38.900
 124425587.083 8                  23677406.309
        49.500
 202045069.922 7                  38447923.657
        45.700
 107929528.937 7  83945199.239 7  20155078.278    20155079.307    20155084.763
        47.600          45.000
 121704010.392 6  94658792.603 6  22775267.241    22775268.266    22775266.099
        39.000          39.400
 139565220.598 5                  26558379.576
        34.100
 25  1  1 18 29 45.0000000  0 24E31G07G30G08G16G27G04R19E24R10E09G09
                                E04R07R09E21S35G14S31E06S33R08R11E19
 126952299.820 7                  24158211.609
        44.100
 113574045.221 7  88499198.67346  21612412.088    21612411.4314   21612411.6484
        46.300          37.5004
 125983936.517 6  98169418.52942  23973951.546    23973951.4264   23973961.4044
        36.500          13.4004
 107305400.270 8  83614650.98647  20419526.750    20419526.1654   20419530.5934
        49.600          46.7004
 120615836.368 6  93986343.67841  22952433.885    22952433.8724   22952427.0514
        36.700           7.6004
 110472954.427 8  86082826.29948  21022298.665    21022298.0844   21022301.6774
        50.700          49.3004


 118563532.135 4  92216101.661 5  22164195.800    22164195.315    22164204.369
        29.600          34.900


 106577360.923 7                  19993640.907    19993641.698
        43.500
 131281528.251 8                  24982046.544
        49.200
 107226859.019 7  83553387.54547  20404603.536    20404603.0634   20404604.3164
        46.100          42.3004
 123838266.871 7                  23565624.393
        42.700
 112247538.352 8  87303635.506 6  20968799.261    20968798.233    20968809.573
        48.600          41.700
 109869353.507 8  85453952.739 7  20574991.564    20574991.970    20574995.135
        49.100          42.700




 132602257.573 6                  25233370.842
        36.000
 198902545.380 6                  37849911.925
        39.200
 124419727.892 8                  23676291.864
        49.200
 202045085.720 7                  38447921.363
        45.300
 107929165.008 8  83944916.161 7  20155013.090    20155013.481    20155014.899
        48.200          44.500
 121666188.220 6  94629375.374 6  22768181.979    22768180.436    22768188.647
        37.300          37.700
 139610614.429 5                  26567016.950
        31.900
 25  1  1 18 30  0.0000000  0 25E31G07G30G08G16G27G04R19R18E24R10E09
                                G09E04R07R09E21S35G14S31E06S33R08R11
                                E19
 126933509.426 7                  24154636.582
        43.100
 113545754.301 8  88477153.80646  21607029.084    21607028.4094   21607028.7944
        48.000          40.2004
 125940922.623 6  98135901.17542  23965766.964    23965766.9474   23965775.5134
        36.900          14.4004
 107284768.099 8  83598574.06648  20415599.876    20415599.2824   20415605.4204
        50.500          48.2004
 120665182.059 5  94024794.8114   22961824.104    22961823.9444   22961820.8434
        35.200           5.6004
 110487883.509 8  86094459.36948  21025139.225    21025138.6404   21025142.8834
        50.100          50.3004


 118549425.697 4  92205130.144 5  22161561.102    22161557.286    22161565.982
        29.400          31.300
 124727376.687 6  97010215.692 5  23365640.899    23365640.725    23365649.653
        37.100          34.300


 106571679.980 7                  19992577.215    19992577.497
        44.200
 131257263.045 8                  24977428.706
        48.400
 107245335.205 8  83567784.58847  20408120.019    20408119.5544   20408121.9594
        49.100          45.2004
 123854365.962 7                  23568688.182
        44.300
 112301556.356 8  87345649.345 6  20978889.302    20978889.366    20978903.867
        50.200          41.900
 109896523.273 8  85475084.772 7  20580080.224    20580080.623    20580084.401
        50.600          43.000




 132557187.251 5                  25224799.468
        34.100
 198902534.867 6                  37849920.193
        41.400
 124413959.481 8                  23675194.410
        50.200
 202045093.640 7                  38447921.023
        45.600
 107929001.283 7  83944788.820 7  20154980.333    20154980.243    20154986.057
        47.900          45.300


 139656026.230 5                  26575658.190
        30.400
 25  1  1 18 30 15.0000000  0 27E31G07G30G08G16G27G04R19R18E24R10E09
                                G09E04R07R09E21S35G14S31E06S33R08R11
                                E19R01R20
 126914781.158 7                  24151073.006
        44.400
 113517500.423 7  88455137.75046  21601651.586    21601650.9114   21601652.9604
        47.500          39.3004
 125897914.805 6  98102388.39442  23957582.837    23957582.8154   23957588.4864
        37.200          15.6004
 107264291.355 8  83582618.23148  20411703.616    20411703.0264   20411709.4664
        51.100          50.7004
 120714553.410 5  94063265.9884   22971215.617    22971215.1394   22971215.8884
        34.400           1.1004
 110502978.290 8  86106221.55848  21028011.326    21028010.7144   21028016.1514
        51.300          51.2004
 111830326.061 5  87140552.27642  21280604.148    21280603.8984   21280612.7484
        35.000          15.0004
                  92194306.516 5                                  22158967.111
                        33.500
 124756119.112 5  97032570.806 5  23371016.063    23371017.042    23371038.150
        35.600          32.100


 106566071.108 7                  19991525.628    19991525.337
        45.200
 131233081.715 7                  24972827.322
        47.600
 107263960.870 8  83582298.07147  20411663.721    20411663.2524   20411667.5804
        48.700          45.6004
 123870566.142 7                  23571771.092
        44.000
 112355694.464 8  87387756.591 6  20989001.297    20989003.658    20989017.202
        48.900          40.400
 109923737.118 8  85496251.085 7  20585176.379    20585177.284    20585182.305
        50.100          44.800




 132512144.234 5                  25216227.434
        31.000
 198902529.146 6                  37849917.443
        41.900
 124408294.616 8                  23674116.240
        50.000
 202045105.655 7                  38447927.463
        44.900
 107929050.682 8  83944827.254 7  20154989.017    20154989.343    20154996.123
        48.300          44.500
 121590705.936 5  94570616.712 5  22754040.222    22754038.165    22754046.935
        33.900          33.800
 139701468.345 4                  26584306.752
        28.300
 124222348.972 6                  23238366.138    23238362.737
        36.000


 25  1  1 18 30 30.0000000  0 26E31G07G30G08G16G27G04R18E24R10E09G09
                                E04R07R09E21S35G14S31E06S33R08R11E19
                                R01R20
 126896110.708 7                  24147519.741
        46.100
 113489279.440 8  88433147.35346  21596281.638    21596280.9814   21596282.8504
        48.400          40.7004
 125854908.692 6  98068877.31243  23949398.546    23949398.4534   23949401.4024
        38.100          20.3004
 107243965.927 8  83566780.29248  20407836.178    20407835.5754   20407842.0004
        50.800          52.1004
 120763945.686 5  94101753.7524   22980616.142    22980615.6464   22980615.0644
        32.700           2.0004
 110518234.332 8  86118109.40848  21030914.623    21030914.0114   21030919.4964
        51.000          51.6004
 111871959.886 6  87172994.12043  21288530.271    21288530.3644   21288534.7514
        41.200          20.4004
 124785029.671 6                  23376430.721    23376433.666
        36.600


 106560530.382 7                  19990485.691    19990485.269
        43.700
 131208980.209 8                  24968241.145
        48.900
 107282731.565 7  83596924.57347  20415234.542    20415234.0774   20415239.6194
        47.500          43.2004
 123886863.018 7                  23574872.156
        44.700
 112409947.735 7  87429953.416 6  20999137.442    20999138.617    20999151.781
        47.100          38.500
 109950990.965 8  85517448.535 7  20590280.481    20590281.091    20590286.175
        50.000          45.100






 198902523.816 6                  37849916.307
        41.000
 124402729.061 7                  23673056.756
        47.900
 202045119.814 7                  38447929.797
        44.900
 107929308.743 8  83945027.991 7  20155037.414    20155037.740    20155044.215
        48.500          44.200
 121552989.471 6  94541281.632 5  22746983.935    22746980.085    22746993.791
        38.100          33.400
 139746936.499 4                  26592959.384
        26.600
 124170350.921 6                  23228643.271    23228642.337
        39.700


 25  1  1 18 30 45.0000000  0 23E31G07G30G08G16G27G04E24R10E09G09E04
                                R07R09E21S35S31E06S33R08R11E19R20
 126877493.775 7                  24143977.014
        46.600
 113461087.303 8  88411179.45946  21590916.795    21590916.1614   21590918.0034
        49.100          41.3004
 125811900.391 6  98035364.40243  23941213.302    23941213.1464   23941217.6444
        36.300          23.2004
 107223787.791 8  83551057.13548  20403996.434    20403995.8314   20404002.4414
        49.400          52.0004
 120813354.827 5  94140254.3324   22990019.239    22990018.5604   22990017.7774
        34.800           4.0004
 110533647.258 8  86130119.51348  21033847.282    21033846.6654   21033852.3394
        49.800          51.5004
 111913691.624 6  87205512.29544  21296470.379    21296470.3214   21296475.6104
        40.500          24.0004


 106555053.248 7                  19989457.488    19989456.881
        42.900
 131184954.420 8                  24963669.398
        49.700
 107301642.910 7  83611660.64446  20418833.019    20418832.5464   20418837.6884
        45.600          40.8004
 123903252.344 7                  23577990.455
        44.300
 112464311.268 7  87472235.848 6  21009293.281    21009293.203    21009307.051
        44.400          40.800
 109978279.865 8  85538673.246 7  20595390.501    20595391.069    20595395.464
        49.500          44.100




 198902514.367 6                  37849910.691
        41.900
 124397258.655 7                  23672015.829
        45.800
 202045129.045 7                  38447927.176
        44.600
 107929771.305 8  83945387.751 7  20155124.484    20155125.361    20155129.323
        50.700          42.800
 121515305.189 7  94511971.796 5  22739936.224    22739936.894    22739946.456
        44.200          34.400
 139792426.134 5                  26601617.887
        33.000
 124308704.763 4  96684626.141 5  23246344.965                    23246367.941
        29.900          30.800
 25  1  1 18 31  0.0000000  0 25E31G07G30G08G27G04R19R18E24R10E09G09
                                E04R07R09E21S35G14S31E06S33R08R11E19
                                R20
 126858938.625 7                  24140446.106
        47.800
 113432932.426 8  88389240.60546  21585558.815    21585558.2074   21585559.7474
        48.700          41.3004
 125768897.987 5  98001856.05343  23933029.192    23933029.0274   23933036.0284
        34.200          23.0004
 107203765.372 8  83535455.29848  20400186.553    20400185.9324   20400192.2124
        48.300          51.7004
 110549225.077 8  86142258.10248  21036811.891    21036811.2704   21036816.0014
        50.000          50.3004
 111955529.283 7  87238112.98044  21304431.372    21304431.3464   21304437.5494
        42.000          25.0004
 118494847.904 5  92162703.480 5  22151361.280    22151361.079    22151370.580
        31.700          32.400
 124843350.553 6                  23387361.857    23387361.994
        39.000


 106549647.694 7                  19988442.773    19988441.899
        42.200
 131161012.858 7                  24959112.770
        47.000
 107320703.044 7  83626512.68146  20422460.943    20422460.4784   20422464.5144
        46.000          41.3004
 123919742.249 7                  23581128.953
        42.300
 112518792.988 7  87514610.368 6  21019469.951    21019469.686    21019484.553
        46.200          41.800
 110005612.407 7  85559931.877 7  20600509.073    20600509.588    20600515.396
        47.000          44.400






 198902509.730 6                  37849911.965
        40.300
 124391891.724 7                  23670995.082
        46.000
 202045142.895 6                  38447930.119
        41.800
 107930446.681 8  83945913.055 6  20155249.270    20155250.625    20155255.378
        50.200          40.700
 121477661.517 7  94482693.520 5  22732886.122    22732887.118    22732901.808
        44.600          34.200
 139837945.431 5                  26610277.892
        32.900
 124249956.930 4  96638933.464 5  23235366.710                    23235384.795
        26.900          32.600
 25  1  1 18 31 15.0000000  0 24E31G07G30G08G16G27G04R19E24R10E09G09
                                E04R07R09E21S35S31E06S33R08R11E19R01
 126840443.276 7                  24136925.140
        45.000
 113404812.868 7  88367329.29746  21580208.058    21580207.4554   21580207.3944
        46.200          41.1004
 125725899.814 6  97968351.01643  23924849.704    23924849.5664   23924854.5774
        38.800          23.5004
 107183896.888 8  83519973.43348  20396406.220    20396405.5994   20396411.2404
        51.500          53.4004
 120912246.529 4                  23008834.974
        29.600
 110564965.722 8  86154523.57548  21039807.498    21039806.8684   21039810.1684
        49.100          48.3004
 111997470.597 6  87270794.51844  21312413.472    21312413.4464   21312420.3754
        39.200          25.8004
 118481680.892 5  92152462.587 4  22148900.007    22148898.959    22148905.795
        34.900          29.700


 106544311.914 7                  19987442.902    19987442.643
        42.400
 131137153.691 7                  24954573.094
        47.500
 107339909.786 7  83641478.90747  20426115.719    20426115.2774   20426119.0684
        47.800          42.1004
 123936330.892 7                  23584287.110
        42.400
 112573390.327 8  87557074.811 5  21029668.664    21029670.695    21029681.024
        49.000          35.000
 110032986.493 7  85581222.796 7  20605634.449    20605635.109    20605641.289
        47.200          43.200




 198902507.851 7                  37849920.131
        45.700
 124386626.404 7                  23669992.604
        47.000
 202045158.460 6                  38447921.864
        38.200
 107931332.896 7  83946602.271 6  20155414.682    20155415.274    20155419.867
        47.900          40.400
 121440056.434 7  94453445.213 5  22725853.085    22725851.570    22725856.820
        44.800          33.600
 139883492.226 4                  26618944.371
        29.200
 124015023.651 6                  23199577.391    23199576.142
        41.300
 25  1  1 18 31 30.0000000  0 24E31G07G30G08G27G04R19E24R10E09G09E04
                                R07R09E21S35G14S31E06S33R08R11E19R01
 126822001.062 7                  24133417.662
        47.900
 113376722.307 7  88345440.55546  21574862.849    21574862.2554   21574861.8514
        47.900          40.0004


 107164175.926 8  83504606.53648  20392651.821    20392651.1954   20392658.2484
        51.400          52.9004
 110580862.470 8  86166910.68648  21042831.906    21042831.2584   21042834.8094
        49.800          49.0004
 112039508.800 6  87303551.50244  21320412.847    21320412.8694   21320421.1814
        38.000          26.0004
 118468696.783 5  92142351.052 6  22146473.752    22146472.755    22146480.825
        33.500          36.200


 106539039.085 6                  19986451.157    19986451.074
        40.400
 131113370.467 7                  24950047.093
        46.900
 107359256.473 8  83656554.26046  20429797.489    20429797.0564   20429799.8354
        49.000          41.8004
 123953011.388 7                  23587460.937
        42.800
 112628095.984 8  87599623.442 6  21039888.075    21039889.699    21039903.922
        48.100          37.900
 110060395.330 7  85602540.845 7  20610768.299    20610769.538    20610771.492
        46.300          42.400
 143894132.740 5                  27382142.923
        30.700




 198902501.429 7                  37849919.956
        42.400
 124381456.219 8                  23669008.225
        48.000
 202045171.248 6                  38447925.535
        38.400
 107932423.215 8  83947450.268 6  20155617.971    20155618.952    20155623.885
        48.000          41.600


 139929059.597 5                  26627616.372
        30.800
 123963470.733 6  96416072.490 5  23189930.445    23189930.123    23189939.288
        38.800          32.300
 25  1  1 18 31 45.0000000  0 26E31G07G30G08G16G27G04R19R18E24R10E09
                                G09E04R07R09E21S35G14S31E06S33R08R11
                                E19R01
 126803614.393 8                  24129918.316
        48.200
 113348663.330 7  88323576.45146  21569523.292    21569522.6894   21569521.9114
        45.700          39.8004


 107144605.089 8  83489356.59448  20388927.232    20388926.6064   20388934.0344
        48.500          52.1004
 121011203.519 5  94294461.56041  23027669.542    23027669.3554   23027670.7674
        34.500           6.9004
 110596917.537 8  86179421.18148  21045887.898    21045887.2554   21045890.6674
        50.000          50.6004
 112081646.074 6  87336385.71643  21328429.480    21328429.5064   21328439.7394
        37.200          22.0004
 118455898.583 5  92132396.858 6  22144079.579    22144079.632    22144090.940
        31.600          39.400
 124932073.531 4                  23403983.285
        24.800


 106533831.585 7                  19985476.841    19985476.274
        44.600
 131089665.908 7                  24945535.710
        46.500
 107378745.453 7  83671740.44646  20433505.483    20433505.0364   20433508.0584
        47.200          39.4004
 123969786.339 7                  23590652.178
        46.600
 112682912.036 7  87642258.018 6  21050128.521    21050128.923    21050143.750
        47.800          40.500
 110087841.233 7  85623887.645 7  20615907.800    20615908.372    20615912.011
        46.400          42.100
 143931007.234 5                  27389157.762
        31.900




 198902493.386 7                  37849921.061
        44.500
 124376383.726 7                  23668043.395
        47.700
 202045181.957 6                  38447929.318
        41.000
 107933720.194 7  83948458.997 7  20155860.560    20155861.569    20155868.322
        47.300          43.600
                                                  22711798.816

 139974650.052 4                  26636293.351
        28.100
 123912029.019 6  96376062.220 5  23180307.559    23180306.968    23180314.666
        38.700          33.800
 25  1  1 18 32  0.0000000  0 27E31G07G30G08G16G27G04R19R18E24R10E09
                                G09E04R07R09E21S35G14S31E06S33R08R11
                                E19R01R20
 126785285.637 7                  24126430.516
        47.000
 113320638.320 7  88301738.81646  21564190.352    21564189.7624   21564188.4054
        46.200          38.2004


 107125186.893 8  83474225.59448  20385232.518    20385231.8974   20385238.8474
        49.500          51.1004
 121060712.898 5  94333040.27941  23037089.354    23037088.9614   23037089.8644
        32.400           6.5004
 110613133.158 8  86192056.75648  21048972.987    21048972.3264   21048977.2894
        50.000          51.3004
 112123884.322 6  87369298.52643  21336470.725    21336470.7424   21336476.8414
        36.000          18.5004
 118443288.489 5  92122589.134 6  22141723.282    22141722.774    22141732.512
        33.400          39.000
 124961974.513 5                  23409587.864
        32.100


 106528691.774 7                  19984512.691    19984512.425
        46.100
 131066042.540 7                  24941040.982
        47.700
 107398378.864 8  83687039.17946  20437242.460    20437241.9784   20437242.5744
        48.200          39.3004
 123986658.000 7                  23593862.877
        46.100
 112737840.331 7  87684979.812 6  21060389.986    21060390.233    21060403.472
        46.700          37.800
 110115326.824 7  85645265.344 6  20621055.352    20621055.956    20621058.911
        46.700          41.900
 143967878.475 5                  27396174.425
        31.600




 198902486.708 7                  37849917.260
        44.000
 124371411.339 8                  23667097.561
        48.100
 202045193.232 6                  38447946.865
        40.600
 107935225.874 7  83949630.138 7  20156140.827    20156141.587    20156148.612
        45.100          44.000


 140020265.528 5                  26644974.121
        32.100
 123860701.244 6  96336140.600 6  23170705.579    23170706.891    23170716.646
        40.500          36.800
                  96456387.566 5                                  23191496.580
                        30.000
 25  1  1 18 32 15.0000000  0 26E31G07G30G08G27G04R19R18E24R10E09G09
                                E04R07R09E21S35G14S31E06S33R08R11E19
                                R01R20
 126767017.761 7                  24122953.933
        46.600
 113292650.559 7  88279930.17046  21558863.202    21558862.6214   21558862.9224
        44.900          37.8004
 125553975.999 5  97834303.84943  23892122.191    23892121.6594   23892132.4244
        33.100          23.6004
 107105924.586 8  83459216.07148  20381566.596    20381565.9574   20381572.8494
        50.600          48.5004
 110629512.198 8  86204819.69548  21052090.064    21052089.4074   21052094.0604
        50.500          51.2004
 112166226.436 6  87402292.29042  21344527.189    21344527.1674   21344533.3954
        37.700          17.2004
 118430870.196 6  92112930.446 6  22139403.239    22139403.254    22139410.909
        36.400          39.800
 124992069.996 5                  23415224.353
        34.900


 106523622.533 7                  19983561.330    19983561.507
        45.100
 131042503.563 7                  24936561.921
        47.500
 107418159.652 8  83702452.80046  20441006.365    20441005.8604   20441007.2284
        49.900          40.2004
 124003629.333 7                  23597092.747
        46.600
 112792883.388 8  87727790.832 6  21070676.302    21070677.348    21070686.188
        50.500          38.300
 110142854.920 8  85666676.038 6  20626210.888    20626211.629    20626215.850
        48.700          41.600
 144004749.317 4                  27403191.369
        29.700


 132152629.438 5                  25147805.959
        32.200
 198902483.374 7                  37849915.279
        42.100
 124366542.165 8                  23666170.620
        50.100
 202045208.947 7                  38447950.541
        46.100
 107936943.737 7  83950966.232 7  20156463.926    20156462.435    20156470.766
        43.700          42.500
 121290131.098 6  94336678.582 6  22697772.138    22697775.942    22697771.185
        37.500          36.500
 140065909.238 5                  26653661.095
        31.300
 123809491.193 6  96296310.575 5  23161129.518    23161130.705    23161136.668
        39.700          35.000
                  96410813.674 5                                  23180549.865
                        32.800
 25  1  1 18 32 30.0000000  0 26E31G07G30G08G27G04R19R18E24R10E09G09
                                E04R07R09E21S35G14S31E06S33R08R11E19
                                R01R20
 126748802.934 7                  24119487.693
        45.300
 113264692.544 7  88258144.71646  21553543.943    21553543.3934   21553543.1714
        45.000          37.5004
 125510982.336 5  97800802.29544  23883937.290    23883936.9334   23883945.3124
        33.100          27.4004
 107086810.422 8  83444321.99447  20377930.328    20377929.7024   20377935.0684
        49.600          47.7004
 110646046.616 8  86217703.67948  21055236.035    21055235.3924   21055240.4994
        49.400          50.7004
 112208664.220 6  87435360.56042  21352602.724    21352602.7074   21352607.5944
        40.000          15.1004
 118418635.622 5  92103414.852 7  22137113.677    22137110.380    22137125.771
        30.200          42.000
 125022310.440 6  97239668.830 4  23420887.461    23420887.198    23420920.151
        36.300          29.100


 106518615.948 7                  19982620.811    19982620.870
        43.700
 131019041.296 7                  24932096.716
        47.800
 107438079.764 8  83717974.94547  20444796.955    20444796.4684   20444799.1604
        49.400          42.2004
 124020692.445 7                  23600339.060
        46.800
 112848032.493 8  87770684.457 6  21080977.272    21080978.155    21080990.622
        48.800          40.000
 110170417.334 7  85688113.535 6  20631369.850    20631370.205    20631376.693
        45.900          40.800
 144041611.920 4                  27410205.624
        25.500


 132107789.329 4                  25139286.848
        27.000
 198902475.774 7                  37849903.201
        42.500
 124361768.471 8                  23665262.172
        49.300
 202045220.319 7                  38447955.272
        46.000
 107938865.586 7  83952461.078 6  20156822.580    20156822.011    20156823.930
        45.800          38.100
 121252700.818 6  94307566.000 5  22690788.683    22690774.678    22690766.956
        37.500          32.400
 140111572.831 4                  26662349.403
        29.600
 123758390.962 5  96256565.991 5  23151576.353    23151575.107    23151575.454
        34.600          32.300
                  96365261.957 5                                  23169576.056
                        32.300
 25  1  1 18 32 45.0000000  0 25E31G07G30G08G27G04R19R18E24R10E09G09
                                E04R07R09E21S35G14S31E06S33R08R11E19
                                R01
 126730648.164 7                  24116033.400
        45.500
 113236771.581 7  88236388.16546  21548230.259    21548229.6874   21548229.3374
        45.700          37.4004
 125467994.229 6  97767305.08344  23875759.381    23875759.3014   23875762.8384
        36.200          28.7004
 107067851.727 8  83429549.03247  20374322.086    20374321.4524   20374326.7914
        48.300          45.4004
 110662743.311 8  86230714.13148  21058413.624    21058412.9904   21058418.3204
        48.300          49.7004
 112251204.525 7  87468508.67042  21360697.192    21360697.1524   21360701.3114
        42.300          14.6004
 118406592.623 5  92094048.186 6  22134862.953    22134862.294    22134870.137
        33.700          38.300
 125052719.185 5                  23426580.408    23426579.609
        35.000


 106513678.930 7                  19981695.556    19981694.909
        42.800
 130995663.052 8                  24927648.070
        48.000
 107458146.177 8  83733611.09447  20448615.548    20448615.0704   20448618.4844
        48.400          42.6004
 124037854.416 7                  23603605.090
        47.700
 112903294.512 8  87813665.875 6  21091302.914    21091301.549    21091314.288
        48.900          40.100
 110198021.362 7  85709583.296 6  20636540.089    20636540.286    20636544.592
        46.300          39.400






 198902471.928 7                  37849905.079
        42.500
 124357097.386 8                  23664373.489
        48.900
 202045234.116 7                  38447951.506
        46.400
 107940998.682 7  83954120.144 6  20157219.573    20157220.607    20157224.033
        45.000          39.400
 121215309.493 6  94278483.804 4  22683774.098    22683772.765    22683768.939
        38.100          28.600
 140157263.323 5                  26671045.422
        30.500
 123707408.530 5                  23142037.085    23142038.907
        35.400
 25  1  1 18 33  0.0000000  0 24E31G07G30G08G27G04R19E24R10E09G09E04
                                R07R09E21S35G14S31E06S33R08R11E19R20
 126712548.163 7                  24112588.564
        45.400
 113208882.246 7  88214656.24546  21542922.452    21542921.8894   21542922.0714
        44.300          37.5004
 125425006.243 5  97733807.95244  23867578.316    23867577.7534   23867581.1504
        34.100          28.6004
 107049043.374 7  83414893.24547  20370743.321    20370742.6784   20370747.0424
        47.300          43.8004
 110679596.840 8  86243846.78848  21061620.750    21061620.1074   21061625.4984
        48.500          48.9004
 112293841.740 7  87501732.33643  21368810.826    21368810.7684   21368814.9274
        45.000          22.0004
 118394735.488 5  92084826.105 6  22132646.714    22132645.125    22132653.719
        33.700          36.500
 150107984.312 5                  28564597.919
        35.000
 106508806.000 7                  19980781.688    19980780.798
        42.500
 130972363.697 8                  24923214.386
        48.000
 107478353.392 7  83749356.95247  20452461.162    20452460.6934   20452464.9344
        47.700          43.7004
 124055109.866 8                  23606889.020
        48.300
 112958663.687 7  87856730.659 6  21101644.182    21101642.847    21101657.473
        47.100          38.600
 110225661.408 7  85731081.061 6  20641718.486    20641717.929    20641721.049
        47.400          40.500






 198902465.526 7                  37849903.416
        42.700
 124352523.757 8                  23663502.931
        49.000
 202045246.179 7                  38447952.454
        46.400
 107943337.527 7  83955939.213 6  20157658.073    20157657.463    20157662.918
        44.800          41.800
 121177951.609 6                  22676780.971    22676781.473
        40.100
 140202975.257 5                  26679759.182
        30.100
                  96274238.005 5                                  23147695.200
                        35.900
 25  1  1 18 33 15.0000000  0 24E31G07G30G08G27G04R19E24R10E09G09E04
                                R07R09E21S35G14S31E06S33R08R11E19R20
 126694503.261 7                  24109154.595
        46.200
 113181025.206 7  88192949.49046  21537621.305    21537620.7964   21537621.4584
        43.000          37.8004
 125382018.898 6  97700311.33344  23859397.530    23859396.9404   23859399.9194
        37.200          26.1004
 107030385.896 7  83400355.02946  20367193.062    20367192.4284   20367195.7114
        46.800          41.3004
 110696607.428 8  86257101.81147  21064857.608    21064856.9654   21064862.3944
        48.000          47.8004
 112336575.940 7  87535031.59044  21376943.489    21376943.4364   21376949.6674
        45.600          26.7004
 118383064.987 5  92075749.094 6  22130463.162    22130462.898    22130472.435
        33.300          37.100
 150071579.620 5                  28557666.245
        33.700
 106503997.726 7                  19979880.432    19979879.940
        44.000
 130949143.818 7                  24918795.583
        47.200
 107498701.730 7  83765212.78947  20456332.810    20456332.3544   20456338.2624
        46.900          44.2004
 124072459.159 8                  23610190.790
        48.700
 113014139.580 7  87899878.381 5  21112006.827    21112005.501    21112019.135
        46.400          35.300
 110253337.750 7  85752607.167 6  20646900.588    20646900.123    20646905.010
        46.000          41.300
 144152199.949 5                  27431247.838
        32.900




 198902456.830 7                  37849893.650
        42.300
 124348048.043 8                  23662651.100
        48.200
 202045256.008 7                  38447956.613
        46.400
 107945882.585 7  83957918.712 7  20158132.228    20158131.482    20158139.124
        43.500          42.600
 121140627.675 6                  22669801.537    22669803.314
        39.600


                  96228763.019 5                                  23136760.370
                        34.200
 25  1  1 18 33 30.0000000  0 23E31G07G30G08G27G04R19E24R10E09G09E04
                                R07R09E21S35G14S31E06S33R08E19R20
 126676517.725 7                  24105732.061
        47.200
 113153204.930 6  88171271.37046  21532327.459    21532326.9814   21532328.3944
        37.700          36.4004
 125339036.672 5  97666818.67143  23851216.018    23851215.2674   23851219.7744
        33.100          23.2004
 107011883.750 7  83385937.86546  20363671.530    20363670.9044   20363674.0944
        47.300          39.4004
 110713779.189 7  86270482.41647  21068125.527    21068124.8844   21068129.9024
        47.700          46.2004
 112379411.194 7  87568409.61944  21385094.979    21385094.9354   21385102.9784
        45.000          28.3004
 118371586.030 4  92066821.110 6  22128319.622    22128315.088    22128324.317
        29.300          36.100
 150035201.603 4                  28550744.762
        29.200
 106499258.160 7                  19978989.719    19978990.829
        42.900
 130926007.903 7                  24914392.803
        46.800
 107519195.311 7  83781181.79847  20460232.931    20460232.4714   20460238.6174
        47.100          44.7004
 124089906.517 8                  23613510.999
        48.800
 113069726.067 8  87943112.124 4  21122391.684    21122392.709    21122398.799
        48.400          28.300
 110281054.731 7  85774164.880 6  20652089.341    20652089.231    20652094.637
        45.700          40.800
 144189046.526 5                  27438259.983
        34.200




 198902451.266 7                  37849897.459
        42.700
 124343674.617 7                  23661818.898
        47.800
 202045268.968 7                  38447958.554
        46.900
 107948638.279 7  83960062.007 7  20158648.664    20158648.106    20158654.403
        44.500          42.200


                  96183316.718 5                                  23125835.838
                        32.300
 25  1  1 18 33 45.0000000  0 22E31G07G30G08G27G04R19E24R10E09G09E04
                                R09E21S35G14S31E06S33R08R11E19
 126658590.357 7                  24102319.824
        46.900
 113125420.346 5  88149621.03645  21527040.196    21527039.7314   21527041.9884
        35.300          34.8004


 106993535.913 7  83371640.94846  20360178.959    20360178.3654   20360182.2224
        46.900          38.6004
 110731110.764 8  86283987.54747  21071424.298    21071423.6644   21071427.6704
        48.300          45.9004
 112422345.990 7  87601865.23744  21393265.155    21393265.0714   21393273.6964
        45.100          28.6004
 118360297.488 4  92058041.302 6  22126201.052    22126201.907    22126217.798
        24.400          37.500


 106494585.998 6                  19978112.671    19978112.800
        41.000
 130902954.915 7                  24910006.205
        46.800
 107539832.744 8  83797262.90647  20464160.358    20464159.9114   20464165.4624
        48.500          44.9004
 124107450.732 8                  23616849.579
        48.800
 110308811.093 7  85795753.179 6  20657287.604    20657288.503    20657292.263
        44.800          40.500
 144225889.744 5                  27445273.061
        33.300




 198902446.316 7                  37849897.321
        44.100
 124339402.369 8                  23661005.816
        48.500
 202045282.300 7                  38447967.694
        46.300
 107951603.190 7  83962368.001 6  20159203.130    20159202.359    20159205.772
        44.300          40.300
 121066044.006 5                  22655860.405
        31.500


 25  1  1 18 34  0.0000000  0 23E31G07G30G08G27G04R19E24R10E09G09E04
                                R07R09E21S35G14S31E06S33R08R11E19
 126640721.260 7                  24098919.209
        45.700
 113097671.745 6  88127998.73745  21521761.159    21521760.5834   21521761.8034
        40.800          34.1004
 125253030.398 6  97599778.94344  23834861.975    23834861.3764   23834864.5064
        40.900          29.3004
 106975342.725 7  83357464.52246  20356716.860    20356716.2884   20356721.1054
        45.900          39.1004
 110748602.110 8  86297617.19547  21074753.057    21074752.4184   21074754.6744
        48.900          44.9004
 112465380.162 7  87635398.28944  21401454.735    21401454.6514   21401462.6914
        45.200          29.1004
                  92049409.642 6                                  22124141.825
                        37.600


 106489981.474 6                  19977248.249    19977248.430
        39.600
 130879985.206 7                  24905635.493
        47.100
 107560614.085 8  83813456.15747  20468115.110    20468114.6594   20468118.9274
        49.700          45.4004
 124125091.878 7                  23620206.153
        47.300
 113181225.309 8                  21143221.379    21143221.751
        48.200
 110336606.874 7  85817372.123 6  20662492.550    20662491.661    20662498.734
        44.500          40.600
 144262729.767 4                  27452280.431
        28.500




 198902442.875 7                  37849898.595
        44.000
 124335231.525 7                  23660212.140
        47.600
 202045297.671 7                  38447962.261
        45.700
 107954777.427 7  83964836.820 6  20159792.768    20159795.015    20159796.482
        43.700          39.900
 121028839.630 5                  22648897.268    22648891.118
        30.000


 25  1  1 18 34 15.0000000  0 23E31G07G30G08G27G04E24R10E09G09E04R07
                                R09E21S35G14S31E06S33R08R11E19R01
 126622910.327 7                  24095530.545
        46.200
 113069959.304 6  88106404.62446  21516486.198    21516485.5194   21516488.2974
        41.500          36.3004
 125210060.729 6  97566296.11445  23826685.073    23826684.3314   23826690.0984
        40.900          32.7004
 106957304.256 7  83343408.64546  20353284.119    20353283.5614   20353289.8104
        45.400          40.2004
 110766253.020 7  86311371.14647  21078111.455    21078110.8074   21078112.5044
        46.800          43.6004
 112508513.408 7  87669008.52945  21409661.720    21409661.6494   21409670.3184
        45.800          30.0004


 106485444.353 6                  19976397.804    19976395.777
        38.900
 130857098.919 8                  24901280.278
        48.700
 107581539.115 8  83829761.36547  20472096.464    20472096.0044   20472100.0614
        48.500          44.4004
 124142829.831 7                  23623582.067
        46.500
 113237137.231 7  88073433.116 6  21153666.885    21153667.712    21153676.529
        47.500          37.700
 110364442.071 7  85839021.661 6  20667706.796    20667707.133    20667710.585
        47.500          39.500




 131794605.965 5                  25079670.047
        31.800
 198902441.586 7                  37849901.046
        44.200
 124331162.135 8                  23659438.033
        49.200
 202045314.678 7                  38447962.149
        45.900
 107958160.999 6  83967468.450 6  20160424.598    20160425.165    20160430.688
        41.500          41.600




 123404034.682 6                  23085259.428    23085258.124
        36.600
 25  1  1 18 34 30.0000000  0 22E31G07G30G08G27G04R10E09G09E04R07R09
                                E21S35G14S31E06S33R08R11E19R20
 126605149.118 7                  24092150.555
        46.300
 113042274.774 7  88084832.26546  21511217.398    21511216.7774   21511220.2974
        43.700          38.8004
 125167087.076 6  97532810.19145  23818508.467    23818508.0834   23818513.4684
        41.500          32.1004
 106939412.258 7  83329466.89047  20349880.005    20349879.4334   20349886.0434
        45.800          42.0004
 110784054.815 7  86325242.68647  21081498.565    21081497.9394   21081500.8324
        44.200          42.2004
 112551737.021 7  87702689.19444  21417886.672    21417886.6014   21417894.1864
        47.500          29.0004
 106480966.226 5                  19975554.438    19975552.147
        35.300
 130834287.804 8                  24896939.572
        48.900
 107602599.223 7  83846171.82647  20476104.170    20476103.7144   20476107.7134
        47.000          44.1004
 124160656.164 7                  23626974.574
        45.900
 113293147.676 7  88116996.597 6  21164128.987    21164129.176    21164140.296
        45.900          40.000
 110392307.947 7  85860695.062 6  20672924.401    20672925.901    20672930.524
        47.600          39.800




 131749951.967 5                  25071171.116
        32.700
 198902432.448 6                  37849880.226
        40.500
 124327185.859 8                  23658680.779
        48.600
 202045323.573 7                  38447969.473
        46.200
 107961745.120 6  83970256.149 7  20161093.037    20161092.787    20161100.403
        38.400          43.200




                  96001809.063 6                                  23082198.933
                        37.200
 25  1  1 18 34 45.0000000  0 25E31G07G30G08G27G04R19R18R10E09G09E04
                                R07R09E21S35G14S31E06S33R08R11E19R01
                                R20
 126587446.204 8                  24088782.960
        49.200
 113014626.910 6  88063288.48046  21505956.408    21505955.8764   21505959.0574
        40.300          38.5004
 125124118.143 6  97499327.99645  23810332.100    23810331.7834   23810337.6834
        39.500          31.6004
 106921675.484 7  83315646.10047  20346505.414    20346504.8514   20346510.6974
        46.000          43.9004
 110802015.953 5  86339238.38046  21084913.124    21084912.5164   21084920.1434
        34.800          37.8004
 112595059.260 8  87736446.69745  21426130.914    21426130.8434   21426137.6764
        48.500          30.1004
 118317050.740 5  92024393.275 6  22118124.177    22118128.535    22118129.527
        31.100          38.400
 125301881.940 5                  23473264.394
        35.300
 106476555.711 7                  19974732.672    19974730.598
        43.400
 130811560.630 7                  24892614.365
        46.300
 107623802.888 8  83862694.13647  20480139.318    20480138.8674   20480143.2904
        49.500          45.6004
 124178579.412 7                  23630384.900
        47.000
 113349265.205 7  88160643.392 6  21174612.146    21174612.917    21174623.371
        45.200          40.300
 110420213.071 7  85882399.121 6  20678150.963    20678151.234    20678154.082
        45.000          36.000






 198902424.993 7                  37849901.524
        43.400
 124323311.378 8                  23657944.206
        49.900
 202045334.643 7                  38447972.720
        45.000
 107965538.905 7  83973206.789 7  20161804.827    20161805.823    20161809.271
        43.800          43.000
                  94046808.463 6                                  22628025.862
                        37.700


 123303814.249 6                  23066514.764    23066515.277
        39.300
                  95956501.767 6                                  23071302.487
                        37.400
 25  1  1 18 35  0.0000000  0 23E31G07G30G08G27G04R19R18R10E09G09E04
                                R07R09S35G14S31E06S33R08R11E19R01
 126569800.159 8                  24085424.239
        48.000


 125081152.705 6  97465848.49044  23802155.970    23802155.6624   23802160.1054
        38.400          25.9004
 106904092.668 8  83301945.32547  20343159.676    20343159.1134   20343164.2734
        49.600          47.0004
 110820134.825 6  86353357.05446  21088363.134    21088362.5174   21088368.2564
        40.100          38.5004
 112638478.495 7  87770279.78545  21434393.756    21434393.6804   21434401.2124
        46.500          30.0004
 118306708.228 5  92016349.109 6  22116187.246    22116187.605    22116197.514
        30.300          38.700
 125333713.750 5                  23479227.317
        32.000
 106472210.928 7                  19973916.666    19973916.428
        44.000
 130788916.217 8                  24888306.435
        48.200
 107645148.543 7  83879327.01847  20484201.169    20484200.7274   20484205.3394
        47.500          44.2004
 124196598.084 7                  23633812.979
        42.600
 113405487.573 7  88204371.705 6  21185117.070    21185116.150    21185128.469
        46.700          41.400
 110448155.704 6  85904132.304 5  20683382.379    20683378.426    20683384.570
        37.500          33.100




 198902418.016 6                  37849894.593
        41.500
 124319537.314 8                  23657225.814
        49.200
 202045345.785 6                  38447967.524
        41.200
 107969540.410 7  83976319.093 7  20162551.549    20162552.526    20162555.496
        43.300          43.700
                  94017974.532 7                  22621089.082    22621091.940
                        42.500
 140569549.497 5                  26749493.372
        33.100
 123253883.509 6                  23057173.537    23057173.338
        40.500
 25  1  1 18 35 15.0000000  0 25E31G07G30G08G16G27G04R19R18E24R10E09
                                G09E04R07R09S35S31E06S33R08R11E19R01
                                R20
 126552214.755 8                  24082078.418
        49.200
 112959442.363 7  88020296.82546  21495457.563    21495457.0224   21495456.5534
        46.800          39.8004
 125038194.612 6  97432374.57244  23793980.989    23793980.6814   23793984.8164
        37.100          27.6004
 106886667.903 8  83288367.63647  20339843.223    20339842.6694   20339847.8094
        48.100          45.1004
 121706012.914 5                  23159885.908
        34.400
 110838415.247 7  86367601.58446  21091846.470    21091845.8984   21091847.0894
        43.500          37.5004
 112681998.277 7  87804191.15644  21442675.294    21442675.2184   21442683.1184
        44.800          28.4004
 118296560.456 5  92008456.509 6  22114294.035    22114298.094    22114299.914
        33.100          38.700
 125365757.551 5                  23485233.080
        33.600
 149781273.834 5                  28502421.537
        33.900
 106467936.101 7                  19973115.272    19973114.796
        45.500
 130766358.556 7                  24884013.078
        46.500
 107666639.841 8  83896073.48947  20488291.491    20488291.0624   20488294.9194
        48.600          44.4004
 124214715.992 7                  23637261.660
        45.200
 113461818.457 7  88248184.484 7  21195637.865    21195637.368    21195651.963
        46.400          44.600
 110476140.335 7  85925898.071 6  20688622.570    20688621.574    20688627.297
        42.100          37.100
 200828834.072 6                  38216465.386
        37.000
 198902415.172 7                  37849898.483
        42.500
 124315867.730 8                  23656527.341
        48.600
 202045361.189 7                  38447971.732
        46.400
 107973753.603 7  83979596.004 7  20163340.457    20163341.566    20163343.722
        43.200          43.800
 120843330.885 6  93989171.497 6  22614168.632    22614160.973    22614161.923
        38.300          39.900
 140615469.947 4                  26758232.726
        27.200
 123204076.366 6                  23047854.184    23047851.807
        37.200


 25  1  1 18 35 30.0000000  0 24E31G07G30G08G16G27G04R19R18R10E09G09
                                E04R07R09S35G14S31E06S33R08R11E19R01
 126534680.959 8                  24078741.693
        48.600
 112931899.745 7  87998835.08547  21490215.426    21490214.7294   21490215.4944
        46.000          42.5004
 124995235.062 5  97398899.60644  23785804.984    23785804.6004   23785809.0714
        33.500          24.5004
 106869392.168 8  83274906.12147  20336555.680    20336555.1174   20336559.6554
        49.600          44.5004
 121755766.793 6  94874642.53141  23169357.560    23169357.3824   23169356.6234
        36.000          10.4004
 110856847.770 7  86381964.66747  21095351.282    21095350.6704   21095354.8184
        45.700          43.4004
 112725609.207 7  87838173.55844  21450974.399    21450974.3154   21450981.3854
        47.400          28.2004
 118286598.308 5  92000708.273 6  22112423.747    22112425.611    22112435.287
        30.100          38.400
 125397957.882 5  97531836.796 5  23491269.984    23491269.249    23491286.548
        34.300          31.700
 106463721.675 7                  19972322.844    19972322.420
        42.600
 130743878.802 7                  24879735.789
        47.500
 107688267.616 7  83912926.23847  20492406.828    20492406.3814   20492410.9144
        46.500          44.5004
 124232924.034 7                  23640726.581
        45.400
 113518248.052 8  88292073.960 7  21206180.817    21206181.893    21206193.666
        48.300          44.200
 110504157.150 6  85947688.953 6  20693868.756    20693868.419    20693873.691
        40.700          38.400
 200828797.856 5                  38216463.960
        35.300


 198902406.579 6                  37849891.172
        41.800
 124312293.539 8                  23655847.459
        49.400
 202045371.210 7                  38447977.491
        44.700
 107978169.436 5  83983030.494 7  20164160.038    20164157.003    20164166.241
        30.700          43.000
 120806328.742 6  93960392.153 6  22607236.318    22607236.961    22607236.063
        37.900          38.200


 123154384.263 6                  23038560.707    23038557.097
        37.000
 25  1  1 18 35 45.0000000  0 25E31G07G30G08G16G27G04R19R18E24R10E09
                                G09E04R07R09S35G14S31E06S33R08R11E19
                                R01
 126517204.668 7                  24075415.753
        47.800
 112904393.861 7  87977401.92847  21484981.253    21484980.6194   21484982.5604
        44.600          43.0004
 124952280.031 5  97365428.17943  23777631.700    23777631.3744   23777633.9434
        34.400          21.7004
 106852271.648 8  83261565.54647  20333297.737    20333297.1834   20333301.5734
        48.900          44.6004
 121805537.252 5  94913424.67941  23178827.302    23178826.4804   23178826.9604
        34.900           8.3004
 110875438.269 7  86396450.77547  21098890.303    21098889.7044   21098893.1364
        44.300          46.0004
 112769316.957 7  87872231.40144  21459292.434    21459292.3144   21459297.9424
        47.400          29.1004
 118276827.960 5  91993109.159 6  22110599.257    22110600.675    22110610.190
        30.500          40.000
 125430320.444 5  97557007.666 5  23497334.177    23497331.495    23497344.506
        35.300          30.000


 106459573.780 6                  19971544.964    19971543.897
        41.800
 130721483.061 7                  24875474.103
        47.000
 107710037.628 7  83929889.79747  20496548.910    20496548.5134   20496552.9784
        46.200          44.1004
 124251228.102 7                  23644209.848
        44.800
 113574781.479 6  88336044.243 7  21216741.773    21216740.583    21216753.067
        41.900          42.800
 110532212.157 7  85969509.556 6  20699126.330    20699126.193    20699129.403
        42.500          41.000
 200828762.735 5                  38216469.545
        30.200


 198902399.345 7                  37849892.129
        42.700
 124308820.797 8                  23655186.306
        48.400
 202045382.863 7                  38447975.394
        45.300
                  83986627.201 7                                  20165029.336
                        42.500
 120769363.273 6  93931641.301 6  22600318.082    22600322.151    22600319.751
        38.200          40.100


 123104813.733 6                  23029290.542    23029288.988
        37.200
 25  1  1 18 36  0.0000000  0 24E31G07G30G08G16G27G04R19R18E24R10E09
                                G09E04R07R09S35G14S31E06S33R08R11E19
 126499789.166 7                  24072101.728
        46.400
 112876928.101 7  87956000.05447  21479754.119    21479753.4584   21479756.6244
        43.100          42.5004
 124909333.097 5  97331963.05443  23769460.220    23769459.9124   23769461.6464
        33.800          22.6004
 106835309.825 8  83248348.60547  20330070.154    20330069.6094   20330074.3904
        48.700          44.7004
 121855327.795 5  94952222.41241  23188302.486    23188301.6864   23188303.2854
        35.800           7.3004
 110894189.866 7  86411062.42147  21102457.499    21102456.9184   21102461.3484
        46.800          45.2004
 112813124.614 7  87906367.12844  21467628.324    21467628.2224   21467632.1874
        44.700          27.0004
 118267253.058 5  91985661.965 6  22108811.109    22108811.508    22108821.027
        33.000          41.900
 125462848.141 5  97582307.156 5  23503423.532    23503420.598    23503440.459
        32.900          32.600


 106455495.433 7                  19970779.537    19970779.021
        42.200
 130699174.870 8                  24871229.183
        48.400
 107731953.013 7  83946966.69547  20500719.090    20500718.6524   20500724.4384
        45.000          45.4004
 124269631.484 7                  23647711.025
        43.200
 113631422.108 6  88380097.911 7  21227321.950    21227318.515    21227336.298
        41.100          44.500
 110560309.042 7  85991362.696 6  20704387.470    20704387.777    20704390.889
        46.600          41.300




 198902396.722 7                  37849894.186
        43.100
 124305452.931 8                  23654545.870
        49.200
 202045398.066 7                  38447983.716
        43.200
 107987622.145 6  83990388.737 7  20165928.005    20165925.999    20165933.538
        38.400          43.600
                  93902921.559 6                                  22593409.972
                        39.800


 25  1  1 18 36 15.0000000  0 23G20E31G07G30G08G27G04R19E24R10E09G09
                                E04R07R09S35G14S31E06S33R08R11E19
 133392039.920 4                  25383655.004
        27.300
 126482427.186 7                  24068797.661
        47.800
 112849495.483 7  87934624.02846  21474534.340    21474533.6884   21474535.9864
        45.900          40.8004
 124866386.777 5  97298500.40843  23761285.939    23761285.7384   23761288.6524
        30.600          23.0004
 106818499.545 8  83235249.77647  20326871.862    20326871.3354   20326876.3124
        48.800          46.6004
 110913095.123 7  86425793.78047  21106053.650    21106053.0654   21106058.3444
        44.500          43.0004
 112857024.574 7  87940574.82444  21475982.984    21475982.8644   21475985.9214
        44.400          24.9004
 118257866.183 4  91978361.166 6  22107058.106    22107057.366    22107065.423
        29.200          41.500


 106451479.593 6                  19970026.191    19970025.146
        40.600
 130676947.177 8                  24866998.654
        48.600
 107754006.395 7  83964151.14047  20504916.575    20504916.0974   20504921.6064
        45.600          45.2004
 124288126.829 6                  23651231.902
        40.800
 113688161.773 7  88424228.465 7  21237922.108    21237921.550    21237934.262
        45.600          43.700
 110588439.872 7  86013242.273 6  20709652.256    20709652.670    20709660.468
        42.500          41.900


 131437968.152 5                  25011821.208
        35.200
 198902390.074 6                  37849894.097
        38.100
 124302182.750 8                  23653922.965
        49.600
 202045410.355 6                  38447973.297
        40.800
 107992662.702 6  83994309.186 7  20166870.045    20166870.272    20166876.801
        38.600          45.100
 120695544.802 6  93874227.144 6  22586503.645    22586503.290    22586504.991
        38.500          38.200


 25  1  1 18 36 30.0000000  0 24E31G07G30G08G27G04R19E24R10E09G09E04
                                R07R09E21S35G14S31E06S33R08R11E19R01
 126465122.072 7                  24065503.956
        46.600
 112822099.484 7  87913276.47647  21469320.597    21469319.9584   21469322.8084
        45.900          42.7004
 124823466.307 6  97265049.59843  23753116.283    23753116.0244   23753121.5194
        38.400          21.6004
 106801844.361 8  83222271.77547  20323702.336    20323701.7824   20323707.1174
        49.800          46.4004
 110932157.194 7  86440647.37747  21109680.810    21109680.2114   21109685.0944
        46.200          43.3004
 112901020.006 6  87974856.87544  21484355.821    21484355.6874   21484360.1304
        41.400          25.8004
 118248671.080 5  91971209.515 6  22105339.674    22105339.150    22105345.132
        35.300          40.000


 106447529.412 7                  19969284.755    19969284.158
        43.000
 130654803.462 8                  24862785.410
        50.900
 107776200.969 7  83981445.58447  20509140.692    20509140.2194   20509144.3964
        45.200          45.6004
 124306717.461 6                  23654768.257
        40.300
 113745003.252 7  88468438.355 6  21248540.297    21248540.688    21248550.690
        44.300          41.100
 110616608.372 7  86035151.076 6  20714930.630    20714931.139    20714935.046
        44.200          41.700




 131393509.971 5                  25003362.758
        34.800
 198902384.573 6                  37849891.566
        40.000
 124299013.716 8                  23653320.250
        49.800
 202045422.481 7                  38447977.415
        43.300
 107997911.084 6  83998391.197 7  20167850.353    20167848.748    20167856.372
        41.700          45.700
 120658688.023 6  93845560.575 6  22579605.584    22579605.544    22579603.667
        37.800          36.000


 122956920.544 5                  23001610.090    23001610.235
        33.400
 25  1  1 18 36 45.0000000  0 23E31G07G30G08G27G04R19E24R10E09G09E04
                                R07R09E21S35G14S31E06S33R08R11E19
 126447872.806 8                  24062222.091
        48.100
 112794739.392 6  87891956.85846  21464114.141    21464113.5114   21464116.3724
        41.900          41.5004
 124780528.188 5  97231591.19742  23744944.194    23744944.2164   23744952.9114
        34.000          16.2004
 106785343.485 8  83209414.01747  20320562.117    20320561.5634   20320567.0404
        48.100          45.8004
 110951374.946 7  86455622.23847  21113338.149    21113337.5864   21113341.7814
        45.000          43.5004
 112945109.545 6  88009212.24244  21492745.501    21492745.3584   21492752.4354
        41.700          26.7004
 118239667.292 6  91964206.626 6  22103657.990    22103658.200    22103661.463
        38.100          40.000
 149564473.936 6                  28461173.091
        36.900
 106443643.638 7                  19968556.937    19968556.361
        44.600
 130632743.017 8                  24858587.398
        49.600
 107798535.620 7  83998849.16547  20513390.253    20513389.7884   20513393.6634
        46.300          46.2004
 124325402.432 7                  23658323.594
        42.500
 113801945.254 7  88512726.357 6  21259178.937    21259179.246    21259188.980
        44.600          41.500
 110644813.106 7  86057088.071 6  20720210.288    20720211.571    20720215.483
        45.000          39.400




 131349075.730 5                  24994906.142
        32.700
 198902378.918 6                  37849883.347
        40.000
 124295944.945 8                  23652736.028
        48.500
 202045435.194 7                  38447986.242
        43.100
 108003366.235 7  84002634.044 7  20168868.989    20168869.440    20168875.272
        43.600          46.900
                  93816921.459 5                                  22572714.654
                        33.300
 140891412.436 5                  26810744.953
        31.000
 25  1  1 18 37  0.0000000  0 24E31G07G30G08G27G04R19E24R10E09G09E04
                                R07R09E21S35G14S31E06S33R08R11E19R20
 126430679.383 7                  24058949.782
        46.400
 112767415.351 7  87870665.38146  21458914.798    21458914.1684   21458915.8534
        43.800          40.7004
 124737593.690 6  97198135.55342  23736776.173    23736776.1734   23736787.5494
        38.600          17.5004
 106768997.010 8  83196676.57847  20317450.346    20317449.7834   20317456.9064
        48.600          46.1004
 110970748.168 7  86470718.28747  21117024.605    21117023.9934   21117028.7374
        44.300          42.7004


 118230854.453 5  91957352.322 6  22102006.770    22102005.672    22102013.483
        33.600          41.000
 149528437.254 6                  28454315.443
        37.500
 106439822.581 7                  19967840.055    19967839.497
        43.700
 130610766.026 8                  24854405.581
        49.100
 107821010.221 8  84016361.80348  20517667.576    20517667.1434   20517670.6854
        49.000          48.0004
 124344181.597 7                  23661897.157
        44.200
 113858987.139 7  88557092.041 6  21269835.733    21269836.299    21269846.614
        46.500          41.300
 110673054.301 6  86079053.505 6  20725501.967    20725500.901    20725503.856
        38.400          40.300




 131304665.264 4                  24986458.637
        29.000
 198902372.080 6                  37849883.647
        41.300
 124292976.519 7                  23652171.235
        47.500
 202045446.506 7                  38447992.292
        45.200
 108009027.876 7  84007037.585 7  20169925.349    20169925.816    20169931.693
        43.300          46.700
 120585079.922 5  93788309.368 5  22565820.359    22565832.875    22565835.980
        34.700          34.100
 140937478.823 5                  26819511.858
        34.200
                  95550106.941 4                                  22973590.782
                        27.300
 25  1  1 18 37 15.0000000  0 25E31G07G30G08G27G04R19E24R10E09G09E04
                                R07R09E21S35G14S31E06S33R08R11E19R01
                                R20
 126413543.028 7                  24055690.083
        46.300
 112740128.762 7  87849403.11746  21453721.874    21453721.2534   21453722.9004
        44.100          41.2004
 124694664.260 5  97164684.27942  23728605.009    23728604.7324   23728619.9214
        35.000          13.3004
 106752806.396 8  83184060.54447  20314369.873    20314369.3154   20314376.0174
        48.000          46.7004
 110990277.912 7  86485936.25647  21120742.195    21120741.5834   21120744.7854
        44.100          42.4004
 113033613.235 6  88078177.28143  21509578.436    21509578.2004   21509587.2584
        39.100          21.5004
 118222234.770 5  91950648.171 6  22100394.581    22100394.756    22100402.746
        35.200          40.800
 149492425.891 5                  28447460.481
        35.000
 106436067.000 7                  19967136.058    19967135.624
        45.300
 130588873.913 8                  24850238.756
        48.200
 107843625.763 8  84033984.24748  20521970.255    20521969.8044   20521974.6134
        49.800          48.1004
 124363056.181 7                  23665488.929
        42.800
 113916129.566 7  88601535.961 6  21280509.919    21280511.287    21280521.848
        47.500          40.800
 110701333.073 6  86101048.073 7  20730796.082    20730795.163    20730801.812
        41.000          42.200




 131260280.114 5                  24977996.764
        33.600
 198902366.358 6                  37849883.915
        41.300
 124290109.779 8                  23651626.004
        48.700
 202045458.797 6                  38447991.045
        40.400
 108014897.619 7  84011602.937 7  20171020.191    20171019.835    20171028.890
        42.500          46.200
 120548170.105 6  93759725.313 5  22558958.279                    22558953.254
        40.500          35.900
 140983566.368 5                  26828283.408
        34.800
 122809847.069 5  95518825.294 5  22974129.709    22974126.771    22974135.895
        34.400          31.500
                  95505115.737 5                                  22962776.320
                        31.400
 25  1  1 18 37 30.0000000  0 25E31G07G30G08G27G04R19E24R10E09G09E04
                                R07R09E21S35G14S31E06S33R08R11E19R01
                                R20
 126396464.118 8                  24052439.215
        48.500
 112712880.393 7  87828170.59046  21448537.049    21448536.4104   21448537.3424
        44.400          39.2004
 124651740.505 6  97131236.88443  23720437.635    23720437.3584   23720450.7724
        40.400          22.4004
 106736772.193 7  83171566.46047  20311318.316    20311317.7754   20311324.5954
        47.600          46.9004
 111009964.467 7  86501276.45647  21124487.102    21124486.4724   21124490.5964
        46.400          43.5004
 113077986.503 7  88112753.78643  21518021.409    21518021.2624   21518027.3834
        44.200          22.6004
 118213808.326 6  91944094.333 6  22098822.534    22098822.019    22098828.252
        39.100          41.900
 149456440.623 4                  28440611.554
        29.000
 106432377.879 7                  19966443.233    19966443.238
        45.400
 130567067.298 8                  24846089.427
        48.100
 107866382.647 8  84051716.85947  20526300.334    20526299.8924   20526304.9194
        48.100          47.1004
 124382026.644 7                  23669100.473
        45.500
 113973372.477 7  88646058.031 7  21291201.692    21291201.412    21291216.686
        43.600          43.200
 110729649.823 6  86123072.223 6  20736097.035    20736097.130    20736101.910
        41.300          36.500




 131215920.872 5                  24969563.855
        33.000
 198902362.119 6                  37849892.576
        40.900
 124287345.244 8                  23651099.778
        48.100
 202045472.502 7                  38447994.944
        43.000
 108020975.614 7  84016330.230 7  20172157.247    20172156.320    20172163.332
        42.800          46.300
 120511455.659 6  93731169.854 6  22552080.672    22552078.956    22552083.254
        41.200          40.200
 141029675.658 5                  26837055.779
        33.000
 122761166.781 5  95480939.353 5  22965016.386    22965016.430    22965020.573
        34.200          30.800
                  95460165.467 5                                  22951969.271
                        34.500
