     2.11           OBSERVATION DATA    M (MIXED)           RINEX VERSION / TYPE
teqc  2019Feb25                         20260317 16:18:01UTCPGM / RUN BY / DATE
Linux 2.4.21-27.ELsmp|Opteron|gcc -static|Linux 64|=+       COMMENT
BIT 2 OF LLI FLAGS DATA COLLECTED UNDER A/S CONDITION       COMMENT
-Unknown-                                                   MARKER NAME
-Unknown-           -Unknown-                               OBSERVER / AGENCY
-Unknown-           -Unknown-           -Unknown-           REC # / TYPE / VERS
-Unknown-           -Unknown-                               ANT # / TYPE
        0.0000        0.0000        0.0000                  APPROX POSITION XYZ
        0.0000        0.0000        0.0000                  ANTENNA: DELTA H/E/N
     1     1                                                WAVELENGTH FACT L1/2
     7    L1    L2    C1    P1    P2    S1    S2            # / TYPES OF OBSERV
 SNR is mapped to RINEX snr flag value [0-9]                COMMENT
  L1 & L2: min(max(int(snr_dBHz/6), 0), 9)                  COMMENT
  2025     1     1    22     0    0.0000000     GPS         TIME OF FIRST OBS
    18                                                      LEAP SECONDS
                                                            END OF HEADER
 25  1  1 22  0  0.0000000  0 33G21E31G07G02G30G08G13G15G19E10G17E33
                                E24R10E09E03E25R12E12G14S35S31E05E06
                                S33R03R11R21R23R20R02E26R22
 120412392.016 6                  22913710.650
        37.400
 126117066.894 7                  23999271.267
        46.100
 117844705.069 7  91826971.32646  22425109.240    22425108.6954   22425112.5564
        44.800          36.8004
 115011852.003 8  89619655.95145  21886022.702    21886021.5444   21886023.7794
        48.500          35.2004
 108655117.258 7  84666319.88546  20676379.583    20676378.8374   20676386.0284
        43.600          40.7004


 119950403.485 6  93467851.34342  22825807.365    22825806.9904   22825805.5984
        39.400          13.4004
 129210421.943 5 100683441.48842  24587921.059    24587921.8144   24587937.7854
        33.500          12.1004
 119332575.609 6  92986395.92544  22708219.733    22708218.3294   22708219.4644
        36.800          24.1004
 140114508.282 5                  26662907.510
        30.800
 108351153.513 8  84429489.64748  20618538.933    20618538.4824   20618539.6914
        49.700          48.4004
 130054676.117 7                  24748577.553
        45.600
 128441285.649 7                  24441563.801
        44.900
 123397442.013 4                  23149043.897    23149042.010
        27.100
 143618377.209 5                  27329669.870
        32.000




 111283101.654 7  86553551.010 7  20832430.169    20832431.319    20832438.210
        47.100          42.300
 133881744.536 6                  25476844.885
        40.100
 106752988.382 8  83184148.66846  20314418.414    20314418.1334   20314420.2964
        49.600          40.3004


 198897278.649 7                  37848916.359
        44.500
 130392137.171 5                  24812806.453
        30.900


 202055096.000 7                  38449819.683
        44.000
 128463537.174 5                  23998071.066    23998071.575
        35.000
 105111138.586 8  81753100.533 7  19670120.803    19670121.894    19670127.105
        49.500          43.100
 105067315.404 7  81719331.891 6  19634336.656    19634333.908    19634340.452
        44.800          38.300
 129041735.308 5                  24122982.840    24122987.275
        32.900


 127111334.513 6                  23820612.752    23820613.268
        36.600


 108262011.284 7  84203639.576 7  20281086.869    20281087.403    20281092.427
        46.000          46.400
 25  1  1 22  0 15.0000000  0 33G21E31G07G02G30G08G13G15G19E10G17E33
                                E24R10E09E03E25R12E12G14S35S31E05E06
                                S33R03R11R21R23R20R02E26R22
 120453236.584 5  93859669.9364   22921481.282    22921481.0504   22921483.9214
        32.600           5.7004
 126129515.497 7                  24001640.727
        47.600
 117892492.863 7  91864208.49045  22434203.700    22434203.1334   22434206.8174
        42.000          34.8004
 115031714.159 8  89635132.95945  21889802.527    21889801.3694   21889803.2124
        49.000          35.6004
 108679669.985 6  84685451.82746  20681051.754    20681051.0304   20681058.5564
        39.500          37.8004


 119968778.262 6  93482169.27341  22829304.294    22829303.7094   22829302.1164
        36.900          10.5004
 129218969.197 6 100690101.70542  24589549.296    24589550.0474   24589566.1314
        37.900          12.5004
 119290111.056 6  92953306.76344  22700139.072    22700137.6914   22700139.2644
        37.900          24.0004
 140067478.821 5                  26653958.687
        31.500
 108335728.360 8  84417470.08347  20615603.742    20615603.2864   20615603.6114
        49.200          47.9004
 130056772.986 7                  24748976.855
        44.800
 128423994.367 7                  24438272.717
        45.300
 123444895.692 4                  23157947.601    23157945.292
        28.100
 143660194.407 5                  27337631.198
        32.400




 111241484.381 7  86521182.064 6  20824639.860    20824639.007    20824644.315
        47.000          36.200
 133843295.242 6                  25469528.346
        40.300
 106741080.739 8  83174869.97446  20312152.536    20312152.2594   20312153.6264
        48.600          38.0004


 198897276.750 7                  37848912.312
        42.000




 202055101.565 7                  38449821.718
        44.800
 128464213.505 5  99916644.837 5  23998197.049    23998197.192    23998193.310
        33.900          30.900
 105122326.556 8  81761802.243 7  19672216.270    19672217.256    19672221.420
        50.100          42.100
 105087898.014 7  81735340.543 5  19638179.253    19638179.137    19638184.299
        44.000          32.100
 128974002.040 4                  24110327.981    24110324.753
        28.600


 127149751.115 6                  23827815.066    23827816.591
        39.300


 108216409.591 6  84168171.630 7  20272540.400    20272539.637    20272547.854
        41.100          45.000
 25  1  1 22  0 30.0000000  0 29G21E31G07G02G30G13G15G19E10G17E33E24
                                E09E03E25R12E12G14S35S31E05E06S33R03
                                R11R21R02E26R22
 120494186.249 4  93891578.85641  22929273.988    22929273.9044   22929274.5204
        28.700           8.6004
 126142000.077 7                  24004016.472
        46.900
 117940359.626 6  91901507.21445  22443312.416    22443311.8354   22443316.5454
        41.800          34.8004
 115051712.123 8  89650715.78146  21893607.125    21893605.9814   21893608.0224
        50.100          37.5004
 108704356.079 6  84704687.72746  20685748.800    20685748.0814   20685755.9824
        41.000          38.7004
 119987282.866 4  93496588.51941  22832823.045    22832822.3574   22832823.4744
        25.600           9.6004
 129227649.102 6 100696864.95242  24591200.907    24591201.6174   24591218.6464
        38.200          14.4004
 119247708.148 7  92920265.63744  22692069.294    22692067.8324   22692070.5354
        42.800          24.6004
 140020474.637 5                  26645011.572
        31.800
 108320405.935 8  84405530.56147  20612687.929    20612687.4734   20612687.3794
        48.100          47.1004
 130058986.581 7                  24749397.999
        44.900
 128406729.143 7                  24434988.380
        46.000
 143702020.354 5                  27345591.626
        32.700




 111199917.749 7  86488852.534 5  20816857.430    20816857.262    20816860.526
        45.600          33.800
 133804912.482 6                  25462224.102
        40.500
 106729240.476 8  83165643.79046  20309899.848    20309899.5714   20309900.2644
        49.300          37.2004


 198897278.062 7                  37848908.131
        43.200
 130432280.306 5                  24820432.780
        32.800


 202055111.136 7                  38449825.443
        45.300
 128465067.587 5  99917309.157 4  23998358.053    23998357.951    23998352.638
        30.600          29.400
 105133637.915 8  81770599.931 7  19674333.685    19674333.241    19674339.288
        49.600          43.500


 127188270.887 6  98924271.751 5  23835033.395    23835032.095    23835041.197
        36.800          33.000


 108170955.465 6  84132818.474 7  20264027.663    20264031.360    20264032.289
        40.900          43.600
 25  1  1 22  0 45.0000000  0 29G21E31G07G02G30G15G19E10G17E33E24E09
                                E03E25R12E12G14S35S31E05E06S33R03R11
                                R21R20R02E26R22
 120535240.278 6  93923569.05341  22937086.683    22937086.2414   22937087.0534
        36.400          11.7004
 126154520.380 7                  24006399.266
        46.400
 117988304.605 7  91938866.87545  22452434.996    22452434.4204   22452440.8244
        43.200          35.3004
 115071845.543 8  89666404.13946  21897437.895    21897436.7554   21897438.9954
        48.900          37.6004
 108729175.154 6  84724027.22946  20690473.044    20690472.3604   20690478.9454
        38.400          38.4004
 129236460.977 5 100703731.27042  24592876.599    24592877.2834   24592896.5644
        35.000          12.9004
 119205366.680 7  92887272.41844  22684012.461    22684010.9864   22684014.2984
        44.100          26.3004
 139973495.431 5                  26636075.146
        32.400
 108305185.824 8  84393670.74947  20609791.533    20609791.0774   20609790.8864
        48.200          46.9004
 130061316.497 7                  24749841.730
        44.900
 128389489.714 7                  24431708.113
        46.900
 143743854.226 5                  27353551.557
        31.300




 111158401.682 8  86456562.219 5  20809085.727    20809086.315    20809088.358
        48.600          35.200
 133766596.198 6                  25454933.768
        40.600
 106717467.404 8  83156469.97646  20307659.224    20307658.9384   20307659.7484
        50.000          36.6004


 198897282.663 7                  37848906.195
        42.500
 130452448.009 5                  24824272.556
        30.600


 202055122.939 7                  38449820.202
        44.000
                  99918111.392 5                                  23998547.583
                        32.000
 105145072.581 8  81779493.541 7  19676472.821    19676472.828    19676478.365
        50.300          43.300
 105129628.004 7  81767471.045 5  19645979.245    19645978.729    19645985.063
        43.500          35.200


 127226892.873 5  98954310.982 4  23842268.142    23842265.030    23842279.631
        32.400          26.900


                  84097580.158 7                                  20255545.475
                        44.700
 25  1  1 22  1  0.0000000  0 29G21E31G07G02G30G13G15G19E10G17E33E24
                                E09E03E25R12E12G14S35S31E05E06S33R03
                                R11R21R02E26R22
 120576388.042 6  93955632.28242  22944915.971    22944915.4934   22944917.8174
        37.500          12.7004
 126167066.485 7                  24008786.508
        45.300
 118036317.594 7  91976279.51045  22461571.184    22461570.6344   22461577.8204
        44.500          35.9004
 115092104.212 8  89682190.09746  21901293.559    21901292.4424   21901294.6794
        49.000          38.1004
 108754117.068 6  84743462.45246  20695219.610    20695218.9314   20695225.0234
        41.400          38.7004
 120024735.476 6  93525776.73842  22839940.581    22839940.6434   22839948.1784
        39.700          17.7004
 129245394.858 5 100710692.8524   24594577.025    24594577.6554   24594598.0174
        30.600           3.8004
 119163076.930 7  92854319.49044  22675965.788    22675964.3084   22675966.5004
        44.700          27.4004
 139926531.550 5                  26627149.611
        30.000
 108290058.037 8  84381882.87647  20606912.364    20606911.9084   20606912.4404
        48.700          47.2004
 130063752.804 7                  24750305.408
        44.400
 128372266.165 7                  24428430.595
        46.800






 111116926.292 8  86424303.562 6  20801321.968    20801322.210    20801324.669
        49.300          38.300
 133728336.640 6                  25447653.011
        40.300
 106705751.692 8  83147340.86545  20305429.443    20305429.1484   20305430.3224
        49.400          35.8004


 198897281.429 7                  37848907.160
        42.500




 202055128.873 7                  38449826.359
        45.300
                  99919043.788 4                                  23998772.837
                        29.400
 105156620.458 8  81788475.278 7  19678632.336    19678632.787    19678640.761
        48.800          44.400
 105150764.160 6  81783910.372 6  19649925.648    19649924.999    19649933.040
        38.900          36.700
 127265606.668 6                  23849523.937    23849522.987
        37.500


 108080480.531 6  84062449.061 7  20247086.206    20247083.218    20247084.352
        41.200          45.900
 25  1  1 22  1 15.0000000  0 29G21E31G07G02G30G13G15G19E10G17E33E24
                                E09E03E25R12E12G14S35S31E05E06S33R03
                                R11R21R02E26R22
 120617638.533 5  93987775.56241  22952764.136    22952763.6494   22952768.1844
        33.900          11.2004
 126179647.491 7                  24011180.384
        44.500
 118084407.498 7  92013752.06646  22470723.138    22470722.6114   22470729.4974
        43.400          36.4004
 115112496.971 8  89698080.53946  21905174.276    21905173.1634   21905176.1234
        49.900          38.6004
 108779190.724 7  84763000.34046  20699990.022    20699989.2984   20699995.9134
        42.200          39.9004
 120043617.105 6  93540489.67542  22843533.428    22843533.4284   22843537.8264
        41.700          16.9004
 129254459.561 5                  24596301.517
        30.600
 119120847.985 7  92821413.94644  22667930.141    22667928.6614   22667930.3594
        43.200          28.8004
 139879592.360 5                  26618209.059
        30.200
 108275031.806 8  84370174.13847  20604053.094    20604052.6474   20604053.2674
        49.200          47.9004
 130066304.519 7                  24750791.475
        45.100
 128355067.593 7                  24425157.990
        46.500






 111075501.183 8  86392084.008 6  20793567.690    20793567.616    20793571.618
        49.600          41.200
 133690143.152 6                  25440384.766
        40.500
 106694102.492 7  83138263.58845  20303213.109    20303212.8144   20303214.0794
        47.300          35.8004


 198897282.100 7                  37848908.193
        42.800




 202055137.092 7                  38449831.587
        45.700


 105168290.927 8  81797552.236 7  19680818.925    19680819.893    19680826.052
        50.300          44.900
 105172086.709 6  81800494.633 6  19653911.875    19653908.302    19653919.183
        38.400          39.600
 127304420.821 6                  23856812.286    23856812.121
        37.200
 146201537.624 5                  27821225.327
        34.300
 108035459.261 7  84027432.620 7  20238644.796    20238643.862    20238650.456
        42.600          46.000
 25  1  1 22  1 30.0000000  0 28G21E31G07G02G30G13G15G19E10G17E33E24
                                E09E03E25R12E12G14S35S31E05E06S33R03
                                R11R21E26R22
 120658987.289 4  94019995.50641  22960632.728    22960632.0944   22960636.9834
        29.700           6.9004
 126192259.209 7                  24013580.446
        44.800
 118132569.906 7  92051281.10146  22479889.757    22479889.2614   22479895.3664
        46.000          38.0004
 115133019.428 8  89714072.04646  21909079.379    21909078.2664   21909081.3254
        49.200          38.4004
 108804391.752 7  84782637.48346  20704787.167    20704786.3724   20704791.4204
        42.700          40.1004
 120062622.275 6  93555298.88442  22847150.114    22847149.9094   22847152.0244
        41.200          13.3004
 129263650.680 6 100725010.31841  24598053.514    24598054.1804   24598074.6724
        37.700           8.5004
 119078675.830 6  92788552.62744  22659905.478    22659903.9984   22659905.2234
        41.700          27.8004


 108260102.617 8  84358541.00948  20601212.084    20601211.6334   20601212.3554
        49.500          48.1004
 130068967.376 7                  24751298.797
        45.600
 128337889.815 7                  24421888.891
        45.500






 111034122.455 7  86359900.583 7  20785820.398    20785819.765    20785827.313
        47.800          43.200
 133652011.681 6                  25433128.736
        39.600
 106682515.722 7  83129234.96346  20301008.557    20301008.2624   20301010.1954
        47.200          36.3004


 198897281.093 7                  37848906.253
        42.400
 130513389.366 5                  24835874.974
        35.200


 202055143.266 7                  38449827.688
        46.100
 128470225.318 6                  23999322.645    23999324.783
        36.500
 105180079.834 7  81806721.366 7  19683022.155    19683023.093    19683029.940
        47.500          42.400
 105193590.922 7  81817220.129 6  19657931.922    19657929.096    19657936.520
        42.700          41.000
 146236392.043 4                  27827856.735
        29.400
 107990581.564 7  83992527.815 7  20230236.113    20230236.402    20230242.307
        45.300          44.700
 25  1  1 22  1 45.0000000  0 28G21E31G07G02G30G13G15G19E10G17E33E24
                                E09E03E25R12E12G14S35S31E05E06S33R11
                                R21R23R02R22
 120700439.880 5  94052296.3684   22968530.881    22968530.0324   22968525.5024
        30.100           3.2004
 126204907.932 7                  24015987.017
        45.100
 118180810.663 8  92088871.20846  22489069.486    22489068.9954   22489075.3344
        48.500          38.5004
 115153677.531 8  89730169.23246  21913010.907    21913009.8034   21913011.6714
        49.200          38.4004
 108829726.268 7  84802378.62146  20709607.807    20709606.9094   20709612.1914
        43.800          39.6004
 120081757.110 6  93570209.08841  22850790.508    22850790.3654   22850792.3774
        39.300          10.0004
 129272974.380 5 100732275.72042  24599824.818    24599825.5424   24599838.8614
        34.200          14.1004
 119036566.775 6  92755740.47544  22651891.504    22651890.0074   22651892.6264
        38.300          25.5004
 139785770.764 6                  26600350.704
        37.000
 108245276.515 8  84346988.21747  20598390.672    20598390.2074   20598391.2004
        49.200          47.6004
 130071747.582 7                  24751827.734
        45.200
 128320739.111 7                  24418624.907
        44.900






 110992796.712 8  86327758.355 7  20778085.203    20778085.370    20778090.950
        48.400          44.600
 133613948.692 6                  25425886.059
        41.200
 106670997.713 8  83120259.91746  20298816.549    20298816.2594   20298819.4404
        48.000          36.8004


 198897285.057 7                  37848918.957
        44.000
 130533895.226 6                  24839776.834
        36.600


 202055154.640 7                  38449826.588
        44.200
 105191993.657 8  81815987.644 6  19685253.922    19685254.379    19685256.039
        49.100          37.700
 105215282.633 7  81834091.486 7  19661983.336    19661983.409    19661991.817
        46.200          43.600
 128567977.615 5                  24034430.950    24034429.187
        35.200
                  99075225.140 5                                  23871410.106
                        34.100
 107945854.163 7  83957739.881 7  20221857.652    20221857.664    20221863.515
        47.500          45.000
 25  1  1 22  2  0.0000000  0 27G21E31G07G02G30G13G15G19E10G17E33E24
                                E09E03E25R12E12G14S35S31E05E06S33R11
                                R21R23R22
 120741987.410 5  94084671.07541  22976429.117    22976428.3224   22976431.8674
        34.800           9.0004
 126217585.071 7                  24018399.637
        44.700
 118229120.792 8  92126515.33546  22498261.574    22498261.0784   22498267.8054
        48.200          37.8004
 115174462.526 8  89746365.35146  21916965.847    21916964.7474   21916966.2134
        49.400          38.4004
 108855185.418 7  84822216.89546  20714452.136    20714451.1974   20714456.7784
        43.400          40.5004
 120101012.599 6  93585213.40541  22854454.023    22854453.8674   22854456.0224
        39.100           8.5004
 129282421.737 5 100739637.36942  24601624.515    24601624.9754   24601629.9744
        35.100          17.2004
 118994512.251 5  92722970.79843  22643884.594    22643883.0034   22643890.0494
        30.200          21.6004
 139738898.137 5                  26591428.791
        30.900
 108230545.024 8  84335509.15047  20595587.671    20595587.1934   20595588.2304
        49.300          47.8004
 130074636.542 7                  24752377.164
        45.900
 128303606.874 7                  24415364.863
        44.000




 146480943.204 5                  27874396.202
        32.200
 110951515.540 8  86295650.789 7  20770356.419    20770357.494    20770361.956
        49.700          43.600
 133575945.884 6                  25418654.339
        41.800
 106659540.004 8  83111331.86146  20296636.152    20296635.8804   20296639.3594
        48.500          37.0004


 198897284.452 7                  37848913.895
        42.700
 130554481.232 6                  24843694.396
        37.400


 202055161.689 7                  38449830.111
        45.800
 105204023.613 7  81825344.240 5  19687503.402    19687503.520    19687504.921
        47.300          34.500
 105237153.103 8  81851101.806 7  19666074.400    19666074.505    19666078.357
        51.600          43.700
 128500375.980 6                  24021790.974    24021793.718
        36.100
 107901268.591 7  83923062.267 7  20213504.387    20213504.539    20213511.522
        47.800          46.600
 25  1  1 22  2 15.0000000  0 29G21E31G07G02G30G13G15G19E10G17E33E24
                                E09E03E25R12E12G14S35S31E05E06S33R03
                                R11R21R23R02R22
 120783634.552 5  94117123.48341  22984355.397    22984354.7584   22984357.1034
        34.200           6.1004
 126230295.574 7                  24020818.515
        45.600
 118277504.962 7  92164217.12745  22507468.310    22507467.8144   22507473.9374
        46.500          35.9004
 115195379.073 8  89762663.96546  21920946.677    21920945.5864   21920945.7884
        49.300          38.1004
 108880774.011 7  84842156.02347  20719322.096    20719321.1844   20719325.8034
        46.500          42.4004
 120120393.416 6  93600315.25041  22858141.643    22858141.4834   22858143.3084
        38.200           6.9004
 129291997.470 5 100747098.99143  24603446.273    24603446.4784   24603448.7174
        32.300          19.8004
 118952517.312 5  92690247.61043  22635892.985    22635891.3894   22635897.9414
        35.400          19.9004
 139692049.547 4                  26582512.669
        28.500
 108215912.898 8  84324107.52347  20592803.093    20592802.6154   20592803.7294
        49.000          47.5004
 130077639.055 7                  24752947.775
        44.600
 128286498.141 6                  24412109.771
        39.100


 146557250.690 5                  27888917.933
        34.700
 146448923.491 5                  27868307.110
        34.100
 110910284.116 7  86263581.951 7  20762637.715    20762637.439    20762644.387
        47.300          43.700
 133538008.286 7                  25411435.494
        43.500
 106648147.572 7  83102454.62846  20294467.972    20294467.7004   20294470.6044
        47.600          36.2004


 198897284.654 7                  37848915.536
        42.400
 130575152.375 4                  24847637.348
        25.700


 202055169.105 7                  38449832.190
        43.800
 128475978.681 6                  24000388.723
        36.500
 105216174.946 7  81834795.244 6  19689779.138    19689777.832    19689784.376
        46.800          38.800
 105259206.573 8  81868254.511 7  19670194.704    19670195.365    19670199.525
        51.400          45.600
 128432795.207 5                  24009170.498    24009173.047
        33.000
 127460692.699 5  99136127.237 5  23886077.485                    23886083.333
        33.100          30.100
 107856830.213 7  83888499.131 7  20205180.170    20205179.205    20205187.556
        45.200          46.500
 25  1  1 22  2 30.0000000  0 29G21E31G07G02G30G13G15G19E10G17E33E24
                                E09E03E25R12E12G14S35S31E05E06S33R03
                                R11R21R23R02R22
 120825381.605 5  94149653.4084   22992297.427    22992296.5914   22992301.4064
        31.600           4.4004
 126243040.108 7                  24023244.380
        46.800
 118325963.455 7  92201976.85145  22516689.504    22516689.0044   22516695.0044
        44.800          35.6004
 115216427.537 8  89779065.37446  21924952.035    21924950.9444   21924950.9134
        48.700          38.1004
 108906492.486 7  84862196.37047  20724215.659    20724214.7614   20724220.4724
        46.400          44.5004
 120139899.879 5  93615515.02741  22861852.432    22861852.2184   22861855.1674
        35.800          11.0004
 129301701.948 5 100754660.94943  24605293.240    24605293.5664   24605294.5414
        34.400          19.8004
 118910582.648 6  92657571.38743  22627917.378    22627915.9124   22627917.7094
        39.300          20.8004
 139645225.630 5                  26573604.913
        33.200
 108201380.683 8  84312783.73147  20590037.688    20590037.1924   20590038.1384
        49.000          47.2004
 130080755.704 7                  24753540.791
        44.400
 128269413.538 6                  24408858.083
        37.500


 146544892.933 6                  27886567.180
        36.500
 146416898.925 5                  27862210.765
        30.400
 110869103.521 8  86231552.558 7  20754928.650    20754929.157    20754934.876
        48.300          43.900
 133500136.816 7                  25404228.726
        43.900
 106636821.137 8  83093628.86245  20292312.505    20292312.2154   20292313.5154
        48.500          35.6004


 198897286.818 7                  37848911.882
        42.600




 202055177.768 7                  38449827.920
        43.800
 128478222.030 6                  24000803.770    24000806.836
        37.300
 105228448.403 7  81844341.216 6  19692074.554    19692073.997    19692081.216
        46.700          41.700
 105281443.526 8  81885549.906 7  19674349.599    19674349.869    19674355.702
        50.900          46.800
 128365236.420 5                  23996546.170    23996545.690
        30.500


 107812539.996 7  83854051.203 7  20196882.881    20196881.251    20196890.121
        45.700          45.700
 25  1  1 22  2 45.0000000  0 28G21E31G07G02G30G13G15G19E10G17E33E24
                                E09E03E25R12E12G14S35S31E05E06S33R03
                                R11R21R02R22
 120867226.622 5  94182259.89041  23000261.488    23000260.6704   23000264.7264
        30.400           6.4004
 126255817.328 7                  24025675.599
        47.900
 118374494.660 6  92239793.25845  22525924.429    22525923.9334   22525931.3694
        38.800          34.1004
 115237606.426 8  89795568.40846  21928982.262    21928981.1804   21928981.1734
        48.600          38.0004
 108932339.288 7  84882336.71247  20729134.841    20729133.9434   20729140.4564
        46.400          46.3004
 120159530.347 6  93630811.46142  22865588.616    22865588.4474   22865591.9094
        38.200          15.5004
 129311533.792 5 100762322.09042  24607162.740    24607163.0174   24607165.0344
        31.300          17.5004
 118868707.143 7  92624941.19744  22619946.111    22619944.6454   22619949.0404
        42.300          25.8004
 139598425.321 6                  26564698.196
        36.000
 108186947.025 8  84301536.72647  20587291.334    20587290.8614   20587291.2424
        49.200          47.2004
 130083985.099 7                  24754155.193
        42.900
 128252351.645 6                  24405610.991
        39.700


 146532634.603 6                  27884235.264
        36.700
 146384867.930 5                  27856110.069
        32.700
 110827972.557 7  86199561.871 7  20747228.085    20747228.572    20747234.349
        46.600          43.600
 133462330.275 7                  25397034.139
        43.400
 106625559.416 8  83084853.52646  20290169.523    20290169.2064   20290169.5114
        48.100          36.3004


 198897288.723 7                  37848913.081
        42.200




 202055186.975 7                  38449833.845
        44.800
 128480638.494 5                  24001246.399    24001246.911
        30.100
 105240842.637 8  81853981.148 7  19694393.963    19694395.051    19694400.798
        49.500          42.900
 105303862.193 8  81902986.655 7  19678538.785    19678537.964    19678545.509
        48.700          47.200
                                                  23900825.354

 107768396.946 8  83819717.766 7  20188616.266    20188614.924    20188618.969
        49.000          43.900
 25  1  1 22  3  0.0000000  0 30G21E31G07G02G30G13G15G19E10G17E33E24
                                E09E03E25R12E12G14S35S31E05E06S33R11
                                R21R23R10R02E26R22
 120909166.617 4  94214940.5104   23008244.502    23008243.8544   23008246.2194
        28.300           2.4004
 126268624.289 8                  24028112.704
        48.300
 118423095.318 6  92277663.79045  22535174.296    22535173.8004   22535181.4704
        39.300          31.9004
 115258912.506 7  89812170.55546  21933036.542    21933035.4744   21933036.2414
        47.200          37.4004
 108958311.333 8  84902574.64848  20734078.323    20734077.4784   20734083.9784
        48.300          48.2004
 120179281.565 5  93646201.97442  22869346.912    22869346.7204   22869352.7364
        34.500          16.6004


 118826887.686 6  92592354.69044  22611989.337    22611987.8624   22611991.6184
        41.700          26.8004
 139551645.902 6                  26555796.292
        36.700
 108172608.888 8  84290364.15947  20584562.541    20584562.0634   20584562.8104
        50.600          47.6004
 130087324.238 6                  24754790.587
        41.400
 128235309.618 7                  24402366.623
        42.900


 146520472.844 5                  27881919.263
        34.700
 146352827.678 5                  27850012.551
        35.100
 110786888.540 7  86167607.669 7  20739538.793    20739536.477    20739544.115
        45.500          42.700
 133424585.966 7                  25389851.289
        43.000
 106614359.586 8  83076126.40346  20288038.865    20288038.5524   20288038.3984
        48.200          37.5004


 198897287.235 7                  37848910.653
        42.300




 202055192.985 7                  38449834.507
        44.500
 105253354.780 8  81863712.818 7  19696736.355    19696737.202    19696741.970
        49.500          43.300
 105326459.095 7  81920562.032 7  19682760.945    19682760.191    19682767.785
        47.600          46.800
 128230249.842 6                  23971286.857    23971288.727
        37.400
 123970949.918 5                  23256634.152    23256633.980
        30.600
 127578840.952 6                  23908224.542    23908225.572
        41.800


 107724398.390 8  83785496.745 7  20180372.841    20180373.196    20180376.991
        49.900          42.700
 25  1  1 22  3 15.0000000  0 28E31G07G02G30G13G15G19E10G17E33E24E09
                                E03E25R12E12G14S35S31E05S33R11R21R23
                                R10R02E26R22
 126281465.852 8                  24030556.286
        48.400
 118471769.948 6  92315592.02845  22544436.508    22544435.9364   22544445.1344
        36.600          30.6004
 115280350.509 7  89828875.50146  21937116.547    21937115.4794   21937116.5834
        44.900          36.4004
 108984413.270 8  84922913.79048  20739044.871    20739044.0534   20739050.6624
        49.900          48.8004
 120199158.162 6  93661690.18142  22873133.772    22873133.5534   22873136.7754
        36.600          13.2004
 129331601.214 5                  24610984.086
        30.000
 118785129.312 6  92559815.74544  22604042.902    22604041.4274   22604045.2724
        40.900          26.2004
 139504892.428 6                  26546899.743
        37.700
 108158371.015 8  84279269.72947  20581853.204    20581852.7394   20581853.9774
        49.100          47.7004
 130090777.855 7                  24755448.141
        42.800
 128218292.315 7                  24399129.775
        42.700


 146508412.431 5                  27879624.547
        30.400
 146320782.934 6                  27843916.186
        37.400
 110745856.804 8  86135694.067 7  20731859.150    20731858.451    20731863.016
        48.500          42.700
 133386908.856 6                  25382681.719
        41.700
 106603226.570 8  83067451.32946  20285920.133    20285919.8254   20285920.6604
        48.200          38.9004


 198897287.945 7                  37848918.344
        43.900


 202055200.519 7                  38449835.616
        45.000
 105265989.808 8  81873540.082 7  19699100.700    19699101.318    19699105.656
        49.300          43.800
 105349238.924 7  81938279.655 7  19687018.623    19687017.350    19687024.967
        46.200          46.000
 128162754.522 5                  23958665.405    23958669.736
        32.600
 124019132.071 5                  23265672.235    23265668.366
        31.900
 127618418.463 6                  23915640.953    23915641.481
        38.400


 107680549.552 7  83751392.136 6  20172155.896    20172155.870    20172160.876
        46.400          40.900
 25  1  1 22  3 30.0000000  0 28E31G07G02G30G13G19E10G17E33E24E09E03
                                E25R12E12G14S35S31E05S33R03R11R21R23
                                R10R02E26R22
 126294338.839 8                  24033006.488
        48.000
 118520515.118 6  92353575.22345  22553713.220    22553712.7024   22553721.7384
        37.300          32.1004
 115301916.851 7  89845680.46345  21941220.570    21941219.5154   21941220.8984
        45.700          35.3004
 109010641.658 8  84943351.48247  20744035.690    20744034.8864   20744040.1574
        49.100          47.3004
 120219156.647 6  93677273.39241  22876938.674    22876938.4424   22876942.9984
        38.800          11.9004
 118743428.657 6  92527321.78544  22596106.673    22596105.1804   22596110.0244
        36.600          25.8004
 139458161.943 6                  26538006.242
        40.400
 108144229.971 8  84268250.78648  20579162.408    20579161.9484   20579163.4564
        50.500          48.3004
 130094342.719 7                  24756126.644
        42.600
 128201296.540 6                  24395893.703
        41.700
 144204234.419 5                  27441152.164
        30.200
 146496450.271 4                  27877347.764
        29.500
 146288730.542 5                  27837817.158
        34.200
 110704874.310 8  86103818.785 7  20724187.090    20724187.396    20724190.826
        49.500          42.400
 133349296.017 6                  25375523.658
        41.300
 106592157.223 7  83058825.86746  20283813.647    20283813.3434   20283814.5174
        47.600          38.3004


 198897288.246 6                  37848913.135
        40.300


 202055207.185 7                  38449842.824
        45.500
                                                  24002789.316

 105278744.533 8  81883460.437 7  19701486.989    19701486.848    19701491.795
        48.700          44.300
 105372198.078 8  81956136.762 7  19691309.264    19691308.945    19691315.430
        48.000          45.100
 128095279.767 6                  23946051.798    23946059.484
        36.400
 124067372.256 5                  23274722.036    23274720.969
        35.000
                                                  23923072.638



 107636847.589 7  83717401.747 6  20163971.051    20163971.464    20163976.774
        46.900          41.000
 25  1  1 22  3 45.0000000  0 27E31G07G02G30G13G19E10G17E33E24E09E03
                                E25R12E12G14S35S31E05S33R11R21R23R10
                                R02E26R22
 126307245.410 7                  24035462.364
        46.700
 118569332.437 6  92391614.61545  22563002.668    22563002.1904   22563011.1454
        41.600          33.3004
 115323613.657 7  89862587.09345  21945349.386    21945348.3364   21945349.6594
        43.700          34.3004
 109036998.529 8  84963889.26747  20749050.605    20749049.8274   20749054.2194
        48.400          47.0004
 120239278.876 6  93692952.90241  22880767.923    22880767.6334   22880772.5544
        37.300           8.5004
 118701788.296 6  92494874.79944  22588182.718    22588181.2474   22588187.1054
        38.300          26.1004
 139411456.823 6                  26529118.305
        39.100
 108130187.786 8  84257308.85148  20576490.129    20576489.6694   20576491.1514
        50.900          48.6004
 130098020.954 7                  24756826.193
        44.400
 128184324.489 7                  24392666.118
        43.700
 144246099.572 5                  27449120.371
        30.200


 146256672.631 5                  27831714.273
        34.700
 110663943.476 8  86071983.624 6  20716523.422    20716524.479    20716528.651
        50.000          41.900
 133311749.784 6                  25368379.421
        41.400
 106581153.881 7  83050251.83546  20281719.811    20281719.5124   20281721.1544
        46.500          39.3004


 198897287.718 6                  37848910.881
        41.500
 130700988.221 5                  24871561.876
        32.300
 202055213.943 7                  38449841.161
        45.400
 105291621.337 7  81893475.688 7  19703896.466    19703896.449    19703902.303
        47.300          45.500
 105395338.257 7  81974134.713 7  19695632.994    19695633.406    19695639.896
        47.500          44.200
 128027828.331 5                  23933444.847    23933450.742
        31.000
 124115673.044 5                  23283784.222    23283782.104
        35.100
                                                  23930532.364



 107593295.000 7  83683527.606 6  20155807.388    20155807.936    20155814.762
        42.200          39.500
 25  1  1 22  4  0.0000000  0 24E31G07G02G30G13G19E10G17E33E24E09E03
                                E25R12E12G14S35S31E05S33R11R21R10R22
 126320182.689 7                  24037924.146
        46.800
 118618219.039 7  92429707.95345  22572304.278    22572303.7964   22572312.0714
        43.200          31.3004
 115345437.642 7  89879592.81845  21949502.677    21949501.6274   21949501.7844
        44.200          32.5004
 109063480.734 7  84984524.74047  20754089.927    20754089.1584   20754092.9014
        46.100          45.0004
 120259521.699 6  93708726.37441  22884621.126    22884620.7874   22884625.3444
        38.600           7.6004
 118660205.374 6  92462472.57944  22580270.142    22580268.7214   22580274.6234
        39.300          27.3004
 139364774.373 5                  26520234.802
        35.900
 108116241.673 8  84246441.79448  20573835.942    20573835.4824   20573836.6624
        51.700          48.4004
 130101809.578 7                  24757547.359
        47.400
 128167373.248 7                  24389440.556
        42.900
 144287963.972 5                  27457087.252
        30.100
 146472835.395 5                  27872855.332
        35.900
 146224606.153 5                  27825616.330
        33.900
 110623061.562 8  86040186.601 7  20708869.510    20708870.864    20708877.799
        50.100          43.800
 133274267.443 6                  25361245.819
        38.200
 106570213.665 7  83041726.98146  20279638.138    20279637.8574   20279639.9004
        46.500          38.5004


 198897286.032 7                  37848915.768
        42.200
 130722240.954 5                  24875604.933
        34.600
 202055218.750 7                  38449842.171
        45.500
 105304617.193 7  81903583.551 7  19706329.281    19706329.736    19706333.981
        47.600          46.300
 105418656.245 8  81992270.925 7  19699989.799    19699990.672    19699997.555
        48.300          42.800
 124164030.800 5                  23292853.469    23292853.345
        32.000
 107549889.194 7  83649767.664 6  20147677.358    20147677.466    20147684.324
        42.800          38.700
 25  1  1 22  4 15.0000000  0 28G21E31G07G02G30G13G15G19E10G17E33E24
                                E09E03E25R12E12G14S35S31E05S33R03R11
                                R21R10R02R22
 121120345.613 5                  23048430.607
        34.000
 126333156.054 7                  24040392.508
        45.100
 118667179.815 7  92467859.06445  22581621.190    22581620.7394   22581626.4034
        42.200          30.2004
 115367393.787 7  89896701.53645  21953681.160    21953680.1454   21953679.5634
        45.000          33.2004
 109090093.459 7  85005261.91247  20759155.217    20759154.4624   20759157.4164
        42.800          43.1004
 120279889.899 6  93724597.52741  22888492.849    22888492.5954   22888501.9864
        37.600           8.6004
 129373188.789 5                  24618898.105
        32.900
 118618685.259 6  92430119.26544  22572367.875    22572366.4804   22572373.5704
        38.500          24.7004
 139318120.108 5                  26511357.323
        33.100
 108102396.787 8  84235653.58948  20571201.115    20571200.6594   20571201.4234
        51.600          48.5004
 130105713.871 7                  24758290.559
        46.500
 128150448.234 7                  24386220.971
        43.300


 146461174.162 4                  27870631.496
        27.000


 110582234.624 7  86008432.334 6  20701225.754    20701225.565    20701231.137
        47.200          39.300
 133236854.544 6                  25354127.462
        37.000
 106559342.004 7  83033255.54446  20277568.854    20277568.5734   20277570.5364
        47.200          37.7004


 198897287.987 7                  37848916.014
        42.800
 130743579.488 6                  24879667.630
        38.900
 202055227.423 7                  38449841.889
        42.400
 128498789.230 5                  24004649.714    24004646.556
        34.100
 105317737.681 6  81913788.439 7  19708778.847    19708779.760    19708789.438
        41.100          47.500
 105442156.855 7  82010549.198 7  19704381.349    19704381.653    19704389.476
        47.200          42.500
 124212450.116 4                  23301928.646
        25.800


 107506635.712 5  83616126.200 6  20139579.751    20139571.474    20139582.088
        32.400          41.800
 25  1  1 22  4 30.0000000  0 28G21E31G07G02G30G13G15G19E10G17E33E24
                                E09E03E25R12E12G14S35S31E05S33R03R11
                                R21R23R02R22
 121162868.761 5                  23056519.928
        31.700
 126346163.637 7                  24042867.418
        44.600
 118716212.558 6  92506066.28845  22590952.810    22590952.3954   22590956.8724
        40.400          32.2004
 115389480.233 7  89913911.78445  21957882.721    21957881.6894   21957881.6544
        44.200          32.6004
 109116834.660 7  85026099.15147  20764243.446    20764242.6914   20764246.9554
        47.200          45.5004
 120300381.242 5  93740564.90541  22892393.082    22892392.8864   22892402.2254
        35.000          10.0004
 129383906.024 4                  24620927.700
        27.200
 118577226.112 7  92397813.44144  22564480.177    22564478.8494   22564484.5054
        43.000          25.3004
 139271492.446 5                  26502483.559
        31.900
 108088651.346 8  84224942.88448  20568585.725    20568585.2434   20568586.1904
        49.100          48.3004
 130109731.877 7                  24759054.891
        46.300
 128133547.556 7                  24383005.320
        42.600






 110541460.872 8  85976719.473 6  20693594.844    20693593.623    20693598.466
        48.400          39.700
 133199509.426 6                  25347021.440
        37.800
 106548537.165 7  83024836.17046  20275513.252    20275512.9664   20275514.0504
        45.600          37.1004


 198897289.915 7                  37848920.955
        42.700
 130765001.778 7                  24883743.073
        42.000
 202055236.192 7                  38449851.463
        46.900
 128502416.283 4                  24005317.818
        27.700
 105330981.013 7  81924088.764 8  19711261.164    19711262.499    19711268.662
        42.800          49.000
 105465838.195 7  82028968.054 7  19708806.370    19708807.088    19708816.624
        47.600          42.500
 127825675.592 6                  23895649.299    23895647.797
        38.400
 127817761.551 5  99413838.551 5  23952993.101                    23952988.126
        32.100          31.600
 107463533.464 7  83582602.138 7  20131502.665    20131501.546    20131509.374
        42.700          44.900
 25  1  1 22  4 45.0000000  0 27G21E31G07G02G30G15G19E10G17E33E24E09
                                E03E25R12E12G14S35S31E05S33R11R21R23
                                R02E26R22
 121205481.628 5  94445800.9224   23064626.412    23064625.9614   23064629.0114
        33.200           5.7004
 126359198.509 7                  24045346.799
        43.200
 118765310.142 6  92544324.04545  22600296.555    22600296.1714   22600300.7624
        41.000          31.9004
 115411689.563 7  89931217.75945  21962109.471    21962108.4344   21962107.5834
        45.000          33.0004
 109143697.113 7  85047030.89247  20769354.903    20769354.1164   20769359.6514
        47.200          47.3004
 129394743.224 5 100827053.89642  24622994.327    24622994.4874   24622997.5964
        33.400          13.8004
 118535821.264 7  92365549.97643  22556601.059    22556599.6914   22556602.0814
        43.400          21.9004


 108074998.199 8  84214304.09548  20565988.113    20565987.6264   20565988.2314
        50.400          48.6004
 130113856.584 7                  24759840.252
        44.400
 128116664.317 6                  24379790.288
        37.100
 144413579.917 5                  27480992.103
        34.200




 110500733.391 8  85945042.606 6  20685970.937    20685970.424    20685975.311
        50.300          39.700
 133162225.304 6                  25339925.520
        37.800
 106537792.217 7  83016463.49146  20273468.132    20273467.8604   20273469.3834
        47.300          36.8004


 198897286.644 7                  37848909.325
        42.300
 130786500.639 7                  24887833.567
        42.800
 202055240.334 7                  38449845.261
        44.200
 105344340.267 6  81934479.297 8  19713763.659    19713761.143    19713768.675
        40.600          48.700
 105489692.334 8  82047521.215 6  19713266.634    19713267.563    19713271.102
        49.800          40.100
 127758315.161 5                  23883045.885    23883043.411
        35.200
 127857851.752 6  99445046.152 5  23960504.507                    23960506.591
        36.700          30.400


 107420575.261 8  83549190.195 7  20123457.387    20123457.088    20123461.182
        48.800          45.400
 25  1  1 22  5  0.0000000  0 27G21E31G07G02G30G15G19E10G17E33E24E09
                                E03E25R12E12G14S35S31E05S33R11R21R23
                                R02E26R22
 121248194.218 5  94479083.4734   23072752.798    23072752.4854   23072756.5204
        31.100           4.0004
 126372271.188 6                  24047834.953
        41.900
 118814482.679 7  92582640.22945  22609653.616    22609653.1874   22609660.2704
        43.400          33.5004
 115434032.127 7  89948627.57145  21966360.503    21966359.4844   21966359.4934
        46.700          34.4004
 109170691.287 8  85068065.27848  20774492.325    20774491.5474   20774497.2824
        48.500          48.2004
 129405710.776 5 100835600.06442  24625082.008    24625082.4104   24625086.4164
        33.800          13.9004
 118494481.141 7  92333337.01843  22548734.185    22548732.8754   22548729.6204
        44.300          18.9004


 108061447.706 8  84203745.28648  20563409.184    20563408.6934   20563409.4914
        50.100          48.4004
 130118098.500 7                  24760647.769
        44.800
 128099809.003 6                  24376582.198
        36.500
 144455450.700 5                  27488957.175
        32.700


 146096287.311 4                  27801196.988
        28.400
 110460063.409 8  85913410.394 6  20678356.115    20678357.236    20678362.602
        49.800          41.200
 133125013.008 6                  25332844.373
        39.500
 106527117.913 7  83008145.84946  20271436.618    20271436.3644   20271437.9564
        47.600          36.5004


 198897288.955 7                  37848913.662
        43.100
 130808086.434 7                  24891941.537
        42.000
 202055248.813 7                  38449848.986
        43.900
 105357826.156 7  81944968.294 8  19716286.705    19716286.161    19716292.128
        47.200          48.400
 105513729.865 8  82066217.127 6  19717756.388    19717757.788    19717763.321
        48.700          39.600
 127690984.249 5                  23870451.416    23870447.445
        30.100
 127898070.363 5  99476327.275 5  23968040.362    23968038.532    23968047.151
        35.600          35.300


 107377772.216 7  83515899.007 7  20115435.583    20115435.811    20115442.718
        45.900          44.800
 25  1  1 22  5 15.0000000  0 28G21E31G07G02G30G15G19E10G17E33E24E09
                                E03E25R12E12G14S35S31E05S33R03R11R21
                                R23R02E26R22
 121291001.344 5  94512439.7834   23080899.049    23080898.9064   23080903.7274
        30.200           3.2004
 126385377.028 7                  24050330.049
        43.600
 118863724.928 7  92621010.73445  22619024.638    22619024.2184   22619033.1714
        45.900          35.1004
 115456503.062 7  89966137.40945  21970636.148    21970635.1244   21970636.5334
        46.900          35.3004
 109197812.164 8  85089198.39247  20779652.902    20779652.1294   20779657.9014
        48.600          46.8004
 129416803.621 5 100844243.76542  24627192.283    24627192.8914   24627198.8784
        33.600          12.8004
 118453201.085 7  92301170.86643  22540879.250    22540878.0074   22540870.8594
        45.300          19.3004


 108047995.142 8  84193262.79448  20560849.259    20560848.7774   20560849.2464
        51.300          48.5004
 130122452.784 7                  24761476.170
        45.500
 128082976.955 7                  24373381.060
        42.400
 144497321.545 5                  27496929.772
        32.400


 146064192.723 5                  27795087.513
        30.300
 110419446.234 8  85881819.235 7  20670752.677    20670753.224    20670759.886
        48.400          42.000
 133087867.954 6                  25325775.087
        39.500
 106516509.537 7  82999879.58846  20269417.868    20269417.6094   20269419.8634
        46.700          36.5004


 198897290.505 7                  37848908.873
        42.400
 130829754.182 6                  24896064.118
        37.300
 202055256.835 7                  38449846.804
        43.000
 128514293.358 4                  24007535.224    24007534.956
        29.100
 105371433.980 8  81955552.118 7  19718833.658    19718833.971    19718836.892
        49.300          46.000
 105537945.590 8  82085051.521 6  19722283.138    19722283.718    19722289.546
        49.500          41.500
                                                  23857862.806

 127938378.632 5  99507678.025 5  23975587.483    23975585.898    23975599.579
        31.200          35.100


 107335119.966 7  83482725.045 7  20107445.208    20107445.120    20107453.163
        45.500          44.300
 25  1  1 22  5 30.0000000  0 28G21E31G07G02G30G15G19E10G17E33E24E09
                                E03E25R12E12G14S35S31E05S33R03R11R21
                                R23R02E26R22
 121333903.169 5  94545869.7114   23089063.245    23089063.1874   23089068.0074
        30.700           5.0004
 126398516.192 7                  24052830.028
        44.800
 118913036.835 7  92659435.54045  22628408.098    22628407.6964   22628418.6154
        46.300          34.3004
 115479102.361 7  89983747.26645  21974936.732    21974935.7084   21974937.6484
        45.600          35.6004
 109225059.776 7  85110430.25647  20784837.502    20784836.7424   20784841.8804
        47.600          45.0004
 129428021.592 5 100852985.13442  24629328.198    24629328.9084   24629334.3064
        34.800          15.1004
 118411981.324 7  92269051.68744  22533035.214    22533033.9854   22533029.6594
        46.000          24.0004


 108034640.709 8  84182856.77848  20558307.903    20558307.4304   20558307.9424
        51.300          49.2004
 130126919.545 7                  24762325.771
        45.600
 128066168.419 7                  24370181.275
        44.700
 144539192.399 5                  27504888.628
        31.300
 146404362.718 5                  27859824.841
        34.200
 146032091.988 5                  27788978.352
        30.500
 110378882.591 8  85850269.698 6  20663159.311    20663160.690    20663164.509
        48.000          40.300
 133050790.464 6                  25318718.793
        38.800
 106505967.313 7  82991664.88046  20267411.899    20267411.6404   20267414.2424
        46.500          36.8004


 198897292.846 6                  37848906.865
        41.000
 130851503.812 5                  24900202.800
        34.900
 202055264.875 7                  38449851.307
        46.000
 128518608.779 6                  24008348.520    24008346.833
        36.400
 105385163.961 8  81966231.007 7  19721402.201    19721402.784    19721406.081
        50.500          45.200
 105562339.384 8  82104024.471 6  19726841.038    19726841.567    19726847.610
        48.700          41.700
 127556397.615 4                  23845341.222    23845344.623
        25.600
 127978775.844 5  99539097.969 5  23983157.890    23983157.804    23983169.995
        34.400          34.900


 107292618.954 7  83449668.809 7  20099484.002    20099482.859    20099489.404
        43.500          42.700
 25  1  1 22  5 45.0000000  0 26E31G07G02G30G13G15G19E10G17E33E24E09
                                E03E25R12E12G14S35S31E05S33R11R21R02
                                E26R22
 126411687.850 7                  24055336.050
        45.400
 118962417.249 7  92697913.67745  22637804.661    22637804.2594   22637814.2814
        47.700          33.5004
 115501828.855 7  90001456.23845  21979262.649    21979261.6344   21979261.9354
        45.300          35.2004
 109252433.012 7  85131760.02947  20790046.788    20790046.0284   20790049.9614
        45.500          42.7004
 120404552.814 5  93821802.81742  22912236.387    22912236.1374   22912242.2874
        35.400          16.4004
 129439363.762 5 100861823.17142  24631484.267    24631484.9514   24631493.3444
        30.000          15.9004
 118370821.207 7  92236978.94144  22525201.990    22525200.7474   22525201.8654
        43.800          26.8004
 139038733.808 5                  26458192.646
        32.000
 108021383.382 8  84172526.42048  20555785.264    20555784.7914   20555785.2504
        50.400          49.2004
 130131497.905 7                  24763197.122
        45.800
 128049382.564 7                  24366987.606
        44.400
 144581062.242 5                  27512866.020
        31.600
 146393301.511 5                  27857719.780
        35.900
 145999984.451 4                  27782867.740
        27.600
 110338371.760 7  85818761.265 6  20655574.996    20655574.310    20655582.180
        44.900          41.900
 133013779.928 6                  25311676.864
        40.200
 106495490.532 7  82983501.17946  20265418.409    20265418.1504   20265420.7174
        46.600          37.1004


 198897294.389 6                  37848913.237
        41.500
 130873334.309 5                  24904358.959
        35.900
 202055273.156 7                  38449857.106
        45.200
 105399015.390 8  81977004.278 7  19723994.511    19723995.324    19724000.856
        50.800          47.700
 105586909.943 8  82123134.886 7  19731432.799    19731433.137    19731439.796
        49.600          42.500
 128019260.804 6  99570586.110 5  23990752.108    23990751.607    23990756.170
        38.400          33.300


 107250268.652 7  83416729.786 7  20091550.676    20091549.745    20091554.961
        45.200          42.200
 25  1  1 22  6  0.0000000  0 28E31G07G02G30G13G15G19E10G17E33E24E09
                                E03E25R12E12G14S35S31E05S33R03R11R21
                                R23R02E26R22
 126424891.754 7                  24057849.207
        46.400
 119011865.628 7  92736444.69745  22647213.797    22647213.3864   22647221.3454
        46.200          32.2004
 115524681.977 7  90019263.88946  21983611.207    21983610.1884   21983610.0694
        47.400          36.0004
 109279931.465 7  85153187.34946  20795279.051    20795278.2734   20795282.2564
        45.900          41.7004
 120425768.548 6  93838334.53543  22916272.880    22916272.4514   22916279.4114
        39.200          18.6004
 129450829.548 5 100870757.40941  24633669.728    24633670.2514   24633674.3964
        34.000           7.4004
 118329720.480 7  92204952.47544  22517380.534    22517379.2384   22517383.0134
        44.000          26.0004
 138992260.847 5                  26449350.234
        35.500
 108008222.655 8  84162271.33148  20553281.362    20553280.8844   20553280.7924
        49.600          48.2004
 130136187.485 7                  24764088.841
        46.000
 128032619.086 7                  24363798.164
        47.100
 144622930.323 5                  27520829.683
        35.400
 146382339.508 5                  27855630.690
        32.100
 145967869.485 4                  27776755.909
        28.200
 110297913.742 7  85787293.900 6  20648002.165    20648000.477    20648007.935
        44.600          40.200
 132976836.334 7                  25304647.095
        42.000
 106485078.991 7  82975388.29546  20263437.620    20263437.3614   20263439.5294
        46.300          37.0004


 198897294.523 6                  37848905.859
        41.300
 130895245.159 6                  24908529.610
        38.700
 202055279.756 7                  38449855.300
        45.300
 128527752.634 6                  24010074.957
        36.900
 105412988.034 8  81987871.886 8  19726609.374    19726609.059    19726616.523
        50.600          49.200
 105611656.347 8  82142382.070 7  19736058.342    19736057.684    19736063.928
        49.600          42.800
 127421751.584 5                  23820157.147    23820156.336
        33.500
 128059832.603 6  99602141.951 5  23998370.043                    23998360.428
        38.000          32.500


 107208069.083 7  83383908.017 7  20083645.420    20083644.846    20083650.859
        46.700          44.100
 25  1  1 22  6 15.0000000  0 27E31G07G02G30G13G15G19E10G17E33E24E09
                                E03E25R12E12G14S35S31E05S33R03R11R21
                                R02E26R22
 126438128.878 7                  24060368.114
        47.100
 119061382.717 7  92775029.31845  22656635.821    22656635.4324   22656641.6864
        45.700          32.9004
 115547662.539 7  90037170.82046  21987983.980    21987982.9564   21987982.9144
        47.300          36.9004
 109307555.872 7  85174712.84047  20800535.052    20800534.2924   20800539.5244
        44.800          42.2004
 120447104.381 6  93854959.79942  22920333.800    22920333.4344   22920338.2134
        40.700          17.1004
 129462419.702 6 100879788.8244   24635873.703    24635874.0244   24635879.5504
        37.400           2.0004
 118288680.166 6  92172973.04644  22509570.114    22509568.7774   22509574.6574
        38.000          24.5004
 138945814.807 5                  26440509.554
        35.400
 107995159.432 8  84152092.20847  20550795.208    20550794.7304   20550794.8564
        48.900          47.5004
 130140989.224 7                  24765002.787
        46.100
 128015879.058 7                  24360612.589
        47.400
 144664797.546 5                  27528802.442
        35.700
 146371477.746 4                  27853565.357
        29.700


 110257509.924 7  85755868.673 6  20640439.166    20640437.505    20640444.074
        46.600          41.300
 132939960.793 6                  25297629.477
        41.600
 106474733.782 7  82967327.09646  20261468.991    20261468.7374   20261470.8174
        46.600          37.6004


 198897295.008 6                  37848904.281
        41.500
 130917237.049 7                  24912716.990
        42.100
 202055286.449 7                  38449853.905
        44.100
 128532581.554 6                  24010956.675    24010962.915
        37.500
 105427082.917 8  81998834.568 8  19729247.294    19729247.030    19729253.117
        51.500          49.100
 105636579.565 8  82161766.769 7  19740715.191    19740715.098    19740720.667
        50.200          43.200
                  99633765.530 5                                  24005989.969
                        31.800


 107166021.641 8  83351204.438 7  20075770.478    20075770.333    20075774.096
        50.900          45.000
 25  1  1 22  6 30.0000000  0 26E31G07G02G30G13G15G19E10G17E33E24E09
                                E03E25R12E12G14S35S31E05S33R11R21R02
                                E26R22
 126451399.439 7                  24062893.319
        46.600
 119110968.390 7  92813667.40245  22666071.552    22666071.2174   22666078.2624
        44.600          34.5004
 115570770.437 7  90055176.98845  21992380.619    21992379.6224   21992380.1514
        46.700          35.6004
 109335306.220 7  85196336.48447  20805816.925    20805816.1704   20805821.7814
        46.400          43.8004
 120468560.109 7  93871678.52842  22924416.103    22924415.6974   22924418.2334
        42.100          15.0004
 129474134.211 5 100888916.89741  24638101.075    24638101.1954   24638107.5314
        35.900          10.0004
 118247700.533 6  92141040.93344  22501773.957    22501772.6344   22501777.3504
        39.200          25.9004
 138899396.103 6                  26431674.949
        36.500
 107982193.757 8  84141989.09847  20548327.825    20548327.3524   20548327.7864
        48.200          46.8004
 130145903.199 7                  24765937.338
        46.400
 127999162.625 7                  24357431.163
        47.700
 144706663.851 5                  27536763.153
        33.500
 146360716.486 5                  27851520.041
        33.200


 110217160.642 8  85724485.939 6  20632885.019    20632884.707    20632890.167
        48.300          41.500
 132903153.642 6                  25290624.893
        40.700
 106464455.180 7  82959317.78946  20259512.499    20259512.2454   20259515.0904
        47.000          37.9004


 198897295.468 7                  37848913.081
        42.500
 130939310.080 7                  24916913.910
        42.600
 202055293.131 7                  38449856.856
        44.400
 105441300.335 8  82009892.576 8  19731908.041    19731907.793    19731913.777
        52.100          49.400
 105661679.146 8  82181288.722 7  19745404.126    19745404.891    19745412.343
        48.700          43.300
 128141237.180 6  99665456.610 4  24013605.101    24013602.783    24013619.120
        36.300          29.300


 107124126.736 8  83318619.587 7  20067918.728    20067920.547    20067926.470
        49.200          45.600
 25  1  1 22  6 45.0000000  0 26E31G07G02G30G13G19E10G17E33E24E09E03
                                E25R12E12G14S35S31E05S33R03R11R21R02
                                E26R22
 126464704.374 7                  24065425.194
        46.800
 119160623.088 7  92852359.30845  22675521.701    22675521.3574   22675528.4874
        44.900          34.8004
 115594006.438 7  90073282.97645  21996802.116    21996801.0704   21996801.7324
        45.600          33.9004
 109363183.235 7  85218058.84847  20811122.321    20811121.5524   20811127.7504
        45.900          44.4004
 120490136.401 6  93888491.22742  22928520.470    22928519.9834   22928523.4154
        40.500          14.2004
 118206782.517 6  92109156.85744  22493987.568    22493986.2234   22493991.6074
        41.000          26.7004
 138853005.941 5                  26422846.486
        35.600
 107969326.488 8  84131962.67847  20545879.181    20545878.6994   20545879.6274
        48.100          46.8004
 130150930.275 7                  24766894.558
        47.200
 127982470.812 7                  24354255.452
        47.200
 144748529.721 5                  27544727.100
        31.500
 146350056.571 5                  27849488.382
        34.900


 110176867.270 8  85693146.678 7  20625340.797    20625340.145    20625346.445
        48.300          42.100
 132866416.094 6                  25283633.411
        38.900
 106454244.206 7  82951361.18346  20257569.104    20257568.8414   20257572.0404
        46.200          36.7004


 198897297.283 7                  37848914.221
        42.700
 130961464.901 6                  24921128.451
        39.100
 202055301.213 7                  38449860.487
        45.100
                                                  24012860.498

 105455641.336 8  82021046.654 8  19734591.794    19734592.264    19734597.386
        53.900          49.200
 105686955.720 8  82200948.277 7  19750128.675    19750129.134    19750135.302
        48.900          42.500
 128182070.027 6                  24021256.481    24021258.277
        37.400


 107082385.645 7  83286154.348 7  20060097.254    20060097.179    20060106.617
        45.800          44.800
 25  1  1 22  7  0.0000000  0 26E31G07G02G30G13G19E10G17E33E24E09E03
                                E25R12E12G14S35S31E05S33R03R11R21R02
                                E26R22
 126478042.867 7                  24067963.424
        46.800
 119210345.829 7  92891104.21145  22684983.810    22684983.4354   22684991.2904
        43.800          35.3004
 115617369.367 7  90091487.86945  22001248.164    22001247.0644   22001247.6334
        43.100          32.9004
 109391185.938 7  85239879.13547  20816451.573    20816450.8184   20816457.0164
        46.700          44.7004
 120511832.164 6  93905396.98842  22932649.997    22932649.4834   22932652.1494
        41.600          15.3004
 118165925.488 6  92077320.30144  22486211.612    22486210.2804   22486217.5754
        41.800          27.0004
 138806643.690 5                  26414024.868
        35.600
 107956556.824 7  84122012.31047  20543449.254    20543448.7544   20543450.0694
        47.500          47.7004
 130156069.540 7                  24767872.645
        47.600
 127965802.762 7                  24351082.871
        47.000
 144790394.049 4                  27552696.972
        28.800
 146339497.294 5                  27847477.764
        34.300
 145839313.895 5                  27752297.295
        34.300
 110136629.356 8  85661850.553 6  20617808.269    20617807.858    20617814.959
        49.000          41.900
 132829747.529 6                  25276656.134
        36.200
 106444100.150 7  82943456.71545  20255639.263    20255639.0224   20255641.1274
        44.800          35.8004


 198897299.070 7                  37848912.030
        42.700
 130983700.419 6                  24925360.265
        40.200
 202055309.185 7                  38449859.400
        44.500
 128548099.960 5  99981867.689 5  24013860.356    24013860.675    24013867.144
        33.000          34.700
 105470105.118 8  82032296.209 8  19737298.489    19737298.911    19737303.817
        52.900          48.900
 105712407.970 8  82220744.504 7  19754886.279    19754886.042    19754890.698
        49.200          42.400
 128222988.783 5                  24028922.418    24028921.181
        32.900


 107040797.902 7  83253808.322 7  20052307.818    20052306.459    20052314.846
        44.600          43.900
 25  1  1 22  7 15.0000000  0 25E31G07G02G30G13G19E10G17E33E24E09E03
                                E25R12E12G14S35S31E05S33R03R11R21E26
                                R22
 126491413.087 7                  24070507.664
        46.800
 119260134.368 7  92929900.39545  22694459.123    22694458.7754   22694465.9434
        43.100          33.5004
 115640857.250 7  90109790.13545  22005719.136    22005718.0454   22005717.5264
        42.000          30.8004
 109419312.198 7  85261795.69847  20821803.207    20821802.4614   20821808.8874
        46.800          44.9004
 120533645.243 6  93922394.12242  22936801.129    22936800.6824   22936802.5134
        41.900          15.8004
 118125127.760 7  92045529.95944  22478448.144    22478446.8214   22478453.4164
        42.400          25.5004
 138760307.672 6                  26405207.872
        36.600
 107943882.848 8  84112136.50148  20541037.793    20541037.3024   20541038.7154
        48.900          48.1004
 130161319.070 8                  24768871.563
        48.300
 127949156.618 7                  24347914.639
        46.700


 146329036.723 4                  27845485.476
        29.500
 145807166.996 5                  27746183.491
        34.800
 110096445.180 8  85630596.201 7  20610285.059    20610285.395    20610292.022
        49.200          42.100
 132793146.238 5                  25269691.753
        34.500
 106434021.205 7  82935602.99545  20253721.410    20253721.1654   20253722.6534
        43.400          34.9004


 198897299.250 7                  37848913.054
        42.000
 131006014.574 6                  24929604.738
        37.000
 202055314.958 7                  38449859.678
        45.300
                                                  24014872.724

 105484689.839 8  82043639.843 8  19740027.825    19740028.161    19740032.151
        52.300          48.600
 105738033.644 7  82240675.638 6  19759676.253    19759675.610    19759680.758
        47.100          41.800


 106999361.828 8  83221580.278 6  20044546.893    20044547.201    20044551.376
        48.600          41.800
 25  1  1 22  7 30.0000000  0 25E31G07G02G30G13G19E10G17E33E24E09E03
                                E25R12E12G14S35S31E05S33R03R11R21R23
                                R22
 126504819.906 7                  24073059.026
        47.300
 119309993.209 7  92968751.34145  22703945.706    22703945.3854   22703953.3984
        43.600          31.5004
 115664474.506 7  90128193.21245  22010212.840    22010211.7324   22010211.9674
        43.200          31.5004
 109447566.637 7  85283812.12047  20827179.946    20827179.2224   20827184.2654
        46.900          43.7004
 120555580.104 6  93939486.21742  22940975.212    22940974.7434   22940976.0084
        40.900          14.5004
 118084394.166 6  92013789.59443  22470696.173    22470694.7744   22470701.2774
        40.500          22.8004
 138714002.971 6                  26396394.599
        37.900
 107931309.115 8  84102338.80248  20538644.287    20538643.7824   20538646.0484
        48.900          48.4004
 130166683.631 8                  24769892.748
        49.000
 127932537.304 7                  24344752.339
        46.100


 146318679.832 5                  27843516.343
        31.500
 145775016.823 5                  27740066.043
        35.500
 110056319.983 8  85599387.738 7  20602773.505    20602774.249    20602779.794
        49.800          43.600
 132756617.252 5                  25262738.900
        35.200
 106424012.328 6  82927803.86145  20251816.851    20251816.5834   20251817.9884
        39.700          32.4004


 198897303.269 7                  37848914.083
        42.300
 131028412.018 6                  24933867.813
        39.700
 202055324.532 7                  38449862.951
        45.800
 128559301.686 5  99990533.411 5  24015944.978    24015943.557    24015948.323
        33.500          33.900
 105499400.537 8  82055081.456 8  19742779.751    19742779.416    19742785.217
        50.300          49.000
 105763837.261 7  82260745.155 6  19764496.828    19764497.088    19764502.491
        44.900          41.100
 127018934.246 5                  23744848.297
        34.400
 106958082.696 8  83189474.298 7  20036813.941    20036814.760    20036818.604
        49.800          42.200
 25  1  1 22  7 45.0000000  0 26E31G07G02G30G13G19E10G17E33E24E09E03
                                E25R12E12G14S35S31E05S33R03R11R21R23
                                R10R22
 126518259.438 8                  24075616.101
        48.200
 119359918.223 7  93007653.80745  22713445.629    22713445.3754   22713453.6684
        42.400          30.6004
 115688216.941 7  90146693.83445  22014730.989    22014729.8764   22014730.7254
        44.700          32.9004
 109475945.242 8  85305925.30347  20832580.373    20832579.6764   20832584.3884
        48.700          44.8004
 120577632.443 6  93956669.82642  22945170.687    22945170.1784   22945172.6794
        38.300          13.2004
 118043720.860 6  91982096.20143  22462957.200    22462955.7704   22462957.7284
        41.500          22.1004
 138667725.965 5                  26387587.875
        35.100
 107918831.764 8  84092616.20848  20536269.914    20536269.4054   20536271.3984
        49.500          48.3004
 130172159.291 8                  24770934.546
        49.500
 127915940.974 7                  24341593.693
        44.800


 146308422.683 5                  27841565.265
        33.500
 145742859.459 5                  27733960.760
        30.600
 110016250.160 8  85568222.354 7  20595271.596    20595272.526    20595278.902
        49.000          44.700
 132720156.954 5                  25255800.462
        35.300
 106414069.721 6  82920056.38944  20249923.562    20249923.2944   20249926.2954
        39.600          29.7004


 198897305.069 7                  37848915.142
        43.400
 131050888.586 6                  24938146.017
        40.300
 202055333.429 7                  38449866.479
        45.700
 128565159.917 6  99995089.688 5  24017038.238    24017037.324    24017039.264
        37.500          34.000
 105514233.262 8  82066618.039 8  19745555.547    19745555.212    19745561.916
        49.200          50.700
 105789814.426 7  82280949.636 6  19769350.906    19769350.913    19769355.651
        43.900          40.400
 126951901.217 5                  23732321.390    23732318.863
        34.900
 124896548.841 4                  23430269.539    23430272.034
        29.900
 106916956.912 8  83157487.648 6  20029108.556    20029109.130    20029114.159
        49.300          41.200
 25  1  1 22  8  0.0000000  0 27E31G07G02G30G13G15G19E10G17E33E24E09
                                E03E25R12E12G14S35S31E05S33R03R11R21
                                R23R02R22
 126531732.116 8                  24078180.286
        48.100
 119409909.432 6  93046607.82944  22722958.761    22722958.5334   22722966.6204
        37.100          27.6004
 115712084.757 7  90165292.15145  22019272.041    22019270.8974   22019272.5924
        44.600          31.6004
 109504448.161 7  85328135.32147  20838004.122    20838003.4254   20838008.8334
        46.600          44.6004
 120599802.500 5  93973945.17142  22949392.697    22949392.1394   22949391.8704
        33.300          12.7004
 129547006.098 6 100945739.69041  24651973.563    24651972.8444   24651979.7164
        37.800          10.9004
 118003108.348 6  91950450.15443  22455226.925    22455225.4504   22455227.2364
        40.700          22.3004
 138621477.199 5                  26378786.088
        34.300
 107906451.128 8  84082968.96947  20533913.449    20533912.9404   20533914.2944
        49.400          47.2004
 130177746.315 8                  24771997.695
        48.800
 127899368.004 7                  24338440.562
        44.300


 146298265.787 4                  27839630.334
        29.600
 145710695.543 4                  27727841.276
        25.800
 109976236.241 8  85537100.408 7  20587782.103    20587781.646    20587789.256
        49.400          45.500
 132683765.834 5                  25248876.323
        35.200
 106404193.872 6  82912360.90444  20248044.485    20248044.2314   20248046.8224
        37.800          29.6004


 198897307.302 7                  37848913.559
        43.100
 131073444.421 6                  24942438.557
        41.400
 202055341.099 7                  38449868.594
        44.700
 128571188.655 6  99999778.628 5  24018170.164    24018168.292    24018167.017
        38.300          35.500
 105529188.496 8  82078249.891 8  19748355.411    19748355.132    19748360.754
        50.900          50.600
 105815965.295 8  82301289.180 6  19774239.237    19774240.069    19774244.078
        48.400          41.900
 126884897.334 6                  23719796.289    23719794.027
        39.300
 128387510.205 6                  24059764.781    24059767.283
        39.800
 106875985.085 8  83125620.800 6  20021433.538    20021433.300    20021439.209
        48.600          41.600
 25  1  1 22  8 15.0000000  0 26E31G07G02G30G13G15G19E10G17E33E24E09
                                E03E25R12E12G14S35S31E05S33R03R11R21
                                R23R22
 126545236.020 8                  24080750.436
        48.500
 119459964.669 5  93085611.79744  22732485.140    22732484.8724   22732491.7624
        35.600          28.7004
 115736076.075 7  90183986.71744  22023837.746    22023836.5934   22023836.2234
        44.200          29.3004
 109533073.261 8  85350440.54547  20843452.105    20843451.4124   20843455.8424
        48.000          45.0004
 120622088.160 6  93991310.58142  22953634.856    22953634.3784   22953633.2714
        37.900          15.2004
 129559583.215 6 100955540.14541  24654367.004    24654366.6074   24654367.0314
        37.800          10.7004
 117962554.797 6  91918850.04644  22447509.764    22447508.2984   22447511.0634
        39.600          24.0004
 138575254.983 5                  26369992.700
        32.500
 107894165.064 8  84073395.41447  20531575.448    20531574.9484   20531575.1704
        48.700          46.1004
 130183442.722 8                  24773081.894
        48.900
 127882816.510 7                  24335290.759
        44.400


 146288207.152 5                  27837719.477
        31.500
 145678522.938 5                  27721699.247
        32.100
 109936276.830 8  85506020.875 7  20580300.946    20580301.149    20580308.299
        49.200          45.200
 132647442.202 6                  25241964.501
        38.600
 106394382.914 6  82904715.98445  20246179.263    20246179.0094   20246179.4244
        39.100          30.4004


 198897307.020 7                  37848912.862
        42.900
 131096077.481 6                  24946745.228
        39.400
 202055346.763 7                  38449868.871
        44.800
                 100004598.024 5                  24019306.141    24019323.745
                        35.700
 105544264.398 8  82089975.570 8  19751177.012    19751176.695    19751182.147
        52.700          50.200
 105842287.270 8  82321761.832 7  19779157.406    19779159.382    19779163.806
        51.200          42.200
 126817920.998 6                  23707275.270    23707275.425
        40.200
 106835165.679 8  83093872.459 6  20013785.939    20013786.543    20013792.931
        48.300          41.800
 25  1  1 22  8 30.0000000  0 27E31G07G02G30G13G15G19E10G17E33E24E09
                                E03E25R12E12G14S35S31E05S33R03R11R21
                                R23R02R22
 126558775.911 8                  24083327.114
        49.000
 119510088.354 6  93124669.10945  22742026.103    22742025.7774   22742030.1634
        39.900          31.4004
 115760195.226 7  90202780.87144  22028427.062    22028425.9134   22028424.6494
        46.200          27.6004
 109561825.027 8  85372844.48947  20848923.169    20848922.4814   20848926.6174
        48.800          45.9004
 120644493.594 6  94008769.34142  22957895.069    22957894.6404   22957897.8934
        38.500          17.2004
 129572285.063 6 100965437.65042  24656784.156    24656783.8174   24656783.2094
        37.500          13.2004
 117922064.942 6  91887299.57644  22439805.700    22439804.2034   22439807.2664
        38.400          24.5004
 138529064.242 5                  26361202.521
        32.000
 107881978.220 8  84063899.18947  20529256.847    20529256.3474   20529255.9944
        48.300          45.9004
 130189253.168 7                  24774187.397
        47.800
 127866291.242 7                  24332146.383
        45.600


 146278251.560 5                  27835821.304
        32.400
 145646346.281 5                  27715583.622
        31.900
 109896376.940 8  85474987.611 7  20572832.484    20572832.408    20572839.187
        50.800          45.300
 132611190.992 6                  25235065.177
        38.400
 106384641.693 7  82897125.41345  20244326.029    20244325.7574   20244326.2944
        42.900          32.9004


 198897308.948 7                  37848914.409
        42.800
 131118792.158 6                  24951067.830
        39.600
 202055354.231 7                  38449865.522
        44.500
                 100009551.949 5                                  24020510.768
                        31.800
 105559465.883 8  82101798.947 8  19754021.472    19754022.229    19754026.210
        53.500          48.500
 105868785.012 8  82342371.113 7  19784110.462    19784111.829    19784116.602
        53.400          42.700
 126750977.260 6                  23694758.834    23694758.280
        39.000
 128470268.696 7                  24075271.620    24075273.139
        43.300
 106794503.722 7  83062246.535 6  20006168.171    20006167.726    20006173.993
        46.800          41.200
 25  1  1 22  8 45.0000000  0 26E31G07G02G30G13G15G19E10G17E33E24E09
                                E03E25R12E12G14S35S31E05S33R03R11R21
                                R23R22
 126572347.613 8                  24085909.041
        48.500
 119560275.729 7  93163776.05445  22751575.490    22751575.1284   22751580.7614
        42.200          33.6004
 115784437.621 7  90221671.04244  22033039.792    22033038.6754   22033036.6624
        45.300          26.7004
 109590699.117 8  85395343.76647  20854417.604    20854416.9114   20854420.8284
        49.100          47.0004
 120667014.385 6  94026318.00242  22962180.503    22962180.0794   22962184.4534
        36.100          15.4004
 129585107.188 6 100975428.77041  24659222.336    24659222.2164   24659223.7994
        37.400           9.9004
 117881634.643 6  91855795.51244  22432112.204    22432110.6934   22432114.5374
        38.700          25.3004
 138482900.993 5                  26352419.125
        34.300
 107869886.286 8  84054476.93747  20526955.620    20526955.1384   20526955.6224
        48.900          46.4004
 130195173.384 7                  24775313.987
        47.200
 127849788.041 7                  24329005.461
        46.400
 145083438.587 5                  27608457.317
        34.200
 146268394.864 5                  27833948.821
        32.000
 145614161.344 4                  27709460.869
        27.300
 109856532.582 8  85443997.600 7  20565373.726    20565373.920    20565379.232
        51.200          45.100
 132575008.136 6                  25228180.234
        38.400
 106374966.111 7  82889585.99545  20242482.841    20242482.5784   20242485.8814
        45.600          35.7004


 198897309.444 7                  37848905.408
        42.600
 131141584.090 6                  24955404.201
        37.600
 202055360.011 7                  38449868.420
        44.700
 128590186.592 4 100014636.767 4  24021723.612    24021720.585    24021732.040
        29.500          28.300
 105574788.716 8  82113716.686 7  19756887.639    19756888.119    19756892.404
        52.000          46.600
 105895453.699 8  82363113.424 7  19789093.057    19789094.165    19789099.081
        52.400          43.200
 126684062.355 6                  23682245.453    23682245.142
        37.100
 106753995.326 7  83030740.046 6  19998580.672    19998579.628    19998585.685
        46.900          41.700
 25  1  1 22  9  0.0000000  0 26E31G07G02G30G13G15G19E10G17E33E24E09
                                E03E25R12E12G14S35S31E05S33R03R11R21
                                R23R22
 126585956.230 8                  24088499.171
        48.300
 119610531.746 6  93202936.47745  22761137.428    22761137.0754   22761144.3464
        39.700          33.2004
 115808808.123 7  90240661.02344  22037678.151    22037677.0834   22037672.5284
        43.500          24.3004
 109619700.353 8  85417942.11248  20859936.258    20859935.5704   20859940.1924
        49.000          48.1004
 120689655.161 5  94043960.15743  22966488.137    22966487.8384   22966494.1724
        34.600          18.0004
 129598054.671 6 100985517.74142  24661686.616    24661686.5634   24661687.8954
        37.900          12.8004
 117841269.038 6  91824341.83744  22424431.901    22424430.4214   22424433.6584
        40.900          26.8004
 138436770.501 6                  26343639.889
        36.500
 107857894.399 8  84045132.63947  20524673.675    20524673.1794   20524673.9144
        48.800          46.7004
 130201208.336 7                  24776462.301
        47.000
 127833312.042 7                  24325870.474
        47.000
 145125281.965 5                  27616414.848
        32.000
 146258642.112 5                  27832092.697
        32.400


 109816749.315 8  85413055.130 7  20557926.200    20557925.628    20557931.857
        50.600          45.800
 132538898.993 6                  25221309.198
        37.000
 106365361.359 7  82882101.76546  20240655.496    20240655.2374   20240657.8874
        46.400          36.4004


 198897313.028 7                  37848918.147
        43.000
 131164458.158 6                  24959757.820
        36.300
 202055369.040 7                  38449870.378
        43.500
 128596897.494 4                  24022976.650    24022972.447
        27.700
 105590238.130 8  82125732.872 7  19759779.852    19759780.678    19759784.422
        53.300          46.500
 105922298.112 8  82383992.427 7  19794108.429    19794109.291    19794116.849
        52.100          44.200
 126617181.693 5                  23669736.798    23669738.653
        31.500
 106713645.872 7  82999357.196 7  19991021.107    19991021.321    19991026.984
        47.600          42.300
 25  1  1 22  9 15.0000000  0 26E31G07G02G30G13G15G19E10G17E33E24E09
                                E03E25R12E12G14S35S31E05S33R03R11R21
                                R23R22
 126599597.786 8                  24091094.856
        48.200
 119660852.086 6  93242147.02745  22770713.708    22770713.4184   22770720.0534
        40.600          32.3004
 115833302.623 7  90259747.61543  22042338.310    22042337.2604   22042332.7234
        46.900          23.9004
 109648824.570 8  85440636.28848  20865478.415    20865477.7274   20865483.0914
        48.500          48.6004
 120712411.564 5  94061692.41142  22970817.828    22970817.6094   22970826.5034
        35.400          17.6004
 129611123.071 5 100995700.98242  24664172.726    24664172.7304   24664174.8734
        33.800          16.0004
 117800964.313 6  91792935.59844  22416758.691    22416757.3104   22416763.7934
        40.800          26.0004
 138390669.060 6                  26334866.342
        38.900
 107845998.478 8  84035863.11647  20522410.004    20522409.5084   20522409.7264
        49.000          46.7004
 130207354.009 7                  24777631.915
        47.000
 127816859.270 7                  24322739.302
        47.800
 145167120.389 3                  27624383.991
        23.800
 146248989.411 5                  27830257.339
        34.400


 109777023.355 8  85382157.191 7  20550490.089    20550490.116    20550495.960
        51.200          47.100
 132502859.761 6                  25214451.165
        37.400
 106355823.562 7  82874669.71746  20238840.353    20238840.0814   20238841.7464
        46.900          36.4004


 198897314.934 7                  37848916.251
        42.900
 131187410.029 5                  24964123.983
        34.000
 202055377.506 7                  38449871.492
        44.000
 128603777.821 6                  24024263.179    24024266.320
        38.700
 105605810.040 8  82137844.355 7  19762693.061    19762693.479    19762699.459
        52.100          47.100
 105949313.550 8  82405004.401 7  19799156.262    19799156.890    19799164.247
        51.400          43.500
 126550331.771 5                  23657249.760    23657246.362
        31.400
 106673451.662 7  82968095.040 7  19983489.586    19983488.935    19983497.076
        45.600          43.500
 25  1  1 22  9 30.0000000  0 27E31G07G02G30G13G15G19E10G17E33E24E09
                                E03E25R12E12G14S35S31E05S33R03R11R21
                                R23E26R22
 126613269.018 7                  24093696.404
        47.900
 119711233.156 6  93281404.90144  22780300.732    22780300.4334   22780306.4424
        41.100          28.8004
 115857917.502 7  90278928.02344  22047021.358    22047020.3034   22047017.7234
        45.600          24.3004
 109678068.239 8  85463423.53048  20871043.358    20871042.6614   20871048.3654
        48.800          48.5004
 120735280.105 6  94079512.09142  22975167.972    22975167.6774   22975178.8594
        36.000          15.3004
 129624308.959 5 101005975.67742  24666685.258    24666685.2984   24666686.3064
        35.700          17.5004
 117760717.255 7  91761574.33144  22409101.323    22409099.8974   22409104.6414
        42.300          25.6004
 138344593.614 6                  26326097.865
        37.200
 107834194.938 8  84026665.57947  20520163.518    20520163.0184   20520163.2414
        48.900          46.6004
 130213607.013 7                  24778821.542
        46.500
 127800426.454 8                  24319612.029
        48.000


 146239433.529 5                  27828438.661
        33.600


 109737351.537 8  85351301.363 7  20543062.508    20543062.670    20543069.140
        50.400          47.300
 132466887.328 6                  25207605.355
        38.900
 106346349.504 7  82867287.34146  20237038.423    20237038.1514   20237038.0374
        46.600          36.6004


 198897313.976 7                  37848913.698
        42.200
 131210436.411 5                  24968514.189
        33.400
 202055381.289 7                  38449871.044
        43.900
 128610823.378 6                  24025595.113    24025594.696
        38.100
 105621501.465 8  82150048.757 7  19765629.218    19765629.900    19765635.616
        51.800          46.800
 105976496.540 8  82426146.727 7  19804236.001    19804236.724    19804242.709
        50.700          42.400
 126483509.665 6                  23644758.239    23644756.534
        37.400


 106633409.706 8  82936951.318 7  19975991.273    19975988.906    19975996.122
        48.100          44.300
 25  1  1 22  9 45.0000000  0 28E31G07G02G30G13G15G19E10G17E33E24E09
                                E03E25R12E12G14S35S31E05S33R03R11R21
                                R23R02E26R22
 126626978.702 8                  24096305.329
        48.000
 119761683.237 6  93320716.56944  22789901.989    22789901.6944   22789903.3764
        39.300          24.1004
 115882661.243 7  90298208.85744  22051731.315    22051730.2874   22051729.1994
        44.700          26.0004
 109707439.913 8  85486310.51947  20876631.933    20876631.2314   20876637.5844
        49.200          47.6004
 120758269.335 6  94097425.76742  22979543.994    22979543.6994   22979554.1404
        37.300          14.3004
 129637620.774 5 101016348.58142  24669217.140    24669217.0824   24669221.4884
        34.200          15.6004
 117720536.657 6  91730264.84144  22401455.505    22401454.0664   22401458.1844
        41.600          25.2004
 138298553.121 5                  26317337.305
        35.600
 107822492.515 8  84017546.84347  20517937.167    20517936.6674   20517936.4764
        48.600          46.8004
 130219976.009 7                  24780034.104
        46.200
 127784022.399 8                  24316490.897
        48.000


 146229983.151 5                  27826639.783
        35.400


 109697743.289 8  85320494.947 7  20535648.009    20535648.572    20535654.412
        50.300          47.700
 132430990.745 6                  25200774.273
        41.000
 106336948.008 8  82859961.51246  20235249.683    20235249.4154   20235248.6774
        48.200          36.6004


 198897316.910 6                  37848912.759
        41.900


 202055389.307 7                  38449870.584
        43.400


 105637321.132 8  82162352.910 7  19768590.246    19768591.049    19768596.045
        52.300          46.700
 106003855.633 8  82447426.010 6  19809349.047    19809349.412    19809355.223
        50.600          39.600
 126416724.631 6                  23632272.651    23632272.099
        38.000
 128678592.354 5                  24114306.045    24114307.605
        35.900


 106593529.112 8  82905933.113 7  19968519.802    19968519.074    19968524.841
        50.100          45.300
 25  1  1 22 10  0.0000000  0 29G21E31G07G02G30G13G15G19E10G17E33E24
                                E09E03E25R12E12G14S35S31E05S33R03R11
                                R21R23R02E26R22
 122121796.225 5  95159851.9744   23239004.573    23239004.5694   23239006.8154
        30.300           4.9004
 126640718.623 7                  24098919.437
        46.700
 119812193.840 6  93360075.35743  22799513.788    22799513.5024   22799514.4454
        37.600          19.0004
 115907525.358 7  90317583.50244  22056463.399    22056462.4024   22056464.0524
        44.500          27.4004
 109736931.164 8  85509290.66247  20882243.710    20882243.0134   20882248.8404
        49.100          46.7004
 120781370.588 5  94115426.80141  22983941.577    22983941.3764   22983951.3694
        35.800           8.4004
 129651050.142 5 101026812.97842  24671777.531    24671777.5054   24671777.9064
        35.800          14.8004
 117680414.401 6  91699000.91843  22393821.029    22393819.6084   22393822.9564
        36.800          22.0004
 138252539.622 6                  26308580.280
        36.700
 107810882.801 8  84008500.33448  20515727.743    20515727.2204   20515727.6954
        49.300          48.0004
 130226452.732 7                  24781266.806
        46.200
 127767638.909 7                  24313373.202
        47.900


 146220630.075 5                  27824858.484
        31.400
 145453188.977 5                  27678815.477
        31.700
 109658190.587 8  85289731.750 8  20528241.336    20528242.211    20528249.875
        49.100          48.400
 132395161.866 7                  25193956.687
        42.500
 106327610.972 8  82852685.89846  20233472.422    20233472.1544   20233471.5784
        49.100          37.8004


 198897315.690 7                  37848925.883
        42.700
 131256694.179 5                  24977317.693
        34.200
 202055394.250 6                  38449869.953
        41.700
 128625429.275 5                  24028312.977    24028308.693
        32.200
 105653260.800 8  82174750.465 7  19771572.596    19771573.304    19771579.051
        52.800          47.400
 106031381.708 8  82468835.228 6  19814492.535    19814492.691    19814498.322
        50.200          40.200
 126349968.617 6                  23619789.996    23619790.428
        37.300
                 100116029.487 5                  24122163.003    24122178.593
                        34.300


 106553801.815 8  82875034.163 7  19961077.854    19961077.780    19961083.551
        52.600          46.700
 25  1  1 22 10 15.0000000  0 27G21E31G02G30G13G19E10G17E33E24E09E03
                                E25R12E12G14S35S31E05S33R11R21R23R10
                                R02E26R22
 122166424.134 4  95194626.9714   23247498.957    23247499.0014   23247499.5534
        26.400           3.8004
 126654496.186 7                  24101541.959
        46.700
 115932516.944 7  90337057.46844  22061218.499    22061217.5164   22061221.2644
        45.200          29.0004
 109766549.103 7  85532369.55647  20887879.947    20887879.2544   20887884.3284
        47.200          45.9004
 120804590.813 5  94133519.9164   22988360.460    22988360.3314   22988370.7184
        33.600           4.4004
 117640357.715 6  91667787.97643  22386198.320    22386196.9214   22386199.9174
        40.100          23.7004
 138206560.561 5                  26299834.689
        31.500
 107799373.138 8  83999531.79348  20513537.683    20513537.1474   20513538.2284
        49.700          49.0004
 130233044.413 7                  24782521.223
        47.300
 127751283.378 7                  24310261.043
        47.700


 146211381.752 4                  27823098.738
        28.200
 145420969.060 5                  27672683.257
        32.700
 109618701.006 8  85259017.632 8  20520849.312    20520848.767    20520858.144
        48.600          49.000
 132359408.213 6                  25187152.743
        40.700
 106318345.830 8  82845466.33246  20231708.740    20231708.4864   20231708.6814
        49.600          38.0004


 198897319.264 6                  37848920.754
        41.500
 131279959.442 6                  24981745.777
        37.700
 202055403.248 7                  38449879.384
        43.500
 105669327.914 8  82187247.106 7  19774578.816    19774579.781    19774584.223
        52.200          46.300
 106059081.977 8  82490379.863 6  19819669.583    19819670.745    19819674.860
        50.700          39.200
 126283249.493 5                  23607316.694    23607317.821
        35.300
 125392087.674 5                  23523234.572
        32.500
 128762479.479 4 100148684.105 5  24130045.996                    24130042.965
        29.400          35.000


 106514235.651 8  82844260.523 7  19953666.156    19953666.379    19953671.873
        53.300          47.200
 25  1  1 22 10 30.0000000  0 27E31G02G30G13G15G19E10G17E33E24E09E03
                                E25R12E12G14S35S31E05S33R03R11R21R23
                                R10E26R22
 126668304.252 7                  24104169.149
        46.200
 115957628.669 7  90356625.02944  22065996.181    22065995.2114   22065999.9754
        46.000          28.2004
 109796286.396 7  85555541.43647  20893539.828    20893539.1404   20893543.0054
        46.700          45.6004
 120827922.724 6  94151700.5584   22992801.194    22992801.1814   22992811.1604
        36.900           4.7004
 129678312.866 5                  24676955.752
        33.000
 117600359.813 7  91636620.87444  22378588.076    22378586.6904   22378589.6094
        42.500          28.2004


 107787956.361 8  83990635.61648  20511365.006    20511364.4744   20511366.3654
        50.300          50.7004
 130239743.815 8                  24783795.996
        48.600
 127734948.761 7                  24307153.004
        46.600




 145388739.484 5                  27666551.113
        35.300
 109579267.764 8  85228347.358 8  20513468.168    20513468.010    20513476.162
        50.900          49.100
 132323722.956 6                  25180361.546
        40.300
 106309145.591 8  82838297.32346  20229957.746    20229957.4834   20229958.3544
        49.600          38.5004


 198897318.328 6                  37848919.873
        40.800
 131303299.041 6                  24986185.729
        41.200
 202055407.961 7                  38449876.732
        44.800
 128640712.205 6                  24031164.231    24031166.914
        39.200
 105685515.462 8  82199837.397 7  19777609.135    19777609.319    19777614.462
        53.000          45.900
 106086948.927 8  82512054.185 6  19824875.732    19824878.669    19824882.883
        49.600          40.000
 126216560.604 6                  23594851.288    23594851.626
        37.000
 125441946.315 5                  23532572.441
        32.100


 106474823.607 8  82813606.783 7  19946281.761    19946281.888    19946288.356
        51.200          47.000
 25  1  1 22 10 45.0000000  0 28E31G02G30G13G15G19E10G17E33E24E09E03
                                E25R12E12G14S35S31E05S33R03R11R21R23
                                R10R02E26R22
 126682149.073 7                  24106803.928
        45.700
 115982866.389 7  90376290.78944  22070798.343    22070797.3694   22070800.9374
        45.300          27.1004
 109826149.085 7  85578811.01447  20899221.923    20899221.2394   20899225.9464
        46.400          45.6004
 120851372.144 6  94169972.8394   22997259.682    22997259.8654   22997273.5844
        37.900           3.6004
 129692107.050 5 101058783.70242  24679579.861    24679579.6654   24679585.4084
        35.700          16.0004
 117560426.833 7  91605504.34444  22370989.479    22370988.1294   22370991.7774
        43.900          29.3004


 107776638.380 8  83981816.41648  20509211.252    20509210.7344   20509212.8234
        50.700          50.4004
 130246557.129 7                  24785092.044
        47.700
 127718641.210 7                  24304050.130
        46.100
 145418040.569 5                  27672127.853
        31.300


 145356506.271 5                  27660414.360
        32.900
 109539897.498 8  85197726.029 8  20506099.439    20506098.709    20506105.090
        51.800          48.700
 132288112.474 6                  25173584.249
        39.800
 106300016.557 8  82831183.79746  20228220.750    20228220.4964   20228221.1464
        48.500          38.3004


 198897320.984 6                  37848921.488
        41.500
 131326718.758 6                  24990640.479
        38.900
 202055415.980 7                  38449881.521
        45.700
 128648608.129 6                  24032643.823    24032644.379
        39.300
 105701829.635 9  82212526.162 7  19780662.247    19780662.798    19780667.060
        54.000          46.200
 106114988.337 8  82533862.564 6  19830116.601    19830117.989    19830121.787
        49.400          40.900
 126149908.238 6                  23582389.669    23582390.966
        36.800
 125491863.578 5                  23541941.411    23541938.668
        30.700
 128846702.092 5 100214172.132 5  24145820.051                    24145821.864
        33.700          34.700


 106435572.328 8  82783078.087 7  19938929.222    19938928.850    19938935.426
        52.000          46.000
 25  1  1 22 11  0.0000000  0 27E31G02G30G13G15G19E10G17E33E24E09E03
                                E25R12E12G14S35S31E05S33R03R11R21R23
                                R02E26R22
 126696023.626 7                  24109444.680
        46.400
 116008222.889 7  90396049.09744  22075623.296    22075622.2904   22075625.7114
        42.500          25.9004
 109856129.849 7  85602172.62647  20904925.922    20904925.2384   20904931.4374
        45.600          44.7004
 120874931.725 6  94188330.6754   23001748.400    23001748.5204   23001757.0214
        37.000           3.8004
 129706017.150 6 101069622.64643  24682225.718    24682225.0924   24682232.4844
        36.100          22.9004
 117520551.935 7  91574433.04944  22363401.089    22363399.8114   22363404.5564
        42.200          28.0004


 107765412.238 8  83973068.78448  20507075.013    20507074.4864   20507076.5374
        49.300          49.8004
 130253477.195 7                  24786408.214
        46.600
 127702353.785 7                  24300950.666
        45.800
 145459840.110 5                  27680079.055
        33.500
 146184270.720 5                  27817941.599
        33.500
 145324262.426 6                  27654280.945
        36.100
 109500583.139 8  85167148.225 8  20498739.713    20498739.858    20498745.738
        52.500          49.800
 132252569.926 6                  25166820.335
        39.000
 106290951.768 8  82824120.32246  20226496.165    20226495.9154   20226495.9544
        48.500          38.6004


 198897318.857 7                  37848921.514
        42.500
 131350211.427 6                  24995109.511
        36.400
 202055418.855 7                  38449879.339
        45.000
 128656668.692 5                  24034147.673    24034145.887
        35.000
 105718263.436 9  82225307.964 7  19783737.933    19783738.532    19783742.705
        54.300          46.500
 106143192.647 8  82555799.263 7  19835386.631    19835386.754    19835394.751
        48.300          42.500
 126083285.996 6                  23569936.110    23569937.457
        38.800
 128888914.358 5 100247003.870 5  24153735.016                    24153733.143
        35.800          34.800


 106396474.990 8  82752669.117 7  19931604.293    19931604.806    19931611.074
        51.300          45.700
 25  1  1 22 11 15.0000000  0 28E31G07G02G30G13G15G19E10G17E33E24E09
                                E03E25R12E12G14S35S31E05S33R03R11R21
                                R23R02E26R22
 126709937.387 7                  24112091.468
        46.300
 120065823.057 5  93557786.87042  22847754.314    22847754.6804   22847760.6854
        35.700          14.1004
 116033707.315 6  90415907.13844  22080473.565    22080472.5774   22080474.6934
        40.300          25.3004
 109886237.903 7  85625633.44447  20910655.026    20910654.2984   20910661.1464
        44.600          43.7004
 120898610.458 6  94206781.56341  23006250.966    23006251.1354   23006263.9784
        38.400           8.3004
 129720052.150 5 101080559.02343  24684896.268    24684896.0584   24684903.1434
        33.300          20.1004
 117480744.624 6  91543414.41143  22355825.568    22355824.2364   22355829.0684
        39.700          22.9004
 138022926.281 5                  26264888.171
        34.000
 107754287.276 8  83964400.00248  20504958.191    20504957.6594   20504959.3354
        49.100          49.1004
 130260513.385 7                  24787746.352
        43.600
 127686095.909 7                  24297856.268
        45.200
 145501638.732 5                  27688032.215
        32.100
 146175426.746 5                  27816258.956
        33.800
 145292017.410 5                  27648144.615
        35.200
 109461334.890 8  85136621.813 8  20491390.952    20491391.699    20491398.008
        50.900          49.500
 132217104.873 6                  25160071.771
        37.900
 106281960.714 7  82817114.29446  20224784.333    20224784.0614   20224785.7914
        47.400          39.3004


 198897321.468 7                  37848915.898
        42.700
 131373786.269 5                  24999596.894
        34.300
 202055426.651 7                  38449881.566
        45.500
 128664903.215 5                  24035696.220    24035689.536
        35.600
 105734826.531 8  82238190.348 7  19786837.755    19786837.420    19786841.911
        52.600          47.200
 106171570.908 8  82577871.259 7  19840689.901    19840690.318    19840697.286
        48.900          42.400
 126016703.857 6                  23557487.918    23557486.613
        37.400
 128931208.406 5 100279899.070 5  24161657.012    24161657.907    24161659.465
        33.700          33.600


 106357541.369 8  82722387.523 7  19924311.256    19924311.000    19924317.696
        50.600          45.300
 25  1  1 22 11 30.0000000  0 29G21E31G07G02G30G13G15G19E10G17E33E24
                                E09E03E25R12E12G14S35S31E05S33R03R11
                                R21R23R02E26R22
 122390901.598 5                  23290203.203
        33.900
 126723887.711 7                  24114745.750
        45.300
 120116719.111 6  93597446.01642  22857446.717    22857446.8914   22857441.4264
        39.000          15.3004
 116059316.877 7  90435862.67344  22085346.941    22085345.9494   22085347.6264
        43.000          25.9004
 109916470.380 7  85649191.22347  20916409.620    20916408.8514   20916414.9394
        43.900          44.1004
 120922405.338 6  94225323.09241  23010777.693    23010777.9614   23010792.6594
        38.900           9.1004
 129734209.348 5 101091590.58942  24687592.463    24687592.4504   24687596.7184
        34.100          14.8004
 117441002.170 6  91512446.36243  22348262.394    22348260.9904   22348264.6794
        41.800          18.5004
 137977107.392 5                  26256169.131
        33.300
 107743260.635 8  83955807.83048  20502859.783    20502859.2564   20502860.5794
        49.400          48.6004
 130267662.956 7                  24789108.173
        42.800
 127669865.031 7                  24294767.196
        44.700
 145543433.538 5                  27695990.462
        35.700
 146166686.551 5                  27814599.527
        31.700
 145259768.605 5                  27642009.611
        32.300
 109422150.241 8  85106144.881 8  20484053.166    20484053.757    20484062.437
        48.300          49.100
 132181714.920 6                  25153338.100
        38.800
 106273040.916 7  82810163.80046  20223087.452    20223087.1714   20223089.4904
        46.400          39.6004


 198897327.455 6                  37848917.870
        41.700
 131397440.416 5                  25004098.824
        35.700
 202055437.437 7                  38449880.278
        45.100
 128673307.924 4                  24037254.036    24037251.715
        28.200
 105751516.244 8  82251171.231 7  19789960.251    19789960.061    19789966.743
        52.200          47.800
 106200120.181 8  82600076.218 7  19846024.066    19846024.682    19846031.458
        49.000          42.600
 125950159.358 5                  23545047.858    23545045.365
        33.600
 128973580.615 4 100312855.280 5  24169602.034    24169601.991    24169601.559
        29.200          30.600


 106318769.135 8  82692231.423 7  19917048.551    19917048.664    19917052.638
        51.200          44.400
 25  1  1 22 11 45.0000000  0 28G21E31G07G02G30G13G15G19E10G17E33E24
                                E09E03E25R12E12G14S35S31E05S33R11R21
                                R23R02E26R22
 122436045.488 5  95404688.92041  23298794.835    23298795.1394   23298801.2234
        33.700           7.1004
 126737867.433 7                  24117406.017
        45.100
 120167672.461 6  93637149.84243  22867134.993    22867135.3994   22867138.7614
        36.300          19.6004
 116085043.981 7  90455909.79044  22090242.655    22090241.5824   22090242.9174
        42.000          27.0004
 109946819.899 7  85672840.18747  20922185.240    20922184.4674   20922190.7644
        46.900          45.7004
 120946309.035 6  94243949.41241  23015327.261    23015327.5204   23015341.6364
        36.000          11.0004
 129748481.206 5 101102711.50842  24690310.854    24690310.6094   24690312.6124
        32.300          12.4004
 117401317.466 6  91481523.33342  22340709.004    22340707.5244   22340710.7584
        40.200          17.4004
 137931315.902 5                  26247457.542
        35.800
 107732325.018 8  83947286.58648  20500778.821    20500778.2984   20500779.4504
        50.000          49.2004
 130274918.578 7                  24790488.973
        42.900
 127653653.923 7                  24291682.426
        44.900
 145585217.057 5                  27703946.799
        33.800
 146158042.786 5                  27812944.427
        33.300
 145227508.674 5                  27635867.552
        32.600
 109383022.246 7  85075711.996 8  20476730.297    20476729.150    20476738.138
        47.200          49.300
 132146393.009 6                  25146617.585
        41.900
 106264185.239 7  82803263.27346  20221402.494    20221402.1904   20221404.9054
        47.000          40.1004


 198897327.682 7                  37848914.029
        42.700
 131421166.351 6                  25008615.348
        36.000
 202055442.801 7                  38449883.315
        45.400
 105768325.335 8  82264244.953 7  19793106.604    19793106.948    19793112.087
        52.700          46.800
 106228832.669 8  82622408.097 7  19851391.312    19851392.091    19851398.474
        51.800          43.100
 125883645.646 5                  23532615.498    23532613.633
        32.000




 106280151.217 8  82662195.343 7  19909813.752    19909814.684    19909818.156
        51.800          44.500
 25  1  1 22 12  0.0000000  0 26G21E31G02G30G13G15G19E10G17E33E24E09
                                E03E25R12E12G14S35S31E05S33R11R21R23
                                E26R22
 122481276.309 5  95439933.72441  23307403.372    23307403.7524   23307406.4444
        35.400           9.0004
 126751883.092 7                  24120073.363
        45.600
 116110894.940 7  90476053.42544  22095163.235    22095162.1494   22095162.4714
        43.400          28.5004
 109977292.722 8  85696585.22247  20927983.764    20927982.9824   20927989.0954
        48.200          46.8004
 120970327.638 5  94262665.17242  23019899.766    23019899.8554   23019912.0864
        35.500          13.0004


 117361697.080 6  91450650.46243  22333170.493    22333168.9604   22333169.3624
        38.700          18.5004
 137885558.637 5                  26238751.385
        35.900
 107721486.900 8  83938841.31448  20498716.565    20498716.0564   20498717.1204
        50.100          49.1004
 130282286.751 7                  24791890.699
        45.100
 127637469.188 7                  24288602.327
        44.900
 145626995.535 3                  27711884.306
        23.500
 146149501.942 5                  27811318.668
        34.100
 145195244.166 5                  27629727.933
        35.900
 109343957.846 8  85045328.565 8  20469420.487    20469419.456    20469424.656
        50.700          48.100
 132111145.941 7                  25139910.248
        43.300
 106255400.320 7  82796417.87746  20219730.894    20219730.5734   20219733.4124
        46.800          41.2004


 198897329.788 7                  37848922.270
        43.800
 131444970.470 6                  25013144.784
        36.200
 202055450.113 7                  38449886.422
        44.600
 105785260.494 8  82277416.775 7  19796275.070    19796275.826    19796281.238
        52.300          45.200
 106257714.418 8  82644871.668 7  19856789.559    19856790.247    19856794.103
        52.200          43.500
 125817169.970 6                  23520192.539    23520188.479
        37.300


 106241694.531 8  82632284.646 7  19902609.180    19902609.795    19902614.699
        50.900          45.400
 25  1  1 22 12 15.0000000  0 28G21E31G07G02G30G13G15G19E10G17E33E24
                                E09E03E25R12E12G14S35S31E05S33R11R21
                                R23R02E26R22
 122526590.275 5  95475243.33541  23316026.023    23316026.2954   23316029.0124
        34.900           6.6004
 126765931.713 7                  24122747.280
        45.100
 120269716.665 5  93716665.68443  22886565.824    22886566.3024   22886567.4744
        33.700          23.8004
 116136866.474 6  90496291.02844  22100104.074    22100102.9074   22100105.0454
        41.600          28.7004
 110007885.642 8  85720423.83747  20933805.920    20933805.1384   20933809.8464
        49.900          47.9004
 120994457.911 6  94281468.00042  23024491.696    23024491.7584   23024502.4934
        41.000          17.2004


 117322138.253 6  91419825.51043  22325644.104    22325642.6294   22325640.7824
        41.400          19.3004
 137839832.769 6                  26230048.376
        36.000
 107710743.140 8  83930469.56348  20496671.619    20496671.1144   20496672.8644
        50.000          49.9004
 130289764.324 7                  24793313.164
        43.200
 127621307.822 7                  24285527.354
        45.100


 146141061.065 5                  27809712.427
        34.100
 145162972.055 5                  27623585.430
        35.100
 109304954.270 8  85014992.479 7  20462117.921    20462117.918    20462122.778
        51.800          47.200
 132075970.789 7                  25133216.229
        42.800
 106246683.245 7  82789625.33847  20218071.766    20218071.4404   20218074.4224
        47.400          42.0004


 198897331.076 7                  37848921.537
        42.400
 131468849.472 5                  25017686.392
        31.900
 202055455.646 7                  38449887.048
        45.300
 105802318.727 8  82290684.268 7  19799467.101    19799468.140    19799472.523
        51.700          42.400
 106286762.130 8  82667464.364 7  19862217.673    19862217.988    19862223.060
        51.200          43.200
 125750729.204 6                  23507770.518    23507769.915
        38.200
 129101069.639 5                  24193487.879    24193486.429
        34.600


 106203396.334 8  82602497.249 7  19895434.191    19895434.393    19895439.533
        50.100          45.000
 25  1  1 22 12 30.0000000  0 26G21E31G07G02G30G13G15G19E10G17E33E24
                                E09E03E25R12E12G14S35S31E05S33R11R21
                                R23R22
 122571985.327 5  95510616.01441  23324664.725    23324665.0514   23324665.6964
        34.700           6.1004
 126780011.164 7                  24125426.739
        45.800
 120320851.632 6  93756510.94444  22896301.692    22896302.2424   22896303.2564
        36.900          25.1004
 116162956.152 6  90516620.67744  22105070.469    22105069.3564   22105070.1924
        41.200          28.2004
 110038596.279 8  85744354.17447  20939649.145    20939648.3764   20939653.5414
        49.700          47.4004
 121018697.121 6  94300355.70542  23029104.343    23029104.4054   23029113.2594
        39.000          17.5004


 117282638.827 6  91389046.81243  22318128.324    22318126.8984   22318124.5174
        38.700          19.6004
 137794136.334 6                  26221352.474
        37.000
 107700091.392 8  83922169.51048  20494645.437    20494644.9554   20494645.5834
        50.500          49.6004
 130297349.116 7                  24794757.164
        42.600
 127605167.726 7                  24282455.948
        45.800


 146132717.999 5                  27808123.143
        33.200
 145130690.167 6                  27617443.150
        36.300
 109266009.609 8  84984702.229 7  20454826.787    20454827.121    20454833.595
        51.800          47.700
 132040865.667 7                  25126536.429
        43.900
 106238031.938 7  82782884.06146  20216425.673    20216425.3654   20216427.7524
        47.100          41.8004


 198897328.418 6                  37848913.027
        41.300


 202055458.252 7                  38449888.528
        46.300
 105819497.874 8  82304045.788 6  19802682.205    19802682.932    19802685.826
        51.300          40.000
 106315973.124 8  82690184.082 7  19867674.814    19867675.093    19867682.241
        48.900          45.200
 125684321.852 6                  23495356.985    23495356.168
        40.800
 106165254.732 8  82572831.616 7  19888290.974    19888291.088    19888293.845
        51.700          43.600
 25  1  1 22 12 45.0000000  0 27G21E31G07G02G30G13G19E10G17E33E24E09
                                E03E25R12E12G14S35S31E05S33R03R11R21
                                R23R02R22
 122617466.894 5  95546056.1184   23333319.919    23333320.2494   23333320.3154
        31.600           4.0004
 126794127.512 7                  24128112.197
        46.500
 120372049.924 6  93796405.61943  22906055.150    22906054.9544   22906048.3714
        38.200          23.0004
 116189169.727 6  90537046.90644  22110059.380    22110058.2494   22110058.8144
        41.800          27.5004
 110069430.474 8  85768380.79047  20945516.771    20945515.9984   20945520.8654
        49.200          46.9004
 121043051.198 4  94319332.92741  23033736.408    23033736.5424   23033747.0224
        28.800          11.9004
 117243204.865 5  91358319.18142  22310624.135    22310622.6784   22310619.4444
        34.900          17.0004
 137748475.691 6                  26212662.459
        37.000
 107689537.549 8  83913945.74748  20492636.697    20492636.2154   20492636.7914
        49.800          49.0004
 130305046.990 7                  24796221.649
        44.600
 127589054.988 7                  24279389.574
        43.800


 146124478.939 5                  27806554.227
        34.700
 145098404.566 5                  27611298.452
        35.400
 109227130.472 8  84954462.884 7  20447549.124    20447549.805    20447554.277
        52.100          47.000
 132005836.769 7                  25119870.206
        43.100
 106229452.560 7  82776198.82847  20214793.504    20214793.2094   20214794.9304
        47.300          42.1004


 198897328.106 7                  37848924.519
        42.600
 131516831.066 5                  25026831.134
        32.400
 202055462.997 7                  38449885.492
        44.900
 128717899.152 5 100113971.796 5  24045576.428    24045572.703    24045588.899
        35.500          33.700
 105836804.183 8  82317506.263 6  19805920.836    19805921.330    19805925.732
        50.600          40.900
 106345353.171 8  82713035.263 7  19873164.194    19873165.678    19873172.821
        48.300          45.500
 125617954.074 6                  23482947.314    23482948.341
        39.900
 129186471.363 6 100478440.980 6  24209494.327    24209491.829    24209508.854
        36.500          36.300
 106127276.139 7  82543292.750 7  19881172.959    19881173.472    19881179.560
        47.600          43.400
 25  1  1 22 13  0.0000000  0 28E31G07G02G30G13G15G19E10G17E33E24E09
                                E03E25R12E12G14S35S31E05S33R03R11R21
                                R23R10R02R22
 126808276.300 7                  24130804.526
        46.300
 120423306.847 5  93836345.98243  22915811.390    22915810.8724   22915802.4644
        34.300          21.8004
 116215502.517 7  90557565.98944  22115070.311    22115069.1944   22115070.3904
        42.900          27.5004
 110100383.452 8  85792499.97547  20951407.104    20951406.3094   20951411.1454
        48.400          46.2004
 121067515.091 4  94338395.6944   23038390.200    23038390.4104   23038402.0934
        28.900           5.7004
 129821661.741 5                  24704229.184
        32.700
 117203831.975 5  91327639.07242  22303128.308    22303126.6994   22303125.7744
        31.500          12.4004
 137702846.481 5                  26203979.628
        35.400
 107679077.230 7  83905794.85448  20490646.069    20490645.6044   20490645.9584
        47.900          48.7004
 130312853.454 7                  24797707.047
        45.100
 127572965.131 7                  24276328.231
        45.100


 146116339.256 5                  27805006.487
        35.400
 145066110.713 5                  27605154.100
        34.700
 109188312.472 8  84924271.151 7  20440278.817    20440280.092    20440287.264
        48.500          45.900
 131970879.825 6                  25113218.419
        41.500
 106220940.711 8  82769566.22647  20213173.715    20213173.4344   20213175.2144
        48.300          42.1004


 198897325.833 7                  37848922.646
        43.500


 202055465.214 7                  38449888.403
        45.300
 128727303.707 6 100121286.317 5  24047332.690    24047332.032    24047345.518
        37.200          34.900
 105854233.057 8  82331062.010 7  19809182.264    19809182.453    19809188.849
        50.400          42.900
 106374897.181 7  82736013.954 7  19878686.040    19878685.878    19878692.806
        46.000          44.900
 125551622.147 6                  23470542.942    23470543.497
        37.100
 125943484.069 6                  23626682.608    23626685.082
        36.100
 129229280.737 6 100511737.026 5  24217515.108    24217514.698    24217533.177
        37.000          35.700
 106089456.255 7  82513877.299 7  19874086.789    19874087.310    19874095.231
        45.900          43.800
 25  1  1 22 13 15.0000000  0 28E31G07G02G30G13G15G19E10G17E33E24E09
                                E03E25R12E12G14S35S31E05S33R03R11R21
                                R23R10R02R22
 126822463.076 7                  24133504.343
        46.300
 120474627.510 5  93876336.13643  22925545.321    22925544.7494   22925566.7714
        31.300          20.3004
 116241959.709 7  90578181.99244  22120104.369    22120103.2384   22120105.1244
        44.000          26.9004
 110131460.552 8  85816715.86647  20957321.212    20957320.4034   20957325.0994
        48.200          46.5004
 121092094.517 6  94357548.5634   23043088.600    23043088.7434   23043078.9814
        36.000           3.4004
 129836646.505 5 101171335.4224   24707080.421    24707080.2874   24707073.0944
        32.700           3.4004
 117164525.862 5  91297011.02942  22295647.833    22295645.9914   22295645.2954
        31.900          14.8004
 137657254.617 5                  26195299.309
        31.100
 107668715.727 8  83897720.97048  20488674.409    20488673.9494   20488674.4064
        49.500          49.1004
 130320773.969 7                  24799214.435
        45.400
 127556903.714 7                  24273271.356
        45.000


 146108304.527 6                  27803477.992
        36.500
 145033814.172 6                  27599008.430
        37.500
 109149561.645 7  84894131.610 7  20433024.261    20433024.397    20433033.317
        46.100          46.100
 131936000.610 7                  25106581.354
        43.000
 106212502.034 8  82762990.63647  20211567.867    20211567.6044   20211569.1104
        48.900          42.1004


 198897327.405 7                  37848913.761
        42.300


 202055471.159 7                  38449892.960
        46.000
 128736878.839 6 100128733.656 5  24049122.174    24049120.542    24049134.462
        37.300          33.500
 105871790.281 8  82344717.632 7  19812468.962    19812468.264    19812475.984
        49.600          44.900
 106404610.425 8  82759124.288 7  19884240.639    19884240.939    19884245.368
        48.200          45.800
 125485331.976 5                  23458150.982    23458148.096
        31.000
 125993951.222 6                  23636148.413    23636151.158
        36.600
 129272166.078 6 100545092.166 5  24225555.295    24225553.785    24225566.558
        38.700          31.300
 106051800.955 7  82484589.916 7  19867035.425    19867034.631    19867040.505
        46.900          44.600
 25  1  1 22 13 30.0000000  0 27E31G07G02G30G13G15G19E10G17E33E24E09
                                E03E25R12E12G14S35S31E05S33R03R11R21
                                R10R02R22
 126836687.830 7                  24136211.199
        46.900
 120526011.807 5  93916375.66543  22935337.235    22935336.8784   22935342.5744
        32.400          22.9004
 116268540.848 6  90598894.59544  22125161.507    22125160.3724   22125162.5074
        41.500          24.0004
 110162661.527 8  85841028.27147  20963258.075    20963257.2804   20963262.2194
        49.400          46.2004
 121116788.570 6                  23047770.952
        37.700
 129851752.492 5 101183106.2124   24709959.406    24709959.1254   24709947.0424
        31.300           5.3004
 117125286.415 6  91266434.89243  22288182.653    22288180.8294   22288181.4464
        37.300          21.1004


 107658452.982 8  83889724.05348  20486721.114    20486720.6414   20486721.2684
        49.900          48.9004
 130328808.280 7                  24800743.474
        46.200
 127540870.784 7                  24270220.430
        45.200


 146100374.740 6                  27801969.064
        36.000
 145001514.833 6                  27592862.939
        36.800
 109110878.287 7  84864044.579 7  20425786.587    20425784.379    20425793.018
        47.400          46.900
 131901199.195 7                  25099958.299
        44.400
 106204136.582 8  82756472.09747  20209975.775    20209975.5214   20209976.5914
        50.400          42.0004


 198897331.786 7                  37848918.080
        42.600
 131589374.648 5                  25040625.106
        35.300
 202055480.878 7                  38449893.259
        44.400
 128746624.477 5 100136313.785 4  24050933.232    24050936.553    24050949.493
        33.500          29.600
 105889475.887 8  82358473.146 7  19815777.960    19815777.842    19815786.648
        48.800          46.100
 106434492.422 8  82782365.863 7  19889823.555    19889824.780    19889830.353
        49.100          46.100
 126044476.228 5                  23645630.782    23645627.197
        30.700
 129315126.382 6 100578505.564 5  24233603.926    24233606.891    24233633.464
        37.000          30.700
 106014310.504 8  82455430.729 7  19860013.656    19860013.745    19860016.909
        50.500          45.100
 25  1  1 22 13 45.0000000  0 27E31G07G02G30G13G19E10G17E33E24E09E03
                                E25R12E12G14S35S31E05S33R03R11R21R23
                                R10R02R22
 126850947.184 7                  24138924.798
        47.400
 120577455.915 6  93956461.84444  22945127.629    22945127.3344   22945130.0124
        37.000          24.3004
 116295242.602 7  90619701.18043  22130242.833    22130241.6984   22130241.8454
        42.500          21.7004
 110193982.735 8  85865434.36847  20969218.094    20969217.3034   20969222.0794
        49.600          46.2004
 121141593.666 5                  23052488.991
        32.900
 117086110.262 6  91235908.07944  22280726.757    22280724.8934   22280730.3054
        40.500          25.7004
 137566179.827 5                  26177978.572
        34.100
 107648285.433 8  83881801.30748  20484786.377    20484785.8994   20484786.2814
        49.800          49.1004
 130336953.001 7                  24802293.358
        45.400
 127524862.947 7                  24267174.698
        43.800


 146092546.514 6                  27800479.768
        36.600
 144969209.372 6                  27586716.239
        36.600
 109072259.078 7  84834007.426 7  20418555.691    20418555.103    20418562.458
        47.900          46.500
 131866472.431 7                  25093349.709
        44.400
 106195841.085 8  82750008.07146  20208397.165    20208396.9114   20208397.3714
        49.600          41.1004


 198897336.520 7                  37848915.473
        42.000
 131613710.848 6                  25045257.821
        37.800
 202055489.949 7                  38449895.951
        44.300
 128756536.842 5                  24052790.203    24052788.963
        32.300
 105907286.388 7  82372325.753 7  19819111.720    19819111.173    19819118.208
        47.100          45.700
 106464539.304 8  82805735.653 7  19895439.145    19895438.481    19895446.103
        49.100          46.000
 125352895.487 5                  23433398.290    23433393.882
        35.600
 126095055.200 4                  23655109.916
        26.600
 129358157.905 5 100611974.372 4  24241668.275    24241670.421    24241701.840
        34.400          28.400
 105976981.696 8  82426397.256 7  19853019.119    19853018.871    19853025.563
        48.600          47.100
 25  1  1 22 14  0.0000000  0 27E31G07G02G30G13G19E10G17E33E24E09E03
                                E25R12E12G14S35S31E05S33R03R11R21R23
                                R10R02R22
 126865238.126 7                  24141644.456
        47.000
 120628956.432 6  93996591.94943  22954926.430    22954926.1984   22954929.3314
        38.300          23.4004
 116322061.646 7  90640599.15643  22135346.359    22135345.1304   22135343.7654
        43.100          20.2004
 110225420.892 8  85889931.58947  20975200.384    20975199.5934   20975204.7794
        49.000          46.3004
 121166506.539 6                  23057233.430
        36.900
 117046994.540 6  91205428.36744  22273283.905    22273282.0544   22273289.0204
        40.600          26.6004
 137520690.838 5                  26169314.759
        35.300
 107638209.953 8  83873950.30048  20482868.663    20482868.1904   20482869.4574
        49.800          49.5004
 130345204.970 7                  24803863.625
        46.400
 127508877.244 7                  24264133.061
        44.800


 146084816.851 5                  27799008.984
        35.400
 144936894.670 6                  27580566.741
        36.700
 109033701.443 7  84804018.221 7  20411337.160    20411336.151    20411344.003
        47.600          46.100
 131831817.443 7                  25086754.986
        44.700
 106187612.602 8  82743596.26146  20206831.578    20206831.3244   20206831.4624
        48.800          40.4004


 198897338.444 7                  37848918.559
        42.300
 131638118.717 5                  25049899.649
        34.900
 202055496.133 7                  38449894.458
        44.500
 128766612.716 5                  24054677.231
        35.700
 105925218.768 7  82386273.192 7  19822465.988    19822464.662    19822472.761
        45.400          45.900
 106494747.483 8  82829230.890 7  19901084.379    19901084.285    19901090.171
        50.500          44.300
 125286722.306 6                  23421024.706    23421024.677
        40.500
 126145685.079 4                  23664621.566
        28.500
 129401256.946 4                  24249744.164    24249745.974
        29.400
 105939811.753 8  82397487.383 7  19846056.149    19846055.535    19846062.353
        48.500          47.500
 25  1  1 22 14 15.0000000  0 28E31G07G02G30G13G15G19E10G17E33E24E09
                                E03E25R12E12G14S35S31E05S33R03R11R21
                                R23R10R02R22
 126879564.184 7                  24144370.676
        46.100
 120680516.621 6  94036768.61444  22964737.590    22964737.3454   22964742.8574
        38.900          25.9004
 116349001.101 6  90661590.94643  22140471.443    22140470.0934   22140470.0604
        37.100          18.7004
 110256979.289 7  85914522.52547  20981205.988    20981205.2064   20981210.6024
        46.400          46.0004
 121191530.208 5                  23061991.810
        34.700


 117007942.739 6  91174998.45344  22265852.734    22265850.8704   22265857.9704
        39.400          27.3004
 137475236.984 6                  26160664.974
        37.000
 107628229.862 8  83866173.62848  20480969.488    20480969.0194   20480970.9774
        49.900          50.4004
 130353567.577 7                  24805455.084
        45.600
 127492917.153 7                  24261095.974
        46.500


 146077189.211 5                  27797556.001
        31.100
 144904574.233 6                  27574415.609
        36.100
 108995209.260 8  84774079.888 7  20404132.070    20404130.976    20404137.599
        49.200          45.500
 131797237.910 7                  25080174.807
        42.900
 106179454.700 7  82737239.45946  20205278.825    20205278.5804   20205279.6034
        47.800          40.2004


 198897340.530 7                  37848919.305
        42.700
 131662601.613 5                  25054560.921
        34.000
 202055502.442 7                  38449897.275
        44.100
 128776855.424 6                  24056595.361    24056596.827
        36.000
 105943276.599 7  82400318.200 7  19825844.275    19825844.623    19825852.284
        46.500          46.200
 106525120.039 8  82852853.942 7  19906759.929    19906760.746    19906765.260
        51.200          42.700
 125220589.333 6                  23408659.135    23408660.971
        40.300
 126196369.249 4                  23674128.246
        26.200
 129444426.615 5                  24257840.072    24257837.299
        30.600
 105902804.484 7  82368703.991 7  19839122.647    19839123.894    19839129.491
        47.500          47.800
 25  1  1 22 14 30.0000000  0 27E31G07G02G30G13G15G19E10G17E33E24E09
                                E03E25R12E12G14S35S31E05S33R03R11R21
                                R23R02R22
 126893924.384 7                  24147103.455
        45.600
 120732135.013 6  94076990.59444  22974557.959    22974557.7184   22974567.3254
        37.100          24.8004
 116376059.645 6  90682675.54742  22145623.363    22145621.9504   22145619.0584
        36.300          16.1004
 110288656.669 7  85939206.19047  20987234.275    20987233.4884   20987239.0154
        44.800          44.3004
 121216663.394 6                  23066778.416
        36.700


 116968954.102 6  91144617.73544  22258433.348    22258431.5734   22258437.8984
        38.500          25.5004
 137429817.493 6                  26152023.842
        39.800
 107618344.203 8  83858470.54448  20479088.353    20479087.8884   20479090.3864
        51.200          50.9004
 130362039.771 7                  24807067.405
        45.300
 127476981.801 7                  24258063.457
        47.800


 146069662.651 5                  27796125.151
        32.700
 144872247.050 4                  27568262.857
        29.700
 108956781.772 8  84744191.889 7  20396937.554    20396937.160    20396944.417
        49.300          45.500
 131762733.031 6                  25073608.848
        41.200
 106171366.504 7  82730936.98646  20203739.888    20203739.6474   20203741.1464
        47.200          39.2004


 198897342.230 7                  37848921.327
        42.500
 131687158.338 5                  25059235.070
        33.900
 202055508.777 7                  38449897.964
        44.400
 128787263.945 5                  24058538.740    24058536.926
        30.300
 105961458.994 8  82414460.055 7  19829248.705    19829249.634    19829254.111
        49.000          47.100
 106555655.523 8  82876603.718 7  19912465.680    19912466.228    19912472.002
        50.000          43.000
 125154495.747 6                  23396306.542    23396307.555
        39.500


 105865959.142 7  82340046.550 7  19832219.176    19832219.499    19832227.577
        45.900          47.500
 25  1  1 22 14 45.0000000  0 25E31G07G02G30G13G19E10G17E33E24E09E03
                                E25R12E12G14S35S31E05S33R03R11R21R23
                                R22
 126908319.085 7                  24149842.331
        45.600
 120783811.657 5  94117258.02043  22984393.956    22984393.7914   22984401.8144
        32.100          21.9004
 116403237.441 6  90703853.06742  22150793.959    22150792.4574   22150790.6684
        38.600          15.5004
 110320453.149 7  85963982.66947  20993285.142    20993284.3604   20993289.5904
        46.500          44.5004
 121241906.079 5  94474299.51541  23071578.437    23071578.2854   23071586.6894
        34.700           9.6004
 116930028.814 7  91114286.37244  22251026.653    22251024.9504   22251029.1084
        42.500          26.4004
 137384432.907 6                  26143387.676
        41.000
 107608553.093 8  83850841.12848  20477225.428    20477224.9724   20477227.1874
        51.300          50.9004
 130370621.736 7                  24808700.525
        46.600
 127461071.497 7                  24255035.655
        47.100


 146062237.383 5                  27794713.139
        32.700
 144839913.550 4                  27562109.096
        26.100
 108918419.695 8  84714354.745 7  20389755.597    20389755.618    20389762.799
        49.800          45.400
 131728303.342 6                  25067056.797
        40.800
 106163348.421 8  82724689.15446  20202214.285    20202214.0264   20202215.9964
        48.000          38.6004


 198897343.367 7                  37848921.707
        42.400
 131711788.946 5                  25063924.654
        33.200
 202055514.372 7                  38449900.320
        44.500
 128797838.351 5                  24060495.674    24060504.113
        32.700
 105979766.208 8  82428698.970 8  19832675.343    19832674.986    19832681.077
        48.300          49.100
 106586353.902 8  82900480.224 7  19918203.899    19918203.177    19918210.597
        48.700          43.100
 125088442.511 5                  23383952.704    23383951.183
        34.900
 105829276.332 7  82311515.516 7  19825348.196    19825346.253    19825355.252
        44.400          46.100
 25  1  1 22 15  0.0000000  0 26E31G07G02G30G13G19E10G17E33E24E09E03
                                E25R12E12G14S35S31E05S33R03R11R21R23
                                R02R22
 126922750.284 7                  24152588.501
        44.500
 120835548.255 5  94157572.14343  22994240.558    22994240.3574   22994246.6414
        33.500          22.0004
 116430536.096 6  90725124.78242  22155987.079    22155985.5994   22155985.7774
        39.500          15.8004
 110352370.476 7  85988853.30747  20999357.753    20999356.9624   20999363.5344
        46.000          45.0004
 121267260.043 6  94494055.79842  23076403.279    23076403.3864   23076408.9134
        36.800          15.7004
 116891168.929 6  91084005.98944  22243629.452    22243627.7854   22243632.6734
        40.900          24.7004
 137339085.406 6                  26134758.819
        39.400
 107598858.430 8  83843286.86448  20475380.794    20475380.3434   20475381.9184
        50.800          51.0004
 130379315.393 7                  24810354.004
        45.500
 127445188.279 7                  24252012.749
        46.100
 146127694.938 6                  27807176.285
        36.300
 146054915.611 5                  27793318.449
        33.500
 144807575.438 4                  27555954.323
        24.500
 108880125.439 8  84684570.368 7  20382586.468    20382586.390    20382593.648
        49.000          44.600
 131693951.003 6                  25060520.061
        40.200
 106155402.551 8  82718497.58846  20200701.792    20200701.5294   20200704.3734
        48.900          38.9004


 198897346.422 6                  37848917.016
        41.600
 131736495.257 4                  25068627.963
        26.900
 202055521.320 7                  38449897.731
        44.900
 128808580.447 5                  24062519.851    24062516.880
        34.300
 105998200.371 7  82443036.634 8  19836125.329    19836124.870    19836130.442
        47.900          49.300
 106617216.725 8  82924484.602 7  19923971.101    19923970.975    19923978.695
        48.900          43.200
 125022431.848 5                  23371610.412    23371610.211
        32.600
 129574397.069 6                  24282190.632    24282194.371
        37.500
 105792758.378 8  82283112.703 7  19818509.760    19818509.679    19818512.606
        48.800          43.600
 25  1  1 22 15 15.0000000  0 26E31G07G02G30G13G19E10G17E33E24E09E03
                                E25R12E12G14S35S31E05S33R03R11R21R23
                                R02R22
 126937215.311 7                  24155341.322
        44.600
 120887341.821 6  94197930.63743  23004095.206    23004095.0324   23004102.2674
        37.600          23.3004
 116457952.623 6  90746488.28642  22161204.764    22161203.3964   22161202.8104
        41.100          15.9004
 110384405.683 7  86013815.79647  21005454.014    21005453.2324   21005460.3584
        44.100          44.0004
 121292722.018 6  94513896.28842  23081249.351    23081249.0034   23081253.3354
        39.200          17.2004
 116852371.541 6  91053774.32644  22236246.949    22236245.2864   22236248.9254
        38.800          24.0004
 137293772.512 6                  26126135.404
        40.000
 107589257.343 8  83835805.50948  20473553.727    20473553.2804   20473554.7594
        50.500          51.1004
 130388117.923 7                  24812029.435
        45.200
 127429329.474 7                  24248995.067
        45.900
 146169364.114 6                  27815109.773
        37.800
 146047694.421 5                  27791942.868
        33.600
 144775230.268 4                  27549800.469
        29.800
 108841896.479 8  84654836.746 7  20375430.624    20375430.082    20375437.209
        49.300          44.200
 131659673.477 6                  25053997.619
        40.700
 106147526.278 8  82712360.24946  20199202.918    20199202.6684   20199205.4504
        49.900          38.5004


 198897348.454 6                  37848915.871
        41.700
 131761274.259 5                  25073340.831
        32.100
 202055527.985 7                  38449900.955
        45.300
 128819486.704 4                  24064541.564
        27.600
 106016758.797 7  82457470.948 8  19839595.100    19839595.600    19839602.349
        45.400          48.400
 106648240.693 8  82948614.348 7  19929768.892    19929769.359    19929774.946
        48.900          42.900
 124956461.393 4                  23359274.084    23359275.992
        29.700
 129617841.504 6                  24290334.999    24290335.595
        36.400
 105756402.731 8  82254836.159 7  19811699.109    19811699.487    19811702.275
        49.900          43.400
 25  1  1 22 15 30.0000000  0 26E31G07G02G30G13G19E10G17E33E24E09E03
                                E25R12E12G14S35S31E05S33R03R11R21R23
                                R02R22
 126951714.624 7                  24158099.955
        44.000
 120939192.353 6  94238333.50443  23013962.780    23013962.5754   23013967.9674
        37.800          23.0004
 116485487.251 6  90767943.81642  22166444.797    22166443.4744   22166442.0814
        39.400          16.1004
 110416558.991 6  86038870.32947  21011573.349    21011572.5584   21011579.0634
        41.500          42.3004
 121318292.218 6  94533821.07342  23086114.122    23086113.4704   23086118.9174
        36.300          15.9004
 116813637.891 6  91023592.35144  22228878.104    22228876.4594   22228876.6954
        41.000          24.3004
 137248494.907 6                  26117518.875
        37.500
 107579750.206 8  83828397.36848  20471744.470    20471744.0234   20471745.5364
        50.600          50.8004
 130397029.667 7                  24813724.651
        43.700
 127413495.578 7                  24245981.503
        45.600
 146211022.541 6                  27823032.384
        37.600
 146040574.335 5                  27790590.267
        35.300
 144742878.335 5                  27543647.287
        33.100
 108803733.635 8  84625154.515 7  20368287.238    20368287.850    20368292.129
        51.600          42.500
 131625471.423 6                  25047488.915
        41.000
 106139720.157 8  82706277.57346  20197717.481    20197717.2494   20197719.5924
        49.200          37.1004


 198897349.966 6                  37848920.942
        41.700
 131786125.926 5                  25078071.186
        30.400
 202055533.660 7                  38449902.999
        45.300
 128830558.225 5                  24066614.990
        30.800
 106035441.958 7  82472002.282 8  19843091.533    19843092.592    19843098.523
        46.100          48.100
 106679425.924 7  82972869.552 7  19935595.522    19935594.520    19935601.873
        46.900          42.300
 124890532.210 5                  23346958.092    23346959.104
        35.300
 129661352.860 4                  24298481.242
        25.900
 105720210.119 8  82226686.400 7  19804917.511    19804917.900    19804924.056
        48.600          43.900
 25  1  1 22 15 45.0000000  0 28G21E31G07G02G30G13G15G19E10G17E33E24
                                E09E03E25R12E12G14S35S31E05S33R03R11
                                R21R23R02R22
 123169650.595 5                  23438406.218
        33.000
 126966248.818 7                  24160866.536
        42.500
 120991100.163 6  94278781.02643  23023841.727    23023841.4104   23023844.7444
        37.000          23.6004
 116513140.232 6  90789491.52543  22171708.614    22171707.3454   22171704.3534
        40.700          18.1004
 110448830.687 7  86064017.09747  21017714.495    21017713.7224   21017720.3004
        44.500          42.5004
 121343970.944 5  94553830.37042  23090998.763    23090997.9594   23091005.2064
        33.800          12.5004
 129992858.328 5                  24736817.322
        32.300
 116774968.377 6  90993460.35144  22221519.302    22221517.6974   22221517.8264
        38.500          25.1004
 137203253.388 4                  26108910.139
        29.800
 107570337.371 8  83821062.70748  20469953.486    20469953.0354   20469954.1244
        49.700          50.6004
 130406051.032 7                  24815442.182
        43.000
 127397687.173 7                  24242973.233
        44.800
 146252670.493 5                  27830954.460
        34.600
 146033555.972 5                  27789252.221
        32.500
 144710520.140 5                  27537491.350
        34.100
 108765637.619 8  84595524.254 7  20361154.620    20361155.934    20361160.933
        52.100          42.300
 131591345.533 7                  25040994.890
        42.500
 106131984.838 8  82700250.05946  20196245.475    20196245.2434   20196247.1584
        49.000          36.6004


 198897350.869 6                  37848917.387
        41.500


 202055538.698 7                  38449903.884
        44.300
 128841794.656 5                  24068718.603
        34.200
 106054250.440 7  82486631.052 7  19846612.688    19846613.825    19846617.949
        47.100          47.400
 106710772.427 7  82997250.140 7  19941453.514    19941452.484    19941458.536
        46.800          42.000
 124824645.029 6                  23334634.730    23334635.205
        37.200
 129704930.803 5                  24306676.029
        31.300
 105684181.371 7  82198664.084 7  19798165.821    19798166.958    19798173.368
        47.100          42.900
 25  1  1 22 16  0.0000000  0 29G21E31G07G02G30G13G15G19E10G17E33E24
                                E09E03E25R12E12G14S35S31E05S33R03R11
                                R21R23R13R02R22
 123216195.053 5  96012624.73241  23447262.602    23447262.3924   23447264.4714
        33.200           9.4004
 126980818.180 7                  24163639.263
        42.600
 121043065.216 6  94319273.14044  23033732.014    23033731.7244   23033734.3464
        36.200          27.3004
 116540911.564 7  90811131.50243  22176993.679    22176992.3654   22176990.8894
        43.300          20.7004
 110481220.839 7  86089256.17847  21023878.069    21023877.2824   21023883.8954
        45.800          42.9004
 121369757.950 6  94573924.14941  23095924.975    23095924.4214   23095912.4414
        36.300          10.1004
 130009125.744 4                  24739913.407
        29.100
 116736363.176 7  90963378.47344  22214172.832    22214171.3084   22214171.5544
        43.100          25.5004
 137158048.344 4                  26100305.757
        27.100
 107561019.134 8  83813801.75948  20468179.729    20468179.2734   20468180.6524
        50.200          50.5004
 130415182.275 7                  24817180.055
        42.000
 127381904.606 7                  24239969.675
        44.800
 146294308.047 4                  27838877.292
        28.000
 146026639.541 5                  27787936.059
        30.400
 144678156.015 5                  27531334.749
        33.400
 108727609.339 8  84565946.747 6  20354035.486    20354035.197    20354040.750
        50.500          40.700
 131557296.295 7                  25034515.170
        42.200
 106124320.698 7  82694278.01045  20194786.456    20194786.2284   20194788.4354
        47.400          35.4004


 198897352.326 6                  37848914.588
        41.700


 202055543.873 7                  38449904.743
        44.200
 128853195.776 5                  24070859.750    24070858.808
        30.800
 106073184.610 7  82501357.593 7  19850156.724    19850157.832    19850160.923
        47.800          46.700
 106742280.204 7  83021756.195 6  19947339.951    19947340.757    19947347.354
        47.700          41.800
 124758800.520 6                  23322324.571    23322325.490
        38.300
 128156306.994 5                  23999554.984    23999555.211
        34.000
 129748575.221 4                  24314861.101
        27.600
 105648317.014 7  82170769.663 7  19791450.481    19791448.993    19791454.004
        46.700          42.000
 25  1  1 22 16 15.0000000  0 26G21E31G07G02G30G13G19E10G17E33E24E09
                                E03E25R12E12G14S35S31E05S33R11R21R23
                                R13R22
 123262817.818 5  96048954.18341  23456135.075    23456134.9414   23456139.7614
        31.400           7.8004
 126995421.745 7                  24166417.941
        42.200
 121095086.059 6  94359808.74644  23043631.602    23043631.4284   23043634.6934
        39.600          29.6004
 116568800.056 7  90832862.77343  22182298.473    22182297.2174   22182298.8524
        42.300          21.3004
 110513728.248 7  86114586.61347  21030064.154    21030063.3814   21030068.9814
        47.100          43.1004
 121395651.822 5  94594101.13941  23100837.987    23100837.1204   23100839.9594
        33.300           6.4004
 116697821.294 7  90933345.92844  22206838.084    22206836.5874   22206837.3734
        44.600          25.4004
 137112879.190 5                  26091734.779
        32.200
 107551794.332 8  83806613.60348  20466424.386    20466423.9174   20466425.0934
        49.500          50.8004
 130424422.244 7                  24818937.915
        43.300
 127366146.877 7                  24236970.938
        44.900
 146335933.851 4                  27846800.238
        27.400
 146019824.116 5                  27786640.498
        30.600
 144645784.898 5                  27525179.222
        30.100
 108689647.959 8  84536421.238 6  20346929.755    20346929.596    20346934.130
        51.400          40.800
 131523322.929 6                  25028050.508
        41.700
 106116726.847 7  82688360.73045  20193342.486    20193342.2634   20193343.4394
        43.800          33.9004


 198897353.008 7                  37848919.967
        43.000


 202055548.403 7                  38449904.018
        44.500
 106092243.493 7  82516181.114 7  19853722.710    19853723.119    19853729.081
        46.300          47.400
 106773947.711 8  83046386.504 7  19953258.107    19953259.052    19953264.769
        48.900          43.100
 124692997.961 5                  23310019.670    23310019.468
        33.100
 128100465.914 4                  23989085.778    23989087.107
        25.100
 105612616.225 8  82143002.438 6  19784761.620    19784761.539    19784765.177
        48.300          40.700
 25  1  1 22 16 30.0000000  0 25G21E31G07G02G30G13G19E10G17E33E24E09
                                E03E25R12E12G14S35S31E05S33R11R21R23
                                R22
 123309524.328 5  96085348.86541  23465022.929    23465022.5814   23465028.1714
        34.300           7.9004
 127010065.359 6                  24169204.033
        41.600
 121147168.293 6  94400392.20245  23053538.743    23053538.5744   23053546.8764
        38.300          31.1004
 116596811.231 7  90854689.65743  22187629.120    22187628.0074   22187629.1744
        42.300          20.6004
 110546358.428 7  86140012.70647  21036273.590    21036272.8354   21036277.1044
        47.900          42.8004
 121421658.143 5  94614365.74141  23105781.470    23105780.7104   23105788.6864
        31.000           9.3004
 116659348.817 7  90903367.40844  22199516.557    22199515.0284   22199515.7264
        42.400          24.0004
 137067751.539 6                  26083124.068
        36.000
 107542668.645 8  83799502.67948  20464687.883    20464687.4234   20464688.5694
        50.600          50.9004
 130433776.693 7                  24820717.515
        42.800
 127350419.877 7                  24233978.408
        45.500
 146377553.504 5                  27854721.481
        35.300
 146013115.439 5                  27785364.691
        31.700


 108651759.749 8  84506952.627 7  20339837.259    20339838.180    20339842.441
        53.200          42.200
 131489431.387 7                  25021601.196
        43.100
 106109209.211 7  82682502.84645  20191913.195    20191912.9634   20191912.4614
        44.100          33.3004


 198897358.079 7                  37848921.514
        43.400


 202055558.166 7                  38449911.410
        44.900
 106111433.012 7  82531106.260 7  19857313.712    19857315.053    19857320.894
        46.300          47.500
 106805780.400 7  83071145.307 7  19959206.001    19959206.959    19959213.856
        47.700          44.700
 124627243.897 4                  23297730.019    23297727.881
        28.900
 105577085.297 8  82115367.339 6  19778105.128    19778105.877    19778109.113
        48.300          41.900
 25  1  1 22 16 45.0000000  0 26G21E31G07G02G30G13G15G19E10G17E33E24
                                E09E03E25R12E12G14S35S31E05S33R11R21
                                R23R22
 123356303.393 5  96121800.09641  23473923.976    23473923.4004   23473930.3224
        32.500           7.1004
 127024738.355 7                  24171996.144
        42.600
 121199300.927 6  94441014.91345  23063459.793    23063459.6154   23063468.4724
        38.600          32.3004
 116624934.081 7  90876603.59943  22192983.813    22192982.7404   22192979.2474
        44.600          19.6004
 110579100.465 7  86165525.95047  21042504.212    21042503.4754   21042507.9624
        47.400          42.9004
 121447765.922 5  94634709.45241  23110754.155    23110753.3914   23110756.7484
        31.600           9.3004
 130058621.000 6                  24749333.625
        38.000
 116620935.117 5  90873434.71043  22192205.187    22192203.6814   22192206.1524
        34.400          19.9004
 137022655.319 6                  26074545.313
        38.500
 107533631.228 8  83792460.53648  20462967.850    20462967.3944   20462968.9534
        50.000          51.3004
 130443234.756 6                  24822518.135
        40.400
 127334712.918 7                  24230989.860
        46.000
 146419156.052 6                  27862642.401
        37.300
 146006502.877 5                  27784108.224
        35.300


 108613934.141 8  84477532.736 7  20332755.976    20332756.417    20332762.575
        52.900          44.200
 131455611.182 7                  25015165.068
        43.300
 106101757.149 7  82676696.05245  20190493.357    20190493.1164   20190493.8534
        46.100          35.0004


 198897357.984 7                  37848928.830
        43.800


 202055561.407 7                  38449906.661
        45.600
 106130742.200 7  82546124.508 7  19860929.293    19860926.201    19860932.963
        42.900          46.000
 106837767.066 8  83096023.833 7  19965184.652    19965185.496    19965192.089
        49.300          45.500
 124561527.683 5                  23285446.579    23285447.751
        32.700
 105541713.516 7  82087856.017 7  19771478.373    19771480.261    19771484.909
        47.700          42.900
 25  1  1 22 17  0.0000000  0 28G21E31G07G02G30G13G15G19E10G17E33E24
                                E09E03E25R12E12G14S35S31E05S33R03R11
                                R21R23R13R22
 123403162.540 4  96158313.7334   23482840.173    23482839.5794   23482847.7124
        29.700           5.9004
 127039448.339 6                  24174794.937
        41.400
 121251491.102 6  94481682.46745  23073389.958    23073389.8114   23073400.8534
        37.500          31.6004
 116653175.944 7  90898610.25743  22198355.086    22198353.9954   22198350.8514
        43.300          18.0004
 110611961.767 7  86191132.12347  21048757.478    21048756.7454   21048762.8544
        46.900          43.3004
 121473982.372 5  94655137.74242  23115744.198    23115743.3984   23115745.6794
        34.000          12.1004
 130075347.446 5                  24752514.417
        31.200
 116582587.513 7  90843553.48043  22184911.406    22184909.9004   22184907.5124
        43.300          18.6004
 136977598.145 5                  26065965.502
        35.900
 107524689.694 8  83785493.11948  20461266.800    20461266.3494   20461267.5144
        49.500          50.7004
 130452803.987 7                  24824339.102
        44.300
 127319033.699 7                  24228006.247
        47.100
 146460748.885 5                  27870551.602
        30.000
 145999994.013 5                  27782867.988
        35.300


 108576179.192 8  84448167.814 7  20325687.814    20325687.927    20325694.876
        50.800          45.300
 131421870.122 7                  25008744.060
        42.700
 106094378.420 7  82670946.42246  20189089.395    20189089.1764   20189089.8124
        46.600          37.2004


 198897359.545 6                  37848919.583
        41.200


 202055567.314 7                  38449912.756
        45.600
 128900472.909 5                  24079680.239
        30.200
 106150178.992 7  82561241.993 7  19864564.078    19864563.777    19864570.606
        45.800          46.200
 106869914.708 8  83121027.597 7  19971191.633    19971192.459    19971200.281
        48.600          46.800
 124495857.310 6                  23273196.452    23273197.101
        37.600
 127932793.364 4                  23957700.730    23957699.049
        28.800
 105506508.936 7  82060474.633 7  19764880.214    19764879.569    19764889.284
        42.700          44.100
 25  1  1 22 17 15.0000000  0 27E31G07G02G30G13G15G19E10G17E33E24E09
                                E03E25R12E12G14S35S31E05S33R03R11R21
                                R23R13R22
 127054198.715 7                  24177602.418
        42.700
 121303741.915 5  94522397.28144  23083332.949    23083332.8874   23083344.0114
        30.700          28.8004
 116681539.692 7  90920711.95443  22203753.669    22203752.5964   22203748.1124
        43.700          20.3004
 110644945.373 7  86216833.60347  21055034.560    21055033.8584   21055040.3824
        45.900          42.3004
 121500310.477 5  94675653.14442  23120753.387    23120752.6774   23120756.0614
        34.200          12.2004
 130092192.996 5                  24755720.044
        35.200
 116544309.780 7  90813726.80143  22177625.849    22177624.3784   22177621.4774
        45.000          18.9004
 136932583.627 5                  26057399.706
        33.400
 107515847.126 8  83778602.82448  20459584.159    20459583.7034   20459584.6014
        49.000          50.1004
 130462487.636 7                  24826182.669
        44.600
 127303385.558 7                  24225028.339
        46.600


 145993592.212 5                  27781650.424
        34.500
 144516206.431 5                  27500518.872
        35.900
 108538498.691 8  84418860.761 7  20318634.807    20318634.895    20318640.372
        51.300          45.500
 131388211.729 7                  25002339.456
        42.800
 106087076.454 7  82665256.58446  20187699.927    20187699.7404   20187701.2574
        47.000          38.6004


 198897366.085 7                  37848932.054
        44.600
 131962126.222 5                  25111558.907
        35.100
 202055577.060 7                  38449911.548
        44.300
 128912701.501 4                  24081979.649
        29.600
 106169746.841 7  82576461.433 7  19868229.901    19868231.174    19868231.743
        47.100          45.300
 106902226.540 8  83146159.008 7  19977231.072    19977232.137    19977237.061
        49.900          45.700
                                                  23260937.575

 127876877.187 4                  23947231.185
        25.000
 105471475.140 7  82033226.162 7  19758321.413    19758320.070    19758328.202
        46.800          46.700
 25  1  1 22 17 30.0000000  0 25E31G07G02G30G15G19E10G17E33E24E09E03
                                E25R12E12G14S35S31E05S33R11R21R23R13
                                R22
 127068979.530 6                  24180414.763
        41.100
 121356043.102 4  94563151.34644  23093285.640    23093285.5114   23093296.6544
        27.200          25.9004
 116710015.354 7  90942900.77543  22209173.084    22209171.9894   22209169.4414
        44.800          23.0004
 110678041.125 7  86242622.46846  21061331.791    21061331.0634   21061338.3224
        45.400          40.8004
 130109147.627 5                  24758945.024
        34.400
 116506091.822 7  90783946.69643  22170353.211    22170351.7404   22170350.3234
        45.500          19.9004
 136887602.085 5                  26048841.185
        30.400
 107507093.563 8  83771781.89148  20457918.135    20457917.6844   20457918.8464
        50.800          50.6004
 130472275.614 7                  24828045.012
        44.900
 127287758.602 7                  24222054.381
        45.400


 145987287.471 5                  27780452.176
        31.900
 144483806.397 6                  27494353.697
        36.700
 108500882.794 8  84389603.977 7  20311592.336    20311593.140    20311599.203
        50.500          46.600
 131354626.166 7                  24995948.130
        42.600
 106079841.386 7  82659618.86946  20186322.835    20186322.6394   20186325.1654
        45.500          38.2004


 198897367.941 7                  37848928.584
        43.800
 131987558.785 6                  25116399.852
        38.500
 202055583.098 7                  38449909.778
        44.000
 106189435.536 7  82591774.846 7  19871909.748    19871911.279    19871916.252
        45.700          46.200
 106934691.888 8  83171409.840 7  19983298.656    19983298.908    19983304.767
        48.300          45.100
 124364655.741 5                  23248681.552
        30.000
 127820936.262 4                  23936752.514    23936751.992
        28.400
 105436602.290 7  82006102.909 7  19751785.624    19751785.800    19751794.066
        45.500          46.300
 25  1  1 22 17 45.0000000  0 27E31G07G02G30G13G15G19E10G17E33E24E09
                                E03E25R12E12G14S35S31E05S33R11R21R23
                                R10R13R22
 127083792.565 7                  24183234.319
        42.400


 116738604.404 7  90965177.95644  22214613.698    22214612.5764   22214609.7644
        45.000          24.5004
 110711250.477 7  86268499.84246  21067651.680    21067650.9524   21067657.4004
        45.300          40.7004
 121553272.196 5  94716921.92241  23130829.786    23130829.1924   23130834.6824
        31.200           6.1004
 130126212.572 6                  24762195.783
        37.300
 116467935.399 7  90754214.51943  22163092.246    22163090.8164   22163090.8414
        44.000          22.6004


 107498430.696 8  83765031.63448  20456269.628    20456269.1504   20456270.5084
        50.400          51.3004
 130482169.589 7                  24829927.941
        44.500
 127272154.659 7                  24219085.220
        45.300


 145981081.579 4                  27779270.421
        29.400
 144451397.238 6                  27488187.112
        38.000
 108463333.736 8  84360399.124 7  20304561.981    20304562.122    20304570.068
        48.800          47.400
 131321115.487 7                  24989570.881
        42.200
 106072675.041 7  82654034.71946  20184959.376    20184959.1844   20184961.2844
        45.700          38.5004


 198897366.808 7                  37848926.107
        42.500
 132013059.784 5                  25121250.456
        32.400
 202055585.716 7                  38449910.998
        44.800
 106209246.972 7  82607183.712 7  19875617.681    19875618.097    19875622.888
        45.000          45.200
 106967312.073 8  83196781.081 7  19989394.504    19989395.366    19989400.456
        48.900          44.400
 124299117.049 6                  23236387.437
        36.400
 126911547.479 5                  23808284.717
        32.600
 127764972.689 4                  23926274.947    23926271.730
        24.600
 105401892.447 7  81979106.346 7  19745284.361    19745284.597    19745291.902
        46.200          45.600
 25  1  1 22 18  0.0000000  0 26E31G07G02G30G13G15G19E10G17E33E24E09
                                E03E25R12E12G14S35S31E05S33R11R21R23
                                R10R22
 127098644.618 7                  24186060.816
        43.300
 121460814.663 5  94644836.89044  23113223.296    23113223.0514   23113233.8704
        33.900          25.3004
 116767313.192 7  90987548.43244  22220077.400    22220076.2694   22220073.8234
        45.200          26.4004
 110744579.960 7  86294470.85646  21073993.224    21073992.5004   21073998.4924
        46.100          40.3004
 121579913.756 6  94737681.39541  23135904.040    23135903.3434   23135903.9064
        37.500           9.1004
 130143394.471 5                  24765463.157
        35.500
 116429847.508 6  90724535.72443  22155845.114    22155843.6934   22155843.3344
        41.900          23.7004
 136797750.837 5                  26031742.898
        33.600
 107489864.923 8  83758357.02848  20454639.710    20454639.2144   20454640.8204
        50.300          51.4004
 130492176.178 7                  24831832.133
        45.700
 127256580.463 7                  24216121.678
        46.300


 145974981.433 4                  27778110.618
        25.900
 144418985.708 6                  27482017.784
        38.200
 108425858.530 8  84331251.765 8  20297547.859    20297546.951    20297554.785
        48.000          48.100
 131287686.529 6                  24983209.540
        41.600
 106065584.335 7  82648509.49046  20183610.286    20183610.0814   20183611.9504
        44.000          38.1004


 198897369.192 7                  37848928.973
        42.100
 132038635.717 5                  25126117.460
        35.300
 202055591.389 7                  38449911.893
        44.300
 106229188.093 7  82622693.486 7  19879347.544    19879349.215    19879354.618
        45.600          45.800
 107000093.505 7  83222277.728 7  19995517.053    19995517.988    19995526.995
        44.300          44.200
 124233628.277 6                  23224154.149    23224151.853
        38.100
 126963021.648 5                  23817941.804    23817940.851
        30.900
 105367352.648 7  81952242.096 7  19738815.461    19738816.480    19738820.015
        47.900          43.800
 25  1  1 22 18 15.0000000  0 27E31G07G02G30G13G15G19E10G17E33E24E09
                                E03E25R12E12G14S35S31E05S33R03R11R21
                                R23R10R22
 127113532.177 7                  24188893.478
        42.800
 121513280.245 6  94685719.03244  23123205.455    23123205.1024   23123215.2384
        37.800          24.3004
 116796137.988 7  91010009.27844  22225561.092    22225559.9704   22225560.4954
        42.800          26.4004
 110778025.808 7  86320532.56646  21080357.574    21080356.8374   21080362.3174
        44.700          40.0004
 121606660.566 6  94758522.99542  23140991.128    23140990.4534   23140993.5874
        38.700          13.2004
 130160689.513 5                  24768753.986
        31.100
 116391824.600 7  90694907.51144  22148609.342    22148607.9434   22148609.2454
        45.100          26.3004
 136752884.729 5                  26023206.488
        32.500
 107481392.647 8  83751755.27548  20453027.797    20453027.2974   20453028.6804
        50.000          51.1004
 130502291.740 7                  24833756.603
        46.800
 127241032.566 7                  24213162.794
        46.800




 144386568.262 6                  27475849.440
        37.800
 108388454.043 8  84302159.353 8  20290546.367    20290546.648    20290552.206
        50.100          48.200
 131254335.928 6                  24976863.444
        41.700
 106058565.788 7  82643040.49446  20182274.859    20182274.6584   20182276.5354
        43.800          37.5004


 198897371.460 6                  37848921.224
        41.000
 132064282.837 6                  25130999.262
        36.900
 202055597.480 7                  38449919.517
        44.800
                 100304708.722 5                                  24091406.039
                        31.900
 106249255.281 7  82638301.258 7  19883104.338    19883104.613    19883111.966
        46.200          47.400
 107033032.175 7  83247896.697 7  20001673.468    20001671.781    20001682.769
        43.300          44.000
 124168185.707 5                  23211914.403    23211914.627
        35.400
 127014546.994 5                  23827605.147    23827607.980
        32.300
 105332979.570 7  81925507.568 7  19732375.004    19732375.144    19732380.034
        47.200          42.000
 25  1  1 22 18 30.0000000  0 26E31G07G02G30G13G15G19E10G17E33E24E09
                                E03E25R12E12G14S35S31E05S33R11R21R23
                                R10R22
 127128455.472 7                  24191733.763
        43.300
 121565800.004 5  94726643.39444  23133199.345    23133198.9524   23133208.1924
        35.800          24.9004
 116825078.794 6  91032560.51944  22231068.088    22231067.0114   22231069.4404
        39.000          24.5004
 110811587.944 7  86346684.86146  21086744.870    21086744.1014   21086749.0784
        46.000          40.0004
 121633512.567 6  94779446.60441  23146103.319    23146102.5464   23146103.4804
        37.800          11.9004
 130178097.545 5                  24772067.940
        30.300
 116353866.841 7  90665330.10644  22141385.735    22141384.3274   22141386.7924
        44.300          25.9004
 136708057.509 6                  26014677.317
        37.800
 107473014.025 8  83745226.48748  20451433.263    20451432.7674   20451433.9474
        49.400          50.7004
 130512516.411 7                  24835702.350
        46.500
 127225511.205 7                  24210209.161
        46.900




 144354145.119 6                  27469679.465
        36.500
 108351120.726 8  84273122.320 7  20283557.425    20283558.083    20283563.682
        50.800          47.100
 131221064.140 7                  24970531.689
        43.100
 106051619.730 7  82637627.98346  20180952.725    20180952.5064   20180954.7644
        45.800          37.6004


 198897374.448 7                  37848930.873
        42.300
 132090001.116 6                  25135890.200
        36.000
 202055603.986 7                  38449914.674
        44.300
 106269448.799 8  82654007.295 7  19886884.785    19886886.215    19886891.014
        48.500          47.300
 107066127.720 7  83273637.693 7  20007858.231    20007859.429    20007868.199
        47.800          44.200
 124102789.922 6                  23199689.013    23199690.437
        37.100
 127066123.748 5                  23837279.062    23837280.060
        32.800
 105298773.658 8  81898903.028 6  19725968.300    19725970.859    19725969.520
        48.700          40.600
 25  1  1 22 18 45.0000000  0 26E31G07G02G30G13G15G19E10G17E33E24E09
                                E03E25R12E12G14S35S31E05S33R11R21R23
                                R10R22
 127143415.592 6                  24194580.445
        40.100
 121618374.705 5  94767610.53944  23143208.100    23143207.8324   23143213.2154
        35.100          25.6004
 116854136.186 6  91055202.64243  22236598.205    22236597.1414   22236600.4754
        41.500          22.7004
 110845267.168 7  86372928.40646  21093154.829    21093154.0654   21093158.9124
        45.700          41.0004
 121660470.280 5  94800452.53041  23151232.945    23151231.9484   23151233.1914
        33.200           6.9004
 130195619.223 4                  24775400.123
        29.500
 116315975.345 7  90635804.32444  22134174.876    22134173.4724   22134176.0244
        42.800          26.6004
 136663270.547 6                  26006154.915
        37.000
 107464730.001 8  83738771.42148  20449856.563    20449856.0764   20449857.0654
        49.500          50.3004
 130522851.090 7                  24837668.935
        47.000
 127210017.481 7                  24207261.493
        46.000


 145957268.803 5                  27774745.091
        33.700
 144321717.247 6                  27463509.527
        36.000
 108313860.095 8  84244141.825 7  20276581.691    20276583.045    20276587.450
        51.500          46.700
 131187872.398 7                  24964215.544
        42.600
 106044747.320 7  82632272.86945  20179644.230    20179643.9804   20179646.8554
        42.600          35.1004


 198897378.425 7                  37848931.169
        43.000
 132115791.419 6                  25140798.970
        36.800
 202055611.651 7                  38449918.394
        46.300
 106289769.598 8  82669812.352 7  19890688.421    19890687.926    19890693.038
        50.200          46.100
 107099380.804 7  83299501.168 7  20014071.760    20014072.118    20014081.014
        47.800          43.700
 124037442.397 6                  23187474.938    23187474.465
        37.700
 127117752.913 5                  23846965.882    23846962.464
        30.400
 105264736.171 7  81872429.475 7  19719589.796    19719591.727    19719595.714
        47.500          43.500
 25  1  1 22 19  0.0000000  0 25E31G07G02G30G15G19E10G17E33E24E09E03
                                E25R12E12G14S35S31E05S33R11R21R23R10
                                R22
 127158409.851 6                  24197433.706
        36.800
 121671001.253 5  94808618.08743  23153222.038    23153221.6944   23153228.7204
        32.100          23.3004
 116883307.232 7  91077933.31044  22242149.319    22242148.1704   22242151.3194
        43.500          24.2004
 110879060.563 7  86399260.88446  21099585.948    21099585.1704   21099589.7044
        47.100          41.7004
 130213251.708 4                  24778753.791
        28.800
 116278147.706 6  90606328.29144  22126976.211    22126974.8974   22126977.8564
        40.200          24.6004
 136618521.380 6                  25997640.452
        40.100
 107456537.736 8  83732387.85248  20448297.522    20448297.0354   20448298.0614
        48.600          50.7004
 130533292.994 7                  24839655.508
        44.600
 127194548.733 7                  24204317.823
        45.400


 145951576.603 5                  27773661.160
        32.500
 144289281.985 6                  27457336.775
        36.900
 108276669.617 8  84215215.940 7  20269618.734    20269619.727    20269625.160
        50.900          46.800
 131154758.120 7                  24957914.394
        42.700
 106037945.907 7  82626973.06345  20178351.088    20178350.8114   20178352.4504
        44.400          35.3004


 198897380.938 7                  37848933.337
        43.000
 132141650.701 6                  25145721.776
        39.100
 202055617.366 7                  38449917.826
        45.500
 106310215.071 8  82685714.362 7  19894513.882    19894514.218    19894518.498
        51.600          44.300
 107132788.048 7  83325484.613 6  20020314.011    20020313.251    20020323.511
        46.200          40.700
 123972140.789 6                  23175264.663    23175266.805
        37.300
 127169431.745 5                  23856662.588    23856662.178
        33.400
 105230864.608 7  81846085.031 7  19713242.865    19713243.866    19713250.978
        44.400          44.700
 25  1  1 22 19 15.0000000  0 28E31G07G02G30G13G15G19E10G17E33E24E09
                                E03E25R12E12G14S35S31E05S33R03R11R21
                                R23R10R02R22
 127173438.730 6                  24200294.562
        41.200
 121723679.944 6  94849666.33744  23163245.610    23163245.3294   23163254.4334
        40.000          28.9004
 116912592.216 6  91100752.79343  22247722.299    22247721.1284   22247723.2834
        41.900          22.6004
 110912968.335 7  86425682.50546  21106037.672    21106036.9124   21106041.7644
        46.500          41.2004
 121714770.288 5  94842682.80041  23161552.316    23161552.0304   23161552.7574
        32.900           9.8004
 130230995.235 6 101478728.66541  24782134.415    24782134.2464   24782141.0004
        37.300          11.3004
 116240384.278 7  90576902.22244  22119791.589    22119790.2794   22119791.2484
        45.300          26.3004
 136573810.680 6                  25989131.049
        39.100
 107448437.595 8  83726076.06548  20446756.066    20446755.5884   20446756.9124
        49.900          51.4004
 130543842.478 7                  24841662.340
        44.300
 127179105.475 7                  24201379.641
        45.300
 146834560.109 5                  27941684.671
        35.100
 145945985.479 5                  27772596.516
        33.500
 144256839.859 6                  27451163.666
        38.300
 108239550.182 8  84186345.311 7  20262671.223    20262671.416    20262676.035
        50.700          46.600
 131121722.055 7                  24951627.147
        42.000
 106031216.118 7  82621729.05045  20177070.466    20177070.1584   20177071.8264
        43.800          35.0004


 198897382.616 7                  37848933.802
        42.500
 132167579.272 5                  25150654.904
        35.500
 202055622.274 7                  38449919.633
        44.700
 129016391.605 5 100346018.258 5  24101315.942                    24101330.729
        30.200          30.900
 106330785.858 8  82701713.828 7  19898364.329    19898364.303    19898367.644
        53.100          43.800
 107166349.964 8  83351588.261 6  20026587.545    20026588.221    20026593.258
        49.700          36.000
 123906885.934 6                  23163067.754    23163068.264
        37.400
 127221160.438 5                  23866368.749    23866368.832
        33.100
 130321775.097 5                  24422246.712    24422246.949
        35.900
 105197159.808 7  81819870.250 7  19706930.007    19706929.523    19706937.119
        45.200          45.700
 25  1  1 22 19 30.0000000  0 26E31G07G02G30G13G15G19E10G17E33E24E09
                                E03E25R12E12G14S35S31E05S33R11R21R23
                                R02R22
 127188502.362 7                  24203160.207
        43.800
 121776410.401 6  94890754.85145  23173280.281    23173279.9914   23173289.1974
        40.600          30.5004
 116941990.935 6  91123660.85243  22253317.210    22253315.9904   22253316.4204
        41.500          22.1004
 110946990.422 7  86452193.15946  21112510.898    21112510.1344   21112515.5914
        43.400          38.8004
 121742036.572 5  94863929.21342  23166739.791    23166739.3044   23166741.9054
        35.000          12.0004
 130248849.544 6 101492641.21442  24785531.262    24785531.3734   24785533.8174
        38.600          16.3004
 116202685.296 7  90547526.44344  22112615.813    22112614.4854   22112616.7264
        44.100          24.8004
 136529138.774 6                  25980630.960
        40.500
 107440429.564 8  83719836.06248  20445232.383    20445231.9014   20445233.2824
        50.000          52.0004
 130554499.570 7                  24843690.526
        43.700
 127163687.892 7                  24198445.716
        45.800
 146876023.140 5                  27949572.305
        31.300
 145940495.447 5                  27771552.188
        34.200
 144224390.930 6                  27444988.494
        37.800
 108202502.179 8  84157530.254 8  20255735.433    20255736.319    20255741.407
        50.800          48.000
 131088764.347 7                  24945355.121
        42.200
 106024558.188 7  82616541.05646  20175803.011    20175802.7164   20175805.3114
        45.200          36.8004


 198897383.248 7                  37848931.558
        43.700
 132193576.936 6                  25155602.416
        38.100
 202055626.250 7                  38449922.271
        46.200
 106351481.893 8  82717810.726 7  19902236.498    19902237.023    19902241.567
        53.500          44.200
 107200065.737 8  83377811.651 5  20032888.791    20032890.199    20032892.021
        51.000          34.500
 123841678.622 4                  23150891.614
        26.000
 130366290.138 6                  24430593.097    24430593.483
        36.800
 105163622.058 7  81793785.358 7  19700648.854    19700648.114    19700655.182
        47.200          45.500
 25  1  1 22 19 45.0000000  0 26E31G07G02G30G13G15G19E10G17E33E24E09
                                E03E25R12E12G14S35S31E05S33R11R21R23
                                R02R22
 127203603.071 7                  24206033.341
        43.300
 121829194.679 6  94931885.30845  23183324.640    23183324.3814   23183332.8234
        37.900          30.0004
 116971505.412 6  91146659.07843  22258936.114    22258934.9654   22258930.5334
        38.800          21.3004
 110981128.721 7  86478794.38846  21119007.639    21119006.8524   21119012.3184
        42.400          36.8004
 121769407.340 6  94885257.02642  23171945.231    23171944.8074   23171951.0594
        37.600          14.4004
 130266816.502 5 101506641.38442  24788950.190    24788949.9404   24788952.0064
        32.600          15.9004
 116165053.138 6  90518202.74743  22105454.830    22105453.4534   22105454.3944
        40.400          21.2004
 136484508.195 5                  25972133.730
        34.600
 107432515.825 8  83713669.54248  20443726.273    20443725.7864   20443727.5044
        49.700          52.4004
 130565266.380 7                  24845738.368
        42.200
 127148298.261 7                  24195516.019
        45.000
 146917473.299 4                  27957458.509
        29.100
 145935108.881 5                  27770527.480
        32.300
 144191937.415 5                  27438816.613
        34.800
 108165528.323 8  84128772.840 7  20248812.929    20248813.925    20248819.666
        49.700          47.900
 131055887.564 6                  24939099.203
        41.900
 106017974.437 7  82611410.85546  20174549.731    20174549.4594   20174552.5324
        44.200          36.4004


 198897385.196 7                  37848927.748
        43.500
 132219645.807 5                  25160562.738
        35.300
 202055631.220 7                  38449922.642
        45.700
 106372305.526 8  82734006.885 7  19906133.516    19906133.318    19906140.478
        52.200          45.100
 107233937.382 8  83404156.161 5  20039218.231    20039219.669    20039220.056
        50.400          31.300
 123776521.120 4                  23138721.073
        28.000
 130410864.781 4                  24438938.607
        29.700
 105130253.845 7  81767832.346 7  19694397.568    19694397.707    19694404.033
        45.100          45.200
 25  1  1 22 20  0.0000000  0 23E31G07G30G13G15G19E10G17E33E24E09E03
                                E25R12E12G14S35S31E05S33R11R21R22
 127218738.009 7                  24208914.091
        42.900
 121882029.507 5  94973055.18844  23193380.165    23193379.9204   23193386.1404
        33.000          28.5004
 111015380.121 7  86505483.75446  21125525.950    21125525.1464   21125530.7454
        43.800          38.2004
 121796879.439 6  94906663.86342  23177174.343    23177173.4274   23177179.6654
        37.900          14.5004
 130284893.172 5 101520727.05842  24792392.119    24792391.5434   24792392.8524
        35.400          13.4004
 116127484.958 6  90488928.89643  22098306.153    22098304.7904   22098304.2614
        41.800          19.8004
 136439916.226 5                  25963648.480
        35.900
 107424693.375 8  83707574.13648  20442237.738    20442237.2474   20442238.8694
        49.500          51.7004
 130576139.941 6                  24847808.131
        41.200
 127132933.836 7                  24192592.491
        43.800


 145929822.706 4                  27769522.947
        28.700
 144159476.453 4                  27432632.613
        27.700
 108128626.151 7  84100071.107 8  20241904.134    20241904.276    20241910.625
        47.400          48.100
 131023088.980 6                  24932857.476
        41.200
 106011462.092 7  82606336.27945  20173311.101    20173310.8474   20173312.8334
        44.300          35.3004


 198897386.218 7                  37848931.638
        43.000
 132245782.622 6                  25165538.297
        36.400
 202055635.122 7                  38449920.814
        45.100
 106393253.947 8  82750300.126 7  19910053.123    19910052.637    19910059.426
        51.100          42.500
 107267961.514 8  83430619.329 5  20045576.482    20045576.716    20045579.414
        48.500          34.600
 105097052.582 7  81742009.149 7  19688176.301    19688176.598    19688182.588
        43.100          42.800
 25  1  1 22 20 15.0000000  0 25E31G07G30G13G15G19E10G17E33E24E09E03
                                E25R12E12G14S35S31E05S33R03R11R21R23
                                R22
 127233910.931 7                  24211800.605
        42.500
 121934918.424 6  95014267.21144  23203447.287    23203447.0554   23203450.5644
        36.300          28.2004
 111049748.106 7  86532263.94546  21132066.671    21132065.8674   21132071.2844
        45.200          38.0004
 121824456.245 6  94928152.23242  23182423.926    23182423.0774   23182427.3024
        39.800          15.0004
 130303082.817 6 101534900.80142  24795854.854    24795854.3584   24795854.4074
        38.500          13.4004
 116089984.502 6  90459707.78043  22091169.035    22091167.6584   22091169.6984
        41.900          21.0004
 136395366.697 5                  25955170.189
        33.300
 107416965.710 8  83701552.60348  20440766.814    20440766.3184   20440768.1174
        50.300          51.1004
 130587123.831 7                  24849898.007
        42.800
 127117598.245 7                  24189674.242
        43.700


 145924640.805 4                  27768535.682
        26.200
 144127011.908 4                  27426457.399
        28.300
 108091799.490 7  84071428.164 8  20235009.344    20235009.025    20235017.020
        45.900          48.200
 130990372.451 6                  24926631.677
        41.800
 106005024.981 7  82601320.31945  20172085.525    20172085.2354   20172087.6134
        43.200          33.3004


 198897388.296 7                  37848934.138
        43.300
 132271990.912 5                  25170521.526
        31.100
 202055640.927 7                  38449923.497
        45.800
 129072081.964 5                  24111733.523
        35.000
 106414330.854 8  82766693.270 6  19913997.169    19913996.957    19914001.461
        50.700          40.300
 107302141.255 7  83457203.622 7  20051964.134    20051962.801    20051973.588
        46.000          42.100
 123646266.274 5                  23114366.269    23114367.259
        34.000
 105064022.051 7  81716318.791 7  19681988.092    19681988.807    19681994.127
        44.400          42.300
 25  1  1 22 20 30.0000000  0 24E31G07G30G13G15G19E10G17E33E24E09E03
                                E25R12E12G14S35S31E05S33R11R21R23R22
 127249118.966 7                  24214694.656
        44.400
 121987858.084 6  95055518.78344  23213519.676    23213519.4844   23213524.8704
        38.100          28.2004
 111084229.571 8  86559132.57246  21138627.903    21138627.0994   21138630.6634
        48.100          37.6004
 121852134.452 7  94949719.50542  23187689.116    23187688.2454   23187693.7384
        43.400          15.0004
 130321382.332 5 101549160.2404   24799334.797    24799334.3914   24799336.2184
        35.100           5.1004
 116052549.013 7  90430537.38143  22084045.177    22084043.8494   22084045.4914
        44.700          21.5004
 136350857.121 5                  25946701.335
        31.800
 107409329.805 8  83695602.58348  20439314.047    20439313.5564   20439314.7864
        49.600          50.9004
 130598215.116 7                  24852009.188
        44.400
 127102288.751 7                  24186761.208
        45.900


 145919560.234 5                  27767570.380
        31.500


 108055046.074 7  84042842.170 8  20228130.938    20228129.554    20228137.540
        45.600          49.400
 130957735.339 7                  24920421.246
        42.300
 105998660.376 7  82596360.87745  20170875.326    20170875.0724   20170876.0314
        43.100          33.4004


 198897390.718 7                  37848933.928
        43.900
 132298267.587 4                  25175520.164
        25.400
 202055646.252 7                  38449925.451
        46.900
 106435533.501 8  82783184.181 6  19917965.408    19917964.614    19917969.592
        49.000          41.600
 107336473.662 8  83483906.602 7  20058379.774    20058380.434    20058389.365
        48.500          45.600
 123581257.075 6                  23102213.845    23102212.445
        37.200
 105031159.878 7  81690759.276 7  19675835.303    19675835.864    19675838.321
        47.900          43.100
 25  1  1 22 20 45.0000000  0 25E31G07G02G30G06G13G19E10G17E33E24E09
                                E03E25R12E12G14S35S31E05S33R11R21R23
                                R22
 127264365.502 7                  24217595.623
        44.400
 122040851.527 6  95096812.25844  23223604.753    23223604.5884   23223609.5194
        40.200          29.5004
 117090877.550 6                  22281629.721    22281629.7084
        37.000
 111118827.578 7  86586092.01346  21145210.468    21145209.6554   21145211.9484
        47.100          36.8004
 130214505.242 5                  24778994.836
        33.500
 121879917.132 7  94971368.24842  23192976.814    23192976.0364   23192979.7504
        42.300          15.0004
 116015181.857 7  90401420.16944  22076935.223    22076933.8604   22076935.3344
        45.100          24.4004
 136306391.112 5                  25938240.276
        30.600
 107401788.961 8  83689726.62548  20437879.074    20437878.5964   20437879.4004
        49.800          50.6004
 130609417.003 7                  24854140.461
        44.700
 127087008.759 7                  24183853.747
        46.100


 145914584.509 5                  27766623.404
        31.000
 144062065.156 6                  27414099.874
        38.300
 108018369.407 8  84014315.865 8  20221264.132    20221265.336    20221270.782
        50.000          48.000
 130925181.141 7                  24914226.060
        42.000
 105992371.686 6  82591460.54245  20169678.021    20169677.7934   20169679.0404
        41.700          31.4004


 198897395.340 7                  37848924.519
        42.300
 132324615.832 6                  25180539.490
        36.400
 202055653.553 7                  38449926.850
        46.400
 106456865.308 8  82799775.533 7  19921957.281    19921957.612    19921962.782
        50.200          42.400
 107370961.144 8  83510730.222 7  20064825.969    20064825.969    20064831.891
        49.100          44.300
 123516300.772 6                  23090065.971    23090065.658
        36.400
 104998469.360 7  81665333.356 7  19669708.358    19669709.459    19669714.438
        46.200          43.400
 25  1  1 22 21  0.0000000  0 25E31G07G02G30G06G13G19E10G17E33E24E09
                                E03E25R12E12G14S35S31E05S33R11R21R23
                                R22
 127279645.893 7                  24220503.735
        46.000
 122093893.733 5  95138143.74644  23233696.678    23233696.5224   23233703.6574
        35.100          28.1004
 117120960.121 5  91262970.43642  22287339.124    22287339.0714   22287342.2174
        34.000          17.0004
 111153537.251 7  86613138.47646  21151816.442    21151815.6384   21151816.8794
        45.600          37.1004
 130156050.598 5                  24767871.045    24767871.0014
        32.400
 121907799.320 6  94993094.62342  23198282.213    23198281.5254   23198283.8994
        40.300          13.0004
 115977878.494 6  90372352.71143  22069835.389    22069834.0034   22069836.1414
        39.000          23.0004
 136261963.875 5                  25929783.507
        32.800
 107394338.506 8  83683921.08948  20436460.799    20436460.2994   20436461.2874
        50.600          50.8004
 130620724.701 7                  24856293.430
        44.100
 127071753.611 7                  24180951.122
        46.100


 145909708.793 5                  27765704.759
        32.000
 144029582.736 6                  27407920.529
        39.200
 107981765.190 7  83985845.965 8  20214411.236    20214412.016    20214417.265
        47.500          48.000
 130892705.381 7                  24908047.162
        42.400
 105986154.391 6  82586615.86044  20168495.004    20168494.7634   20168496.0104
        39.100          28.5004


 198897397.601 7                  37848930.158
        42.900
 132351030.674 5                  25185564.533
        35.500
 202055658.867 7                  38449928.317
        45.600
 106478321.495 8  82816463.618 7  19925972.210    19925972.579    19925978.331
        50.300          44.200
 107405599.036 7  83537670.892 7  20071298.320    20071297.494    20071304.288
        47.800          44.900
 123451392.956 5                  23077934.295    23077931.714
        33.500
 104965946.212 7  81640037.583 7  19663617.586    19663617.727    19663622.868
        47.200          43.700
 25  1  1 22 21 15.0000000  0 26E31G07G02G30G06G13G19E10G17E33E24E09
                                E03E25R12E12G14S35S31E05S33R03R11R21
                                R23R22
 127294959.255 7                  24223417.712
        46.800


 117151152.250 6  91286496.73343  22293086.550    22293086.4254   22293085.3684
        38.200          20.1004
 111188357.369 7  86640271.00246  21158443.204    21158442.3914   21158444.3784
        45.500          38.8004
 130097592.291 5 101374818.54041  24756745.860    24756745.9184   24756769.2874
        30.600           7.1004
 121935779.604 5  95014897.44241  23203605.886    23203605.1984   23203607.8764
        33.400          11.3004
 115940637.873 6  90343334.11743  22062750.864    22062749.4744   22062748.7854
        37.800          22.2004
 136217574.983 6                  25921339.858
        36.300
 107386977.407 8  83678185.18048  20435060.209    20435059.7094   20435060.5694
        50.700          51.4004
 130632137.158 7                  24858465.361
        45.500
 127056522.477 7                  24178052.933
        44.300




 143997091.485 6                  27401737.865
        39.400
 107945232.840 8  83957431.932 7  20207572.893    20207573.013    20207578.715
        48.600          47.800
 130860307.319 7                  24901882.027
        42.000
 105980007.639 6  82581826.20044  20167325.697    20167325.4744   20167326.5384
        41.000          26.9004


 198897397.378 7                  37848926.643
        42.700
 132377510.942 5                  25190602.049
        31.100
 202055661.607 7                  38449929.989
        46.000
 129130287.393 5                  24122637.006    24122639.018
        35.400
 106499901.094 8  82833247.712 7  19930011.653    19930011.823    19930017.592
        49.600          44.300
 107440385.394 7  83564726.987 7  20077798.481    20077796.411    20077805.839
        46.400          46.100
 123386533.137 5                  23065813.419    23065810.388
        35.500
 104933589.608 8  81614871.328 7  19657555.923    19657556.072    19657560.416
        48.300          42.500
 25  1  1 22 21 30.0000000  0 25E31G07G02G30G06G13G15G19E10G17E33E24
                                E03E25R12E12G14S35S31E05S33R11R21R23
                                R22
 127310312.853 8                  24226339.657
        48.200


 117181460.984 6  91310113.90143  22298850.974    22298850.5414   22298851.4724
        39.600          21.6004
 111223294.916 7  86667495.03146  21165091.079    21165090.2754   21165094.3784
        46.000          39.7004
 130039137.769 4 101329269.49741  24745625.048    24745625.1464   24745649.5564
        28.200           6.5004
 121963864.963 4  95036782.06341  23208949.614    23208948.7694   23208952.1364
        29.100           9.0004
 130395712.836 5 101607088.21342  24813479.428    24813479.1114   24813487.3614
        32.700          12.6004
 115903467.519 6  90314370.25843  22055677.895    22055676.5274   22055675.2104
        40.100          22.9004
 136173231.936 6                  25912898.187
        38.400
 107379712.641 8  83672524.34048  20433677.957    20433677.4524   20433678.3734
        52.100          52.1004
 130643661.520 7                  24860658.175
        47.400
 127041322.643 7                  24175159.818
        43.200


 143964598.622 6                  27395556.789
        36.700
 107908780.000 7  83929079.752 8  20200748.062    20200748.799    20200755.756
        47.400          49.100
 130827994.386 6                  24895733.361
        41.800
 105973938.808 6  82577097.27144  20166170.031    20166169.7594   20166171.6704
        41.400          27.1004


 198897400.937 7                  37848930.037
        42.400
 132404063.728 4                  25195656.910
        26.600
 202055668.179 7                  38449929.041
        45.700
 106521611.491 8  82850133.555 7  19934074.066    19934074.542    19934079.364
        50.300          43.400
 107475327.541 8  83591904.225 7  20084327.955    20084327.824    20084336.577
        50.300          47.700
 123321729.031 6                  23053699.562    23053697.232
        40.100
 104901407.167 8  81589840.588 7  19651527.474    19651528.526    19651531.220
        49.700          42.400
 25  1  1 22 21 45.0000000  0 28G21E31G07G02G30G06G13G19E10G17E33E24
                                E09E03E25R12E12G14S35S31E05R13S33R11
                                R21R23R10R22
 124307889.558 6                  23655002.111
        36.600
 127325702.018 8                  24229268.127
        48.300


 117211881.335 7  91333818.05443  22304639.692    22304639.4564   22304639.6924
        43.600          23.8004
 111258344.927 7  86694806.71546  21171759.668    21171758.8864   21171765.4044
        45.900          39.9004


 121992050.291 4  95058744.5994   23214310.942    23214309.7664   23214315.3154
        26.500           5.4004
 115866362.570 6  90285457.36444  22048616.904    22048615.5944   22048615.5424
        40.600          24.6004
 136128930.134 6                  25904466.584
        36.500
 107372539.405 8  83666934.82448  20432312.717    20432312.2124   20432313.3654
        52.200          52.2004
 130655292.955 7                  24862871.264
        47.300
 127026149.440 6                  24172271.073
        41.100




 143932099.327 4                  27389382.339
        26.700
 107872402.299 7  83900785.979 8  20193936.852    20193937.985    20193946.432
        45.100          50.100
 130795761.996 6                  24889599.496
        41.800
 105967943.214 7  82572425.41344  20165029.256    20165029.0284   20165030.5884
        44.800          28.5004


 198897404.100 7                  37848927.466
        42.700
 132430684.242 4                  25200745.238
        28.300
 126867136.483 5                  23758139.676
        32.400
 202055674.266 7                  38449927.990
        44.800
 106543447.926 8  82867117.369 6  19938160.257    19938160.255    19938163.422
        50.200          41.500
 107510420.072 8  83619198.411 7  20090887.294    20090888.097    20090893.733
        53.100          47.500
 123256976.323 6                  23041587.200    23041589.196
        37.100
 127741216.619 5                  23963927.983    23963926.660
        33.800
 104869394.326 8  81564941.766 7  19645530.862    19645531.387    19645535.897
        50.400          42.900
 25  1  1 22 22  0.0000000  0 28G21E31G07G02G30G06G13G19E10G17E33E24
                                E09E03E25R12E12G14S35S31E05R13S33R11
                                R21R23R10R22
 124356235.398 5                  23664200.782
        35.300
 127341125.680 8                  24232203.231
        48.600
 122306726.268 6  95303911.92642  23274174.277    23274174.1974   23274187.3584
        37.000          16.0004
 117242411.916 7  91357608.11344  22310448.401    22310448.0844   22310448.3304
        44.200          25.2004
 111293506.035 7  86722204.96646  21178450.409    21178449.6764   21178457.2234
        45.300          38.5004


 122020334.013 4  95080783.84941  23219693.716    23219692.6974   23219697.0784
        29.400           9.8004
 115829322.211 7  90256594.81044  22041568.970    22041567.6964   22041568.8514
        44.100          27.0004
 136084668.673 6                  25896045.299
        36.600
 107365456.435 8  83661415.63148  20430965.199    20430964.6904   20430965.6054
        52.500          52.5004
 130667030.256 7                  24865104.626
        46.000
 127011001.828 6                  24169387.609
        40.300




 143899592.436 5                  27383189.293
        34.700
 107836098.855 7  83872549.972 8  20187142.465    20187141.200    20187150.447
        47.000          50.400
 130763609.286 6                  24883480.142
        40.900
 105962019.918 7  82567809.85945  20163901.910    20163901.6824   20163902.5944
        47.200          31.1004


 198897406.010 7                  37848926.992
        42.500


 126810875.038 5                  23747605.112
        30.300
 202055678.670 7                  38449926.694
        44.200
 106565409.365 8  82884198.446 6  19942269.628    19942269.385    19942273.679
        50.400          41.800
 107545661.177 8  83646608.188 7  20097473.030    20097473.983    20097479.190
        53.700          46.800
 123192274.191 6                  23029493.606    23029494.396
        37.900
 127793492.385 5                  23973733.054    23973730.965
        32.600
 104837550.206 8  81540174.128 7  19639563.561    19639565.456    19639570.051
        48.900          42.600
 25  1  1 22 22 15.0000000  0 28G21E31G07G02G30G06G13G19E10G17E33E24
                                E09E03E25R12E12G14S35S31E05R13S33R11
                                R21R23R10R22
 124404651.021 5                  23673414.751
        33.000
 127356584.650 8                  24235145.264
        48.700
 122360016.472 6  95345436.52742  23284318.302    23284317.9854   23284320.8464
        38.200          17.4004
 117273053.359 7  91381484.55444  22316280.310    22316279.9624   22316278.9544
        43.900          26.3004
 111328778.780 6  86749690.20846  21185163.498    21185162.7384   21185169.0084
        41.700          36.2004


 122048716.736 5  95102900.19141  23225098.186    23225097.5254   23225097.9314
        33.400          11.6004
 115792347.133 7  90227783.16444  22034532.036    22034530.7314   22034532.7794
        43.500          27.6004
 136040448.629 6                  25887631.495
        38.900
 107358464.375 8  83655967.27048  20429634.623    20429634.0964   20429635.4584
        51.400          52.7004
 130678874.096 7                  24867358.608
        45.400
 126995880.649 6                  24166509.590
        38.300




 143867079.318 6                  27377000.241
        36.300
 107799870.819 8  83844372.605 8  20180359.770    20180360.834    20180368.739
        48.900          50.300
 130731537.219 6                  24877376.450
        41.000
 105956169.814 8  82563251.32745  20162788.949    20162788.7304   20162788.8744
        48.300          33.5004


 198897406.421 7                  37848924.631
        42.200
 132484120.218 5                  25210890.426
        35.000
 126754596.873 5                  23737065.879
        30.000
 202055681.911 7                  38449930.445
        44.500
 106587496.670 8  82901377.407 7  19946403.825    19946403.226    19946408.732
        50.700          43.400
 107581051.563 8  83674134.058 7  20104086.072    20104087.298    20104092.214
        53.500          45.900
 123127623.886 6                  23017411.938    23017411.442
        41.300
 127845816.240 4                  23983545.825    23983542.698
        25.700
 104805875.751 7  81515538.478 7  19633628.027    19633628.313    19633635.514
        44.600          42.300
 25  1  1 22 22 30.0000000  0 29G21E31G07G02G30G06G13G19E10G17E33E24
                                E09E03E25R12E12G14S35S31E05R13S33R03
                                R11R21R23R10R22
 124453139.395 5                  23682639.602
        32.500
 127372082.238 8                  24238094.872
        49.700
 122413358.038 6  95387001.15343  23294467.094    23294466.9164   23294465.9604
        37.500          20.5004
 117303808.556 7  91405449.65044  22322134.104    22322133.7204   22322131.1374
        42.600          26.7004
 111364166.202 6  86777264.80445  21191898.268    21191897.4864   21191901.4654
        39.400          35.2004


 122077201.321 5  95125095.85241  23230516.147    23230515.5574   23230518.1364
        31.900          10.5004
 115755440.697 6  90199024.98244  22027509.520    22027508.2424   22027509.2204
        39.900          26.3004
 135996273.483 6                  25879224.950
        38.700
 107351566.394 8  83650592.22048  20428322.537    20428322.0014   20428323.0424
        51.000          52.9004
 130690827.635 7                  24869633.163
        44.500
 126980789.215 6                  24163640.128
        38.400




 143834562.838 5                  27370809.064
        35.900
 107763722.102 8  83816256.937 8  20173592.374    20173592.917    20173601.359
        48.700          49.600
 130699549.201 7                  24871289.104
        42.000
 105950396.292 8  82558752.47045  20161690.320    20161690.0924   20161689.9684
        48.500          35.3004


 198897409.559 7                  37848934.290
        43.100
 132510942.942 6                  25215995.057
        37.400
 126698305.593 5                  23726511.561
        30.300
 202055688.084 7                  38449931.885
        44.300
                 100494211.378 5                                  24136923.088
                        31.000
 106609713.006 8  82918656.751 7  19950561.942    19950560.695    19950567.144
        50.300          44.600
 107616593.848 8  83701778.106 7  20110728.392    20110728.691    20110735.458
        51.400          45.300
 123063029.087 6                  23005330.640    23005329.663
        38.600
 127898191.352 4                  23993374.587    23993370.023
        27.200
 104774374.553 7  81491037.581 7  19627728.584    19627727.349    19627734.623
        44.400          42.400
 25  1  1 22 22 45.0000000  0 29G21E31G07G02G30G06G13G19E10G17E33E24
                                E09E03E25R12E12G14S35S31E05R13S33R03
                                R11R21R23R10R22
 124501695.921 4                  23691877.461
        29.400
 127387614.376 8                  24241050.417
        49.900
 122466746.517 6  95428602.32243  23304629.196    23304629.4824   23304623.9494
        37.400          21.1004
 117334672.965 7  91429499.83744  22328008.029    22328007.6404   22328004.2694
        42.400          26.7004
 111399663.896 7  86804925.29446  21198654.878    21198654.0514   21198655.4444
        42.900          36.1004


 122105783.287 6  95147367.45842  23235956.297    23235955.7124   23235956.8904
        38.500          14.3004
 115718598.801 6  90170317.06544  22020498.087    22020496.7954   22020498.4044
        38.400          24.4004
 135952139.340 6                  25870825.891
        37.600
 107344758.256 8  83645287.17348  20427026.978    20427026.4424   20427027.6174
        52.500          53.6004
 130702886.620 7                  24871927.729
        43.800
 126965723.428 6                  24160772.780
        41.300




 143802038.912 6                  27364619.793
        36.100
 107727648.666 8  83788199.821 7  20166840.264    20166839.439    20166846.928
        49.800          47.900
 130667641.316 6                  24865216.986
        41.700
 105944695.344 8  82554310.15946  20160605.779    20160605.5474   20160605.4704
        50.700          37.5004
 200816129.328 5                  38214033.937
        35.700
 198897411.310 7                  37848936.749
        42.800
 132537831.043 6                  25221111.878
        38.300
 126641997.511 5                  23715967.642    23715969.581
        31.000
 202055691.672 7                  38449931.581
        44.000
                 100506475.025 5                  24139848.568    24139859.344
                        31.600
 106632054.234 8  82936033.240 7  19954741.895    19954742.131    19954747.168
        50.300          44.600
 107652283.447 8  83729536.682 7  20117397.650    20117398.013    20117404.168
        50.900          43.300
 122998486.099 6                  22993264.847    22993263.897
        38.500
 127950612.970 5                  24003208.540    24003208.142
        30.000
 104743042.662 8  81466668.316 7  19621860.407    19621861.023    19621866.387
        48.300          43.100
 25  1  1 22 23  0.0000000  0 28G21E31G07G02G30G06G13G19E10G17E33E24
                                E09E03E25R12E12G14S35S31E05R13S33R03
                                R11R21R23R22
 124550319.253 4                  23701129.508
        26.300
 127403180.072 8                  24244012.450
        49.600
 122520180.688 5  95470239.00543  23314794.764    23314795.0144   23314792.4594
        35.900          20.4004
 117365645.470 7  91453634.27044  22333901.902    22333901.4734   22333898.8874
        42.300          26.8004
 111435270.600 7  86832670.71046  21205429.069    21205428.2244   21205431.6074
        45.000          40.2004


 122134461.437 7  95169713.97843  23241414.650    23241414.1854   23241414.6444
        43.500          19.4004
 115681820.522 5  90141658.74143  22013496.474    22013495.0484   22013500.0114
        33.400          22.0004
 135908045.397 6                  25862435.857
        38.400
 107338038.948 8  83640051.34649  20425748.059    20425747.5184   20425749.3814
        53.300          54.2004
 130715049.899 7                  24874242.921
        45.200
 126950682.447 7                  24157910.695
        42.700




 143769506.536 5                  27358428.257
        32.600
 107691649.842 8  83760200.756 7  20160101.963    20160101.428    20160107.813
        51.800          47.100
 130635812.752 7                  24859160.599
        42.100
 105939066.045 8  82549923.69646  20159534.638    20159534.3934   20159535.0134
        50.000          38.9004


 198897409.897 7                  37848934.021
        42.800
 132564783.250 6                  25226240.349
        38.500
 126585671.435 6                  23705422.709    23705422.843
        36.200
 202055692.839 7                  38449930.754
        44.100
 129238272.373 4 100518859.726 6  24142824.237    24142821.490    24142840.011
        28.500          36.500
 106654519.499 8  82953506.216 7  19958946.288    19958945.609    19958951.378
        48.200          44.800
 107688118.811 8  83757408.636 6  20124092.468    20124092.631    20124099.510
        48.600          41.500
 122933994.081 6                  22981209.087    22981207.674
        37.500
 104711879.192 8  81442430.124 7  19616022.627    19616021.987    19616025.380
        49.200          42.000
 25  1  1 22 23 15.0000000  0 27E31G07G02G30G06G13G15G19E10G17E33E24
                                E09E03E25R12E12G14S35S31E05R13S33R11
                                R21R23R22
 127418786.969 8                  24246982.099
        48.200
 122573667.770 6  95511916.99243  23324969.782    23324970.0234   23324971.3564
        38.700          22.1004
 117396733.277 7  91477858.52844  22339818.300    22339817.8444   22339816.0784
        43.600          27.4004
 111470993.636 7  86860506.82547  21212226.468    21212225.6504   21212231.3574
        44.800          42.3004


 122163242.799 6  95192140.93343  23246890.756    23246890.2834   23246893.6704
        41.300          20.5004
 130529905.714 6 101711645.33041  24839016.208    24839016.1774   24839020.3304
        36.700          10.6004
 115645113.676 6  90113056.07543  22006514.478    22006512.9674   22006514.9344
        37.400          23.0004
 135863999.438 6                  25854054.040
        37.800
 107331415.921 8  83634890.56148  20424487.624    20424487.0834   20424489.2294
        52.500          53.8004
 130727325.061 7                  24876577.582
        43.600
 126935673.834 7                  24155054.105
        43.700




 143736973.329 5                  27352235.849
        33.200
 107655733.806 8  83732266.093 7  20153378.563    20153378.379    20153384.487
        52.600          45.800
 130604071.206 7                  24853120.762
        42.900
 105933516.085 8  82545599.05446  20158478.743    20158478.4934   20158479.6614
        50.200          40.3004


 198897412.915 7                  37848935.144
        43.600
 132591806.897 6                  25231383.291
        39.700
 126529335.499 6                  23694874.070    23694873.794
        36.200
 202055698.988 7                  38449932.171
        45.000
 106677116.394 8  82971081.544 7  19963175.355    19963175.419    19963180.026
        48.700          45.100
 107724107.237 8  83785399.610 6  20130819.858    20130820.527    20130822.881
        50.300          36.700
 122869561.593 5                  22969163.859    22969159.491
        32.500
 104680892.116 8  81418329.075 6  19610217.634    19610217.853    19610219.577
        50.200          40.000
 25  1  1 22 23 30.0000000  0 28E31G07G02G30G06G13G15G19E10G17E33E24
                                E09E03E25R12E12G14S35S31E05R13S33R03
                                R11R21R23R22
 127434428.792 7                  24249958.263
        46.200
 122627201.015 6  95553631.02844  23335154.180    23335154.3544   23335158.4144
        41.000          25.1004
 117427929.867 7  91502167.55244  22345753.063    22345752.5364   22345753.4224
        43.500          27.1004
 111506826.517 7  86888428.54047  21219044.222    21219043.4314   21219051.8474
        45.300          42.8004


 122192120.635 6  95214643.06943  23252386.357    23252385.8664   23252389.5944
        41.600          22.1004
 130549510.543 4 101726921.88942  24842749.702    24842749.7734   24842749.9594
        28.400          12.9004
 115608471.871 6  90084504.05744  21999541.040    21999539.4984   21999541.8144
        40.300          26.0004
 135819995.458 6                  25845680.219
        36.700
 107324882.665 8  83629799.71848  20423244.532    20423243.9874   20423245.6984
        51.800          53.1004
 130739705.577 7                  24878933.587
        42.200
 126920691.337 6                  24152204.327
        41.800
 147537388.326 5                  28075430.830
        33.000
 145866636.042 5                  27757495.709
        33.000
 143704433.017 5                  27346043.737
        30.700
 107619894.446 8  83704391.048 7  20146669.413    20146669.537    20146674.473
        52.300          45.000
 130572410.669 7                  24847096.287
        43.000
 105928039.304 8  82541331.43846  20157436.478    20157436.2374   20157437.9344
        50.000          40.1004


 198897415.598 7                  37848934.594
        42.800
 132618895.481 6                  25236537.922
        36.200
 126472983.494 5                  23684317.413    23684317.169
        32.300
 202055703.252 7                  38449931.116
        44.100
                 100544003.617 5                                  24148879.805
                        33.500
 106699838.554 8  82988754.260 7  19967425.968    19967427.132    19967433.514
        49.600          46.200
 107760241.798 8  83813504.250 6  20137572.537    20137573.563    20137572.988
        49.800          36.200
 122805182.060 5                  22957130.251    22957128.331
        35.000
 104650075.181 8  81394360.396 6  19604443.878    19604444.331    19604447.651
        48.800          40.900
 25  1  1 22 23 45.0000000  0 25E31G07G02G30G06G13G19E10G17E33E24E09
                                E03E25R12E12G14S35S31E05S33R11R21R23
                                R22
 127450109.871 7                  24252942.643
        45.500
 122680784.440 7  95595384.16444  23345349.760    23345349.8534   23345355.4624
        43.500          26.7004
 117459239.179 7  91526564.41544  22351711.008    22351710.3964   22351711.9354
        44.200          26.7004
 111542773.195 7  86916438.92647  21225884.410    21225883.5614   21225893.0324
        46.400          43.8004


 122221098.924 7  95237223.50043  23257900.775    23257900.2844   23257904.5264
        43.200          23.1004
 115571899.501 6  90056006.18044  21992580.334    21992578.8374   21992582.2174
        41.300          26.6004
 135776037.926 6                  25837316.611
        38.600
 107318443.394 8  83624782.11448  20422019.181    20422018.6274   20422020.0304
        50.500          51.9004
 130752195.677 6                  24881310.422
        40.300
 126905739.424 7                  24149359.369
        43.000
 147578581.224 5                  28083264.467
        30.900
 145862885.657 5                  27756766.341
        32.300
 143671889.810 6                  27339851.135
        36.000
 107584136.428 8  83676579.302 7  20139975.086    20139975.071    20139980.038
        51.400          44.000
 130540835.579 7                  24841088.397
        43.300
 105922640.120 8  82537124.29546  20156408.405    20156408.1644   20156410.2214
        50.200          39.4004


 198897420.446 7                  37848929.483
        42.100
 132646053.054 6                  25241707.235
        38.300
 202055710.417 7                  38449933.683
        44.200
 106722690.460 8  83006527.920 7  19971702.810    19971703.609    19971710.250
        50.000          46.200
 107796526.420 7  83841725.527 6  20144353.330    20144352.427    20144356.426
        47.900          38.700
 122740860.721 5                  22945103.583    22945110.134
        34.600
 104619433.003 7  81370527.655 7  19598701.663    19598701.645    19598708.105
        45.400          42.300
 25  1  1 22 24  0.0000000  0 25E31G07G02G30G06G13G19E10G17E33E24E09
                                E03E25R12E12G14S35S31E05S33R03R11R21
                                R22
 127465826.981 7                  24255933.480
        45.300
 122734414.555 7  95637173.70244  23355554.570    23355554.6104   23355561.1814
        42.000          27.4004
 117490657.697 6  91551046.37144  22357690.611    22357689.9684   22357690.4724
        40.600          24.4004
 111578830.171 7  86944535.26347  21232745.651    21232744.7394   21232754.2584
        45.300          43.3004


 122250174.156 6  95259879.47343  23263432.801    23263432.2924   23263438.3474
        41.100          22.9004
 115535393.261 6  90027559.87444  21985633.161    21985631.7534   21985634.8624
        41.200          25.0004
 135732123.737 5                  25828967.562
        35.000
 107312094.774 8  83619835.15348  20420811.394    20420810.8184   20420811.3914
        48.100          50.3004
 130764791.986 6                  24883708.765
        40.300
 126890814.803 7                  24146518.935
        44.400
 147619755.410 5                  28091100.594
        30.700
 145859237.053 5                  27756072.616
        33.600
 143639340.554 6                  27333654.645
        36.900
 107548456.890 8  83648828.566 7  20133295.414    20133296.009    20133300.856
        51.100          44.400
 130509342.806 7                  24835095.391
        42.300
 105917315.371 8  82532975.14446  20155395.404    20155395.1764   20155396.5354
        48.800          38.7004


 198897424.595 7                  37848937.952
        42.700
 132673276.110 6                  25246888.211
        39.700
 202055717.229 7                  38449936.330
        44.000
 129303763.804 6 100569640.264 4  24155030.089    24155031.274    24155037.220
        36.200          29.000
 106745668.660 8  83024399.838 7  19976004.022    19976003.467    19976009.223
        48.800          45.200
 107832957.375 7  83870060.729 6  20151160.463    20151160.074    20151165.866
        47.800          40.900
 104588962.547 7  81346828.412 7  19592993.238    19592991.768    19592999.600
        43.100          42.800
 25  1  1 22 24 15.0000000  0 27E31G07G02G30G06G13G15G19E10G17E33E24
                                E09E03E25R12E12G14S35S31E05S33R03R11
                                R21R23R22
 127481579.235 7                  24258930.501
        45.400
 122788089.944 7  95678998.52044  23365768.447    23365768.4604   23365775.6054
        42.900          27.3004
 117522184.170 6  91575612.45743  22363689.089    22363688.3924   22363687.6924
        38.300          20.6004
 111614996.236 7  86972716.63647  21239630.008    21239629.0784   21239636.3184
        43.900          42.5004


 122279344.984 6  95282609.97343  23268984.975    23268984.4574   23268989.2944
        41.800          22.8004
 130608938.398 6 101773220.73642  24854057.299    24854057.0764   24854059.8644
        36.400          16.2004
 115498952.396 6  89999164.47244  21978698.241    21978696.8334   21978699.3184
        37.900          24.1004
 135688252.221 5                  25820638.046
        32.200
 107305835.848 8  83614958.08348  20419620.253    20419619.6544   20419619.5024
        48.100          49.0004
 130777493.429 6                  24886126.534
        41.700
 126875916.603 7                  24143683.795
        45.400




 143606784.299 6                  27327461.637
        39.600
 107512855.013 8  83621138.240 7  20126630.493    20126630.340    20126636.202
        49.300          44.900
 130477931.651 7                  24829117.883
        42.700
 105912064.220 8  82528883.33546  20154396.037    20154395.7834   20154396.7034
        48.800          37.7004


 198897427.095 7                  37848940.349
        43.100
 132700563.459 6                  25252080.844
        40.500
 202055722.628 7                  38449931.376
        43.800
 129320478.247 5 100582640.383 5  24158150.826    24158151.970    24158164.919
        34.600          30.300
 106768772.362 8  83042369.381 7  19980327.946    19980326.681    19980332.223
        49.000          43.700
 107869533.063 8  83898508.515 7  20157995.058    20157995.137    20158002.973
        48.200          43.200
 122612396.838 6                  22921093.170
        36.600
 104558663.033 7  81323262.116 7  19587320.444    19587318.254    19587322.862
        47.000          43.600
 25  1  1 22 24 30.0000000  0 26E31G07G02G30G06G13G15G19E10G17E33E24
                                E09E03E25R12E12G14S35S31E05S33R11R21
                                R23R22
 127497367.281 7                  24261935.253
        45.300
 122841811.045 6  95720859.00744  23375990.221    23375990.1814   23376000.1984
        40.000          25.5004
 117553819.158 6  91600263.09443  22369707.800    22369707.1574   22369706.3034
        37.700          18.3004
 111651271.784 7  87000983.27747  21246533.383    21246532.4624   21246539.4614
        45.100          43.1004


 122308611.633 6  95305415.15143  23274554.793    23274554.2574   23274558.5574
        37.900          20.6004
 130628969.253 5 101788829.24942  24857870.174    24857869.6294   24857872.5754
        34.900          15.6004
 115462577.409 6  89970820.45244  21971777.486    21971776.1414   21971776.3704
        41.900          25.2004


 107299667.149 8  83610151.32248  20418445.941    20418445.3114   20418445.2994
        48.200          48.3004
 130790300.519 7                  24888563.848
        42.300
 126861045.511 7                  24140854.271
        46.300




 143574221.681 6                  27321265.759
        37.600
 107477332.003 8  83593509.244 7  20119981.042    20119981.194    20119987.481
        49.400          46.600
 130446602.963 6                  24823155.373
        40.700
 105906887.430 8  82524849.47646  20153410.949    20153410.6814   20153412.1684
        49.100          38.6004


 198897429.198 7                  37848939.911
        42.000
 132727915.497 6                  25257286.654
        40.600
 202055726.278 7                  38449934.322
        43.900
 106792002.022 8  83060436.953 7  19984674.751    19984674.941    19984679.163
        49.900          42.400
 107906253.887 8  83927069.177 7  20164857.522    20164857.047    20164863.488
        48.600          43.000
 122548240.407 6                  22909097.351    22909096.093
        36.100
 104528535.211 8  81299829.418 7  19581676.152    19581675.164    19581680.197
        49.500          44.800
 25  1  1 22 24 45.0000000  0 27E31G07G02G30G06G13G15G19E10G17E33E24
                                E09E03E25R12E12G14S35S31E05S33R03R11
                                R21R23R22
 127513191.532 7                  24264947.588
        46.300
 122895577.815 5  95762755.04243  23386219.146    23386219.0534   23386233.6594
        33.400          18.7004
 117585562.549 6  91624998.32842  22375747.766    22375747.2084   22375746.3614
        39.400          12.2004
 111687656.906 7  87029335.26946  21253456.564    21253455.6884   21253462.2174
        45.100          41.7004
 129279318.450 5 100737243.93242  24601035.154    24601034.9134   24601062.8244
        35.400          15.2004
 122337974.455 6  95328295.20642  23280141.905    23280141.4324   23280145.7024
        37.500          17.6004
 130649105.349 6 101804519.69142  24861702.251    24861701.8094   24861706.2534
        36.000          13.3004
 115426268.880 6  89942528.14344  21964867.842    21964866.5194   21964867.8604
        41.700          28.8004
 135600628.212 4                  25803938.969
        29.500
 107293588.567 7  83605414.78547  20417289.875    20417289.1734   20417288.7544
        45.800          47.3004
 130803213.583 7                  24891019.833
        42.800
 126846201.983 7                  24138029.134
        47.800




 143541653.052 6                  27315068.875
        40.100
 107441888.655 7  83565942.188 7  20113344.238    20113345.539    20113352.818
        47.600          46.700
 130415357.156 6                  24817209.744
        40.500
 105901785.431 7  82520873.89246  20152440.241    20152439.9694   20152441.8264
        47.100          38.0004


 198897431.100 7                  37848947.351
        44.300
 132755332.362 6                  25262503.943
        40.800
 202055731.032 7                  38449935.297
        45.300
 129354374.360 4                  24164487.590    24164482.321
        28.400
 106815358.192 8  83078602.946 7  19989045.309    19989046.430    19989050.375
        50.800          42.900
 107943119.623 8  83955742.497 7  20171746.072    20171746.758    20171753.132
        50.500          43.800
 122484140.280 6                  22897123.225    22897123.149
        40.500
 104498579.687 8  81276530.721 7  19576064.753    19576064.087    19576067.721
        50.000          45.000
 25  1  1 22 25  0.0000000  0 28E31G07G02G30G06G13G15G19E10G17E33E24
                                E09E03E25R12E12G14S35S31E05R13S33R03
                                R11R21R23R22
 127529050.924 7                  24267964.914
        47.000


 117617413.142 5  91649816.98541  22381809.833    22381809.0334   22381806.5014
        32.800           9.0004
 111724150.243 7  87057771.57446  21260400.054    21260399.2184   21260404.8904
        45.000          41.3004
 129220889.924 5 100691715.48743  24589917.471    24589917.4134   24589942.5524
        34.800          18.9004
 122367431.598 6  95351248.73842  23285748.153    23285747.6664   23285749.4724
        41.600          15.8004
 130669345.520 5 101820291.10041  24865552.995    24865552.6244   24865559.2634
        34.000          10.1004
 115390025.806 7  89914286.85545  21957972.045    21957970.7804   21957971.9484
        43.600          30.2004
 135556887.752 5                  25795619.240
        35.800
 107287598.926 7  83600747.54448  20416150.236    20416149.5214   20416149.3224
        46.800          48.5004
 130816231.303 7                  24893496.962
        42.200
 126831384.974 7                  24135209.511
        47.900




 143509077.364 6                  27308869.049
        38.200
 107406524.203 8  83538436.462 7  20106725.343    20106725.610    20106732.608
        49.000          45.900
 130384193.426 6                  24811279.473
        40.200
 105896757.287 7  82516955.84146  20151483.161    20151482.8934   20151484.7554
        47.100          36.9004


 198897430.851 7                  37848945.183
        43.900
 132782812.750 6                  25267732.848
        40.000
 126134599.514 5                  23620955.665    23620952.659
        34.000
 202055733.163 7                  38449929.520
        43.200
                 100622355.636 5                                  24167700.462
                        30.600
 106838839.676 8  83096866.383 7  19993437.456    19993438.364    19993445.685
        48.000          45.400
 107980128.741 8  83984527.376 7  20178660.782    20178661.778    20178670.329
        50.600          44.700
 122420095.681 6                  22885135.263    22885139.232
        38.300
 104468795.580 8  81253365.301 7  19570485.029    19570485.381    19570487.717
        49.300          44.900
 25  1  1 22 25 15.0000000  0 29G21E31G07G02G30G06G13G15G19E10G17E33
                                E24E09E03E25R12E12G14S35S31E05R13S33
                                R03R11R21R23R22
 124991040.993 5                  23785001.092
        34.000
 127544952.798 7                  24270990.698
        46.400


 117649377.602 6  91674724.36241  22387894.796    22387894.0324   22387888.0464
        37.000          11.1004
 111760758.845 7  87086297.71146  21267366.412    21267365.6034   21267371.1374
        44.100          38.5004
 129162471.786 6 100646195.05742  24578798.755    24578798.7634   24578823.4204
        36.100          16.7004
 122396989.940 6  95374281.20542  23291373.698    23291373.2834   23291372.9044
        37.800          12.8004
 130689696.555 5 101836148.94541  24869429.143    24869428.7864   24869433.3474
        34.700           9.6004
 115353855.590 7  89886102.34844  21951087.975    21951086.7014   21951089.3164
        42.400          27.9004
 135513198.102 6                  25787305.331
        36.100
 107281705.527 8  83596155.29148  20415028.148    20415027.4384   20415027.9914
        48.000          48.1004
 130829360.864 7                  24895995.520
        42.800
 126816601.805 8                  24132396.809
        49.300




 143476501.878 6                  27302670.375
        38.800
 107371246.223 8  83510998.017 7  20100122.431    20100121.833    20100127.633
        51.000          43.800
 130353119.186 6                  24805365.804
        39.200
 105891810.406 7  82513101.12346  20150542.108    20150541.8544   20150543.4394
        45.800          37.5004


 198897437.116 7                  37848939.566
        43.600
 132810363.516 6                  25272974.385
        37.100
 126078156.360 4                  23610390.575
        28.800
 202055739.926 7                  38449942.635
        45.200
 129388847.905 5 100635843.584 5  24170922.022    24170921.198    24170937.067
        35.200          35.500
 106862453.949 8  83115233.084 7  19997859.915    19997859.909    19997865.598
        51.000          46.100
 108017288.083 8  84013429.048 7  20185607.751    20185608.618    20185613.780
        51.700          44.800
                                                  22873190.493

 104439190.476 8  81230339.149 7  19564937.332    19564937.586    19564942.646
        48.300          45.900
 25  1  1 22 25 30.0000000  0 28G21E31G07G02G30G06G13G15G19E10G17E33
                                E24E09E03E25R12E12G14S35S31E05R13S33
                                R03R11R21R22
 125040345.936 5                  23794383.614
        35.600
 127560889.985 7                  24274023.516
        47.300
 123057136.918 6  95888662.23243  23416972.687    23416972.5534   23416984.6184
        39.200          19.3004
 117681448.589 6  91699714.72442  22393998.291    22393997.4644   22393990.4164
        39.300          17.0004
 111797475.248 7  87114907.86546  21274353.637    21274352.7924   21274357.4484
        44.000          37.5004
 129104057.153 5 100600677.40642  24567685.780    24567685.9764   24567705.4864
        31.700          14.9004
 122426642.000 6  95397386.64642  23297016.446    23297016.1744   23297015.2784
        38.900          13.5004
 130710151.067 5 101852087.64541  24873321.531    24873321.1694   24873325.5724
        31.100           8.6004
 115317751.147 6  89857969.10744  21944218.372    21944216.9954   21944218.0284
        40.400          28.4004
 135469552.226 6                  25778995.651
        36.900
 107275901.062 8  83591632.33548  20413923.736    20413923.0174   20413923.6084
        48.100          48.9004
 130842595.001 6                  24898513.197
        41.600
 126801845.418 8                  24129589.002
        48.900




 143443919.416 6                  27296469.764
        40.100
 107336047.744 8  83483621.459 7  20093531.806    20093532.168    20093537.574
        50.700          42.700
 130322127.407 6                  24799468.712
        41.000
 105886937.704 7  82509304.19445  20149615.474    20149615.2464   20149616.3684
        44.800          35.8004


 198897441.621 7                  37848944.418
        44.200
 132837977.451 5                  25278228.226
        34.000
 126021698.703 4                  23599804.768    23599801.008
        27.000
 202055747.409 7                  38449940.466
        42.800
 129406343.546 6 100649451.326 5  24174190.511    24174191.926    24174207.876
        36.600          34.300
 106886193.707 8  83133697.299 7  20002302.270    20002302.046    20002308.459
        50.900          45.200
 108054589.974 8  84042441.606 7  20192578.037    20192579.784    20192584.123
        51.500          44.700
 104409757.310 7  81207446.745 7  19559423.579    19559424.134    19559428.281
        47.700          45.300
 25  1  1 22 25 45.0000000  0 29G21E31G07G02G30G06G13G15G19E10G17E33
                                E24E09E03E25R12E12G14S35S31E05R13S33
                                R03R11R21R23R22
 125089717.664 5  97472505.83841  23803778.680    23803778.9664   23803780.9834
        33.200           6.3004
 127576865.151 7                  24277063.328
        47.400
 123111089.081 6  95930702.76444  23427237.970    23427237.9034   23427246.7684
        41.800          24.4004
 117713628.554 6  91724789.98543  22400120.381    22400119.5144   22400116.6104
        39.900          19.4004
 111834301.751 7  87143603.85446  21281362.747    21281361.9344   21281365.8714
        43.300          38.0004


 122456390.116 6  95420566.91542  23302674.685    23302674.4844   23302676.4954
        40.900          16.3004
 130730711.312 4 101868108.61641  24877232.333    24877231.9444   24877237.6344
        29.300           7.1004
 115281715.039 7  89829889.10345  21937363.076    21937361.6994   21937359.7804
        44.000          30.2004


 107270187.953 8  83587180.57548  20412836.790    20412836.0714   20412837.2184
        50.300          50.7004
 130855936.133 7                  24901052.582
        43.100
 126787118.426 8                  24126786.460
        49.600




 143411332.600 6                  27290267.599
        40.600
 107300931.973 8  83456309.203 7  20086959.094    20086959.491    20086966.118
        51.600          45.600
 130291220.936 6                  24793586.843
        40.900
 105882141.900 7  82505567.21046  20148702.465    20148702.2464   20148704.2204
        46.600          36.3004


 198897446.568 6                  37848944.047
        41.400
 132865656.878 5                  25283495.099
        35.100
 125965230.084 5                  23589229.528    23589229.041
        33.500
 202055754.136 7                  38449946.490
        45.900
 129423995.522 5                  24177491.809    24177492.458
        32.900
 106910061.540 8  83152261.164 7  20006768.919    20006769.071    20006773.634
        51.300          44.400
 108092036.520 8  84071566.693 7  20199575.519    20199577.122    20199581.202
        49.300          43.500
 122228324.765 4                  22849283.128    22849282.020
        29.000
 104380498.905 7  81184690.233 7  19553941.972    19553941.634    19553948.263
        47.500          47.600
 25  1  1 22 26  0.0000000  0 28G21E31G07G02G30G06G13G19E10G17E33E24
                                E09E03E25R12E12G14S35S31E05R13S33R03
                                R11R21R23R22
 125139149.133 5  97511023.9284   23813185.039    23813185.0794   23813186.8354
        31.300           2.0004
 127592871.594 7                  24280109.062
        46.000
 123165080.333 6  95972773.74244  23437512.354    23437512.2614   23437520.7504
        40.100          25.9004
 117745910.382 6  91749944.66243  22406263.878    22406262.9934   22406262.0104
        40.200          18.1004
 111871231.417 7  87172380.17746  21288390.561    21288389.7484   21288394.3364
        43.600          39.2004


 122486227.348 6  95443816.64342  23308352.054    23308351.8804   23308355.0094
        39.800          12.6004
 115245740.560 7  89801857.10245  21930514.374    21930512.9574   21930514.4594
        45.900          31.6004
 135382393.958 5                  25762418.731
        34.900
 107264559.484 8  83582794.76348  20411765.070    20411764.3554   20411766.4794
        50.100          50.5004
 130869377.486 7                  24903611.473
        42.800
 126772414.192 7                  24123988.022
        47.400




 143378734.754 6                  27284064.722
        38.500
 107265892.214 8  83429056.069 6  20080397.936    20080398.262    20080407.124
        51.300          41.400
 130260393.170 6                  24787721.011
        40.600
 105877416.364 7  82501884.99946  20147803.200    20147802.9774   20147805.7104
        44.300          36.0004


 198897446.984 7                  37848945.545
        42.600
 132893394.745 5                  25288775.890
        34.300
 125908743.652 5                  23578655.303    23578653.211
        34.500
 202055755.970 7                  38449948.743
        46.100
 129441796.563 5                  24180816.688    24180814.695
        31.600
 106934050.802 8  83170919.499 6  20011257.630    20011258.138    20011261.497
        50.300          40.600
 108129620.430 8  84100798.609 7  20206601.612    20206601.710    20206605.656
        51.200          43.900
 122164512.268 5                  22837355.317
        34.200
 104351408.605 8  81162064.452 7  19548492.486    19548492.327    19548498.737
        48.000          47.800
 25  1  1 22 26 15.0000000  0 28G21E31G07G02G30G06G13G15G19E10G17E33
                                E24E09E03E25R12E12G14S35S31E05R13S33
                                R11R21R23R22
 125188646.753 4                  23822600.463
        24.500
 127608916.101 7                  24283162.266
        45.600
 123219117.061 6  96014880.14344  23447794.229    23447794.2164   23447805.2184
        37.300          25.4004
 117778300.453 6  91775183.68643  22412425.775    22412424.8054   22412425.4494
        40.600          18.5004
 111908270.706 7  87201241.93546  21295438.138    21295437.3114   21295443.9034
        44.900          40.5004


 122516160.081 6  95467140.74941  23314048.615    23314048.5484   23314051.1634
        36.700          11.7004
 130772134.538 4 101900386.2694   24885114.369    24885113.8424   24885119.2624
        28.200           1.3004
 115209834.581 7  89773878.44545  21923680.955    21923679.5654   21923683.0594
        43.400          33.2004
 135338882.081 5                  25754140.613
        34.600
 107259022.183 8  83578480.00748  20410710.993    20410710.2874   20410712.3754
        50.400          50.2004
 130882925.659 7                  24906188.685
        42.400
 126757739.537 7                  24121194.466
        45.800
 147989455.604 4                  28161467.052
        27.200


 143346132.593 6                  27277861.531
        40.200
 107230935.964 8  83401867.897 6  20073856.051    20073854.928    20073860.749
        50.900          40.400
 130229651.026 7                  24781871.375
        43.500
 105872767.955 7  82498262.84345  20146917.903    20146917.6754   20146920.5484
        45.500          34.4004


 198897447.856 7                  37848942.209
        42.700
 132921197.697 5                  25294068.299
        31.700
 125852246.348 5                  23568070.907    23568072.207
        33.600
 202055759.445 7                  38449945.358
        45.200
 106958168.164 7  83189677.418 6  20015767.515    20015768.418    20015774.312
        46.100          37.600
 108167348.122 7  84130142.410 7  20213649.249    20213650.096    20213655.893
        47.300          43.600
 122100760.127 5                  22825482.001    22825471.086
        34.200
 104322493.418 8  81139574.880 7  19543077.393    19543076.919    19543081.353
        49.100          47.300
 25  1  1 22 26 30.0000000  0 26E31G07G02G30G06G13G15G19E10G17E33E24
                                E09E03E25R12E12G14S35S31E05R13S33R11
                                R21R22
 127624999.727 7                  24286221.858
        45.000
 123273199.886 6  96057022.44044  23458087.366    23458087.4244   23458097.3514
        37.200          25.9004
 117810799.570 7  91800507.70543  22418611.403    22418610.4294   22418609.8424
        42.000          18.7004
 111945420.367 7  87230189.70847  21302507.667    21302506.8674   21302513.9364
        46.500          42.3004


 122546188.658 6  95490539.54741  23319761.878    23319761.8564   23319765.1144
        36.800           7.0004
 130793004.401 5 101916648.5814   24889088.221    24889087.6044   24889090.0544
        32.200           5.9004
 115173998.066 7  89745953.89645  21916861.555    21916860.1834   21916864.7694
        43.700          32.4004


 107253577.352 8  83574237.29448  20409674.579    20409673.8824   20409675.8084
        49.800          49.0004
 130896581.538 6                  24908786.116
        39.900
 126743095.557 7                  24118407.927
        45.000




 143313527.206 6                  27271656.686
        40.500
 107196064.465 8  83374745.632 6  20067327.462    20067328.107    20067333.723
        51.500          40.900
 130198995.749 7                  24776037.402
        44.300
 105868197.832 7  82494701.68945  20146047.695    20146047.4814   20146049.9994
        45.300          33.0004


 198897451.013 7                  37848944.262
        43.600
 132949066.365 6                  25299372.146
        38.000
 125795739.614 5                  23557492.655    23557491.642
        33.000
 202055764.055 7                  38449943.878
        45.200
 106982414.783 7  83208535.831 5  20020307.577    20020308.389    20020311.851
        47.100          35.200
 108205220.067 7  84159598.434 7  20220725.697    20220726.828    20220733.483
        45.800          43.800
 104293754.661 8  81117222.555 7  19537693.252    19537693.251    19537696.844
        48.400          46.800
 25  1  1 22 26 45.0000000  0 26E31G07G02G30G06G13G15G19E10G17E33E24
                                E09E03E25R12E12G14S35S31E05R13S33R11
                                R21R22
 127641120.230 7                  24289289.818
        44.800
 123327326.263 5  96099198.67443  23468390.731    23468390.9544   23468396.1644
        34.800          23.0004
 117843405.162 6  91825914.66143  22424815.755    22424814.7634   22424814.6204
        41.600          19.3004
 111982677.847 7  87259221.50646  21309596.546    21309595.7554   21309605.1204
        45.500          41.5004


 122576310.528 6  95514010.91541  23325495.535    23325495.7274   23325497.0954
        39.300           7.8004
 130813977.644 5 101932991.30941  24893082.236    24893081.4764   24893080.9864
        30.000          11.6004
 115138228.759 7  89718081.74645  21910054.911    21910053.5214   21910058.0514
        44.500          32.4004
 135252076.828 5                  25737613.346
        34.700
 107248221.939 8  83570064.26048  20408655.562    20408654.8744   20408656.2564
        48.900          48.6004
 130910342.631 6                  24911404.158
        36.800
 126728479.998 7                  24115625.813
        43.500




 143280916.253 6                  27265450.789
        40.100
 107161275.703 8  83347687.704 6  20060814.810    20060814.120    20060819.387
        48.200          39.300
 130168425.149 7                  24770219.690
        43.700
 105863703.766 7  82491199.80545  20145192.791    20145192.5954   20145194.3274
        46.100          32.8004


 198897454.014 7                  37848944.606
        42.800
 132976998.347 6                  25304687.906
        41.300
                                                  23546917.176

 202055768.374 7                  38449946.177
        46.200
 107006788.159 8  83227492.772 5  20024868.609    20024869.359    20024873.944
        48.200          35.500
 108243233.734 7  84189164.614 7  20227829.824    20227831.481    20227836.218
        44.300          42.700
 104265190.094 8  81095005.710 7  19532342.713    19532343.205    19532346.065
        48.500          46.900
 25  1  1 22 27  0.0000000  0 26E31G07G02G30G06G13G19E10G17E33E24E09
                                E03E25R12E12G14S35S31E05R13S33R03R11
                                R21R22
 127657279.169 7                  24292365.305
        45.100
 123381497.532 5  96141409.75343  23478708.153    23478708.4704   23478703.4514
        35.300          23.7004
 117876118.411 7  91851405.59642  22431041.110    22431040.0784   22431039.4324
        43.700          17.8004
 112020044.307 6  87288338.21446  21316705.901    21316705.0794   21316716.8824
        39.200          37.9004


 122606526.946 7  95537556.32941  23331248.471    23331248.6764   23331247.0514
        43.500           6.6004
 115102528.390 7  89690263.31745  21903261.888    21903260.5434   21903263.7344
        44.600          32.8004
 135208707.688 6                  25729350.844
        37.200
 107242957.459 8  83565962.08047  20407653.426    20407652.7474   20407653.9914
        49.000          47.7004
 130924210.433 6                  24914043.127
        36.000
 126713894.443 7                  24112850.990
        43.900
 148112325.224 5                  28184837.621
        30.600
 145823297.905 5                  27749251.044
        33.400
 143248301.290 6                  27259243.845
        40.800
 107126571.673 7  83320695.704 6  20054316.459    20054317.009    20054322.115
        45.700          39.000
 130137940.982 7                  24764419.134
        44.200
 105859287.416 7  82487758.50645  20144352.594    20144352.4114   20144353.4394
        44.800          32.1004


 198897458.313 7                  37848943.600
        43.800
 133004994.858 6                  25310013.775
        41.500
 125682692.806 5                  23536342.472    23536340.219
        31.300
 202055774.492 7                  38449943.212
        46.000
 129514557.422 6 100733587.041 5  24194410.135    24194412.555    24194417.978
        39.800          33.500
 107031290.024 7  83246549.672 6  20029454.486    20029454.337    20029460.921
        47.800          40.100
 108281389.624 7  84218841.498 7  20234960.399    20234961.854    20234966.582
        45.400          42.100
 104236801.486 7  81072925.709 7  19527022.009    19527021.697    19527027.258
        45.700          46.200
 25  1  1 22 27 15.0000000  0 26E31G07G02G30G06G13G19E10G17E33E24E09
                                E03E25R12E12G14S35S31E05S33R03R11R21
                                R23R22
 127673472.551 7                  24295446.733
        43.200
 123435709.015 5  96183652.25644  23489022.322    23489022.7154   23489019.0234
        32.400          24.0004
 117908935.042 7  91876977.03142  22437285.433    22437284.3654   22437284.7464
        43.600          17.0004
 112057515.608 6  87317536.59945  21323837.233    21323836.4464   21323848.1684
        38.100          32.4004


 122636833.382 7  95561171.75341  23337014.167    23337014.4624   23337013.9824
        43.500           8.3004
 115066893.011 7  89662495.53345  21896480.359    21896479.0054   21896481.6424
        46.000          33.2004
 135165382.784 5                  25721094.455
        35.100
 107237779.891 8  83561927.61848  20406668.636    20406667.9704   20406668.3564
        48.800          48.2004
 130938180.704 5                  24916699.534
        32.400
 126699334.968 7                  24110080.749
        45.700
 148153238.129 5                  28192622.677
        32.200
 145820973.631 4                  27748810.692
        28.400
 143215678.346 6                  27253038.306
        40.600
 107091948.634 6  83293766.613 6  20047837.479    20047834.873    20047841.934
        40.100          40.400
 130107539.425 7                  24758634.146
        44.700
 105854944.931 7  82484374.73745  20143526.974    20143526.7644   20143527.3604
        44.900          31.7004


 198897460.142 7                  37848942.634
        43.500
 133033051.582 6                  25315351.842
        38.300
 202055778.218 7                  38449946.396
        45.000
 129533129.653 6 100748032.033 5  24197880.197    24197878.192    24197887.667
        37.300          34.600
 107055916.259 7  83265703.368 6  20034063.037    20034062.233    20034067.662
        46.100          38.700
 108319683.575 7  84248625.634 6  20242116.739    20242119.589    20242121.026
        47.000          41.400
 121846310.915 5                  22777894.674    22777890.647
        34.800
 104208584.906 7  81050979.523 7  19521735.454    19521734.035    19521742.028
        42.300          47.400
 25  1  1 22 27 30.0000000  0 26E31G07G02G30G06G13G19E10G17E33E24E09
                                E03E25R12E12G14S35S31E05R13S33R03R11
                                R21R22
 127689705.187 7                  24298535.401
        42.300
 123489965.320 6  96225929.62843  23499343.074    23499343.5304   23499344.4834
        37.100          23.2004
 117941859.530 7  91902632.50943  22443550.297    22443549.2514   22443550.4824
        42.900          18.4004
 112095096.143 6  87346820.13345  21330988.207    21330987.3184   21330998.6144
        41.800          30.7004


 122667234.368 7  95584860.79141  23342798.863    23342799.0324   23342798.9884
        42.600           9.5004
 115031327.309 8  89634782.05645  21889712.123    21889710.7734   21889713.0324
        48.300          35.5004
 135122107.065 5                  25712863.443
        35.400
 107232694.103 8  83557964.67348  20405701.055    20405700.3894   20405701.2294
        50.000          50.0004
 130952258.228 5                  24919381.722
        33.600
 126684806.338 8                  24107316.263
        48.000
 148194131.562 5                  28200402.742
        34.200


 143183052.146 6                  27246828.870
        37.200
 107057411.881 7  83266904.631 6  20041374.850    20041374.622    20041376.813
        47.500          40.400
 130077225.309 7                  24752865.411
        44.500
 105850681.111 7  82481052.27645  20142714.846    20142714.5834   20142717.0174
        45.100          32.3004


 198897464.287 7                  37848939.946
        42.200
 133061173.149 6                  25320703.442
        38.800
 125569549.587 5                  23515143.147    23515145.349
        33.500
 202055783.320 7                  38449951.404
        46.100
 129551857.043 6 100762597.805 5  24201373.237    24201379.070    24201385.951
        36.200          33.300
 107080671.616 7  83284957.407 6  20038693.811    20038693.792    20038696.936
        43.200          37.400
 108358119.913 7  84278520.530 7  20249300.366    20249300.868    20249303.490
        47.200          42.000
 104180545.450 7  81029171.042 8  19516486.874    19516485.844    19516489.696
        45.800          48.200
 25  1  1 22 27 45.0000000  0 27E31G07G02G30G06G13G15G19E10G17E33E24
                                E09E03E25R12E12G14S35S31E05R13S33R03
                                R11R21R22
 127705975.852 6                  24301632.516
        40.600
 123544264.895 6  96268240.82644  23509671.709    23509672.0984   23509678.7024
        38.000          24.1004
 117974890.258 5  91928370.73342  22449834.232    22449833.2354   22449837.5664
        32.400          13.2004
 112132784.439 6  87376187.58744  21338160.509    21338159.5974   21338169.8004
        37.800          27.4004


 122697728.315 6  95608622.20341  23348599.242    23348599.4744   23348601.9204
        39.700          10.1004
 130898935.427 5 101999189.28741  24909238.136    24909238.3414   24909243.7294
        33.100           8.8004
 114995830.175 8  89607121.99746  21882957.402    21882956.0394   21882958.4364
        48.500          36.6004
 135078879.567 6                  25704638.791
        40.100
 107227698.528 8  83554072.01348  20404749.792    20404749.1404   20404751.3354
        50.000          50.7004
 130966441.550 6                  24922081.769
        38.800
 126670307.427 8                  24104558.181
        50.400
 148235004.016 4                  28208177.456
        29.100


 143150421.565 6                  27240619.835
        36.700
 107022960.128 7  83240108.860 6  20034923.114    20034923.318    20034925.737
        45.700          39.500
 130046997.664 7                  24747113.389
        46.100
 105846494.860 7  82477790.26845  20141918.085    20141917.7904   20141921.1354
        45.700          33.3004


 198897468.555 6                  37848939.839
        41.700
 133089358.028 6                  25326067.156
        38.600
 125512989.337 5                  23504550.019    23504549.276
        32.100
 202055789.566 7                  38449949.329
        44.500
 129570738.352 5 100777283.172 5  24204902.763    24204902.297    24204917.406
        35.800          32.800
 107105554.927 7  83304310.989 6  20043350.430    20043352.646    20043353.952
        46.600          37.200
 108396696.809 7  84308524.769 7  20256509.159    20256509.629    20256514.155
        47.600          43.600
 104152681.962 7  81007499.470 7  19511266.835    19511266.628    19511269.640
        45.900          47.300
 25  1  1 22 28  0.0000000  0 28E31G07G30G06G13G15G19E10G17E33E24E09
                                E03E25R12E12G14S35S31E05R13S33R03R11
                                R21R23E11R22
 127722282.278 6                  24304734.993
        41.900
 123598605.118 5  96310583.71543  23520012.008    23520012.3344   23520020.1484
        33.300          22.9004
 112170577.917 6  87405636.94744  21345354.109    21345353.2204   21345362.3614
        37.600          24.7004


 122728312.386 6  95632453.93241  23354420.536    23354420.8534   23354422.1754
        39.800           9.1004
 130920421.346 5 102015931.53441  24913327.157    24913327.0594   24913330.5734
        32.000          11.3004
 114960399.369 8  89579513.62946  21876214.919    21876213.5744   21876217.1884
        48.600          36.7004
 135035698.163 7                  25696421.637
        43.900
 107222790.905 8  83550247.88648  20403815.878    20403815.2444   20403817.8264
        50.500          51.2004
 130980728.241 6                  24924801.153
        40.500
 126655835.959 8                  24101804.252
        51.300
 148275852.853 4                  28215944.829
        26.200


 143117784.167 5                  27234409.436
        34.300
 106988591.725 7  83213377.941 6  20028490.595    20028489.396    20028493.398
        46.400          41.300
 130016854.270 7                  24741377.156
        46.800
 105842383.924 7  82474586.92445  20141135.486    20141135.1964   20141138.9374
        47.100          34.4004


 198897471.797 7                  37848939.566
        42.100
 133117603.616 6                  25331442.313
        40.200
 125456417.454 5                  23493959.014    23493957.532
        32.300
 202055794.526 7                  38449951.833
        45.500
 129589770.545 6                  24208461.208    24208461.646
        36.700
 107130563.667 8  83323762.227 6  20048034.068    20048035.306    20048035.491
        48.200          40.100
 108435411.539 8  84338636.242 7  20263745.104    20263745.371    20263749.782
        48.600          44.900
 121656130.556 6                  22742336.844    22742337.134
        36.900


 104124992.264 7  80985963.099 7  19506077.105    19506078.021    19506081.507
        45.900          45.900
 25  1  1 22 28 15.0000000  0 28E31G07G30G06G13G15G19E10G17E33E24E09
                                E03E25R12E12G14S35S31E05R13S33R03R11
                                R21R23E11R22
 127738624.601 7                  24307844.082
        42.800
 123652985.557 4  96352957.90643  23530362.580    23530362.8974   23530369.3244
        26.700          19.1004
 112208476.292 6  87435168.06143  21352564.074    21352563.1624   21352571.5024
        38.500          21.2004


 122758986.202 6  95656355.54041  23360257.222    23360257.5124   23360259.7304
        39.400           8.2004
 130942007.636 5 102032752.02141  24917431.053    24917430.8434   24917438.6034
        30.000           9.0004
 114925035.003 7  89551957.03145  21869484.458    21869483.1354   21869488.0354
        47.000          35.5004
 134992563.143 7                  25688212.523
        44.500
 107217970.869 8  83546492.02048  20402898.904    20402898.2784   20402900.7724
        50.300          52.1004
 130995118.240 6                  24927539.050
        40.600
 126641392.038 8                  24099055.865
        51.700
 148316678.186 4                  28223716.588
        28.000


 143085140.125 5                  27228197.084
        32.400
 106954306.874 7  83186711.998 7  20022068.657    20022068.486    20022075.430
        43.300          42.400
 129986795.374 7                  24735657.072
        47.400
 105838348.515 7  82471442.43746  20140367.818    20140367.5374   20140370.8424
        47.400          36.1004


 198897473.574 7                  37848942.187
        42.900
 133145909.756 6                  25336828.270
        39.700
 125399833.893 5                  23483370.332    23483369.959
        31.900
 202055797.994 7                  38449953.550
        44.800
                                                  24212042.629

 107155698.103 8  83343311.214 7  20052737.203    20052738.152    20052741.310
        48.000          42.800
 108474263.560 7  84368854.483 7  20271004.976    20271004.943    20271011.567
        47.200          46.300
 121592866.341 5                  22730510.622    22730507.810
        35.800


 104097476.572 7  80964562.041 7  19500920.810    19500921.369    19500927.587
        45.200          46.200
 25  1  1 22 28 30.0000000  0 27E31G07G30G06G13G15G19E10G17E33E24E09
                                E03E25R12E12G14S35S31E05R13S33R11R21
                                R23E11R22
 127755003.336 7                  24310960.337
        42.600
 123707406.304 4  96395363.60242  23540718.669    23540718.9684   23540725.3434
        29.200          15.6004
 112246479.895 6  87464781.14743  21359795.935    21359795.0724   21359797.3354
        39.400          21.7004


 122789750.190 6  95680327.33041  23366111.184    23366111.4434   23366114.1844
        36.900           8.5004
 130963694.353 5 102049650.57141  24921577.736    24921577.2894   24921565.1964
        33.300          11.3004
 114889737.689 7  89524452.68045  21862768.139    21862766.8384   21862770.3974
        46.600          32.9004
 134949475.280 7                  25680012.963
        43.500
 107213238.639 8  83542804.57748  20401998.906    20401998.2984   20402000.3494
        50.800          52.2004
 131009611.975 6                  24930296.414
        39.000
 126626976.334 8                  24096312.747
        51.400
 148357480.032 4                  28231481.765
        26.600


 143052489.895 5                  27221984.896
        35.600
 106920106.832 7  83160111.989 7  20015666.401    20015666.262    20015672.898
        44.100          42.500
 129956821.730 7                  24729953.470
        47.800
 105834389.279 7  82468357.31546  20139614.891    20139614.6104   20139617.1954
        47.600          36.7004


 198897474.413 7                  37848945.196
        43.500
 133174276.716 6                  25342225.195
        38.400
 125343239.887 4                  23472769.499    23472769.973
        26.800
 202055799.828 7                  38449955.442
        45.500
 107180958.648 7  83362958.338 7  20057462.140    20057461.505    20057467.981
        43.800          44.100
 108513253.071 7  84399179.674 7  20278290.966    20278290.272    20278297.182
        46.600          46.900
 121529664.183 6                  22718699.207    22718697.700
        37.300


 104070135.693 7  80943296.972 7  19495799.623    19495800.230    19495806.305
        46.300          46.600
 25  1  1 22 28 45.0000000  0 28E31G07G02G30G06G13G15G19E10G17E33E24
                                E09E03E25R12E12G14S35S31E05S33R03R11
                                R21R23E11R22
 127771424.397 6                  24314085.726
        40.300
 123761873.094 5  96437768.02142  23551081.916    23551082.3184   23551086.7864
        30.900          12.9004
 118107874.958 5                  22475182.366
        33.600
 112284594.334 6  87494480.67243  21367050.342    21367049.5334   21367049.8284
        37.800          22.9004


 122820609.619 6  95704373.55941  23371986.219    23371986.3844   23371986.4624
        38.400           9.0004
 130985486.901 6 102066631.65542  24925709.460    24925709.0224   24925711.5304
        38.400          17.5004
 114854513.255 7  89497005.15345  21856065.474    21856064.2004   21856065.9194
        47.100          31.1004
 134906440.635 7                  25671824.153
        42.200
 107208600.137 8  83539190.17148  20401116.157    20401115.5364   20401117.9194
        50.300          52.0004
 131024215.098 6                  24933073.995
        38.700
 126612594.700 8                  24093576.165
        50.700
 148398264.242 4                  28239244.106
        28.600


 143019839.324 5                  27215772.067
        35.500
 106885997.591 7  83133582.593 7  20009281.498    20009281.219    20009287.698
        45.900          43.000
 129926939.263 8                  24724267.184
        48.000
 105830512.144 7  82465336.17846  20138876.861    20138876.5754   20138879.3464
        47.900          37.6004


 198897479.996 7                  37848942.893
        42.800
 133202710.135 6                  25347636.956
        37.900
 202055806.918 7                  38449953.018
        45.300
 129647776.416 5                  24219295.068    24219293.016
        33.200
 107206351.082 7  83382708.058 7  20062212.314    20062212.711    20062218.946
        44.900          44.100
 108552385.519 7  84429616.028 7  20285603.828    20285603.548    20285610.306
        45.300          46.900
 121466530.188 4                  22706892.673    22706904.015
        28.500


 104042975.661 8  80922172.512 7  19490712.859    19490713.075    19490718.806
        48.400          46.900
 25  1  1 22 29  0.0000000  0 28E31G07G02G30G06G13G15G19E10G17E33E24
                                E09E03E25R12E12G14S35S31E05S33R03R11
                                R21R23E11R22
 127787882.927 6                  24317217.794
        41.300
 123816380.742 5  96480241.37642  23561453.891    23561454.8474   23561458.8664
        31.300          15.4004
 118141429.650 5                  22481573.861
        31.000
 112322814.327 6  87524262.48044  21374323.876    21374323.0494   21374323.3794
        39.700          26.1004


 122851559.464 6  95728490.22141  23377876.401    23377876.4014   23377876.0594
        36.400          11.2004
 131007380.110 6 102083691.23143  24929876.805    24929876.3054   24929877.3344
        36.300          21.5004
 114819356.803 7  89469610.59945  21849374.690    21849373.4124   21849373.8634
        47.700          30.4004
 134863454.613 6                  25663643.522
        40.100
 107204050.464 8  83535644.98048  20400250.862    20400250.2504   20400252.1324
        50.900          52.2004
 131038922.604 6                  24935872.577
        39.600
 126598242.329 8                  24090844.870
        50.400
 148439025.533 4                  28247000.321
        29.600


 142987183.688 5                  27209556.402
        32.400
 106851974.744 7  83107120.348 7  20002912.408    20002912.636    20002919.070
        47.600          42.800
 129897143.316 7                  24718596.948
        47.600
 105826712.390 7  82462375.36046  20138154.266    20138153.9624   20138155.6094
        47.800          38.4004


 198897485.813 7                  37848944.619
        42.500
 133231204.834 5                  25353057.257
        34.500
 202055813.737 7                  38449955.124
        45.100
 129667417.796 5                  24222962.532    24222961.070
        33.000
 107231870.836 8  83402556.691 7  20066990.433    20066991.744    20066995.698
        48.600          45.400
 108591655.325 7  84460159.155 7  20292945.039    20292946.712    20292948.503
        47.400          45.900
 121403459.699 4                  22695110.752
        28.000


 104015991.674 8  80901184.953 7  19485658.328    19485658.035    19485664.025
        48.800          47.600
 25  1  1 22 29 15.0000000  0 27E31G07G02G30G06G13G15G19E10G17E33E24
                                E09E03E25R12E12G14S35S31E05S33R11R21
                                R23E11R22
 127804373.376 6                  24320356.220
        40.100
 123870923.454 5  96522742.05642  23571832.381    23571833.4724   23571838.7184
        31.000          17.0004
 118175082.636 5                  22487988.151
        30.200
 112361134.077 7  87554122.04945  21381615.548    21381614.7534   21381617.8964
        42.300          30.7004


 122882593.507 6  95752672.48442  23383782.963    23383782.9714   23383781.6594
        39.300          15.0004
 131029368.075 4 102100824.71242  24934056.329    24934055.9454   24934061.9814
        29.600          17.2004
 114784262.868 8  89442264.74345  21842697.260    21842696.0044   21842695.0524
        48.000          30.5004
 134820511.706 6                  25655471.500
        38.200
 107199583.881 8  83532164.53448  20399400.551    20399399.9344   20399401.7144
        51.400          51.5004
 131053728.777 6                  24938688.918
        38.800
 126583913.751 8                  24088117.883
        49.900
 148479758.159 4                  28254753.476
        29.800


 142954517.412 5                  27203339.095
        33.400
 106818032.801 8  83080721.092 7  19996559.406    19996558.541    19996566.420
        48.000          43.000
 129867428.501 7                  24712942.320
        46.500
 105822984.555 7  82459470.57446  20137445.738    20137445.4304   20137445.5744
        46.800          39.2004


 198897486.022 6                  37848941.046
        41.800
 133259755.032 4                  25358488.210
        29.400
 202055815.199 7                  38449959.864
        44.300
 107257512.030 8  83422499.821 7  20071788.662    20071789.844    20071793.629
        48.800          45.700
 108631056.271 7  84490804.309 7  20300305.139    20300305.447    20300310.810
        43.600          44.100
 121340447.046 5                  22683325.267    22683326.491
        33.700


 103989178.279 8  80880330.128 7  19480635.247    19480636.063    19480640.247
        49.700          47.400
 25  1  1 22 29 30.0000000  0 25E31G07G30G06G13G19E10G17E33E24E09E03
                                E25R12E12G14S35S31E05S33R11R21R23E11
                                R22
 127820903.824 6                  24323502.998
        40.100
 123925508.534 5  96565275.75942  23582221.177    23582222.1694   23582226.6424
        31.800          16.2004
 112399561.303 7  87584065.34045  21388927.610    21388926.8554   21388933.3104
        43.200          33.9004


 122913719.453 6  95776926.47142  23389704.234    23389704.2694   23389704.8464
        36.600          14.3004
 114749239.578 7  89414973.90845  21836032.744    21836031.5104   21836031.3374
        47.400          31.4004
 134777620.118 6                  25647309.670
        39.200
 107195208.460 8  83528755.13048  20398567.472    20398566.8554   20398568.4904
        51.100          51.2004
 131068641.470 6                  24941526.156
        37.800
 126569616.966 8                  24085396.696
        48.900
 148520469.742 4                  28262498.246
        29.300


 142921848.293 5                  27197121.851
        34.500
 106784180.429 8  83054391.484 7  19990221.867    19990222.685    19990228.436
        48.600          42.500
 129837802.957 7                  24707304.786
        45.600
 105819336.683 7  82456628.08846  20136751.135    20136750.8274   20136751.6494
        47.800          40.6004


 198897488.405 7                  37848946.055
        42.100
 133288368.405 4                  25363934.267
        26.000
 202055819.425 7                  38449952.777
        43.800
 107283282.598 8  83442543.565 7  20076610.729    20076612.266    20076616.698
        48.900          46.100
 108670596.182 6  84521557.566 7  20307692.184    20307693.712    20307698.167
        40.300          42.300
 121277501.290 6                  22671556.178    22671558.482
        36.400


 103962543.701 8  80859614.386 8  19475644.302    19475643.604    19475650.779
        48.000          48.000
 25  1  1 22 29 45.0000000  0 27E31G07G30G06G13G19E10G17E33E24E09E03
                                E25R12E12G14S35S31E05R13S33R03R11R21
                                R23E11R22
 127837472.932 6                  24326656.080
        38.300


 112438094.411 7  87614091.11945  21396259.120    21396258.4054   21396268.4214
        42.600          34.8004


 122944935.688 5  95801250.79741  23395644.629    23395644.6334   23395645.7014
        34.900          10.9004
 114714285.705 8  89387737.15945  21829381.657    21829380.4324   21829380.9754
        48.200          31.7004
 134734778.925 6                  25639155.900
        40.100
 107190922.520 8  83525415.46048  20397752.021    20397751.4004   20397752.3974
        51.700          50.5004
 131083659.312 6                  24944385.250
        38.600
 126555350.783 7                  24082681.642
        47.000
 148561158.793 4                  28270239.200
        25.900


 142889175.200 5                  27190904.885
        35.200
 106750416.394 8  83028130.643 7  19983900.885    19983901.255    19983906.796
        49.500          42.000
 129808265.560 7                  24701683.376
        45.000
 105815767.600 8  82453846.99046  20136071.029    20136070.7254   20136073.1574
        48.900          41.3004


 198897492.560 6                  37848946.752
        41.700


 125060154.511 5                  23419750.662    23419753.272
        35.900
 202055824.515 7                  38449955.509
        44.200
 129727240.292 3                  24234142.828    24234134.971
        22.800
 107309181.375 7  83462687.025 7  20081456.339    20081457.497    20081462.994
        47.900          46.300
 108710273.320 6  84552417.458 6  20315118.213    20315117.151    20315113.178
        41.100          41.400
 121214621.424 6                  22659810.990    22659805.385
        37.200


 103936086.781 7  80839036.817 8  19470689.819    19470687.097    19470695.591
        46.100          48.900
 25  1  1 22 30  0.0000000  0 27E31G07G02G30G06G13G19E10G17E33E24E09
                                E03E25R12E12G14S35S31E05R13S33R11R21
                                R23E11R22
 127854079.913 6                  24329815.056
        39.000


 118276701.166 6                  22507300.752
        37.300
 112476732.263 6  87644198.49545  21403611.180    21403610.4654   21403620.8334
        39.500          32.4004


 122976240.913 5  95825644.45341  23401602.681    23401602.6144   23401603.2444
        32.700          10.4004
 114679400.334 8  89360553.77845  21822743.102    21822741.8824   21822742.6634
        48.200          32.5004
 134691987.397 6                  25631012.735
        40.200
 107186724.904 8  83522144.62648  20396953.291    20396952.6524   20396953.3984
        50.600          50.3004
 131098781.258 6                  24947262.307
        39.800
 126541114.413 7                  24079972.323
        45.800




 142856497.273 6                  27184686.610
        37.800
 106716740.473 8  83001938.283 7  19977596.917    19977597.810    19977603.869
        51.200          42.000
 129778815.549 7                  24696079.103
        44.600
 105812276.533 7  82451126.67146  20135406.372    20135406.0594   20135409.4204
        47.900          41.6004


 198897496.149 7                  37848949.417
        42.300


 125003510.635 5                  23409144.400    23409144.119
        35.100
 202055829.343 7                  38449954.293
        43.600
 107335207.416 8  83482929.524 7  20086327.209    20086327.344    20086334.201
        48.900          46.600
                  84583382.852 6                  20322543.175    20322553.729
                        41.300
 121151806.631 5                  22648066.724    22648070.900
        34.800


 103909806.822 7  80818596.854 8  19465765.863    19465764.735    19465771.780
        47.300          48.500
 25  1  1 22 30 15.0000000  0 27E31G07G02G30G06G19E10G17E33E24E09E03
                                E25R12E12G14S35S31E05R13S33R03R11R21
                                R23E11R22
 127870723.029 6                  24332981.726
        40.200


 118310768.558 5  92190205.06841  22513783.635    22513783.0724   22513787.3714
        33.200          11.3004
 112515472.754 6  87674385.86245  21410984.816    21410984.1194   21410990.3044
        40.200          30.8004


 114644581.712 8  89333422.41145  21816117.221    21816116.0324   21816116.9894
        50.000          33.3004
 134649243.888 6                  25622879.430
        41.600
 107182613.810 8  83518941.19948  20396171.164    20396170.5164   20396171.0344
        50.500          50.2004
 131114005.412 6                  24950160.850
        38.900
 126526906.110 7                  24077267.823
        45.500




 142823812.730 6                  27178467.510
        38.100
 106683151.005 8  82975813.148 7  19971309.035    19971309.216    19971316.661
        51.200          44.300
 129749451.399 7                  24690491.276
        44.300
 105808861.834 7  82448465.85746  20134757.537    20134757.2244   20134760.0474
        46.100          40.7004


 198897498.965 7                  37848947.982
        42.000


 124946857.543 5                  23398533.692    23398532.749
        32.300
 202055832.352 7                  38449960.133
        43.700
 129767898.862 6                  24241735.976    24241740.526
        36.900
 107361358.983 8  83503269.634 7  20091221.748    20091223.288    20091228.316
        52.800          47.200
                  84614452.110 7                  20330012.859    20330018.272
                        42.000
 121089055.700 5                  22636339.938    22636338.413
        34.300


 103883702.187 8  80798293.270 7  19460876.167    19460876.062    19460880.697
        49.900          47.700
 25  1  1 22 30 30.0000000  0 26E31G07G02G30G06G19E10G17E33E24E09E03
                                E25R12E12G14S35S31E05S33R03R11R21R23
                                E11R22
 127887404.372 6                  24336156.510
        38.900


 118344938.643 5  92216831.10342  22520286.934    22520286.0364   22520283.7184
        34.300          15.7004
 112554317.741 6  87704654.64245  21418377.018    21418376.2994   21418381.3154
        40.100          30.1004


 114609832.049 8  89306344.78245  21809504.281    21809503.0834   21809505.4134
        50.300          34.6004
 134606550.749 7                  25614754.477
        42.300
 107178591.179 8  83515806.69548  20395405.687    20395405.0534   20395405.4844
        49.000          50.0004
 131129333.706 6                  24953078.424
        37.200
 126512728.020 7                  24074570.419
        45.700




 142791123.688 5                  27172247.665
        34.500
 106649650.548 8  82949757.247 7  19965038.482    19965039.191    19965045.340
        51.900          45.700
 129720175.282 7                  24684920.563
        43.200
 105805525.688 7  82445866.25946  20134123.006    20134122.6934   20134125.3004
        46.800          39.6004


 198897501.621 7                  37848947.888
        42.100
 133403445.883 5                  25385831.871
        34.300
 202055836.905 7                  38449962.404
        44.600
 129788437.512 5                  24245574.640    24245575.220
        31.800
 107387638.136 9  83523708.922 7  20096140.544    20096141.590    20096146.139
        54.400          47.400
 108830564.144 6  84645626.368 7  20337491.899    20337506.972    20337508.530
        41.200          42.100
                                                  22624628.199



 103857775.052 8  80778127.744 7  19456018.425    19456019.307    19456023.822
        49.700          47.400
 25  1  1 22 30 45.0000000  0 27E31G07G02G30G06G13G19E10G17E33E24E09
                                E03E25R12E12G14S35S31E05S33R03R11R21
                                R23E11R22
 127904121.922 6                  24339337.663
        40.900
 124198937.028 5  96778386.52042  23634267.585    23634268.1754   23634270.3994
        34.800          16.4004
 118379209.090 6  92243535.33443  22526806.898    22526806.1654   22526804.3994
        36.700          18.6004
 112593264.810 6  87735002.93345  21425788.310    21425787.5954   21425793.7944
        41.500          31.1004


 123070700.053 5  95899254.83141  23419573.953    23419573.2514   23419577.6194
        35.500           9.0004
 114575149.346 8  89279319.33745  21802904.195    21802902.9974   21802906.7834
        50.600          35.7004
 134563906.147 6                  25606638.379
        39.900
 107174654.893 8  83512739.46948  20394656.393    20394655.7724   20394656.5674
        49.500          50.4004
 131144763.913 6                  24956014.105
        37.700
 126498578.143 7                  24071878.109
        46.400




 142758428.065 5                  27166024.391
        32.800
 106616237.316 8  82923769.184 7  19958783.740    19958784.353    19958789.777
        50.300          46.100
 129690985.303 7                  24679366.119
        43.000
 105802266.143 7  82443326.34046  20133502.201    20133501.8844   20133504.5814
        47.100          38.7004


 198897502.599 7                  37848950.589
        42.600
 133432358.462 5                  25391333.299
        34.200
 202055838.897 7                  38449960.039
        44.300
 129809123.562 5                  24249432.864    24249436.680
        32.800
 107414042.646 8  83544245.755 7  20101081.499    20101081.910    20101087.367
        53.700          46.900
 108870777.839 6  84676903.662 7  20345021.283    20345019.759    20345023.991
        41.800          42.200
 120963751.062 4                  22612926.381    22612924.456
        25.300


 103832023.522 7  80758098.825 8  19451192.918    19451192.674    19451199.903
        46.700          48.100
 25  1  1 22 31  0.0000000  0 26E31G07G02G30G06G13G19E10G17E33E24E09
                                E03E25R12E12G14S35S31E05S33R11R21R23
                                E11R22
 127920878.889 7                  24342526.014
        42.100
 124253756.849 6  96821103.11743  23644699.670    23644699.5184   23644707.5424
        37.800          20.4004
 118413583.039 6  92270320.24943  22533348.497    22533348.0194   22533345.3364
        36.600          18.0004
 112632316.946 7  87765433.09745  21433219.243    21433218.5154   21433226.6684
        42.100          31.0004


 123102355.928 5  95923921.60542  23425594.787    23425594.3584   23425598.7844
        33.600          12.1004
 114540536.736 8  89252348.50846  21796317.609    21796316.4204   21796320.6104
        50.800          36.8004
 134521313.464 6                  25598533.790
        37.300
 107170808.045 8  83509741.93048  20393924.306    20393923.6894   20393924.9614
        50.000          50.8004
 131160299.052 6                  24958970.127
        38.100
 126484459.714 8                  24069191.905
        48.200




 142725729.008 6                  27159801.443
        39.200
 106582915.082 7  82897851.900 7  19952542.927    19952543.904    19952551.479
        46.600          46.200
 129661884.790 7                  24673828.378
        43.600
 105799086.484 7  82440848.67546  20132896.983    20132896.6794   20132899.3024
        46.400          37.4004


 198897505.826 7                  37848946.408
        42.400
 133461332.065 5                  25396847.089
        35.600
 202055842.849 7                  38449958.809
        45.100
 107440575.819 8  83564882.615 7  20106046.212    20106046.467    20106051.557
        53.300          46.500
 108911126.656 7  84708286.062 6  20352557.996    20352560.515    20352563.115
        44.800          41.700
 120901199.217 5                  22601201.951
        33.800


 103806450.952 8  80738209.049 7  19446403.581    19446403.852    19446408.868
        48.000          47.300
 25  1  1 22 31 15.0000000  0 27E31G07G02G30G06G13G19E10G17E33E24E09
                                E03E25R12E12G14S35S31E05S33R03R11R21
                                R23E11R22
 127937674.180 6                  24345722.932
        41.900
 124308615.165 6  96863849.71043  23655139.263    23655138.5354   23655149.4744
        39.400          21.8004
 118448058.669 6  92297184.38343  22539908.252    22539907.6804   22539905.8374
        39.000          20.0004
 112671472.687 7  87795944.00444  21440669.789    21440669.0564   21440680.2504
        42.200          28.7004


 123134099.060 6  95948656.41242  23431637.712    23431636.9034   23431639.3564
        38.800          15.6004
 114505993.232 8  89225431.52246  21789744.352    21789743.1764   21789746.3914
        50.900          37.2004
 134478771.793 6                  25590439.021
        37.000
 107167049.577 8  83506813.25548  20393208.801    20393208.1894   20393210.4454
        49.200          51.2004
 131175937.929 6                  24961946.388
        40.400
 126470371.710 8                  24066510.893
        49.300


 145797710.008 5                  27744385.589
        34.100
 142693025.527 6                  27153578.042
        41.300
 106549682.894 7  82872004.656 7  19946322.660    19946325.058    19946329.386
        46.500          45.000
 129632872.778 7                  24668306.927
        44.500
 105795985.716 7  82438432.50245  20132306.683    20132306.3704   20132308.8734
        45.300          35.5004


 198897509.582 7                  37848950.482
        43.000
 133490365.260 5                  25402372.035
        35.900
 202055846.522 7                  38449962.404
        45.900
 129850944.336 5                  24257256.142    24257253.850
        33.300
 107467236.469 8  83585618.624 7  20111035.216    20111036.028    20111042.241
        53.800          47.000
 108951609.029 7  84739772.318 6  20360126.844    20360126.832    20360127.732
        47.700          40.800
 120838715.118 6                  22589527.186    22589528.609
        39.000


 103781056.421 7  80718457.749 7  19441645.060    19441645.246    19441651.513
        46.600          47.300
 25  1  1 22 31 30.0000000  0 27E31G07G02G30G06G13G19E10G17E33E24E09
                                E03E25R12E12G14S35S31E05S33R03R11R21
                                R23E11R22
 127954506.845 7                  24348927.639
        42.900
 124363510.496 6  96906625.18543  23665584.243    23665583.2114   23665598.3234
        37.900          21.2004
 118482634.935 6  92324126.92643  22546487.522    22546486.8704   22546485.5354
        40.300          19.8004
 112710730.763 6  87826534.64043  21448140.958    21448140.3064   21448149.8054
        36.500          22.9004


 123165928.305 5  95973458.31242  23437693.165    23437692.1014   23437697.2824
        35.800          15.2004
 114471517.906 8  89198567.65746  21783183.698    21783182.5274   21783185.1434
        49.500          37.0004
 134436280.389 7                  25582352.590
        42.600
 107163377.967 8  83503952.25548  20392510.148    20392509.5584   20392511.6734
        49.900          51.4004
 131191679.386 6                  24964942.459
        41.100
 126456313.151 8                  24063836.054
        50.100


 145797117.693 5                  27744264.195
        32.900
 142660316.595 7                  27147354.459
        42.500
 106516540.188 7  82846227.007 7  19940118.070    19940120.131    19940124.732
        46.300          45.000
 129603948.485 7                  24662802.402
        44.800
 105792962.933 7  82436077.10645  20131731.128    20131730.8024   20131732.6824
        45.600          34.7004


 198897511.986 7                  37848952.395
        43.700
 133519456.825 5                  25407908.838
        32.400
 202055850.575 7                  38449961.979
        45.400
 129872076.661 5                  24261203.911    24261204.609
        35.500
 107494023.538 8  83606453.009 7  20116047.949    20116049.290    20116054.657
        53.600          46.300
 108992223.474 7  84771361.380 6  20367712.833    20367713.700    20367719.398
        46.500          41.900
 120776297.983 6                  22577856.891    22577856.127
        37.900


 103755839.034 8  80698844.244 7  19436923.614    19436923.668    19436927.982
        48.300          47.500
 25  1  1 22 31 45.0000000  0 27E31G07G02G30G06G13G19E10G17E33E24E09
                                E03E25R12E12G14S35S31E05S33R03R11R21
                                R23E11R22
 127971376.793 7                  24352137.717
        43.000
 124418442.511 6  96949429.27843  23676037.571    23676036.7444   23676054.4974
        36.600          20.8004
 118517311.291 6  92351147.42443  22553084.288    22553083.5464   22553084.3314
        40.800          20.1004
 112750090.699 6  87857204.59844  21455632.967    21455632.3414   21455634.6624
        38.200          25.2004


 123197843.208 5  95998327.02042  23443766.974    23443765.6064   23443770.9134
        32.800          15.0004
 114437110.544 8  89171756.74646  21776636.653    21776635.4644   21776637.5974
        49.100          37.4004
 134393839.271 7                  25574276.287
        44.900
 107159792.985 8  83501158.76148  20391827.876    20391827.2864   20391828.9594
        49.700          51.8004
 131207523.109 7                  24967958.167
        42.500
 126442283.993 8                  24061166.129
        50.300


 145796626.242 5                  27744172.898
        35.300
 142627602.057 6                  27141128.729
        41.500
 106483487.089 7  82820519.026 7  19933929.451    19933930.471    19933937.514
        44.500          44.800
 129575111.845 7                  24657314.643
        43.500
 105790018.074 7  82433782.43045  20131171.039    20131170.7184   20131171.4764
        46.200          35.3004


 198897514.308 7                  37848949.216
        42.700
 133548606.336 5                  25413457.351
        34.400
 202055853.296 7                  38449965.235
        45.100
 129893355.991 5                  24265182.534    24265182.788
        34.100
 107520936.830 8  83627385.561 7  20121085.163    20121086.134    20121091.439
        53.100          46.000
 109032969.280 7  84803052.542 7  20375329.155    20375330.018    20375334.258
        47.600          42.600
 120713947.894 6                  22566205.764    22566204.774
        39.300


 103730798.684 7  80679368.476 7  19432230.254    19432229.668    19432237.030
        45.900          47.800
 25  1  1 22 32  0.0000000  0 28E31G07G02G30G06G13G15G19E10G17E33E24
                                E09E03E25R12E12G14S35S31E05S33R03R11
                                R21R23E11R22
 127988288.467 7                  24355355.186
        42.500
 124473415.053 5  96992264.99542  23686499.308    23686498.6384   23686519.5074
        35.800          17.8004
 118552091.886 6  92378249.13943  22559703.272    22559702.5084   22559702.3774
        40.700          21.0004
 112789556.671 6  87887957.22845  21463141.746    21463141.1074   21463143.1154
        40.700          30.5004


 123229847.613 6  96023265.47142  23449860.848    23449859.5744   23449861.5714
        40.200          17.5004
 131277815.792 6 102294432.53543  24981339.270    24981339.3774   24981343.2374
        37.100          19.1004
 114402775.499 8  89145002.18746  21770102.923    21770101.7034   21770103.8854
        50.200          38.4004
 134351453.086 7                  25566210.900
        44.900
 107156298.961 8  83498436.15648  20391163.340    20391162.7504   20391163.9844
        49.900          52.2004
 131223473.374 7                  24970994.466
        44.000
 126428288.705 8                  24058503.268
        49.600


 145796240.140 5                  27744094.291
        31.100
 142594886.375 6                  27134903.218
        40.200
 106450528.474 6  82794884.548 7  19927759.043    19927759.095    19927766.782
        41.800          43.900
 129546367.559 7                  24651845.401
        42.700
 105787155.687 8  82431552.01546  20130626.421    20130626.1044   20130626.8644
        48.200          37.6004


 198897520.913 7                  37848953.688
        43.000
 133577818.036 5                  25419015.208
        34.000
 202055859.960 7                  38449962.972
        44.600
 129914786.173 5                  24269187.545    24269185.414
        33.700
 107547980.885 8  83648419.828 7  20126145.668    20126146.115    20126152.685
        52.200          45.100
 109073850.510 7  84834849.073 7  20382967.225    20382966.091    20382973.274
        44.400          42.700
 120651669.750 6                  22554564.177    22554563.150
        36.500


 103705940.068 7  80660034.032 7  19427571.929    19427571.480    19427580.381
        43.500          47.800
 25  1  1 22 32 15.0000000  0 28E31G07G02G30G06G13G15G19E10G17E33E24
                                E09E03E25R12E12G14S35S31E05S33R03R11
                                R21R23E11R22
 128005236.712 6                  24358578.697
        39.100
 124528422.728 6  97035128.07142  23696966.266    23696965.6494   23696991.2114
        36.500          13.7004
 118586971.248 6  92405427.82743  22566340.126    22566339.3224   22566338.1714
        41.800          19.1004
 112829123.164 7  87918788.23645  21470670.659    21470670.0164   21470674.8354
        42.400          35.4004


 123261936.069 6  96048269.34742  23455964.093    23455962.9534   23455967.5274
        40.400          16.3004
 131300988.554 5 102312489.14143  24985750.408    24985750.5774   24985751.0854
        34.600          18.2004
 114368507.787 8  89118300.10146  21763581.677    21763580.4434   21763582.9724
        51.000          39.5004
 134309116.889 7                  25558154.853
        44.600
 107152890.650 8  83495780.34348  20390515.011    20390514.4354   20390515.7064
        49.700          52.4004
 131239524.857 6                  24974047.784
        41.900
 126414322.198 8                  24055845.914
        49.100


 145795954.113 5                  27744037.863
        30.200
 142562164.391 6                  27128676.720
        38.600
 106417659.589 7  82769319.798 7  19921611.500    19921607.855    19921613.856
        43.600          43.500
 129517710.484 7                  24646392.234
        42.100
 105784370.695 8  82429381.89246  20130096.582    20130096.2784   20130097.7014
        49.600          40.8004


 198897524.848 7                  37848955.633
        42.600
 133607086.360 5                  25424585.057
        32.400
 202055864.758 7                  38449964.237
        44.700
 129936361.791 5                  24273227.416    24273230.408
        30.600
 107575150.399 8  83669551.610 7  20131230.493    20131231.253    20131235.176
        52.300          42.700
 109114861.469 7  84866746.480 7  20390632.436    20390629.603    20390638.794
        43.700          44.000
 120589458.677 5                  22542916.494    22542922.350
        31.000
 144141861.374 5                  27429281.438
        31.000
 103681258.100 7  80640836.929 7  19422952.389    19422950.568    19422955.440
        46.500          46.800
 25  1  1 22 32 30.0000000  0 28G21E31G07G02G30G06G13G15G19E10G17E33
                                E24E09E03E25R12E12G14S35S31E05S33R11
                                R21R23E11R22
 126446179.870 5                  24061907.662
        34.000
 128022221.885 6                  24361811.135
        40.300
 124583465.831 6  97078018.61641  23707440.611    23707439.9634   23707468.0124
        38.100           8.9004
 118621949.359 7  92432683.49242  22572996.623    22572995.7294   22572992.5494
        42.300          14.9004
 112868790.251 6  87949697.62446  21478218.252    21478217.6044   21478226.0464
        41.600          37.2004


 123294108.442 6  96073338.63442  23462083.966    23462082.8044   23462089.4424
        39.800          13.5004
 131324256.355 4 102330619.91341  24990177.983    24990177.7204   24990177.3794
        27.300          10.7004
 114334307.869 8  89091650.82446  21757073.341    21757072.0984   21757074.7314
        51.100          39.4004
 134266831.191 7                  25550108.814
        43.500
 107149568.133 8  83493191.38648  20389882.774    20389882.1894   20389883.8354
        50.700          52.9004
 131255677.758 6                  24977121.911
        39.700
 126400384.834 8                  24053193.768
        48.600


 145795768.347 4                  27744000.564
        29.200
 142529436.415 6                  27122448.800
        39.900
 106384880.894 7  82743825.224 7  19915472.203    19915472.347    19915477.301
        45.400          42.900
 129489141.139 7                  24640955.609
        43.100
 105781663.551 8  82427272.43247  20129581.524    20129581.2294   20129583.5584
        50.400          42.6004


 198897528.056 6                  37848949.136
        41.800
 133636411.462 4                  25430163.229
        29.900
 202055868.881 7                  38449965.454
        44.300
 107602445.639 8  83690781.188 6  20136338.145    20136339.438    20136341.957
        51.900          41.300
 109156001.762 7  84898744.494 7  20398318.902    20398318.227    20398327.530
        45.300          43.900
 120527315.432 6                  22531310.662    22531309.555
        38.200
 144093300.954 4                  27420036.637
        29.000
 103656753.153 7  80621777.539 7  19418360.150    19418360.720    19418366.089
        46.900          47.400
 25  1  1 22 32 45.0000000  0 27G21E31G07G02G30G06G13G19E10G17E33E24
                                E09E03E25R12E12G14S35S31E05S33R11R21
                                R23E11R22
 126497243.769 5                  24071624.812
        33.300
 128039244.759 6                  24365050.233
        39.200
 124638544.500 6  97120937.0444   23717921.974    23717921.2954   23717951.1724
        38.300           5.0004
 118657026.637 6  92460016.45842  22579670.834    22579669.9134   22579666.1334
        41.300          13.5004
 112908558.437 6  87980685.78146  21485785.690    21485785.0474   21485795.3894
        40.400          36.4004


 123326365.058 6  96098473.52941  23468222.796    23468221.5764   23468227.4914
        37.200          11.6004
 114300176.520 8  89065054.96946  21750578.390    21750577.1524   21750579.4854
        50.200          39.0004
 134224596.997 7                  25542072.071
        42.100
 107146332.221 8  83490669.90948  20389266.793    20389266.2124   20389268.2454
        50.700          53.1004
 131271932.687 6                  24980214.977
        36.200
 126386477.505 8                  24050547.375
        48.700


 145795683.597 4                  27743986.112
        29.800
 142496703.242 6                  27116219.906
        39.000
 106352193.604 7  82718401.777 7  19909353.586    19909353.369    19909358.556
        47.400          43.500
 129460660.422 7                  24635536.088
        43.500
 105779035.086 8  82425224.28047  20129081.574    20129081.2884   20129084.0384
        50.300          43.1004


 198897530.950 6                  37848956.585
        41.700
 133665793.873 5                  25435754.471
        32.200
 202055871.680 7                  38449965.400
        45.400
 107629867.339 8  83712109.161 7  20141468.063    20141469.789    20141475.456
        50.300          42.800
 109197271.786 7  84930843.424 6  20406030.005    20406028.257    20406037.841
        43.400          40.700
 120465241.033 6                  22519702.338    22519704.746
        36.300
 144044746.115 4                  27410797.309
        29.700
 103632426.148 7  80602856.588 8  19413801.708    19413801.915    19413809.528
        46.800          48.000
