     2.11           OBSERVATION DATA    M (MIXED)           RINEX VERSION / TYPE
teqc  2019Feb25                         20260317 16:18:01UTCPGM / RUN BY / DATE
Linux 2.4.21-27.ELsmp|Opteron|gcc -static|Linux 64|=+       COMMENT
BIT 2 OF LLI FLAGS DATA COLLECTED UNDER A/S CONDITION       COMMENT
-Unknown-                                                   MARKER NAME
-Unknown-           -Unknown-                               OBSERVER / AGENCY
-Unknown-           -Unknown-           -Unknown-           REC # / TYPE / VERS
-Unknown-           -Unknown-                               ANT # / TYPE
        0.0000        0.0000        0.0000                  APPROX POSITION XYZ
        0.0000        0.0000        0.0000                  ANTENNA: DELTA H/E/N
     1     1                                                WAVELENGTH FACT L1/2
     7    L1    L2    C1    P1    P2    S1    S2            # / TYPES OF OBSERV
 SNR is mapped to RINEX snr flag value [0-9]                COMMENT
  L1 & L2: min(max(int(snr_dBHz/6), 0), 9)                  COMMENT
  2025     1     1     8     0    0.0000000     GPS         TIME OF FIRST OBS
    18                                                      LEAP SECONDS
                                                            END OF HEADER
 25  1  1  8  0  0.0000000  0 23G18G23G15E29G24E33G10E03G27G29R03E15
                                E26R18S35R17R02S31S33E07E08E13R24
 106866031.919 8  83272254.10447  20335928.874    20335928.6114   20335928.5074
        50.500          42.3004
 109959195.864 7  85682521.39745  20924538.625    20924538.3974   20924538.0994
        45.400          34.3004
 106606620.736 6  83070082.65746  20286547.454    20286547.0884   20286547.5274
        40.900          37.4004


 121171125.931 5  94419083.16442  23058101.098    23058101.0584   23058117.1764
        34.700          12.0004
 148543636.632 5                  28266914.844
        34.300
 125457576.754 6  97759040.44243  23873757.245    23873756.6154   23873759.8134
        37.800          23.4004


 125630779.431 5  97894091.22643  23906729.299    23906728.2174   23906733.9474
        34.800          23.7004
 121569300.726 6  94729327.55644  23133869.371    23133869.5854   23133871.6794
        37.400          25.7004
 107461288.631 8  83581019.594 7  20074656.314    20074656.556    20074660.160
        50.300          46.600


 127748599.071 7                  24309754.107
        42.600
 108411959.027 7  84320403.842 7  20309212.355    20309212.090    20309215.523
        47.800          44.400
 200877108.705 5                  38225661.081
        32.300
 102335148.169 8  79594051.425 7  19123776.277    19123776.491    19123781.930
        51.400          45.500
 105102372.533 6  81746320.648 7  19696136.746    19696132.248    19696140.902
        37.600          46.800
 198898790.339 7                  37849181.065
        42.200
 202027984.666 7                  38444657.106
        44.900
 125194287.198 7                  23823663.873
        46.000
 127436330.795 7                  24250324.046
        43.300
 124011200.995 8                  23598531.759
        49.400
 119735993.629 7  93128031.992 6  22391235.174    22391238.337    22391234.253
        43.800          36.000
 25  1  1  8  0 15.0000000  0 24G18R01G23G15E29G24E33G10G27G29R04R03
                                E15E26R18S35R17R02S31S33E07E08E13R24
 106858787.405 8  83266609.02447  20334549.543    20334549.2714   20334549.7584
        50.500          42.5004
 123522900.211 5                  23107514.807    23107513.962
        34.200
 109942163.768 7  85669249.63645  20921298.441    20921298.2634   20921298.4094
        44.600          34.9004
 106630674.725 7  83088826.02946  20291124.786    20291124.4564   20291125.1534
        43.000          38.2004


 121126254.581 5  94384118.22141  23049561.856    23049561.6374   23049581.0954
        33.900           9.9004
 148504921.448 5                  28259548.342
        35.700
 125422638.231 6  97731815.67544  23867109.113    23867108.4164   23867112.2144
        41.300          28.2004
 125597093.402 6  97867842.35144  23900318.421    23900317.2904   23900323.2194
        38.700          28.0004
 121622737.960 6  94770966.93844  23144037.047    23144037.3064   23144039.8714
        36.800          25.6004


 107433264.865 8  83559223.309 7  20069420.912    20069421.606    20069424.341
        49.200          45.400


 127723478.398 6                  24304974.232
        41.500
 108369877.050 7  84287673.404 7  20301327.818    20301328.508    20301331.126
        46.700          42.400


 102347585.268 8  79603724.725 7  19126100.049    19126099.740    19126105.801
        50.600          44.900
 105130431.778 6  81768144.524 7  19701393.693    19701389.803    19701399.861
        38.800          46.600
 198898791.088 7                  37849189.060
        43.200
 202027956.914 7                  38444654.633
        45.800
 125170591.780 7                  23819155.147
        45.100
 127455063.432 7                  24253889.188
        43.400
 124021777.799 8                  23600544.277
        48.600
 119794570.254 7  93173591.504 6  22402188.123    22402187.109    22402192.912
        42.400          39.800
 25  1  1  8  0 30.0000000  0 23G18G23G15E29G24E33G10G27G29R04R03E15
                                E26R18S35R17R02S31S33E07E08E13R24
 106851651.710 8  83261048.72247  20333192.118    20333191.8554   20333191.8564
        50.300          43.0004
 109925185.342 7  85656019.70846  20918067.522    20918067.3444   20918069.0924
        45.400          36.2004
 106654856.916 7  83107669.31746  20295725.275    20295724.9274   20295727.7194
        46.500          40.3004


 121081445.781 6  94349202.02341  23041036.813    23041036.5944   23041054.9674
        38.400           8.3004
 148466192.026 5                  28252177.089
        34.300
 125387723.212 6  97704609.19345  23860466.587    23860465.9304   23860468.8984
        41.700          30.3004
 125563522.839 7  97841683.42545  23893931.024    23893929.9564   23893933.7084
        42.100          30.9004
 121676219.328 4  94812640.72843  23154213.095    23154213.4164   23154217.0784
        26.500          22.0004
 127583906.849 6                  23825392.635    23825390.816
        36.600
 107405374.103 8  83537530.509 7  20064210.412    20064210.699    20064216.377
        48.800          46.800
 143176731.704 5                  27245626.191
        33.500
 127698393.677 6                  24300200.507
        40.900
 108327908.104 7  84255030.916 6  20293465.008    20293465.254    20293468.650
        46.100          41.500


 102360203.010 8  79613538.518 7  19128457.388    19128457.756    19128464.161
        51.100          44.500
 105158603.688 7  81790056.014 7  19706671.416    19706672.484    19706678.898
        43.300          45.100
 198898791.847 7                  37849188.363
        43.200
 202027929.300 7                  38444649.504
        45.600
 125146983.052 7                  23814662.070
        43.700
 127473880.943 6                  24257469.574
        41.200
 124032420.280 8                  23602569.532
        48.100
 119853222.582 6  93219209.988 6  22413156.456    22413150.428    22413161.512
        38.000          40.900
 25  1  1  8  0 45.0000000  0 24G18R01G23G15E29G24E33G10G27G29R04R03
                                E15E26R18S35R17R02S31S33E07E08E13R24
 106844623.517 8  83255572.20947  20331854.281    20331854.0224   20331855.1184
        50.300          43.4004
 123637286.442 5                  23128916.546    23128915.474
        30.100
 109908259.059 7  85642830.42545  20914847.306    20914847.0924   20914848.7104
        45.400          35.7004
 106679165.265 7  83126610.87146  20300351.356    20300351.0394   20300353.7424
        44.300          39.5004


 121036698.361 6  94314333.98943  23032522.208    23032522.0524   23032538.0564
        41.300          20.3004
 148427446.944 5                  28244805.113
        34.000
 125352830.105 6  97677419.76145  23853825.304    23853824.6474   23853830.2384
        40.900          32.2004
 125530066.495 6  97815613.57845  23887562.797    23887561.7564   23887565.9174
        39.600          30.1004
 121729792.441 6  94854398.22343  23164403.591    23164403.8104   23164412.4314
        36.800          21.6004


 107377614.717 8  83515939.914 7  20059024.727    20059024.471    20059030.408
        49.400          47.600
 143212167.437 6                  27252370.097
        37.400
 127673343.524 6                  24295433.968
        41.300
 108286051.173 7  84222475.594 6  20285622.049    20285621.795    20285626.641
        42.400          40.000


 102372999.843 8  79623491.634 7  19130849.824    19130849.949    19130854.132
        51.300          42.400
 105186886.586 7  81812053.839 7  19711975.262    19711975.850    19711977.690
        45.800          44.600
 198898791.584 7                  37849190.733
        42.700
 202027898.942 7                  38444643.713
        45.800
 125123459.595 7                  23810185.555
        42.300
 127492781.693 6                  24261065.726
        39.800
 124043126.944 7                  23604606.887
        47.100
 119911948.692 5  93264885.917 6  22424135.586    22424131.843    22424143.624
        34.000          41.700
 25  1  1  8  1  0.0000000  0 25G18R01G23G15E29G24E33G10G27G29R04R03
                                E15E26R18S35R17R02S31G13S33E07E08E13
                                R24
 106837702.533 8  83250179.24047  20330537.358    20330537.1044   20330538.2844
        50.300          42.6004
 123694474.831 4                  23139607.888    23139612.672
        29.200
 109891384.464 7  85629681.37545  20911635.377    20911635.1004   20911637.2804
        45.200          34.8004
 106703599.462 7  83145650.56346  20305002.257    20305001.9674   20305003.8364
        44.900          39.4004


 120992012.463 7  94279513.72444  23024019.215    23024019.0504   23024024.0194
        42.300          27.2004
 148388685.861 5                  28237429.717
        34.300
 125317958.527 5  97650247.04744  23847191.762    23847191.1364   23847194.9814
        35.500          26.4004
 125496724.179 6  97789632.53244  23881218.790    23881217.8694   23881219.2894
        38.300          29.2004


 127472222.377 6                  23804545.491    23804543.642
        37.100
 107349986.496 8  83494451.300 7  20053864.911    20053865.184    20053870.299
        50.900          47.600
 143247637.178 5                  27259118.101
        33.700
 127648327.694 7                  24290673.323
        44.500
 108244306.171 7  84190007.317 6  20277803.055    20277801.160    20277806.689
        43.200          41.900


 102385975.509 8  79633583.828 6  19133273.668    19133274.003    19133278.538
        50.800          41.800
 105215279.447 7  81834137.177 7  19717293.834    19717294.577    19717297.946
        46.500          44.200
 198898789.604 7                  37849189.056
        43.200
 118960831.819 5                  22637495.677
        35.000
 202027868.374 7                  38444637.980
        47.000
 125100021.027 7                  23805725.468
        42.700
 127511765.090 6                  24264678.446
        40.700
 124053897.480 8                  23606656.546
        48.000
 119970748.493 7  93310618.925 6  22435129.297    22435131.614    22435139.304
        44.500          41.100
 25  1  1  8  1 15.0000000  0 24G18G23G15E29G24E33G10G27G29R04R03E15
                                E26R18S35R17R02S31G13S33E07E08E13R24
 106830890.727 8  83244871.35146  20329241.187    20329240.9284   20329241.4824
        49.900          41.8004
 109874563.315 7  85616574.01345  20908434.122    20908433.8454   20908435.0314
        46.700          34.4004
 106728160.788 7  83164789.29446  20309676.511    20309676.2254   20309678.0324
        43.400          37.4004


 120947390.239 6  94244743.17844  23015526.543    23015526.3784   23015527.9094
        39.400          29.0004
 148349910.613 5                  28230050.865
        32.900
 125283110.257 6  97623092.52842  23840555.798    23840555.2844   23840562.2954
        38.100          17.1004
 125463497.913 6  97763741.95644  23874896.144    23874895.2734   23874896.0574
        40.100          29.3004
 121836930.353 6  94937883.43344  23184794.386    23184794.1454   23184800.9734
        39.300          25.0004
 127416483.734 6                  23794134.764    23794137.344
        36.100
 107322491.202 8  83473066.109 7  20048726.533    20048727.276    20048734.117
        50.500          46.700
 143283142.488 5                  27265883.821
        30.900
 127623348.090 7                  24285919.681
        45.700
 108202675.594 7  84157627.978 7  20270005.015    20270004.153    20270008.488
        46.800          42.800


 102399131.784 8  79643816.460 6  19135732.835    19135733.775    19135736.549
        51.100          41.700
 105243783.814 7  81856307.253 7  19722633.865    19722633.006    19722640.489
        44.700          45.100
 198898786.802 6                  37849185.246
        41.500
 119007618.331 6                  22646400.909
        37.500
 202027837.253 7                  38444632.579
        44.200
 125076669.174 7                  23801281.981
        46.700
 127530832.732 6                  24268307.528
        40.200
 124064733.700 8                  23608718.656
        48.000
 120029622.562 7  93356409.730 6  22446139.980    22446144.398    22446146.744
        42.500          38.900
 25  1  1  8  1 30.0000000  0 23G18G23G15E29G24E33G10G27G29R03E15E26
                                R18S35R17R02S31G13S33E07E08E13R24
 106824184.031 8  83239645.36846  20327965.192    20327964.9384   20327964.2254
        50.400          41.2004
 109857791.274 7  85603504.88045  20905242.490    20905242.2224   20905243.0124
        47.500          35.2004
 106752844.646 7  83184023.49145  20314373.330    20314373.0314   20314375.3784
        44.500          35.4004


 120902827.837 6  94210019.27644  23007047.453    23007047.3194   23007046.4354
        38.600          27.6004
 148311117.026 4                  28222667.705
        27.800
 125248280.932 6  97595952.76943  23833927.209    23833926.6734   23833932.0544
        37.700          18.4004
 125430383.734 6  97737938.74045  23868595.805    23868594.9784   23868594.3514
        41.400          30.1004
 121890576.105 6  94979685.34944  23195002.484    23195001.9344   23195009.9254
        41.800          25.5004
 107295124.776 8  83451781.070 7  20043616.151    20043616.167    20043619.811
        52.000          45.400
 143318678.935 4                  27272645.821
        28.500
 127598400.644 7                  24281171.583
        45.500
 108161155.353 8  84125334.457 7  20262227.756    20262228.435    20262230.181
        48.300          43.400
 200877223.228 5                  38225662.275
        33.900
 102412464.133 8  79654186.063 7  19138224.086    19138224.321    19138227.869
        49.500          42.000
 105272394.772 7  81878560.229 7  19727997.110    19727995.434    19728002.429
        44.900          44.600
 198898780.556 7                  37849183.292
        42.600
 119054482.260 5                  22655319.209
        32.400
 202027801.593 7                  38444624.642
        45.000
 125053399.887 8                  23796854.256
        48.300
 127549980.210 6                  24271950.874
        40.900
 124075631.409 8                  23610792.827
        48.400
 120088566.556 6  93402255.036 6  22457164.603    22457165.597    22457171.216
        41.300          37.800
 25  1  1  8  1 45.0000000  0 23G18G23G15E29G24E33G10G27G29R04R03E15
                                E26R18S35R17R02S31S33E07E08E13R24
 106817595.945 8  83234511.79946  20326711.326    20326711.0764   20326710.2354
        51.000          41.6004
 109841081.696 7  85590484.39845  20902062.749    20902062.4864   20902063.5864
        45.900          35.6004
 106777664.093 7  83203363.29945  20319094.861    20319094.5444   20319097.1924
        42.100          32.5004


 120858339.134 5  94175352.78644  22998582.739    22998582.5524   22998581.1624
        32.200          24.6004


 125213483.850 6  97568838.17643  23827307.513    23827307.0134   23827312.2064
        39.200          21.9004
 125397395.250 6  97712233.42745  23862317.828    23862317.0414   23862317.7814
        41.100          30.1004
 121944273.139 6  95021527.27944  23205220.245    23205219.7224   23205229.9974
        40.000          25.3004
 127305136.568 5                  23773337.217
        30.400
 107267900.331 8  83430606.503 7  20038528.412    20038529.348    20038531.999
        49.800          42.900


 127573498.785 7                  24276432.691
        45.100
 108119759.550 8  84093137.721 7  20254473.866    20254473.541    20254476.102
        48.400          45.800
 200877234.222 6                  38225654.494
        37.200
 102425986.496 8  79664703.468 7  19140750.959    19140751.691    19140756.674
        49.700          44.000
 105301125.795 7  81900906.550 7  19733382.230    19733382.138    19733385.999
        47.200          44.200
 198898782.954 6                  37849186.990
        41.500
 202027775.674 7                  38444616.476
        44.300
 125030226.534 8                  23792444.990
        48.400
 127569220.637 6                  24275611.569
        40.100
 124086603.996 8                  23612880.296
        48.700
 120147593.675 6  93448164.941 5  22468204.466    22468201.960    22468208.089
        40.700          35.600
 25  1  1  8  2  0.0000000  0 24G18G23G15E29G24E33G10G27G05G29R04R03
                                E15E26R18S35R17R02S31S33E07E08E13R24
 106811114.411 8  83229461.24446  20325477.958    20325477.7084   20325477.0824
        50.300          41.6004
 109824422.397 8  85577503.09646  20898893.468    20898893.2054   20898894.2034
        48.200          37.3004
 106802606.641 7  83222799.02145  20323842.947    20323842.6124   20323841.6914
        42.700          31.4004


 120813912.004 5  94140734.26844  22990125.612    22990125.4114   22990127.6894
        32.500          24.4004


 125178706.832 6  97541739.21343  23820689.289    23820688.7844   23820697.5634
        40.600          23.9004
 125364520.468 6  97686616.68244  23856062.946    23856062.2004   23856063.1574
        36.000          28.8004


 121998008.438 5  95063399.07143  23215446.532    23215445.9964   23215462.2234
        35.500          21.0004


 107240806.215 8  83409533.284 7  20033467.932    20033468.978    20033470.529
        50.200          42.300


 127548630.448 7                  24271701.134
        44.400
 108078476.233 7  84061028.485 7  20246738.195    20246738.770    20246743.217
        47.600          47.600


 102439686.256 7  79675358.889 7  19143310.523    19143310.510    19143317.555
        47.700          45.600
 105329963.752 8  81923336.098 7  19738786.366    19738786.939    19738790.612
        48.700          43.600
 198898781.717 7                  37849185.863
        42.700
 202027746.059 7                  38444611.857
        46.300
 125007137.048 7                  23788051.266
        47.500
 127588541.651 6                  24279288.991
        38.100
 124097639.342 8                  23614980.311
        48.800
 120206690.974 5  93494129.514 5  22479252.680    22479249.908    22479257.298
        34.200          33.300
 25  1  1  8  2 15.0000000  0 24G18G23G15E29G24E33G10G27G05G29R04R03
                                E15E26R18S35R17R02S31S33E07E08E13R24
 106804744.418 8  83224497.62547  20324266.163    20324265.9094   20324265.5274
        51.300          42.0004
 109807818.173 7  85564564.72146  20895733.579    20895733.3074   20895735.2564
        45.500          37.8004
 106827676.918 7  83242334.17945  20328612.710    20328612.3214   20328611.1014
        44.400          31.9004


 120769552.071 6  94106168.08944  22981682.359    22981682.1274   22981686.7644
        36.000          25.5004


 125143954.567 6  97514659.55944  23814076.333    23814075.7834   23814086.0594
        37.300          25.3004
 125331764.432 6  97661092.48444  23849830.604    23849829.8624   23849830.3014
        38.700          28.7004
 127302824.697 5  99197075.99141  24224917.012    24224916.1454   24224937.5764
        32.700           6.6004
 122051786.856 6  95105304.31743  23225680.784    23225680.2614   23225703.1874
        36.200          20.0004


 107213846.537 7  83388564.648 7  20028429.252    20028429.263    20028436.667
        47.000          45.000


 127523800.596 7                  24266976.658
        45.300
 108037310.781 8  84029010.867 7  20239027.177    20239027.842    20239031.198
        48.100          47.800
 200877181.442 6                  38225659.301
        38.300
 102453568.264 8  79686155.989 7  19145906.006    19145906.314    19145911.592
        50.600          44.900
 105358913.284 7  81945852.412 7  19744210.614    19744211.272    19744216.949
        46.700          45.500
 198898783.109 6                  37849185.957
        39.200
 202027717.848 7                  38444608.696
        42.900
 124984136.238 7                  23783673.543
        47.000
 127607947.889 6                  24282981.741
        40.900
 124108742.266 8                  23617093.067
        48.500


 25  1  1  8  2 30.0000000  0 23G18G23G15G24E33G10G27G05R04R03E15E26
                                R18S35R17R02S31G13S33E07E08E13R24
 106798482.478 8  83219618.19647  20323074.207    20323073.9534   20323074.2964
        51.500          42.5004
 109791265.321 8  85551666.38946  20892584.771    20892584.4904   20892585.5264
        49.100          38.5004
 106852870.827 7  83261965.81345  20333406.828    20333406.3864   20333405.0254
        43.300          32.3004
 120725255.838 5  94071651.54944  22973255.465    22973255.1934   22973257.5414
        34.400          27.1004


 125109223.601 5  97487596.46244  23807466.193    23807465.6574   23807474.8234
        34.700          24.0004
 125299123.961 5  97635658.31143  23843618.681    23843617.9214   23843617.8804
        33.000          23.0004
 127345220.990 4  99230111.96041  24232977.754    24232977.5404   24233000.1944
        28.600           6.8004


 107187018.309 8  83367698.235 7  20023421.335    20023419.887    20023423.441
        49.800          44.100


 127499005.792 7                  24262257.957
        43.300
 107996259.984 7  83997082.484 8  20231334.002    20231332.948    20231341.362
        44.200          49.000


 102467629.054 8  79697092.167 7  19148534.268    19148535.065    19148538.528
        51.200          46.300
 105387970.281 8  81968452.293 7  19749657.554    19749657.834    19749661.762
        48.700          44.200
 198898781.861 7                  37849187.169
        42.800
 119242831.275 5                  22691148.003
        33.700
 202027688.374 7                  38444603.039
        44.800
 124961220.569 7                  23779313.269
        45.600
 127627435.497 6                  24286689.618
        41.600
 124119909.186 7                  23619218.139
        47.700
 120325106.429 6  93586230.250 5  22501396.486    22501399.773    22501403.952
        41.900          33.800
 25  1  1  8  2 45.0000000  0 24G18G23G15G24E33G10G27G05G29R04R03E15
                                E26R18S35R17R02S31G13S33E07E08E13R24
 106792332.953 8  83214826.35247  20321903.875    20321903.6254   20321904.2964
        50.800          42.9004
 109774768.092 7  85538811.40746  20889444.276    20889443.9814   20889444.8374
        47.300          37.8004
 106878192.262 7  83281696.77945  20338226.255    20338225.8624   20338224.5534
        42.700          33.3004
 120681027.939 6  94037188.26444  22964839.188    22964838.8754   22964840.9594
        37.100          29.1004


 125074517.898 6  97460553.03544  23800865.797    23800865.2124   23800869.2354
        41.800          24.0004








 107160324.990 8  83346936.725 7  20018435.733    20018435.320    20018437.399
        50.700          44.900


 127474250.258 7                  24257547.389
        45.100
 107955328.470 7  83965246.815 8  20223669.178    20223668.323    20223674.291
        46.700          49.800


 102481872.555 8  79708170.452 7  19151195.147    19151195.569    19151200.699
        49.900          46.600
 105417138.525 7  81991138.802 7  19755121.551    19755120.466    19755128.428
        43.400          42.800
 198898782.097 6                  37849182.501
        40.400
 119290105.451 4                  22700146.476
        29.600
 202027659.773 7                  38444595.187
        44.800
 124938394.289 7                  23774968.909
        44.800
 127647008.502 6                  24290413.516
        40.900
 124131144.366 7                  23621356.257
        46.700
 120384424.277 6  93632366.344 5  22512486.929    22512491.020    22512495.906
        37.900          34.200
 25  1  1  8  3  0.0000000  0 24G18G23G15E29G24E33G10G27G05G29R03E15
                                E26R18S35R17R02S31G13S33E07E08E13R24
 106786291.806 8  83210118.96347  20320754.227    20320753.9774   20320754.2714
        50.500          42.3004
 109758322.132 7  85525996.41646  20886315.110    20886314.8244   20886313.7714
        47.900          36.8004
 106903636.818 6  83301523.68845  20343066.764    20343066.3934   20343068.0134
        41.700          33.1004


 120636864.714 6  94002775.38945  22956436.946    22956436.6694   22956435.7264
        39.800          31.3004


 125039833.304 7  97433526.16843  23794263.302    23794262.7124   23794269.5054
        44.400          23.8004




 122213357.387 6  95231284.70042  23256424.996    23256424.7734   23256452.6084
        36.100          12.7004
 107133762.670 8  83326277.169 7  20013473.094    20013473.098    20013475.561
        51.400          45.300


 127449529.995 7                  24252842.859
        42.600
 107914512.442 8  83933500.973 8  20216022.946    20216023.128    20216028.072
        49.900          50.100


 102496294.681 8  79719387.682 7  19153890.305    19153890.464    19153895.147
        48.100          47.100
 105446413.367 7  82013908.121 6  19760609.490    19760609.593    19760614.653
        43.400          41.400
 198898781.308 7                  37849184.218
        42.600
 119337457.002 6                  22709159.050
        36.300
 202027630.433 7                  38444589.763
        44.900
 124915653.166 7                  23770641.249
        43.700
 127666662.539 6                  24294152.330
        38.900
 124142443.657 7                  23623506.514
        45.100
 120443812.373 6  93678557.029 6  22523598.350    22523598.267    22523602.692
        41.400          37.500
 25  1  1  8  3 15.0000000  0 25G18R01G23G15E29G24E33G10G27G05G29R03
                                E15E26R18S35R17R02S31G13S33E07E08E13
                                R24
 106780358.556 8  83205495.63647  20319625.172    20319624.9224   20319624.7574
        51.100          42.2004
 124209126.930 5                  23235884.786    23235884.385
        35.700
 109741926.885 7  85513220.93846  20883195.424    20883195.1474   20883193.1244
        46.900          36.2004
 106929203.680 6  83321445.90345  20347933.341    20347932.9574   20347933.0904
        38.800          31.9004


 120592765.789 6  93968412.63745  22948043.681    22948043.4494   22948043.8864
        39.700          32.4004


 125005169.192 6  97406515.19743  23787665.082    23787664.4744   23787677.5954
        38.300          21.1004
 125201777.998 6  97559830.17544  23825116.373    23825116.0964   23825115.5184
        36.100          27.0004


 122267292.797 5  95273312.33842  23266690.668    23266690.1904   23266706.8614
        34.200          15.7004
 107107331.089 8  83305719.315 7  20008534.988    20008535.680    20008538.072
        52.400          46.200


 127424844.571 6                  24248145.131
        40.200
 107873811.726 8  83901844.860 8  20208396.796    20208397.169    20208403.767
        49.100          50.200


 102510894.713 7  79730743.243 7  19156618.126    19156618.055    19156623.812
        46.500          47.500
 105475793.970 7  82036759.721 6  19766117.178    19766117.130    19766118.514
        46.500          39.000
 198898777.325 7                  37849190.299
        42.600
 119384884.916 5                  22718185.557
        34.000
 202027597.619 7                  38444583.968
        44.900
 124892996.717 6                  23766330.965
        41.700
 127686396.787 5                  24297908.586
        35.300
 124153806.520 7                  23625668.645
        44.300
 120503269.679 7  93724801.544 6  22534717.492    22534718.606    22534725.929
        42.700          39.800
 25  1  1  8  3 30.0000000  0 24G18G23G15E29G24E33G10G27G05G29R03E15
                                E26R18S35R17R02S31G13S33E07E08E13R24
 106774539.588 8  83200961.37347  20318518.016    20318517.7484   20318517.6414
        50.900          42.6004
 109725588.508 7  85500489.76245  20880086.209    20880085.9324   20880084.3984
        47.300          35.6004
 106954898.700 6  83341467.97645  20352823.394    20352823.0284   20352822.1614
        41.700          32.5004


 120548737.842 6  93934105.19845  22939664.409    22939664.2314   22939667.5894
        36.300          32.4004


 124970531.862 5  97379524.93143  23781075.902    23781075.2544   23781098.6094
        34.300          18.3004
 125169610.549 6  97534764.57245  23818996.431    23818996.4444   23818999.1394
        38.200          30.4004


 122321270.994 5  95315373.27743  23276963.462    23276963.1544   23276969.0564
        32.200          18.4004
 107081036.093 8  83285267.690 7  20003620.487    20003622.114    20003626.039
        51.700          46.700


 127400200.284 6                  24243455.406
        37.800
 107833233.176 8  83870283.729 8  20200796.634    20200796.444    20200802.013
        49.500          49.600


 102525678.874 7  79742242.029 7  19159380.037    19159380.494    19159386.434
        46.100          47.400
 105505286.040 7  82059697.934 6  19771639.622    19771642.021    19771642.863
        46.300          37.300
 198898776.528 7                  37849187.871
        43.400
 119432395.016 5                  22727217.881
        32.500
 202027568.477 7                  38444579.116
        44.800
 124870431.179 7                  23762036.589
        42.800
 127706217.274 5                  24301681.609
        34.000
 124165239.162 7                  23627844.098
        44.700
 120562802.016 7  93771104.462 6  22545850.150    22545850.764    22545856.992
        42.900          38.800
 25  1  1  8  3 45.0000000  0 26G18R01G23G15E29G24E33G10G27G05G29R04
                                R03E15E26R18S35R17R02S31G13S33E07E08
                                E13R24
 106768829.855 8  83196512.24247  20317431.648    20317431.3854   20317431.2794
        50.600          42.6004
 124323438.429 4                  23257257.812    23257256.367
        29.100
 109709301.791 7  85487798.83145  20876986.242    20876985.9524   20876986.0294
        46.000          35.8004
 106980716.406 7  83361585.68445  20357735.434    20357735.0684   20357734.0144
        42.400          33.8004


 120504776.140 5  93899849.33945  22931299.530    22931299.3074   22931303.2314
        35.400          31.3004


 124935915.989 5  97352551.40342  23774487.038    23774486.4214   23774519.0504
        32.800          12.6004
 125137560.103 6  97509790.15745  23812897.424    23812897.2954   23812902.0414
        38.700          30.1004


 122375286.619 6  95357463.34543  23287241.402    23287241.1574   23287243.6824
        36.200          18.0004
 126861928.744 5                  23690570.282
        35.300
 107054872.717 8  83264918.420 7  19998733.115    19998734.000    19998738.046
        51.900          46.400


 127375592.127 5                  24238772.426
        35.900
 107792771.884 8  83838813.831 8  20193215.549    20193215.715    20193221.312
        49.300          48.600


 102540642.218 8  79753880.169 7  19162177.730    19162178.254    19162182.052
        48.000          47.300
 105534883.987 8  82082718.607 6  19777189.801    19777189.941    19777191.932
        49.100          37.200
 198898774.778 7                  37849182.648
        43.100
 119479981.661 5                  22736280.612
        34.100
 202027537.663 7                  38444573.352
        45.400
 124847951.420 7                  23757758.998
        42.600
 127726118.633 5                  24305468.369
        34.000
 124176736.489 7                  23630031.680
        43.800
 120622403.678 6  93817461.337 6  22556993.697    22556994.133    22557006.164
        41.100          38.100
 25  1  1  8  4  0.0000000  0 26G18R01G23G15E29G24E33G10G27G05G29R04
                                R03E15E26R18S35R17R02S31G13S33E07E08
                                E13R24
 106763233.028 8  83192151.09347  20316366.894    20316366.6264   20316366.1834
        50.700          42.7004
 124380588.011 5                  23267952.019    23267951.218
        30.200
 109693070.191 7  85475150.82545  20873897.133    20873896.8524   20873897.8914
        44.300          34.7004
 107006660.081 6  83381801.53745  20362672.160    20362671.7984   20362670.7664
        41.800          34.5004


 120460884.584 5  93865648.14545  22922945.909    22922945.7404   22922950.8974
        32.200          30.1004


 124901324.842 6  97325597.14442  23767900.987    23767900.4024   23767939.4604
        37.000          12.0004
 125105630.423 6  97484909.87344  23806821.244    23806821.1194   23806824.5564
        38.300          28.1004
 127599658.545 5                  24281411.263
        34.300
 122429342.924 5  95399585.03641  23297525.451    23297525.0044   23297529.8674
        33.400           7.9004
 126806765.741 5                  23680270.684    23680270.816
        34.200
 107028844.574 8  83244674.314 7  19993871.050    19993871.951    19993876.963
        51.900          47.700


 127351023.671 5                  24234096.238
        35.900
 107752431.868 8  83807438.231 7  20185658.810    20185659.246    20185663.487
        49.900          47.000


 102555788.003 8  79765660.184 7  19165008.668    19165007.629    19165012.781
        48.100          47.400
 105564590.972 8  82105823.912 6  19782756.252    19782757.375    19782758.633
        50.700          37.600
 198898774.271 7                  37849182.076
        42.700
 119527648.153 5                  22745344.412
        33.200
 202027508.863 7                  38444565.263
        46.600
 124825561.006 7                  23753497.754
        43.800
 127746104.194 5                  24309271.712
        32.300
 124188302.033 7                  23632232.267
        45.100
 120682077.993 6  93863874.733 5  22568154.111    22568150.272    22568163.972
        37.700          35.400
 25  1  1  8  4 15.0000000  0 24G18G23G15E29G24E33G10G27G05R04R03E15
                                E26R18S35R17R02S31G13S33E07E08E13R24
 106757747.303 8  83187876.51047  20315323.234    20315322.9534   20315322.0104
        50.200          42.5004
 109676891.782 6  85462544.24545  20870818.633    20870818.3164   20870819.7644
        40.300          31.8004
 107032727.407 7  83402113.74045  20367631.864    20367631.4934   20367631.6254
        44.700          35.9004






 124866756.795 6  97298660.77441  23761327.674    23761327.1114   23761364.9584
        36.700           8.0004
 125073819.787 6  97460122.34944  23800767.919    23800767.7234   23800770.3864
        38.100          27.8004
 127642087.491 4                  24289487.340
        29.100


 107002949.533 8  83224533.743 8  19989035.138    19989035.292    19989039.616
        52.100          48.700


 127326493.207 5                  24229428.430
        35.400
 107712211.647 8  83776155.839 7  20178124.819    20178124.888    20178128.450
        49.800          46.300


 102571114.247 8  79777580.590 8  19167872.726    19167872.360    19167877.799
        49.200          48.100
 105594404.678 8  82129012.326 6  19788343.203    19788343.643    19788345.080
        49.800          38.500
 198898773.580 6                  37849181.459
        40.900
 119575392.114 5                  22754435.626
        34.800
 202027478.819 7                  38444562.379
        44.700
 124803258.010 7                  23749254.210
        46.900
 127766171.736 5                  24313090.590
        34.800
 124199933.884 7                  23634445.506
        46.200
 120741822.883 6  93910342.937 5  22579329.378    22579326.113    22579334.308
        39.700          31.800
 25  1  1  8  4 30.0000000  0 24G18R01G23G15E29G24E33G10G27R04R03E15
                                E26R18S35R17R02S31G13S33E07E08E13R24
 106752372.124 8  83183688.05347  20314299.897    20314299.6114   20314299.4794
        50.100          42.7004
 124494869.717 4                  23289330.863    23289337.696
        28.900
 109660765.772 6  85449978.54045  20867751.874    20867751.4544   20867751.8784
        41.900          31.5004
 107058917.313 7  83422521.48146  20372615.461    20372615.0724   20372615.6154
        43.600          38.0004






 124832210.907 6  97271742.12941  23754754.811    23754754.0604   23754795.4434
        40.200          10.4004
 125042127.688 5  97435427.24144  23794737.258    23794737.0304   23794737.7874
        34.700          25.1004


 106977186.983 8  83204496.222 8  19984220.997    19984221.966    19984226.786
        52.000          48.900


 127302000.059 6                  24224769.550
        36.400
 107672110.889 8  83744966.360 7  20170612.168    20170611.901    20170615.883
        49.500          46.000
 200877219.553 6                  38225664.547
        36.900
 102586620.199 8  79789640.721 7  19170770.314    19170770.159    19170774.803
        49.900          47.500
 105624323.793 8  82152282.736 6  19793950.448    19793950.275    19793953.448
        50.000          41.200
 198898772.486 7                  37849185.148
        42.500
 119623212.527 6                  22763534.177
        39.300
 202027449.283 7                  38444555.873
        44.100
 124781041.821 7                  23745026.513
        45.700
 127786320.452 6                  24316924.573
        38.200
 124211631.381 7                  23636671.796
        47.000
 120801636.885 6  93956864.875 5  22590509.491    22590508.770    22590519.509
        36.100          32.500
 25  1  1  8  4 45.0000000  0 23G18G23G15E29G24E33G10G27R04R03E15E26
                                R18S35R17R02S31G13S33E07E08E13R24
 106747109.747 8  83179587.48947  20313298.636    20313298.3464   20313298.3994
        48.900          42.4004
 109644694.222 7  85437455.27945  20864692.297    20864691.8284   20864694.0444
        43.700          33.9004
 107085231.619 7  83443026.15346  20377622.322    20377621.9384   20377623.1484
        44.600          38.5004


 120329619.358 6  93763361.77043  22897971.104    22897970.9884   22897968.3804
        37.300          22.7004
 147805649.079 5                  28126478.655
        33.900
 124797689.195 7  97244842.52941  23748185.388    23748184.4274   23748230.8644
        42.200          11.8004
 125010556.499 5  97410826.30543  23788729.876    23788729.6314   23788726.8224
        34.400          22.6004


 106951558.978 8  83184563.348 8  19979434.370    19979434.830    19979439.011
        52.400          48.800


 127277546.600 6                  24220114.837
        39.900
 107632132.245 8  83713871.860 7  20163123.060    20163123.471    20163127.239
        49.300          46.700
 200877227.286 5                  38225681.633
        31.400
 102602308.084 8  79801842.421 7  19173701.420    19173701.559    19173705.983
        49.700          46.800
 105654350.341 8  82175636.715 6  19799576.671    19799576.931    19799580.596
        49.500          41.400
 198898772.264 7                  37849188.551
        43.300
 119671110.927 6                  22772644.945
        37.800
 202027419.894 7                  38444551.625
        45.700
 124758914.566 7                  23740816.184
        45.900
 127806552.202 6                  24320774.851
        40.900
 124223396.637 8                  23638911.564
        48.200
 120861521.812 6                  22601711.462    22601709.884
        39.300
 25  1  1  8  5  0.0000000  0 23G18G23G15E29G24E33G10G27R04R03E15E26
                                R18S35R17R02S31G13S33E07E08E13R24
 106741960.763 8  83175575.28847  20312318.228    20312317.9244   20312318.8734
        49.500          42.3004
 109628677.577 7  85424974.80145  20861644.168    20861643.6904   20861646.5044
        45.300          35.3004
 107111670.203 7  83463627.65946  20382654.801    20382654.4484   20382654.2154
        43.600          40.9004


 120286007.190 6  93729378.34744  22889670.450    22889670.3794   22889668.5884
        38.000          25.4004
 147766675.507 5                  28119063.708
        35.100
 124763192.218 6  97217962.18441  23741620.622    23741619.5364   23741670.4434
        41.400           7.8004
 124979106.927 5  97386320.16343  23782740.383    23782740.1824   23782741.9624
        34.600          22.9004


 106926065.757 8  83164735.313 8  19974671.692    19974672.611    19974676.992
        52.900          48.600


 127253133.228 6                  24215468.398
        40.800
 107592276.540 8  83682872.983 7  20155658.269    20155658.146    20155661.239
        50.900          46.800
 200877236.129 5                  38225673.159
        32.600
 102618178.184 8  79814185.800 7  19176667.108    19176667.112    19176671.388
        50.500          46.500
 105684483.978 7  82199074.009 6  19805221.623    19805221.469    19805226.793
        47.300          41.600
 198898773.093 6                  37849182.952
        41.800
 119719087.477 6                  22781775.727
        38.300
 202027392.507 7                  38444538.845
        44.700
 124736876.762 7                  23736621.408
        43.100
 127826867.283 7                  24324640.282
        42.900
 124235230.200 7                  23641163.561
        47.900
 120921477.803 6                  22612921.664    22612920.381
        38.700
 25  1  1  8  5 15.0000000  0 24G18G23G15E29G24E33G10G27G29R04R03E15
                                E26R18S35R17R02S31G13S33E07E08E13R24
 106736921.509 8  83171648.59347  20311359.317    20311359.0094   20311359.8754
        50.100          42.8004
 109612711.997 7  85412534.11046  20858605.392    20858604.9504   20858607.6384
        47.600          36.1004
 107138229.272 6  83484323.01946  20387707.908    20387707.5334   20387708.6114
        41.500          40.4004


 120242463.402 5  93695448.16443  22881384.042    22881384.2524   22881386.2404
        35.200          23.8004
 147727686.958 5                  28111643.145
        34.700
 124728716.078 7  97191097.88843  23735059.683    23735058.6194   23735112.4604
        42.600          20.2004
 124947775.268 5  97361905.88444  23776783.067    23776782.9474   23776781.8084
        35.300          25.1004


 126531766.632 5                  23628918.442    23628918.198
        35.300
 106900703.669 8  83145009.269 7  19969933.346    19969934.148    19969938.324
        52.600          47.600
 143856071.622 6                  27374899.968
        36.400
 127228756.379 7                  24210830.115
        42.700
 107552540.444 8  83651967.116 7  20148212.786    20148213.601    20148218.970
        51.300          47.000
 200877242.719 5                  38225669.358
        34.700
 102634226.625 8  79826667.900 7  19179666.002    19179666.515    19179670.617
        49.400          46.100
 105714720.702 7  82222591.489 6  19810889.330    19810888.701    19810893.716
        46.200          41.900
 198898772.386 6                  37849182.925
        41.100
 119767137.985 5                  22790919.237
        33.300
 202027362.734 7                  38444538.608
        45.300
 124714924.580 7                  23732444.127
        43.300
 127847261.648 7                  24328521.835
        43.800
 124247128.284 8                  23643427.924
        49.300
 120981500.639 6  94096735.526 5  22624149.380    22624147.601    22624152.608
        38.700          32.500
 25  1  1  8  5 30.0000000  0 23G18G23G15E29G24E33G10G27G29R03E15E26
                                R18S35R17R02S31G13S33E07E08E13R24
 106731993.074 8  83167808.23647  20310421.368    20310421.0694   20310421.9304
        51.000          42.4004
 109596798.442 7  85400133.94445  20855576.345    20855575.8984   20855578.4544
        45.400          34.1004
 107164909.557 7  83505112.83546  20392785.549    20392785.1654   20392785.9154
        42.900          40.6004


 120198989.297 5  93661572.24044  22873111.575    22873111.7274   22873117.6604
        34.300          26.0004
 147688684.492 5                  28104220.221
        34.500
 124694261.690 6  97164250.16542  23728502.948    23728502.0274   23728557.3884
        41.500          15.1004
 124916562.872 6  97337584.59044  23770846.410    23770846.3574   23770844.4644
        36.400          25.8004


 106875473.818 8  83125386.052 7  19965220.606    19965221.045    19965225.131
        51.500          47.100
 143892175.410 5                  27381768.493
        33.200
 127204417.208 7                  24206199.414
        44.200
 107512925.296 8  83621155.332 7  20140790.792    20140791.066    20140797.659
        49.000          47.000
 200877248.580 5                  38225668.321
        35.600
 102650454.390 8  79839289.462 7  19182698.180    19182699.183    19182703.509
        48.600          46.500
 105745060.887 8  82246189.385 7  19816575.228    19816575.353    19816579.813
        48.000          43.300
 198898770.057 6                  37849190.102
        39.900
 119815262.885 5                  22800079.371
        31.800
 202027330.762 7                  38444529.919
        44.800
 124693059.098 7                  23728283.263
        42.100
 127867736.099 6                  24332416.773
        41.000
 124259091.894 8                  23645704.637
        49.000


 25  1  1  8  5 45.0000000  0 24G18G23G15E29G24E33G10G27G29R04R03E15
                                E26R18S35R17R02S31G13S33E07E08E13R24
 106727180.182 8  83164057.92647  20309505.829    20309505.5344   20309505.6994
        50.900          42.5004
 109580941.383 7  85387777.80245  20852561.541    20852561.0414   20852560.4714
        43.100          33.2004
 107191715.205 7  83526000.36546  20397886.202    20397885.8274   20397886.7304
        45.400          41.6004


 120155589.629 5  93627754.30143  22864852.275    22864852.4044   22864861.4534
        35.300          22.6004
 147649672.628 5                  28096795.506
        33.100
 124659833.731 6  97137423.61241  23721955.174    23721954.2094   23722009.6984
        39.200          11.5004
 124885474.426 6  97313359.82244  23764930.757    23764930.6414   23764929.6524
        36.800          29.4004
 122808794.101 5                  23369738.738
        35.400


 106850380.588 8  83105869.135 7  19960531.439    19960532.137    19960537.717
        50.600          47.400
 143928317.306 5                  27388645.345
        30.500
 127180120.324 7                  24201575.617
        43.600
 107473436.193 8  83590441.592 7  20133394.017    20133392.999    20133399.467
        48.400          45.100
 200877256.621 6                  38225674.925
        38.000
 102666866.149 7  79852054.179 7  19185765.805    19185765.594    19185771.601
        47.600          47.000
 105775509.171 8  82269871.368 7  19822281.182    19822281.926    19822286.113
        49.000          43.500
 198898770.470 7                  37849187.531
        42.200
 119863415.537 5                  22809249.573
        33.300
 202027302.936 7                  38444524.316
        44.100
 124671284.874 7                  23724140.126
        44.100
 127888295.001 6                  24336329.967
        41.900
 124271125.635 8                  23647994.669
        49.900
                  94190264.986 6                                  22646646.059
                        37.200
 25  1  1  8  6  0.0000000  0 24G18G23G15E29G24E33G10G27G29R04R03E15
                                E26R18S35R17R02S31G13S33E07E08E13R24
 106722475.426 8  83160391.87847  20308611.038    20308610.7664   20308610.6684
        52.100          43.4004
 109565133.295 7  85375459.81245  20849553.128    20849552.6414   20849552.1554
        46.300          35.1004
 107218638.302 7  83546979.39747  20403009.144    20403008.7474   20403010.3514
        44.400          42.2004
 143992828.028 5                  27400924.779
        35.500
 120112257.458 5  93593988.98343  22856603.913    22856604.0384   22856616.0404
        35.000          20.2004
 147610643.883 5                  28089368.082
        30.400
 124625424.504 5  97110611.20241  23715402.729    23715401.7374   23715464.7454
        30.500           6.8004
 124854502.730 6  97289226.04945  23759034.533    23759034.3864   23759035.6294
        36.000          30.8004
 122863143.234 6  95737541.70943  23380086.336    23380085.8404   23380085.5854
        39.200          19.4004
 126367464.883 5  98285787.253 5  23598244.157    23598244.365    23598227.038
        33.500          34.200
 106825416.239 8  83086452.390 7  19955867.768    19955868.758    19955874.293
        51.100          47.100
 143964489.676 5                  27395528.098
        30.800
 127155858.346 7                  24196959.073
        44.900
 107434065.927 8  83559820.333 7  20126017.965    20126017.424    20126021.585
        49.500          44.000
 200877260.710 6                  38225678.185
        36.900
 102683453.933 8  79864955.784 7  19188864.542    19188865.515    19188870.887
        48.500          46.500
 105806057.057 8  82293630.793 7  19828005.170    19828006.390    19828010.725
        48.900          42.800
 198898767.231 7                  37849182.769
        43.200
 119911689.905 5                  22818437.447
        33.900
 202027271.003 7                  38444520.779
        43.900
 124649594.389 7                  23720012.333
        43.700
 127908930.606 6                  24340256.089
        41.900
 124283221.995 8                  23650296.334
        50.500


 25  1  1  8  6 15.0000000  0 25G18G23G15E29G24E33G10G27G05G29R04R03
                                E15E26R18S35R17R02S31G13S33E07E08E13
                                R24
 106717882.908 8  83156813.30447  20307736.743    20307736.4844   20307737.1504
        51.700          43.4004
 109549378.081 8  85363183.01946  20846553.778    20846553.3054   20846554.0894
        48.800          37.7004
 107245682.598 7  83568052.87546  20408156.659    20408156.2754   20408156.6614
        43.500          41.4004
 143948012.448 5                  27392391.277
        34.200
 120068997.048 6  93560279.60342  22848374.648    22848374.7774   22848381.8924
        37.200          17.5004
 147571602.439 4                  28081939.590
        27.700


 124823651.826 6  97265186.38045  23753163.055    23753162.9034   23753164.0844
        36.500          30.7004
 127981696.132 5                  24354103.573
        33.300


 126312787.622 5  98243260.356 5  23588024.404    23588024.615    23588016.338
        35.400          35.700
 106800585.023 8  83067139.231 7  19951229.865    19951231.391    19951235.392
        51.500          47.200
 144000696.221 5                  27402418.410
        30.700
 127131635.381 7                  24192349.517
        45.400
 107394819.063 8  83529295.025 7  20118665.082    20118665.473    20118670.426
        48.900          44.400
 200877264.575 5                  38225693.804
        34.400
 102700221.728 8  79877997.402 7  19191998.387    19191997.507    19192004.135
        48.300          46.600
 105836708.251 7  82317470.619 6  19833748.996    19833748.928    19833753.397
        46.500          41.600
 198898763.354 6                  37849189.704
        41.600
 119960038.588 5                  22827641.531
        34.600
 202027237.514 7                  38444516.536
        43.800
 124627991.660 7                  23715902.151
        44.500
 127929646.621 6                  24344198.108
        38.800
 124295384.962 8                  23652610.411
        49.600
                  94284001.808 5                                  22669182.267
                        35.100
 25  1  1  8  6 30.0000000  0 24G18G23G15E29G24E33G10G27G05R04R03E15
                                E26R18S35R17R02S31G13S33E07E08E13R24
 106713411.079 8  83153328.77547  20306885.634    20306885.3714   20306886.0884
        49.900          42.7004
 109533684.002 7  85350953.87346  20843566.157    20843565.6884   20843567.6624
        47.700          36.8004
 107272855.982 7  83589226.96746  20413325.766    20413325.3824   20413327.2124
        43.500          39.6004
 143903226.268 5                  27383863.102
        31.000
 120025817.194 6  93526633.00643  22840157.597    22840157.7044   22840158.2114
        40.300          21.9004
 147532556.469 5                  28074510.747
        32.000


 124792930.378 5  97241247.59044  23747316.320    23747316.1334   23747317.8364
        33.600          29.2004
 128024167.953 4  99759016.8704   24362183.312    24362183.5404   24362170.5864
        26.300           5.3004
 126258173.695 6  98200782.805 5  23577820.464    23577821.861    23577817.529
        38.100          35.800
 106775895.314 8  83047936.131 7  19946618.854    19946619.247    19946623.173
        51.800          47.400


 127107459.874 7                  24187748.833
        46.400
 107355704.365 8  83498872.502 7  20111339.121    20111337.901    20111342.720
        49.500          44.400


 102717178.167 8  79891185.704 7  19195167.579    19195167.780    19195172.289
        51.600          45.000
 105867470.789 7  82341397.053 6  19839512.986    19839512.067    19839517.672
        45.000          41.300
 198898766.782 7                  37849186.145
        42.400
 120008469.478 5                  22836851.660
        31.000
 202027212.703 7                  38444510.029
        42.600
 124606485.047 7                  23711809.718
        45.100
 127950451.275 6                  24348157.591
        38.300
 124307622.892 7                  23654938.156
        46.700
 121282620.967 6  94330954.923 5  22680465.651    22680467.629    22680468.652
        39.900          30.300
 25  1  1  8  6 45.0000000  0 24G18G23G15E29G24E33G10G27G05R04R03E15
                                E26R18S35R17R02S31G13S33E07E08E13R24
 106709047.583 7  83149928.66346  20306055.385    20306055.1444   20306055.2304
        47.600          39.4004
 109518038.559 7  85338762.62946  20840589.962    20840589.5114   20840590.2104
        46.900          36.0004
 107300145.706 6  83610491.68846  20418518.803    20418518.4594   20418520.3004
        41.500          38.9004
 143858457.300 4                  27375344.205
        28.600
 119982705.830 7  93493039.75644  22831953.343    22831953.3924   22831952.8514
        42.900          26.7004
 147493493.684 5                  28067076.419
        34.900
 124522186.703 6                  23695788.538
        36.200
 124762325.941 6  97217399.99944  23741494.355    23741494.1544   23741493.6464
        38.500          28.3004
 128066639.284 4  99792111.2614   24370267.321    24370267.7414   24370256.4164
        28.900           4.3004
 126203610.561 6  98158344.886 5  23567635.258    23567636.243    23567626.839
        37.100          32.800
 106751334.219 8  83028833.060 8  19942030.378    19942031.564    19942035.480
        51.600          48.200


 127083319.405 7                  24183155.524
        46.700
 107316709.580 8  83468543.214 7  20104034.494    20104033.157    20104038.078
        48.300          45.900
 200877294.199 5                  38225676.960
        33.000
 102734310.531 8  79904510.875 7  19198369.117    19198369.971    19198373.716
        53.200          45.500
 105898331.692 7  82365399.967 6  19845297.055    19845296.737    19845300.580
        46.700          40.400
 198898766.704 6                  37849178.856
        41.700
 120056969.797 4                  22846085.476
        29.600
 202027183.200 7                  38444506.300
        43.800
 124585062.057 7                  23707732.518
        43.200
 127971331.756 6                  24352130.386
        38.700
 124319923.321 7                  23657278.852
        45.600
                                                  22691775.482

 25  1  1  8  7  0.0000000  0 26G18G23G15E29G24E33G10G27G05R19G29R04
                                R03E15E26R18S35R17R02S31G13S33E07E08
                                E13R24
 106704796.444 7  83146616.08646  20305246.133    20305245.8834   20305246.3584
        45.700          38.5004
 109502445.600 7  85326612.29245  20837623.308    20837622.8794   20837622.1394
        45.000          34.5004
 107327555.363 7  83631849.86146  20423734.731    20423734.4184   20423736.2064
        43.100          38.9004
 143813709.303 4                  27366832.311
        29.400
 119939667.167 6  93459503.16445  22823762.933    22823762.9594   22823764.4874
        41.100          31.7004
 147454417.906 6                  28059641.874
        37.700
 124487871.526 7  97003805.52242  23689259.017    23689259.1064   23689319.8444
        42.500          16.8004
 124731842.722 6  97193646.81944  23735692.104    23735691.9124   23735692.5704
        37.200          27.3004
 128109114.011 4  99825208.2734   24378353.299    24378353.3164   24378342.1024
        27.200           3.2004
 126383225.120 5                  23626012.432
        30.400
 123080895.662 6  95907227.13242  23421516.362    23421516.9614   23421524.2814
        38.700          14.4004
 126149102.558 5  98115949.633 5  23557458.527    23557457.408    23557449.726
        34.700          33.600
 106726905.811 8  83009833.185 8  19937467.210    19937468.523    19937472.739
        51.700          48.400


 127059218.051 7                  24178569.738
        47.500
 107277839.087 8  83438310.592 7  20096753.598    20096753.422    20096756.238
        50.800          45.400
 200877300.397 5                  38225675.252
        30.800
 102751622.473 8  79917975.683 7  19201604.982    19201605.553    19201610.254
        53.500          46.200
 105929294.398 8  82389482.043 6  19851100.080    19851100.755    19851103.011
        48.100          40.100
 198898764.923 7                  37849187.607
        45.000
 120105542.765 4                  22855326.884
        28.800
 202027152.611 7                  38444497.589
        44.300
 124563726.682 7                  23703672.184
        42.000
 127992291.809 6                  24356117.415
        38.300
 124332290.151 7                  23659632.544
        44.500
                                                  22703083.786

 25  1  1  8  7 15.0000000  0 24G18G23G15E29G24E33G10G27R19G29R04R03
                                E15E26R18S35R17R02S31S33E07E08E13R24
 106700658.870 7  83143391.99246  20304458.951    20304458.7194   20304459.3934
        45.400          38.2004
 109486906.122 7  85314503.60345  20834666.195    20834665.7534   20834664.6974
        45.800          33.0004
 107355085.705 7  83653302.08146  20428973.784    20428973.4714   20428975.1684
        44.100          40.0004
 143768983.573 4                  27358321.392
        26.900
 119896702.728 6  93426024.42345  22815587.577    22815587.5994   22815590.8844
        39.900          31.9004
 147415330.389 6                  28052203.429
        36.200
 124453579.620 7  96977084.14642  23682733.152    23682732.9744   23682790.2104
        42.400          14.3004
 124701482.078 6  97169989.12643  23729916.168    23729915.8694   23729914.2004
        36.100          23.0004
 126320663.233 4                  23614319.259
        26.200
 123135420.064 6  95949713.78143  23431893.742    23431894.1314   23431894.9534
        41.200          19.1004
 126094650.884 4                  23547287.288    23547283.250
        27.300
 106702611.239 8  82990937.438 7  19932927.490    19932929.786    19932933.314
        50.500          47.200


 127035156.983 7                  24173990.604
        47.700
 107239094.437 8  83408175.901 7  20089494.415    20089494.343    20089498.280
        52.200          45.500
 200877306.423 5                  38225698.222
        32.100
 102769115.036 8  79931580.984 7  19204873.264    19204873.513    19204877.718
        52.800          46.400
 105960359.701 8  82413643.944 6  19856921.556    19856922.352    19856924.572
        48.800          40.100
 198898763.564 7                  37849179.934
        43.400
 202027122.086 7                  38444492.917
        45.100
 124542479.950 6                  23699629.596
        40.900
 128013332.299 6                  24360121.772
        38.000
 124344724.481 7                  23661998.354
        45.000


 25  1  1  8  7 30.0000000  0 24G18G23G15E29G24E33G10G27R19G29R04R03
                                E15E26R18S35R17R02S31S33E07E08E13R24
 106696635.184 7  83140256.64346  20303693.035    20303692.8074   20303693.8204
        46.400          37.9004
 109471420.342 7  85302436.76145  20831719.265    20831718.8234   20831717.5314
        45.600          32.3004
 107382736.444 7  83674848.12146  20434236.804    20434236.4784   20434237.1904
        45.800          40.6004
 143724280.538 4                  27349814.603
        28.900
 119853813.069 6  93392603.88745  22807426.287    22807426.2834   22807430.1514
        38.100          32.3004
 147376231.401 5                  28044762.910
        34.400
 124419311.174 6  96950381.26741  23676212.353    23676212.2194   23676265.4154
        40.600          10.9004
 124671244.341 6  97146427.20343  23724160.465    23724160.0544   23724159.2044
        37.300          22.0004
                  98200775.333 5                                  23602628.717
                        35.500
 123189978.580 7  95992226.87843  23442280.007    23442279.9634   23442271.0804
        42.900          23.7004


 106678450.507 8  82972145.805 7  19928412.149    19928414.342    19928419.756
        48.400          46.500


 127011136.593 7                  24169419.630
        46.600
 107200476.303 8  83378139.610 7  20082259.701    20082260.004    20082263.633
        51.300          45.700
 200877313.294 5                  38225690.540
        33.400
 102786788.490 8  79945326.980 7  19208175.969    19208175.869    19208180.838
        52.200          47.000
 105991527.193 7  82437885.303 6  19862761.008    19862761.535    19862766.054
        47.300          40.400
 198898763.091 7                  37849182.004
        44.200
 202027092.189 7                  38444488.262
        45.000
 124521322.162 6                  23695601.551
        40.300
 128034453.235 6                  24364141.149
        38.800
 124357226.548 7                  23664378.028
        44.700
 121524742.439 6                  22725739.901    22725739.530
        40.200
 25  1  1  8  7 45.0000000  0 25G18R01G23G15E29G24E33G10G27R19G29R04
                                R03E15E26R18S35R17R02S31S33E07E08E13
                                R24
 106692726.662 7  83137211.02946  20302949.633    20302949.3834   20302949.9384
        47.400          38.4004
 125237082.315 6                  23428186.555    23428186.272
        36.100
 109455989.339 7  85290412.60045  20828782.601    20828782.1594   20828781.1874
        45.500          32.0004
 107410508.372 7  83696488.55746  20439521.815    20439521.4714   20439522.4654
        44.500          40.6004
 143679601.521 4                  27341305.458
        27.900
 119810999.712 6  93359242.81045  22799280.325    22799280.3254   22799283.0154
        40.000          33.5004
 147337122.075 5                  28037320.761
        30.500
 124385067.322 6  96923697.46241  23669692.573    23669692.3814   23669744.5914
        36.600          10.9004
 124641130.903 5  97122962.15643  23718428.995    23718428.5134   23718428.7534
        34.800          22.5004
                  98152134.586 5                                  23590938.881
                        35.400
 123244571.676 7  96034766.93244  23452668.584    23452668.1824   23452658.9104
        43.300          27.2004
                  97989087.345 5                                  23526988.161
                        33.300
 106654424.739 7  82953459.154 7  19923925.073    19923925.897    19923931.508
        47.100          46.200


 126987158.099 7                  24164856.522
        46.000
 107161986.271 8  83348202.948 7  20075048.399    20075049.070    20075054.121
        50.800          45.800
 200877321.264 5                  38225689.239
        34.200
 102804643.956 8  79959214.528 7  19211512.740    19211513.336    19211518.015
        52.600          47.500
 106022797.662 8  82462206.786 6  19868622.664    19868623.072    19868625.292
        49.600          39.600
 198898763.647 6                  37849182.872
        41.400
 202027063.447 7                  38444481.398
        44.900
 124500254.414 6                  23691593.255
        39.100
 128055655.490 6                  24368176.208
        41.200
 124369797.576 7                  23666770.164
        44.600
 121585439.381 7                  22737094.734    22737095.605
        44.600
 25  1  1  8  8  0.0000000  0 24G18G23G15E29G24E33G10G27R19G29R04R03
                                E15E26R18S35R17R02S31S33E07E08E13R24
 106688932.203 7  83134254.30246  20302227.394    20302227.1264   20302227.7894
        47.900          39.0004
 109440611.867 7  85278430.15345  20825856.779    20825856.3414   20825855.5884
        46.600          33.8004
 107438400.056 7  83718222.30646  20444829.246    20444828.9294   20444829.4584
        45.000          38.9004
 143634945.066 5                  27332809.546
        30.700
 119768261.845 6  93325940.58246  22791147.587    22791147.5744   22791150.4444
        41.300          36.8004
 147298001.239 4                  28029876.194
        29.700
 124350846.705 6  96897032.42242  23663180.983    23663180.6934   23663231.7044
        36.900          12.8004
 124611140.651 6  97099593.16944  23712724.019    23712723.5234   23712720.0204
        41.700          24.2004
                  98103503.085 5                                  23579247.962
                        32.100
 123299197.700 6  96077332.65644  23463064.011    23463063.5154   23463055.8754
        41.800          27.5004
 125931574.801 5  97946869.335 5  23516829.366    23516832.225    23516841.218
        33.300          35.700
 106630532.929 8  82934876.583 7  19919463.606    19919464.711    19919469.348
        50.000          47.200


 126963220.361 7                  24160302.559
        47.500
 107123623.516 8  83318365.244 7  20067861.922    20067862.408    20067866.310
        50.400          45.300
 200877329.149 4                  38225672.980
        29.800
 102822679.968 8  79973242.547 7  19214883.239    19214883.817    19214888.536
        51.900          47.300
 106054169.591 8  82486607.170 6  19874502.643    19874502.854    19874503.817
        50.400          38.500
 198898764.588 6                  37849184.003
        40.800
 202027035.175 7                  38444478.849
        43.200
 124479275.562 6                  23687601.628
        36.700
 128076937.673 6                  24372226.567
        41.600
 124382436.282 7                  23669175.533
        44.300
 121646201.875 7                  22748453.725    22748454.885
        42.900
 25  1  1  8  8 15.0000000  0 23G18G23G15E29G24E33G10G27R19G29R03E15
                                E26R18S35R17R02S31S33E07E08E13R24
 106685250.680 8  83131385.57446  20301526.946    20301526.6874   20301527.0594
        49.400          40.8004
 109425286.626 8  85266488.42345  20822940.166    20822939.7464   20822940.0454
        48.200          34.8004
 107466410.201 7  83740048.36946  20450159.248    20450158.9134   20450158.5994
        47.700          37.7004
 143590310.366 5                  27324317.475
        32.400
 119725598.657 6  93292696.54545  22783027.609    22783027.5834   22783031.6814
        39.600          35.7004


 124316647.935 7  96870383.79542  23656673.914    23656673.8164   23656724.3894
        42.800          17.0004
 124581272.668 6  97076319.43544  23707039.180    23707038.7114   23707036.6244
        40.300          24.8004
                  98054880.067 5                                  23567561.341
                        31.300
 123353855.213 6  96119922.83044  23473470.123    23473469.6764   23473458.7074
        39.900          24.3004
 106606773.667 8  82916397.163 7  19915026.318    19915027.333    19915030.543
        51.100          47.900


 126939322.354 7                  24155754.591
        47.400
 107085387.198 8  83288625.869 7  20060698.697    20060699.714    20060703.334
        50.800          45.300


 102840895.272 8  79987409.970 7  19218288.204    19218287.571    19218292.644
        51.100          47.400
 106085641.222 8  82511085.102 6  19880401.405    19880401.380    19880401.131
        51.000          38.600
 198898764.732 6                  37849186.302
        39.900
 202027006.953 7                  38444475.008
        45.900
 124458384.360 6                  23683625.198
        38.100
 128098298.360 7                  24376292.056
        43.900
 124395141.506 7                  23671593.085
        43.100
                                                  22759831.659

 25  1  1  8  8 30.0000000  0 24G18G23G15E29G24E33G10G27R19G29R04R03
                                E15E26R18S35R17R02S31S33E07E08E13R24
 106681677.698 8  83128601.40146  20300846.809    20300846.5554   20300847.2214
        49.300          40.8004
 109410009.023 7  85254583.79645  20820032.375    20820031.9424   20820032.8914
        46.100          34.1004
 107494533.841 7  83761962.86646  20455510.949    20455510.5784   20455509.4054
        45.700          37.0004
 143545692.883 5                  27315827.597
        32.300
 119683005.917 6  93259507.44645  22774922.945    22774922.9194   22774926.1864
        37.300          33.8004


 124282466.612 7  96843748.94741  23650169.393    23650169.3854   23650221.7784
        43.400          11.8004
 124551522.461 7  97053137.45545  23701378.481    23701378.0164   23701377.8124
        43.500          30.5004
                  98006262.030 5                                  23555876.933
                        30.100
 123408539.322 6  96162533.65144  23483875.927    23483875.5794   23483865.1564
        37.400          25.1004
 125823172.087 6  97862543.413 5  23496595.810    23496605.789    23496610.985
        38.700          31.000
 106583141.778 8  82898016.826 7  19910610.522    19910611.055    19910615.499
        49.300          46.900


 126915459.661 7                  24151212.635
        45.500
 107047273.139 7  83258981.612 8  20053556.838    20053556.494    20053565.171
        46.800          48.000


 102859285.192 8  80001713.289 8  19221724.086    19221723.401    19221729.891
        49.500          48.300
 106117207.297 8  82535636.501 6  19886315.492    19886315.503    19886317.897
        50.400          40.800
 198898759.294 6                  37849179.688
        41.900
 202026971.285 7                  38444461.647
        42.900
 124437576.255 6                  23679666.622
        39.200
 128119732.719 7                  24380370.591
        45.000
 124407908.683 7                  23674022.134
        43.400


 25  1  1  8  8 45.0000000  0 25G18G23G15E29G24E33G10G27G05R19G29R04
                                R03E15E26R18S35R17R02S31S33E07E08E13
                                R24
 106678226.317 8  83125911.98746  20300189.567    20300189.3134   20300190.3534
        49.000          40.7004
 109394791.969 7  85242726.34945  20817136.748    20817136.3464   20817137.1584
        47.300          34.6004
 107522783.559 7  83783975.58246  20460886.565    20460886.1814   20460884.6714
        45.700          36.9004
 143501105.849 5                  27307349.932
        35.000
 119640496.944 6  93226383.63345  22766834.902    22766834.8854   22766836.3364
        39.200          34.0004


 124248315.500 7  96817137.29142  23643672.376    23643672.2514   23643721.2774
        46.100          16.5004
 124521903.316 7  97030057.63645  23695741.361    23695740.9104   23695743.9534
        44.600          32.9004
 128406530.446 5                  24434949.611
        32.100
 125945590.329 4                  23544195.941
        29.100
 123463262.262 6  96205174.68344  23494284.245    23494283.9464   23494278.7074
        36.100          25.0004
 125769064.055 5                  23486504.382
        35.400
 106559650.857 8  82879746.128 7  19906221.909    19906222.824    19906226.995
        48.800          46.500


 126891645.258 7                  24146680.944
        47.300
 107009294.933 8  83229442.989 8  20046443.792    20046443.958    20046450.909
        48.100          48.600
 200877358.145 6                  38225691.703
        37.500
 102877862.830 8  80016162.589 7  19225194.566    19225195.437    19225201.001
        48.900          46.700
 106148880.826 8  82560271.462 6  19892251.152    19892251.412    19892255.148
        50.300          41.500
 198898760.817 6                  37849179.035
        41.100
 202026943.737 7                  38444453.821
        43.600
 124416864.320 6                  23675724.250
        41.800
 128141253.554 7                  24384465.214
        42.600
 124420750.853 7                  23676467.223
        43.800
 121828871.430 5  94755840.040 5  22782617.652    22782616.302    22782624.001
        31.800          34.100
 25  1  1  8  9  0.0000000  0 24G18G23G15E29G24E33G10G27G05G29R04R03
                                E15E26R18S35R17R02S31S33E07E08E13R24
 106674884.693 8  83123308.12846  20299554.038    20299553.7704   20299554.3454
        48.000          40.6004
 109379623.475 7  85230906.74145  20814250.134    20814249.7684   20814251.2084
        47.500          35.9004
 107551146.931 7  83806076.90146  20466284.451    20466284.0494   20466283.3064
        46.600          38.5004
 143456537.128 6                  27298869.107
        36.900
 119598060.251 6  93193316.10645  22758758.076    22758757.9604   22758760.8774
        38.900          34.4004


 124214182.735 7  96790540.28044  23637176.563    23637176.4474   23637217.2584
        44.900          25.3004
 124492403.456 7  97007070.69145  23690128.441    23690128.0124   23690130.2154
        44.300          32.4004
 128449034.462 5                  24443038.673
        35.200
 123518011.119 5  96247836.13643  23504698.919    23504698.7054   23504697.3554
        35.000          22.5004
 125715008.965 6  97778443.259 5  23476398.686    23476397.610    23476408.494
        38.100          34.300
 106536288.937 8  82861575.763 7  19901856.958    19901858.422    19901863.228
        49.900          46.500


 126867867.393 7                  24142155.710
        46.000
 106971440.777 8  83200000.816 8  20039352.255    20039352.452    20039359.175
        48.800          48.900


 102896615.843 8  80030748.242 7  19228698.070    19228699.669    19228705.358
        48.900          46.900
 106180649.210 8  82584980.184 7  19898203.517    19898203.428    19898209.605
        50.000          43.300
 198898758.311 7                  37849179.768
        43.200
 202026911.334 7                  38444451.085
        44.800
 124396236.537 6                  23671798.957
        41.700
 128162848.679 7                  24388574.596
        43.200
 124433656.060 7                  23678923.378
        45.200
 121889888.110 5  94803297.225 5  22794026.399    22794023.671    22794035.890
        31.000          33.200
 25  1  1  8  9 15.0000000  0 24G18G23G15E29G24E33G10G27G05G29R04R03
                                E15E26R18S35R17R02S31S33E07E08E13R24
 106671663.666 8  83120798.23146  20298941.488    20298941.2024   20298941.1344
        48.900          40.9004
 109364514.210 7  85219133.29145  20811375.010    20811374.6624   20811376.6754
        42.600          32.8004
 107579634.280 7  83828274.82246  20471705.429    20471705.0274   20471704.3164
        45.300          36.2004
 143411997.893 5                  27290397.786
        32.700
 119555706.914 6  93160313.53245  22750699.923    22750699.7494   22750701.7344
        37.900          34.9004


 124180078.891 7  96763965.89743  23630686.758    23630686.6564   23630725.9874
        43.600          21.2004
 124463033.765 7  96984185.21945  23684539.800    23684539.3854   23684540.1464
        44.300          32.0004
 128491548.078 5 100123261.04841  24451126.663    24451126.7254   24451122.0034
        32.200           7.5004
 123572797.181 5  96290526.51742  23515121.584    23515121.3884   23515120.5514
        34.600          14.5004
 125661017.566 6  97736449.955 5  23466316.451    23466315.836    23466320.692
        36.900          34.300
 106513066.467 8  82843513.815 7  19897518.771    19897518.538    19897525.129
        48.000          45.700


 126844136.888 7                  24137640.437
        46.400
 106933722.165 8  83170664.077 8  20032287.071    20032286.702    20032292.983
        49.000          48.500


 102915555.069 8  80045478.727 7  19232239.243    19232239.969    19232243.015
        49.700          45.500
 106212522.889 8  82609770.804 6  19904177.904    19904177.489    19904181.207
        50.400          41.600
 198898761.385 7                  37849178.499
        42.800
 202026886.065 7                  38444446.215
        44.600
 124375703.636 7                  23667892.302
        43.700
 128184528.612 7                  24392699.970
        42.100
 124446635.012 8                  23681392.710
        48.300
 121950974.390 5  94850808.583 6  22805466.465    22805447.007    22805461.293
        30.700          36.500
 25  1  1  8  9 30.0000000  0 23G18G23G15E29G24E33G10G27G29R04R03E15
                                E26R18S35R17R02S31S33E07E08E13R24
 106668548.412 8  83118370.75846  20298348.797    20298348.5114   20298347.9734
        49.800          41.6004
 109349449.185 7  85207394.30845  20808509.799    20808509.4464   20808510.3164
        44.500          32.3004
 107608230.499 7  83850557.62246  20477148.441    20477148.0444   20477147.3904
        45.200          38.6004
 143367473.194 4                  27281925.831
        29.500
 119513422.560 5  93127364.61244  22742647.578    22742647.3954   22742656.3104
        32.700          28.9004


 124145988.990 7  96737402.17442  23624199.225    23624198.9534   23624241.4184
        43.800          16.5004
 124433779.564 7  96961389.73045  23678973.782    23678973.3534   23678972.9584
        44.600          32.6004
 123627604.957 5  96333233.70442  23525560.676    23525560.3464   23525548.9654
        32.800          13.2004
 125607075.099 6  97694494.686 5  23456268.548    23456261.245    23456245.219
        36.000          33.900
 106489968.073 7  82825548.388 7  19893205.433    19893204.290    19893208.618
        46.200          43.600


 126820438.930 7                  24133131.391
        47.100
 106896124.186 8  83141421.219 7  20025243.541    20025242.613    20025249.453
        48.400          47.900
 200877366.706 6                  38225700.588
        38.100
 102934665.375 8  80060342.296 7  19235810.911    19235810.917    19235814.701
        48.800          45.600
 106244486.324 8  82634631.226 7  19910166.079    19910166.034    19910171.893
        50.400          42.800
 198898755.844 7                  37849190.921
        42.100
 202026850.397 7                  38444441.265
        44.100
 124355250.732 7                  23664000.817
        44.400
 128206278.182 6                  24396839.548
        40.300
 124459672.814 7                  23683873.842
        47.400
 122012114.199 6  94898361.734 5  22816882.433    22816883.137    22816894.051
        38.900          34.900
 25  1  1  8  9 45.0000000  0 25G18R01G23G15E29G24E33G10G27G29R04R03
                                E15E26R18S35R17R02S31G13S33E07E08E13
                                R24
 106665557.118 8  83116039.88646  20297779.492    20297779.2114   20297778.7174
        49.900          41.7004
 125693064.541 4                  23513476.352
        26.800
 109334446.423 7  85195703.86045  20805653.253    20805652.8824   20805655.0374
        45.700          32.9004
 107636953.249 7  83872938.97046  20482612.625    20482612.2194   20482614.3874
        47.600          38.7004
 143322981.072 5                  27273448.119
        32.700




 124111931.072 6  96710863.78943  23617717.650    23617717.3554   23617759.3814
        39.500          20.7004
 124404659.022 7  96938698.42945  23673433.321    23673432.8794   23673431.1424
        43.200          31.5004
 123682451.896 5  96375971.43141  23535998.111    23535997.7544   23535984.6594
        34.900           9.0004
 125553228.869 6  97652591.790 5  23446183.384    23446186.675    23446185.030
        36.200          33.600
 106467012.650 8  82807694.143 7  19888918.529    19888919.076    19888921.150
        48.500          44.300


 126796791.678 7                  24128631.430
        45.700
 106858665.616 8  83112286.794 7  20018226.744    20018226.503    20018231.827
        50.400          46.600
 200877376.807 5                  38225699.483
        34.300
 102953964.798 8  80075352.968 7  19239418.496    19239417.974    19239421.968
        50.900          46.700
 106276557.306 8  82659575.318 6  19916177.421    19916177.477    19916180.180
        50.800          41.900
 198898759.155 6                  37849185.644
        41.500
 120644634.553 5                  22957905.060
        33.300
 202026824.219 7                  38444433.068
        43.700
 124334895.870 7                  23660126.857
        44.700
 128228115.198 6                  24400994.597
        40.800
 124472787.556 8                  23686369.277
        48.700
 122073326.558 6  94945971.286 5  22828329.596    22828329.311    22828344.271
        36.900          30.500
 25  1  1  8 10  0.0000000  0 24G18R01G23G15E29G24E33G10G27G29R04R03
                                E15E26R18S35R17R02S31S33E07E08E13R24
 106662674.084 8  83113793.37847  20297231.639    20297231.3624   20297230.2284
        49.800          42.2004
 125750010.932 5                  23524139.256
        30.000
 109319490.055 7  85184049.54945  20802807.166    20802806.8134   20802807.1644
        46.900          32.8004
 107665786.473 7  83895406.42146  20488099.075    20488098.6694   20488101.3184
        47.100          39.5004
 143278505.998 5                  27264985.721
        33.200
 119429104.980 6  93061666.60645  22726605.454    22726605.6644   22726609.3834
        37.800          34.0004


 124077889.264 6  96684337.65643  23611240.945    23611240.6324   23611276.6784
        39.500          19.0004
 124375656.563 7  96916099.13645  23667913.342    23667912.8824   23667912.7714
        43.000          30.4004
 123737321.519 5  96418726.86641  23546440.053    23546439.8304   23546424.5744
        34.500           8.4004
                  97610728.920 5                                  23436132.608
                        33.300
 106444183.679 7  82789938.317 7  19884651.191    19884652.146    19884656.425
        47.300          45.300


 126773179.493 7                  24124138.413
        46.400
 106821330.910 8  83083248.682 7  20011233.043    20011233.490    20011237.964
        50.900          46.100
 200877379.756 5                  38225684.459
        30.500
 102973437.203 8  80090498.166 7  19243056.124    19243057.414    19243061.449
        51.700          47.500
 106308719.351 8  82684590.229 7  19922204.532    19922205.086    19922208.813
        51.300          43.700
 198898755.578 6                  37849178.579
        40.500
 202026791.204 7                  38444430.408
        44.600
 124314623.248 7                  23656269.128
        43.600
 128250023.660 6                  24405163.892
        37.300
 124485963.391 8                  23688876.646
        48.600
 122134594.209 6                  22839786.197    22839786.869
        40.600
 25  1  1  8 10 15.0000000  0 24G18R01G23G15E29G24E33G10G27G29R04R03
                                E15E26R18S35R17R02S31S33E07E08E13R24
 106659908.067 8  83111638.05047  20296705.545    20296705.2774   20296704.2184
        50.500          42.2004
 125806947.525 4                  23534800.948
        27.800
 109304588.622 7  85172438.05345  20799972.335    20799971.9824   20799970.5944
        46.800          33.6004
 107694738.466 7  83917966.38346  20493608.908    20493608.5114   20493609.2844
        47.400          37.9004
 143234056.644 5                  27256525.278
        33.300
 119387060.432 6  93028904.62346  22718604.946    22718605.1204   22718607.8484
        39.900          36.7004


 124043872.142 6  96657830.60943  23604766.872    23604766.5914   23604804.6884
        37.100          18.8004
 124346780.970 6  96893598.74544  23662419.320    23662418.8384   23662417.6704
        39.400          29.3004
 123792222.557 6  96461506.77441  23556884.932    23556884.6154   23556870.7184
        36.300          11.7004
                  97568913.081 5                                  23426087.917
                        31.100
 106421489.833 7  82772287.578 7  19880410.202    19880409.525    19880417.479
        42.700          45.600


 126749611.054 7                  24119652.509
        45.700
 106784129.076 8  83054313.952 7  20004262.862    20004263.777    20004267.818
        50.800          43.800


 102993091.327 8  80105784.690 8  19246727.632    19246728.267    19246734.552
        50.700          48.300
 106340980.808 8  82709682.478 7  19928249.654    19928250.035    19928254.142
        51.500          43.300
 198898754.151 6                  37849174.881
        41.700
 202026760.742 7                  38444423.955
        44.400
 124294441.537 7                  23652428.536
        42.700
 128272011.969 6                  24409348.037
        38.300
 124499208.990 7                  23691396.632
        47.300
 122195925.974 7                  22851261.892    22851267.290
        43.600
 25  1  1  8 10 30.0000000  0 23G18G23G15E29G24E33G10G27G29R04R03E15
                                E26R18S35R17R02S31S33E07E08E13R24
 106657258.612 8  83109573.54446  20296200.624    20296200.3434   20296200.3874
        50.200          41.8004
 109289741.626 7  85160868.95545  20797147.036    20797146.6834   20797145.5934
        44.900          33.2004
 107723808.243 7  83940618.13346  20499140.343    20499139.9594   20499140.1274
        46.800          37.7004
 143189632.527 5                  27248070.352
        31.800
 119345096.492 7  92996205.47746  22710620.029    22710620.2034   22710621.6784
        42.000          38.0004


 124009879.089 6  96631342.30344  23598298.827    23598298.5734   23598323.3844
        41.400          28.7004
 124318032.002 5  96871197.02044  23656953.378    23656952.9544   23656945.6384
        35.800          27.1004
 123847153.635 6  96504310.10442  23567335.361    23567334.9814   23567323.8874
        36.200          14.9004


 106398930.853 7  82754741.695 7  19876198.895    19876195.883    19876203.583
        43.200          46.500


 126726086.016 7                  24115175.978
        45.100
 106747060.109 8  83025482.586 7  19997317.265    19997317.621    19997322.583
        48.300          42.100


 103012926.654 8  80121212.144 7  19250435.552    19250434.849    19250440.194
        49.700          47.800
 106373340.741 8  82734851.333 7  19934314.086    19934314.378    19934318.070
        51.600          43.100
 198898753.406 7                  37849178.507
        42.200
 202026729.808 7                  38444418.612
        44.600
 124274350.183 7                  23648606.002
        43.200
 128294079.381 6                  24413547.550
        40.800
 124512523.810 7                  23693929.307
        43.400


 25  1  1  8 10 45.0000000  0 23G18G23G15E29G24E33G10G27G29R04R03E15
                                E26R18S35R17R02S31S33E07E08E13R24
 106654726.677 8  83107600.59746  20295719.275    20295718.9894   20295718.7174
        50.100          41.6004
 109274949.805 7  85149342.84545  20794331.937    20794331.5934   20794331.5034
        45.300          32.8004
 107752996.346 7  83963362.07846  20504694.989    20504694.6414   20504695.3004
        47.400          36.9004
 143145234.738 4                  27239621.269
        29.400
 119303214.413 7  92963570.11046  22702649.033    22702649.1674   22702651.1364
        42.300          37.6004


 123975910.849 7  96604873.45945  23591834.035    23591833.8214   23591844.2764
        43.400          35.4004


 123902115.403 5  96547137.41543  23577793.965    23577793.5364   23577784.8184
        35.700          18.1004
                  97485422.231 5                                  23406045.510
                        32.100
 106376507.360 7  82737301.178 7  19872011.497    19872008.898    19872014.625
        47.000          47.000


 126702605.271 7                  24110707.949
        45.500
 106710125.391 7  82996755.616 6  19990398.765    19990399.109    19990403.427
        47.400          41.700
 200877427.938 6                  38225706.177
        36.100
 103032943.791 8  80136781.035 7  19254176.557    19254174.302    19254180.899
        48.200          47.900
 106405799.532 8  82760097.065 7  19940397.061    19940397.614    19940400.424
        52.300          43.800
 198898754.901 7                  37849177.112
        42.500
 202026702.357 7                  38444413.384
        44.600
 124254350.060 7                  23644799.542
        44.400
 128316226.477 6                  24417761.632
        39.900
 124525908.714 6                  23696476.736
        41.300
 122318778.749 5                  22874235.405    22874234.688
        35.800
 25  1  1  8 11  0.0000000  0 23G18G23G15E29G24G10G27G29R04R03E15E26
                                R18S35R17R02S31G13S33E07E08E13R24
 106652306.838 8  83105714.99346  20295258.604    20295258.3324   20295257.8544
        51.200          41.8004
 109260207.613 7  85137855.40845  20791525.587    20791525.2614   20791526.7364
        45.600          32.4004
 107782296.818 7  83986193.59745  20510270.334    20510269.9904   20510272.3834
        46.300          35.2004


 119261409.063 7  92930994.52446  22694693.629    22694693.7894   22694695.0514
        43.100          36.2004
 123941961.958 6  96578419.75045  23585372.690    23585372.5344   23585374.5134
        40.700          34.0004


 123957101.946 5  96589984.04843  23588254.856    23588254.3874   23588251.4604
        34.700          19.3004
 125284763.487 5  97443743.717 5  23396049.178    23396048.920    23396041.882
        34.900          35.200
 106354213.324 7  82719961.399 7  19867843.534    19867844.283    19867849.009
        47.900          46.400


 126679163.441 7                  24106246.840
        45.400
 106673319.563 7  82968128.940 7  19983502.750    19983502.414    19983508.306
        44.000          42.200
 200877432.622 6                  38225705.654
        36.100
 103053137.049 8  80152486.886 8  19257948.657    19257947.926    19257955.208
        49.800          48.800
 106438351.049 8  82785414.916 7  19946497.440    19946497.936    19946500.549
        53.100          44.800
 198898753.187 7                  37849176.383
        42.600
 120892450.495 5                  23005074.241
        35.600
 202026670.922 7                  38444404.141
        43.300
 124234435.573 7                  23641009.845
        45.000
 128338447.554 6                  24421989.056
        36.400
 124539358.192 6                  23699036.616
        38.600


 25  1  1  8 11 15.0000000  0 24G18G23G15E29G24E33G10G27G29R04R03E15
                                E26R18S35R17R02S31G13S33E07E08E13R24
 106650010.815 8  83103925.87647  20294821.405    20294821.1424   20294821.0344
        51.700          42.4004
 109245526.574 7  85126415.63245  20788731.552    20788731.2224   20788733.1074
        43.700          32.5004
 107811721.046 7  84009121.58045  20515869.906    20515869.5624   20515872.0534
        45.800          34.8004


 119219692.398 7  92898488.02145  22686754.949    22686755.1144   22686756.3834
        42.400          34.7004


 123908043.906 6  96551990.08645  23578917.839    23578917.7904   23578916.6684
        39.100          31.2004
 124232639.652 5  96804614.81444  23640681.883    23640681.1994   23640678.1444
        34.200          24.5004
 124012124.226 5  96632858.55542  23598724.498    23598724.1594   23598723.1284
        30.300          17.1004


 106332060.691 7  82702731.643 7  19863703.770    19863703.275    19863712.011
        45.600          47.500


 126655772.283 7                  24101795.605
        44.800
 106636654.885 7  82939612.015 7  19976633.242    19976631.578    19976641.096
        42.200          43.900
 200877444.780 6                  38225706.352
        36.700
 103073518.054 8  80168338.752 8  19261757.151    19261757.968    19261764.444
        51.800          49.600
 106471006.752 8  82810813.796 7  19952617.405    19952617.789    19952620.725
        52.700          45.300
 198898759.344 6                  37849181.249
        41.900
 120942227.114 5                  23014568.722
        31.000
 202026646.692 7                  38444403.086
        43.500
 124214618.404 7                  23637238.814
        45.900
 128360753.882 5                  24426233.266
        31.100
 124552883.870 6                  23701610.907
        37.400
 122442123.905 6                  22897280.073    22897251.596
        39.300
 25  1  1  8 11 30.0000000  0 24G18G23G15E29G24E33G10G27G29R04R03E15
                                E26R18S35R17R02S31G13S33E07E08E13R24
 106647823.078 8  83102221.13847  20294404.727    20294404.4734   20294405.0264
        51.500          42.6004
 109230891.010 7  85115011.29145  20785948.727    20785948.3974   20785948.0834
        44.200          33.1004
 107841253.024 7  84032133.52545  20521489.962    20521489.6234   20521490.7994
        46.600          35.5004


 119178049.226 6  92866038.77345  22678830.573    22678830.7334   22678832.0014
        38.700          32.8004
 146749102.218 5                  27925424.032
        31.900
 123874141.035 5  96525572.26644  23572466.478    23572466.4384   23572465.6284
        32.200          27.7004
 124204393.125 4  96782604.58944  23635306.181    23635305.9494   23635306.3884
        29.300          25.4004
 124067166.646 4  96675748.79141  23609203.105    23609202.4844   23609198.2044
        27.400           8.7004


 106310033.851 7  82685599.648 7  19859591.198    19859589.932    19859596.312
        47.400          47.400


 126632416.209 6                  24097351.286
        41.600
 106600115.851 7  82911192.723 7  19969790.750    19969790.438    19969796.893
        47.300          44.200
 200877449.861 6                  38225707.470
        36.400
 103094070.875 8  80184324.251 8  19265599.932    19265600.518    19265605.143
        53.300          50.200
 106503750.373 8  82836281.077 7  19958752.990    19958753.187    19958757.378
        51.900          46.400
 198898757.221 7                  37849187.397
        42.500
 120992063.172 5                  23024041.900
        33.600
 202026616.389 7                  38444398.521
        44.300
 124194882.867 7                  23633483.494
        46.100
 128383129.740 6                  24430495.587
        36.100
 124566470.083 6                  23704195.211
        40.000
 122503760.959 6                  22908773.264    22908775.849
        37.400
 25  1  1  8 11 45.0000000  0 24G18G23G15E29G24E33G10G27R19G29R04R03
                                E15E26R18S35R17R02S31S33E07E08E13R24
 106645751.527 8  83100606.95247  20294010.869    20294010.6194   20294011.1254
        49.500          42.5004
 109216308.672 7  85103648.45045  20783174.490    20783174.1774   20783172.8684
        44.600          33.4004
 107870900.135 7  84055235.15146  20527131.127    20527130.7974   20527131.8404
        46.300          36.2004


 119136487.692 6  92833653.14245  22670922.536    22670922.6794   22670924.6214
        40.500          32.5004
 146709814.126 5                  27917949.242
        35.300
 123840261.009 5  96499172.22344  23566019.668    23566019.5524   23566020.1554
        32.700          28.4004
 124176273.156 5  96760692.87944  23629951.128    23629951.2484   23629956.6064
        31.400          26.3004
                  97375308.933 5                                  23404219.837
                        30.400
 124122235.865 4  96718652.87641  23619678.301    23619677.6174   23619682.8844
        28.600           7.9004
                  97318992.699 5                                  23366090.592
                        35.500
 106288140.352 8  82668571.378 7  19855502.452    19855501.908    19855507.134
        48.200          47.500
 144806020.493 5                  27555667.802
        31.400
 126609103.199 7                  24092915.892
        43.600
 106563710.918 7  82882877.720 7  19962970.956    19962970.619    19962978.232
        47.000          47.200


 103114803.233 8  80200449.422 8  19269474.441    19269475.067    19269479.223
        53.600          48.900
 106536589.390 8  82861822.530 7  19964907.295    19964907.324    19964911.592
        51.700          47.000
 198898756.007 7                  37849182.451
        42.600
 202026584.770 7                  38444388.871
        44.600
 124175236.759 7                  23629745.102
        46.600
 128405582.706 5                  24434766.034
        34.900
 124580124.749 6                  23706794.441
        37.400


 25  1  1  8 12  0.0000000  0 23G18G23G15E29G24E33G10G27R19R04R03E15
                                E26R18S35R17R02S31S33E07E08E13R24
 106643801.380 8  83099087.34547  20293639.126    20293638.8724   20293640.1684
        49.600          42.6004
 109201784.630 7  85092331.01945  20780409.806    20780409.5024   20780408.8384
        46.900          34.3004
 107900667.332 7  84078430.36346  20532796.087    20532795.7744   20532796.0224
        47.700          37.4004


 119095013.355 6  92801335.42345  22663028.963    22663029.0254   22663033.9294
        40.800          32.8004
 146670521.106 5                  27910472.438
        34.100


 124148284.954 5  96738883.91244  23624625.153    23624625.0954   23624632.3074
        35.700          28.4004
                  97326864.264 5                                  23392575.701
                        30.200
 125071039.044 5  97277504.321 5  23356130.934                    23356128.237
        34.200          34.400
 106266385.305 8  82651650.777 7  19851438.899    19851438.285    19851442.313
        49.900          47.600
 144843017.774 5                  27562705.503
        34.000
 126585838.473 7                  24088487.864
        46.000
 106527445.542 8  82854671.256 7  19956180.090    19956180.536    19956184.058
        50.600          47.400


 103135720.210 8  80216718.159 7  19273382.386    19273382.800    19273387.198
        52.800          47.600
 106569528.487 8  82887441.806 7  19971080.070    19971080.444    19971084.680
        52.700          47.900
 198898759.652 6                  37849187.084
        40.300
 202026558.995 7                  38444389.555
        45.300
 124155685.274 7                  23626024.291
        46.400
 128428117.581 6                  24439053.311
        37.200
 124593852.872 5                  23709407.410
        35.800


 25  1  1  8 12 15.0000000  0 25G18G23G15E29G24E33G10G27G05R19G29R04
                                R03E15E26R18S35R17R02S31S33E07E08E13
                                R24
 106641961.121 8  83097653.37547  20293288.571    20293288.3264   20293290.0544
        49.600          42.7004
 109187307.246 7  85081049.96145  20777654.148    20777653.8354   20777653.9704
        46.700          35.0004
 107930542.378 7  84101709.64346  20538480.380    20538480.0724   20538481.1184
        43.900          36.2004


 119053614.803 6  92769076.78745  22655151.237    22655151.3084   22655158.2074
        41.400          34.6004
 146631211.447 6                  27902992.607
        36.800
 123772560.169 5  96446155.51544  23553139.141    23553139.0344   23553137.9694
        33.800          27.0004
 124120417.192 5  96717168.77043  23619332.684    23619332.4254   23619329.7194
        35.500          22.9004
 129001947.458 5                  24548253.287
        33.300
                  97278428.793 5                                  23380936.729
                        30.900


 125017750.354 6  97236057.524 5  23346171.575    23346177.562    23346178.269
        39.000          33.000
 106244757.218 8  82634828.932 8  19847399.049    19847399.243    19847402.609
        50.800          48.400
 144880041.905 5                  27569747.993
        31.800
 126562610.498 7                  24084067.606
        46.400
 106491308.288 8  82826564.512 7  19949409.323    19949409.462    19949414.120
        49.300          47.500


 103156809.875 8  80233121.224 7  19277322.439    19277322.738    19277327.833
        50.600          46.900
 106602555.526 8  82913129.499 8  19977269.116    19977269.505    19977274.274
        52.300          48.100
 198898756.309 6                  37849182.966
        41.100
 202026526.617 7                  38444381.417
        44.900
 124136216.741 7                  23622318.927
        46.600
 128450722.480 6                  24443355.498
        38.600
 124607642.907 6                  23712031.510
        38.600
 122689035.387 5                  22943424.246    22943423.335
        35.500
 25  1  1  8 12 30.0000000  0 24G18G23G15E29G24E33G10G27G05G29R04R03
                                E15E26R18S35R17R02S31S33E07E08E13R24
 106640243.818 8  83096315.18847  20292961.559    20292961.3094   20292963.3264
        49.300          42.1004
 109172889.444 7  85069815.30945  20774911.002    20774910.6854   20774910.4324
        46.300          34.6004
 107960538.147 7  84125082.94645  20544188.031    20544187.7634   20544188.7784
        44.400          35.8004


 119012305.540 6  92736887.71346  22647291.606    22647291.6464   22647297.4484
        40.400          36.0004
 146591898.323 5                  27895509.702
        32.400
 123738753.596 5  96419812.76544  23546706.707    23546706.9174   23546707.7494
        33.900          27.3004
 124092682.950 6  96695557.67044  23614045.728    23614045.3804   23614051.9664
        38.700          29.7004
 129044505.681 6 100554141.2674   24556349.388    24556349.4324   24556349.5574
        37.000           4.4004


 124964528.410 6  97194662.730 5  23336249.757    23336248.382    23336232.540
        37.400          31.400
 106223268.759 8  82618115.747 7  19843383.297    19843383.216    19843388.201
        49.600          47.500
 144917105.786 5                  27576800.999
        30.200
 126539432.397 7                  24079657.055
        46.100
 106455312.933 7  82798568.102 7  19942664.301    19942665.187    19942670.368
        46.600          46.100
 200877414.922 5                  38225699.944
        30.900
 103178085.231 8  80249668.728 7  19281299.048    19281297.461    19281303.669
        48.900          46.400
 106635683.259 8  82938895.521 8  19983477.682    19983477.941    19983483.005
        53.500          48.100
 198898760.111 7                  37849177.094
        42.700
 202026499.980 7                  38444375.237
        44.500
 124116844.151 7                  23618632.842
        47.000
 128473410.373 6                  24447672.790
        39.900
 124621507.801 6                  23714670.142
        41.900
 122750650.263 6                  22954993.757    22954994.356
        36.600
 25  1  1  8 12 45.0000000  0 26G18G23G15E29G24E33G10G27G05R19G29R04
                                R03E15E26R18S35R17R02S31G13S33E07E08
                                E13R24
 106638640.047 8  83095065.47847  20292656.996    20292656.7424   20292658.1384
        49.100          42.3004
 109158521.610 7  85058619.59145  20772176.922    20772176.6094   20772176.3394
        46.600          34.3004
 107990644.705 7  84148542.61645  20549916.484    20549916.2164   20549918.1964
        42.600          34.4004


 118971076.403 6  92704761.07946  22639445.879    22639445.9324   22639451.4054
        40.100          37.2004
 146552572.121 4                  27888026.558
        29.900
 123704966.705 5  96393485.29644  23540276.461    23540277.0694   23540279.2064
        33.800          25.3004
 124065072.965 6  96674043.39745  23608794.331    23608793.9964   23608796.7274
        40.700          30.9004
 129087063.833 5 100587303.66041  24564447.281    24564447.7594   24564456.4574
        32.000          11.3004


 124342895.324 6  96890554.85443  23661659.119    23661658.2484   23661657.7864
        38.600          19.2004


 106201910.225 8  82601503.590 7  19839393.379    19839393.156    19839396.996
        49.400          46.500
 144954199.838 4                  27583858.849
        29.100
 126516294.775 7                  24075253.953
        45.600
 106419450.113 7  82770674.777 7  19935945.188    19935945.416    19935950.556
        44.400          43.100
 200877422.008 5                  38225713.207
        31.700
 103199536.618 8  80266353.127 7  19285307.337    19285307.509    19285313.270
        49.700          47.000
 106668901.596 8  82964732.002 7  19989702.756    19989703.187    19989707.339
        53.800          47.800
 198898760.518 7                  37849182.952
        43.300
 121242233.669 6                  23071631.910
        36.500
 202026470.962 7                  38444369.455
        45.300
 124097557.974 7                  23614963.634
        45.600
 128496171.280 6                  24452004.077
        40.100
 124635438.020 6                  23717320.179
        41.600
 122812585.919 6                  22966584.826    22966582.235
        38.400
 25  1  1  8 13  0.0000000  0 25G18G23G15E29G24E33G10G27G05G29R04R03
                                E15E26R18S35R17R02S31G13S33E07E08E13
                                R24
 106637150.821 8  83093905.03647  20292374.011    20292373.7794   20292374.3954
        49.500          42.1004
 109144204.643 7  85047463.49245  20769451.341    20769451.0204   20769451.8874
        45.600          33.8004
 108020862.649 5  84172089.10045  20555667.487    20555667.2464   20555668.1714
        35.600          30.8004


 118929928.691 7  92672697.92746  22631616.015    22631616.0374   22631621.3844
        44.100          37.6004
 146513233.866 5                  27880539.989
        31.000
 123671200.220 6  96367173.74844  23533850.408    23533850.8324   23533854.8624
        37.700          25.0004
 124037588.331 6  96652626.77345  23603564.173    23603563.7934   23603564.5984
        41.700          31.8004
 129129622.760 4 100620466.46241  24572547.664    24572548.5224   24572558.0314
        29.200           7.9004
 124398094.377 6  96933567.16142  23672163.681    23672162.0814   23672160.0314
        37.900          17.8004
 124858257.952 5  97111938.847 5  23316384.470    23316382.819    23316394.897
        34.200          31.900
 106180682.485 8  82584993.184 7  19835427.952    19835427.497    19835431.704
        48.400          46.900
 144991324.846 5                  27590927.346
        31.700
 126493198.659 7                  24070858.750
        44.900
 106383721.192 7  82742885.637 7  19929253.054    19929252.390    19929257.320
        44.100          42.400
 200877426.321 5                  38225710.117
        32.500
 103221164.818 8  80283175.050 7  19289349.363    19289350.079    19289354.414
        51.100          46.800
 106702210.848 8  82990639.206 7  19995945.261    19995945.728    19995949.026
        53.600          46.900
 198898758.408 7                  37849172.596
        42.000
 121292464.315 6                  23081189.550
        36.400
 202026439.567 7                  38444365.390
        44.600
 124078359.218 7                  23611309.867
        42.900
 128519006.000 6                  24456348.727
        40.500
 124649434.501 6                  23719982.666
        38.400
 122874577.164 6                  22978179.150    22978179.191
        36.000
 25  1  1  8 13 15.0000000  0 24G18G23G15E29G24E33G10G27G29R04R03E15
                                E26R18S35R17R02S31G13S33E07E08E13R24
 106635778.439 8  83092835.62847  20292112.285    20292112.0534   20292112.7614
        50.500          42.1004
 109129940.663 7  85036348.68145  20766736.943    20766736.6354   20766737.2054
        44.200          32.4004
 108051193.878 6  84195723.80044  20561443.028    20561442.8324   20561439.1224
        39.800          29.8004


 118888864.961 7  92640700.26946  22623801.449    22623801.4054   22623807.4204
        45.000          37.5004
 146473885.783 5                  27873056.072
        32.600
 123637456.408 5  96340879.88643  23527427.855    23527428.1814   23527432.9144
        35.400          23.9004
 124010231.358 7  96631309.61945  23598356.642    23598356.2494   23598356.3564
        42.200          30.4004


 124805212.629 5  97070681.408 5  23306477.966    23306475.081    23306497.681
        31.800          30.800
 106159587.954 7  82568586.361 7  19831487.502    19831486.567    19831491.673
        47.000          47.600
 145028483.044 5                  27598005.169
        30.000
 126470146.331 7                  24066472.075
        44.700
 106348128.811 7  82715202.675 7  19922585.696    19922585.107    19922589.961
        45.700          42.900
 200877430.656 5                  38225718.908
        35.000
 103242971.850 8  80300136.045 7  19293424.513    19293425.794    19293429.368
        52.100          46.700
 106735613.017 8  83016618.615 7  20002205.092    20002205.589    20002207.903
        53.200          45.700
 198898756.226 7                  37849179.004
        42.000
 121342759.269 6                  23090764.150
        37.600
 202026407.716 7                  38444357.033
        44.600
 124059250.010 6                  23607673.278
        40.800
 128541916.457 6                  24460708.282
        39.700
 124663499.451 5                  23722657.644
        33.700
 122936626.159 5                  22989787.038    22989782.024
        31.200
 25  1  1  8 13 30.0000000  0 24G18G23G15E29G24E33G10G27G29R04R03E15
                                E26R18S35R17R02S31G13S33E07E08E13R24
 106634524.556 8  83091858.56546  20291874.036    20291873.7914   20291873.9674
        49.100          41.8004
 109115731.164 6  85025276.32445  20764034.253    20764033.9404   20764032.8354
        41.200          30.6004
 108081639.455 6  84219447.67645  20567236.109    20567235.9354   20567231.9744
        41.400          31.2004


 118847887.090 7  92608769.53746  22616003.396    22616003.3164   22616007.6274
        46.100          36.2004
 146434529.522 5                  27865564.307
        34.700
 123603736.710 6  96314604.81844  23521012.527    23521012.8934   23521014.6244
        38.500          25.2004
 123983003.742 6  96610093.28744  23593176.099    23593175.6434   23593175.2394
        39.400          29.8004
 124508567.796 4  97019650.27342  23693169.373    23693167.5494   23693178.6744
        29.200          16.4004
 124752229.981 4  97029472.674 4  23296586.538    23296582.447    23296608.580
        28.300          28.500
 106138627.871 7  82552284.091 7  19827572.650    19827572.332    19827576.267
        47.700          47.700
 145065675.628 5                  27605075.983
        32.300
 126447139.444 7                  24062094.136
        44.500
 106312674.865 7  82687627.382 7  19915943.538    19915944.188    19915948.555
        47.800          43.300
 200877436.133 5                  38225729.770
        32.700
 103264959.266 8  80317237.345 7  19297534.281    19297535.054    19297539.370
        52.900          47.400
 106769109.197 8  83042671.161 7  20008482.128    20008482.177    20008484.970
        52.000          46.400
 198898755.494 7                  37849182.545
        42.800
 121393119.832 4                  23100370.775
        28.500
 202026376.407 7                  38444352.763
        45.500
 124040231.838 7                  23604053.329
        42.500
 128564903.957 6                  24465083.664
        38.800
 124677634.317 5                  23725350.235
        34.600
 122998734.754 6                  23001437.799
        37.300
 25  1  1  8 13 45.0000000  0 23G18G23G15E29G24E33G10G27G29R04R03E15
                                E26R18S35R17R02S31S33E07E08E13R24
 106633386.527 8  83090971.77846  20291658.466    20291658.2214   20291657.2954
        49.100          41.7004
 109101573.407 6  85014244.30844  20761340.462    20761340.1584   20761338.0924
        41.200          29.9004
 108112196.369 6  84243258.24645  20573051.112    20573050.9564   20573046.5864
        41.400          31.5004
 142614331.920 5                  27138605.802
        35.000
 118806992.741 7  92576903.87645  22608221.071    22608220.9954   22608223.0514
        44.200          35.8004
 146395162.291 5                  27858071.790
        33.600
 123570038.340 6  96288346.39044  23514601.410    23514601.8074   23514600.2924
        40.100          26.9004
 123955902.952 6  96588975.74244  23588019.955    23588019.4594   23588019.1764
        37.700          29.4004
 124563840.481 5  97062719.85841  23703688.772    23703687.3374   23703694.7324
        31.700           9.2004
 124699307.294 5                  23286702.600    23286705.040
        33.900
 106117799.462 8  82536084.248 7  19823680.172    19823681.086    19823684.752
        48.600          47.500
 145102899.826 5                  27612160.474
        31.200
 126424175.416 7                  24057724.626
        45.000
 106277357.032 8  82660157.944 7  19909327.525    19909327.993    19909332.329
        49.100          43.700


 103287124.177 8  80334476.710 8  19301676.371    19301677.324    19301682.186
        53.000          48.300
 106802696.150 8  83068794.326 7  20014776.033    20014776.254    20014780.334
        50.400          47.400
 198898753.495 7                  37849178.539
        42.900
 202026345.409 7                  38444349.695
        45.200
 124021301.981 7                  23600450.998
        44.800
 128587965.569 6                  24469473.224
        39.500
 124691836.560 6                  23728053.828
        37.800
 123060898.600 6                  23013014.710    23013028.008
        40.600
 25  1  1  8 14  0.0000000  0 21G18G23G15E29G24E33G10G27G29R03E26R18
                                S35R17R02S31S33E07E08E13R24
 106632365.670 8  83090176.28346  20291463.844    20291463.5634   20291463.0794
        49.000          41.1004
 109087468.472 7  85003253.44645  20758655.002    20758654.7394   20758653.6974
        46.200          31.7004
 108142865.549 6  84267156.27745  20578885.461    20578885.3814   20578883.3334
        41.300          32.0004
 142570259.567 6                  27130218.755
        36.700
 118766183.497 7  92545104.50445  22600454.805    22600454.7034   22600457.3634
        42.600          35.5004
 146355785.512 5                  27850578.663
        32.800
 123536362.383 6  96262105.42245  23508192.971    23508193.3284   23508193.3474
        41.900          31.7004
 123928930.427 5  96567958.14644  23582884.238    23582883.7114   23582887.8554
        33.900          28.7004
 124619136.779 5  97105807.73441  23714214.560    23714213.1434   23714216.1744
        33.200           6.6004
 106097103.900 8  82519987.742 7  19819814.469    19819815.373    19819819.660
        48.600          47.100
 126401255.571 7                  24053362.817
        44.900
 106242176.902 8  82632795.614 7  19902737.526    19902737.045    19902743.232
        49.200          45.100
 200877526.974 5                  38225717.938
        35.700
 103309467.369 8  80351854.757 7  19305851.408    19305851.328    19305857.054
        51.900          47.100
 106836374.572 8  83094988.645 7  20021087.086    20021086.604    20021091.516
        49.000          47.000
 198898751.108 6                  37849177.439
        41.900
 202026313.520 7                  38444340.090
        44.400
 124002461.685 7                  23596866.553
        45.800
 128611102.275 7                  24473876.024
        42.900
 124706107.268 7                  23730770.167
        43.500
 123123118.725 7                  23024659.884    23024657.652
        44.100
 25  1  1  8 14 15.0000000  0 25G18G23G15E29G24E33G10G27G05G29R04R03
                                E15E26R18S35R17R02S31G13S33E07E08E13
                                R24
 106631466.309 8  83089475.47346  20291292.160    20291291.8744   20291292.3484
        49.800          41.6004
 109073420.561 7  84992307.01045  20755980.543    20755980.3074   20755979.8324
        45.900          30.2004
 108173650.555 7  84291144.56645  20584740.972    20584740.8834   20584741.9504
        43.800          32.6004
 142526217.598 5                  27121843.774
        35.500
 118725463.975 7  92513375.02246  22592706.250    22592706.0854   22592709.0654
        43.900          36.8004
 146316403.425 5                  27843085.099
        35.900
 123502713.094 6  96235885.20245  23501789.540    23501789.8484   23501791.3204
        41.800          33.6004
 123902090.465 7  96547043.84845  23577778.755    23577778.2594   23577780.2214
        42.300          32.5004
 129342454.787 5 100786346.04142  24613051.550    24613051.0274   24613053.9304
        35.000          14.2004
 124674460.321 6  97148916.87142  23724740.857    23724739.4804   23724742.6464
        38.300          13.6004
 124593650.174 6  96906140.931 4  23266983.953    23266983.351    23266972.070
        38.400          28.100
 106076545.351 8  82503997.774 7  19815974.106    19815974.884    19815977.244
        50.100          45.900


 126378384.262 7                  24049010.667
        44.200
 106207139.309 8  82605544.139 7  19896173.997    19896174.094    19896178.957
        50.100          43.900


 103331993.217 8  80369374.856 7  19310060.291    19310060.377    19310065.722
        51.900          46.600
 106870148.584 8  83121257.321 8  20027414.975    20027416.051    20027421.352
        48.400          48.900
 198898752.813 7                  37849183.265
        42.900
 121544585.916 6                  23129166.339
        38.600
 202026284.440 7                  38444334.093
        46.400
 123983715.140 7                  23593299.571
        45.100
 128634318.063 7                  24478292.694
        43.400
 124720450.795 7                  23733499.897
        42.600


 25  1  1  8 14 30.0000000  0 26G18G23G15E29G24E33G10G27G05R19G29R04
                                R03E15E26R18S35R17R02S31G13S33E07E08
                                E13R24
 106630684.393 8  83088866.18547  20291143.358    20291143.0864   20291143.6354
        49.900          42.2004
 109059425.599 7  84981401.86145  20753318.789    20753318.5664   20753316.7124
        45.800          31.5004
 108204547.232 6  84315219.91445  20590621.315    20590621.2044   20590622.0314
        41.700          33.6004
 142482201.958 5                  27113464.674
        33.200
 118684830.352 7  92481712.49446  22584974.064    22584973.9044   22584976.8164
        46.600          40.1004
 146277011.848 4                  27835590.229
        28.700
 123469086.200 7  96209682.50946  23495393.102    23495393.3924   23495393.7124
        46.600          39.5004
 123875379.135 6  96526229.73045  23572692.585    23572692.0764   23572696.6924
        39.700          30.6004
 129385035.083 6 100819525.49443  24621153.941    24621153.4324   24621154.9184
        37.500          18.9004


 124729806.563 5  97192043.77943  23735271.571    23735270.3334   23735275.3294
        35.600          20.5004


 106056119.695 8  82488111.214 7  19812157.390    19812157.791    19812162.481
        49.100          46.400


 126355557.508 7                  24044666.497
        44.500
 106172240.364 8  82578400.511 7  19889635.939    19889636.014    19889641.392
        50.100          45.600


 103354697.474 8  80387033.734 7  19314303.365    19314303.750    19314308.563
        52.400          47.200
 106904013.329 8  83147596.575 8  20033761.047    20033762.138    20033768.074
        50.200          49.400
 198898754.462 6                  37849182.210
        41.800
 121595201.677 6  94749531.42941  23138801.119    23138801.3384   23138803.4444
        36.800          10.4004
 202026256.257 7                  38444330.065
        43.800
 123965058.249 7                  23589750.101
        46.800
 128657608.563 6                  24482724.955
        40.500
 124734862.977 7                  23736240.945
        42.900
 123247735.488 6  95859422.679 5  23047952.336    23047952.525    23047967.616
        39.100          34.600
 25  1  1  8 14 45.0000000  0 24G18G23G15E29G24E33G10G27G05G29R04R03
                                E15E26R18S35R17R02S31S33E07E08E13R24
 106630021.211 8  83088349.42246  20291017.328    20291017.0604   20291017.2634
        50.100          41.8004
 109045484.614 7  84970538.77745  20750666.656    20750666.4154   20750664.3164
        45.700          30.2004
 108235556.294 7  84339382.80746  20596525.711    20596525.6854   20596524.7204
        42.500          37.0004
 142438213.851 5                  27105093.421
        33.100
 118644284.200 7  92450118.10746  22577258.015    22577257.8634   22577261.3314
        44.400          40.0004


 123435482.939 7  96183498.15847  23488997.576    23488997.8624   23489001.1474
        45.400          42.5004
 123848797.783 6  96505516.97545  23567636.305    23567635.8404   23567638.2194
        40.400          31.8004
 129427619.144 6 100852707.84743  24629255.953    24629255.7794   24629259.9094
        37.400          19.5004
 124785176.022 6  97235188.78143  23745807.999    23745806.8914   23745812.7444
        36.600          20.6004


 106035828.086 8  82472328.878 7  19808368.104    19808367.715    19808371.287
        50.100          45.900


 126332776.507 7                  24040331.367
        46.500
 106137481.697 8  82551365.991 7  19883124.023    19883125.162    19883128.411
        49.500          45.400


 103377581.008 8  80404832.007 7  19318580.248    19318581.130    19318584.924
        53.200          46.200
 106937969.633 8  83174007.027 8  20040124.882    20040125.445    20040131.286
        49.600          48.600
 198898756.269 6                  37849182.814
        40.500
 202026228.494 7                  38444326.152
        43.900
 123946492.186 7                  23586216.392
        47.600
 128680974.764 6                  24487171.688
        41.100
 124749344.861 7                  23738996.743
        43.300
 123310128.224 6  95907950.403 5  23059617.755    23059615.496    23059637.750
        36.900          34.400
 25  1  1  8 15  0.0000000  0 24G18G23G15E29G24E33G10G27G05G29R04R03
                                E15E26R18S35R17R02S31S33E07E08E13R24
 106629476.043 8  83087924.61646  20290913.253    20290912.9724   20290913.7314
        49.300          41.5004
 109031596.764 7  84959717.08545  20748024.623    20748024.3514   20748022.2804
        44.300          31.0004
 108266676.637 7  84363632.43646  20602446.389    20602446.3404   20602447.7874
        43.200          36.3004
 142394252.860 5                  27096727.385
        31.400
 118603825.175 7  92418591.61947  22569560.361    22569560.2184   22569562.8334
        45.700          42.0004


 123401902.429 7  96157331.51946  23482606.929    23482607.1924   23482611.6194
        42.100          39.4004
 123822345.800 6  96484905.06445  23562602.106    23562601.5884   23562603.7844
        39.800          31.5004
 129470206.182 5 100885892.61543  24637361.210    24637361.3934   24637364.7344
        34.200          18.0004
 124840568.207 5  97278351.52343  23756349.621    23756348.5624   23756354.2544
        32.700          19.0004


 106015669.347 8  82456649.918 7  19804602.567    19804603.119    19804605.010
        52.100          44.600


 126310040.678 7                  24036003.851
        44.500
 106102862.934 8  82524440.323 7  19876639.397    19876640.361    19876643.141
        50.200          43.500
 200877464.250 6                  38225712.648
        38.800
 103400642.932 8  80422769.035 7  19322889.764    19322890.697    19322894.481
        53.000          46.500
 106972016.431 8  83200487.879 8  20046507.295    20046507.420    20046511.898
        51.200          49.700
 198898758.899 7                  37849186.945
        42.900
 202026201.419 7                  38444313.099
        43.100
 123928016.129 7                  23582699.851
        46.600
 128704415.612 7                  24491631.678
        42.300
 124763895.782 6                  23741765.578
        40.900
 123372576.651 5  95956521.411 6  23071294.225    23071296.734    23071310.138
        35.600          36.200
 25  1  1  8 15 15.0000000  0 24G18G23G15E29G24E33G10G27G29R04R03E15
                                E26R18S35R17R02S31G13S33E07E08E13R24
 106629047.184 8  83087590.48046  20290831.624    20290831.3384   20290832.3034
        48.000          41.2004
 109017760.286 7  84948935.43444  20745391.064    20745390.7694   20745389.3134
        43.900          28.9004
 108297905.992 6  84387966.97445  20608388.617    20608388.4884   20608389.9654
        40.000          33.4004
 142350317.117 5                  27088366.462
        30.700
 118563451.766 7  92387131.84346  22561876.937    22561876.7904   22561880.1034
        44.500          40.5004


 123368342.816 6  96131181.19846  23476224.815    23476225.1054   23476224.8004
        39.200          37.9004
 123796021.515 6  96464392.61745  23557594.302    23557593.7844   23557595.0844
        38.400          34.7004
 124895980.525 6  97321530.01443  23766897.602    23766896.5474   23766898.4924
        37.500          20.9004


 105995641.383 8  82441072.624 7  19800860.614    19800861.484    19800864.390
        52.200          46.000


 126287348.317 7                  24031685.025
        42.000
 106068382.618 8  82497622.309 7  19870179.726    19870180.333    19870184.003
        48.700          44.100
 200877471.575 5                  38225738.691
        32.900
 103423881.331 8  80440843.321 7  19327232.602    19327232.146    19327238.028
        50.000          46.800
 107006151.192 8  83227037.140 8  20052903.629    20052903.558    20052908.738
        50.600          49.800
 198898759.778 7                  37849186.328
        42.200
 121747504.264 4                  23167770.285
        29.800
 202026171.320 7                  38444310.711
        44.400
 123909628.309 7                  23579201.461
        46.400
 128727929.142 6                  24496106.688
        41.900
 124778513.972 6                  23744547.705
        40.900
 123435078.185 6  96005133.678 5  23082989.030    23082990.241    23082995.579
        39.100          33.600
 25  1  1  8 15 30.0000000  0 24G18G23G15E29G24E33G10G27G29R04R03E15
                                E26R18S35R17R02S31G13S33E07E08E13R24
 106628736.158 8  83087348.13446  20290772.645    20290772.3414   20290772.6434
        49.100          40.6004
 109003976.490 7  84938194.82245  20742767.330    20742766.9864   20742765.3424
        46.100          30.0004
 108329245.320 6  84412387.22845  20614352.798    20614352.5754   20614352.5434
        37.200          30.6004


 118523165.825 7  92355740.22346  22554211.130    22554210.9744   22554213.3414
        43.000          39.9004




 123769826.630 6  96443981.01845  23552609.222    23552608.7134   23552611.1614
        37.900          34.3004
 124951414.172 6  97364725.06543  23777442.561    23777441.4124   23777446.2054
        37.300          22.5004


 105975745.935 8  82425598.386 7  19797145.020    19797145.776    19797148.011
        52.800          46.400


 126264700.990 7                  24027376.895
        44.100
 106034042.594 7  82470913.456 7  19863746.979    19863746.706    19863750.196
        46.900          44.000


 103447297.410 8  80459055.824 7  19331607.257    19331606.810    19331613.287
        49.000          46.800
 107040374.947 8  83253655.607 8  20059317.283    20059317.787    20059321.657
        51.400          49.200
 198898759.483 7                  37849188.430
        43.700
 121798365.916 5  94907776.4704   23177454.075    23177454.0534   23177448.0644
        31.200           5.4004
 202026141.913 7                  38444306.978
        46.100
 123891330.178 7                  23575718.755
        44.600
 128751516.464 6                  24500595.072
        41.800
 124793200.776 6                  23747341.536
        38.600
 123497633.565 7  96053787.826 5  23094687.926    23094690.242    23094695.105
        42.100          35.900
 25  1  1  8 15 45.0000000  0 25G18G23G15E29G24E33G10G27G05R19G29R04
                                R03E15E26R18S35R17R02S31S33E07E08E13
                                R24
 106628545.211 8  83087199.35246  20290736.293    20290735.9944   20290736.2934
        48.100          41.5004
 108990247.520 7  84927496.93944  20740153.166    20740152.8404   20740152.4614
        44.400          29.8004
 108360696.857 6  84436894.90144  20620337.031    20620336.6514   20620336.0034
        40.800          28.5004


 118482969.849 7  92324418.71946  22546562.413    22546562.2444   22546564.4384
        43.300          40.3004


 123301474.632 6  96079029.19844  23463463.782    23463463.2064   23463474.6134
        39.800          24.2004
 123743763.364 6  96423671.95445  23547649.404    23547648.8954   23547651.6184
        37.400          32.0004
 129597970.112 5                  24661674.089
        30.200
                  96602057.740 5                                  23218364.402
                        34.100
 125006870.757 6  97407937.97143  23787996.631    23787995.5674   23787996.6274
        40.800          22.5004
 124278087.863 6                  23208063.985    23208060.987
        39.200
 105955985.155 8  82410228.902 7  19793451.319    19793452.869    19793457.577
        51.900          46.700


 126242100.952 7                  24023077.269
        46.500
 105999845.512 7  82444315.701 7  19857339.835    19857342.444    19857344.771
        47.200          45.300


 103470893.372 8  80477408.240 7  19336015.747    19336015.571    19336023.116
        48.300          46.600
 107074689.660 8  83280344.825 8  20065747.863    20065747.770    20065752.052
        50.400          48.500
 198898761.429 7                  37849182.563
        42.300
 202026113.767 7                  38444300.530
        43.800
 123873123.780 7                  23572254.362
        44.600
 128775179.546 6                  24505098.440
        40.900
 124807958.402 6                  23750150.377
        36.800
 123560245.255 6  96102485.711 5  23106397.766    23106398.434    23106406.111
        40.700          35.900
 25  1  1  8 16  0.0000000  0 25G18G23G15E29G24E33G10G27G05R19G29R04
                                R03E15E26R18S35R17R02S31S33E07E08E13
                                R24
 106628469.715 8  83087140.51546  20290722.208    20290721.9224   20290722.3244
        49.200          41.4004
 108976568.652 6  84916838.06444  20737550.314    20737549.9754   20737550.4244
        41.300          28.6004
 108392255.467 6  84461485.99644  20626341.442    20626341.0714   20626339.5544
        36.100          28.2004


 118442859.558 7  92293163.98446  22538928.992    22538928.8494   22538931.6784
        44.500          41.4004
 146040468.125 5                  27790578.582
        31.100
 123267981.247 7  96052930.47745  23457086.117    23457085.5054   23457090.5754
        43.600          31.4004
 123717827.147 6  96403461.90245  23542713.782    23542713.2864   23542716.6324
        39.900          34.2004
 129640564.630 5 101018658.73241  24669780.402    24669780.7104   24669788.7644
        30.300          11.3004
                  96553875.970 5                                  23206785.525
                        35.300
 125062344.804 6  97451164.43243  23798554.975    23798553.9744   23798551.4184
        39.200          23.8004
 124225726.849 6                  23198278.985    23198281.964
        39.100
 105936353.894 8  82394960.135 7  19789785.683    19789787.243    19789788.999
        51.700          46.400


 126219543.595 7                  24018784.361
        47.500
 105965786.967 7  82417825.748 7  19850957.392    19850959.113    19850964.549
        44.600          45.300
 200877518.504 6                  38225722.476
        41.400
 103494663.970 7  80495896.491 7  19340458.496    19340457.998    19340465.083
        47.600          46.400
 107109090.100 8  83307100.774 7  20072192.450    20072192.206    20072198.142
        48.000          47.900
 198898760.481 7                  37849181.038
        42.400
 202026082.592 7                  38444291.202
        45.100
 123855004.457 7                  23568806.928
        45.400
 128798913.476 7                  24509615.528
        43.700
 124822782.095 6                  23752970.322
        40.100
 123622907.662 5  96151223.068 5  23118115.273    23118111.514    23118119.660
        32.200          33.400
 25  1  1  8 16 15.0000000  0 25G18G23G15E29G24E33G10G27G05R19G29R04
                                R03E15E26R18S35R17R02S31S33E07E08E13
                                R24
 106628511.627 8  83087173.17346  20290730.637    20290730.3604   20290730.6544
        49.200          41.3004
 108962941.626 7  84906219.61045  20734958.738    20734958.3674   20734958.2874
        42.300          30.2004
 108423922.383 6  84486161.51244  20632365.902    20632365.5544   20632366.5954
        38.000          27.3004


 118402837.141 7  92261977.70746  22531312.190    22531312.0704   22531315.7404
        44.300          40.2004
 146001011.648 5                  27783070.600
        33.600
 123234509.347 7  96026848.51945  23450717.399    23450717.0104   23450716.2694
        42.200          32.1004
 123692020.062 6  96383352.46545  23537801.464    23537800.9864   23537804.7874
        37.200          30.9004
 129683160.855 4 101051850.69441  24677887.901    24677887.9324   24677892.3104
        28.000           7.8004
                  96505712.552 5                                  23195209.102
                        33.700
 125117838.250 6  97494406.03543  23809113.481    23809112.4894   23809110.5024
        39.000          21.8004
 124173427.841 6                  23188514.972    23188510.378
        36.600
 105916854.291 8  82379793.777 7  19786141.789    19786143.541    19786145.781
        51.300          45.600


 126197030.930 8                  24014500.295
        49.500
 105931869.121 7  82391445.182 7  19844605.761    19844606.655    19844612.019
        45.800          46.700
 200877521.966 6                  38225720.876
        36.500
 103518611.301 8  80514522.195 7  19344934.484    19344934.987    19344939.961
        50.800          45.600
 107143577.839 8  83333924.541 7  20078655.313    20078654.970    20078660.669
        48.200          47.300
 198898757.738 7                  37849172.457
        42.500
 202026050.147 7                  38444286.337
        44.900
 123836974.042 7                  23565375.624
        46.000
 128822719.817 7                  24514145.235
        43.900
 124837673.736 6                  23755803.477
        39.700
 123685622.183 5  96200000.918 5  23129846.818    23129843.058    23129846.133
        30.700          34.400
 25  1  1  8 16 30.0000000  0 23G18G23G15E29G24E33G10G27G05R19G29R03
                                E26R18S35R17R02S31S33E07E08E13R24
 106628674.749 8  83087300.25646  20290761.108    20290760.8454   20290761.2004
        49.100          40.8004
 108949370.116 7  84895644.42545  20732375.264    20732374.8894   20732376.6364
        46.800          34.5004
 108455701.122 6  84510924.16244  20638412.240    20638411.9814   20638414.6934
        36.700          26.6004


 118362906.622 7  92230863.04146  22523713.272    22523713.1564   22523717.3184
        43.300          39.4004
 145961549.291 5                  27775561.189
        34.800
 123201062.411 6  96000785.98345  23444353.526    23444353.1204   23444351.4644
        40.600          31.9004
 123666345.970 6  96363346.64245  23532915.829    23532915.4274   23532918.4714
        36.700          30.4004
 129725762.073 5 101085046.48541  24685991.983    24685992.2734   24685996.4554
        31.300           7.5004
                  96457570.757 5                                  23183634.110
                        32.000
 125173354.376 6  97537665.24042  23819677.419    23819676.4494   23819671.9514
        36.500          17.1004
 105897489.773 8  82364732.571 7  19782523.900    19782523.164    19782529.137
        48.600          46.300
 126174566.743 8                  24010225.729
        49.600
 105898096.325 7  82365177.408 7  19838278.992    19838278.875    19838283.913
        44.800          45.600
 200877527.632 5                  38225730.060
        34.300
 103542738.626 8  80533287.891 7  19349443.147    19349443.357    19349448.045
        51.000          44.500
 107178155.909 8  83360818.584 7  20085136.495    20085137.052    20085140.363
        50.300          47.000
 198898758.222 7                  37849173.861
        42.400
 202026019.148 7                  38444286.113
        44.300
 123819036.200 7                  23561962.492
        46.700
 128846602.049 7                  24518690.659
        44.100
 124852637.063 6                  23758649.749
        37.700
 123748392.153 5  96248822.050 5  23141573.461    23141578.366    23141585.711
        32.100          35.700
 25  1  1  8 16 45.0000000  0 24G18G23G15E29G24E33G10G27G05R19R04R03
                                E15E26R18S35R17R02S31S33E07E08E13R24
 106628955.935 8  83087519.36046  20290814.597    20290814.3344   20290814.7524
        49.300          41.6004
 108935850.812 7  84885109.91846  20729801.997    20729801.6354   20729804.3224
        46.700          36.2004
 108487588.073 5  84535771.15944  20644478.781    20644478.5404   20644483.2754
        34.400          24.9004


 118323065.182 7  92199817.78646  22516132.498    22516132.4054   22516136.3124
        42.000          38.3004
 145922077.868 6                  27768049.343
        36.000
 123167637.241 6  95974740.43045  23437992.379    23437991.9374   23437992.3964
        40.700          32.4004
 123640801.689 6  96343441.99045  23528056.522    23528056.1334   23528058.2024
        40.400          32.0004
 129768365.002 5 101118243.60941  24694098.436    24694098.6644   24694103.3994
        32.500           7.0004
                  96409448.434 5                                  23172067.092
                        31.500
 124069024.321 6  96498154.749 5  23169031.743    23169023.941    23169031.047
        37.400          34.400
 105878257.146 8  82349773.876 7  19778932.458    19778931.766    19778936.908
        49.700          47.300
 145552188.065 5                  27697657.392
        34.200
 126152147.951 8                  24005960.241
        48.800
 105864465.461 7  82339020.065 7  19831980.461    19831979.468    19831983.414
        45.400          45.100
 200877532.857 5                  38225752.137
        32.300
 103567042.672 8  80552191.025 7  19353985.775    19353986.244    19353990.811
        52.600          45.400
 107212820.577 8  83387780.002 7  20091632.253    20091631.950    20091636.924
        49.000          47.300
 198898757.864 6                  37849177.121
        41.800
 202025989.425 7                  38444277.876
        44.300
 123801187.723 7                  23558566.228
        47.400
 128870556.731 7                  24523248.258
        43.300
 124867668.775 6                  23761511.427
        38.700
 123811214.354 6  96297683.672 6  23153331.308    23153331.556    23153336.514
        37.100          37.800
 25  1  1  8 17  0.0000000  0 24G18G23G15E29G24E33G10G27G05R04R03E15
                                E26R18S35R17R02S31G13S33E07E08E13R24
 106629360.073 8  83087834.27847  20290891.538    20290891.2794   20290891.9234
        50.600          42.0004
 108922388.537 7  84874619.85145  20727240.836    20727240.4884   20727242.6104
        43.400          34.5004
 108519587.696 5  84560705.91044  20650571.378    20650571.1554   20650572.1404
        35.400          26.0004


 118283318.080 5  92168846.02445  22508567.729    22508567.5334   22508572.9744
        35.600          35.0004
 145882602.263 5                  27760536.795
        31.300
 123134238.589 7  95948715.54745  23431637.682    23431637.2534   23431639.2364
        43.900          34.4004
 123615392.304 6  96323642.48544  23523220.396    23523219.9674   23523222.7644
        38.200          29.6004
 129810974.390 5 101151445.64541  24702210.275    24702210.2494   24702211.7974
        31.800           6.6004


 105859161.059 8  82334921.381 8  19775365.253    19775365.241    19775370.494
        51.700          49.000
 145589841.250 5                  27704815.727
        30.700
 126129779.520 8                  24001703.769
        48.300
 105830982.052 7  82312977.412 7  19825706.574    19825706.228    19825711.248
        45.300          45.300
 200877541.738 6                  38225729.457
        40.100
 103591528.173 8  80571235.289 7  19358561.867    19358562.181    19358567.687
        52.600          47.400
 107247576.597 8  83414812.455 8  20098146.103    20098146.836    20098150.742
        51.200          48.200
 198898760.285 6                  37849181.387
        40.700
 122104742.485 5                  23235759.692
        33.900
 202025962.402 7                  38444271.527
        42.700
 123783433.431 7                  23555187.421
        45.600
 128894588.458 6                  24527819.590
        40.400
 124882773.718 6                  23764386.025
        41.900
 123874092.834 6  96346589.198 6  23165091.981    23165090.564    23165094.632
        36.000          37.900
 25  1  1  8 17 15.0000000  0 23G18G23G15E29G24E33G10G27R04R03E15E26
                                R18S35R17R02S31G13S33E07E08E13R24
 106629882.493 8  83088241.35147  20290990.520    20290990.2754   20290991.3864
        50.600          42.1004
 108908978.515 7  84864170.47545  20724690.318    20724689.9704   20724690.9504
        45.400          33.9004
 108551694.886 6  84585724.55345  20656681.331    20656681.0864   20656681.7094
        41.200          30.0004


 118243660.817 6  92137944.27545  22501022.377    22501022.1764   22501025.4564
        39.300          32.7004
 145843117.864 5                  27753023.750
        31.900
 123100861.711 7  95922707.57545  23425284.990    23425284.5574   23425289.3264
        43.400          34.3004
 123590113.184 6  96303944.42544  23518410.243    23518409.8284   23518409.5274
        41.300          28.4004
 123964920.271 4  96417155.326 5  23149574.075    23149602.803    23149580.455
        28.000          32.500
 105840196.469 8  82320171.194 8  19771821.716    19771822.075    19771827.918
        51.600          49.300
 145627525.789 5                  27711989.760
        35.300
 126107456.761 8                  23997455.736
        48.400
 105797641.583 7  82287045.929 7  19819460.890    19819461.460    19819466.095
        47.900          45.200
 200877549.025 5                  38225739.522
        31.700
 103616190.080 8  80590416.751 7  19363169.350    19363169.079    19363176.007
        50.700          46.600
 107282418.547 8  83441911.747 8  20104674.952    20104675.986    20104680.013
        50.100          48.300
 198898762.746 7                  37849186.570
        43.900
 122156025.715 5                  23245517.335
        30.000
 202025934.123 7                  38444269.461
        46.000
 123765768.525 7                  23551826.374
        44.900
 128918692.236 6                  24532406.326
        38.300
 124897947.177 7                  23767274.081
        42.900
                  96395534.387 6                                  23176860.280
                        36.300
 25  1  1  8 17 30.0000000  0 23G18G23G15E29G24E33G10G27G05R04R03E15
                                E26R18S35R17R02S31S33E07E08E13R24
 106630522.790 8  83088740.26947  20291112.850    20291112.5964   20291113.3454
        50.800          42.8004
 108895620.121 7  84853761.31745  20722147.437    20722147.0714   20722149.0784
        45.600          35.9004
 108583908.799 7  84610826.30845  20662811.677    20662811.4324   20662812.0404
        42.400          31.7004


 118204093.309 6  92107112.47745  22493490.613    22493490.3634   22493495.2314
        36.900          31.3004
 145803624.121 5                  27745508.457
        35.700
 123067505.952 7  95896716.01745  23418938.165    23418937.7854   23418942.1044
        44.800          35.4004
 123564963.968 7  96284347.64445  23513625.547    23513625.1274   23513623.2414
        43.700          30.3004
 129896210.273 5                  24718426.477
        35.400
 123912943.771 6  96376729.188 5  23139865.855                    23139865.296
        39.000          34.000
 105821362.991 8  82305522.956 8  19768303.591    19768304.553    19768309.923
        52.000          49.600
 145665240.984 5                  27719164.901
        32.000
 126085179.307 7                  23993216.104
        45.900
 105764443.909 7  82261225.502 7  19813241.798    19813241.415    19813246.949
        47.400          44.900
 200877555.886 5                  38225744.423
        33.300
 103641027.937 8  80609735.043 7  19367810.700    19367810.945    19367816.849
        51.000          46.100
 107317345.623 8  83469077.231 8  20111221.236    20111221.802    20111225.900
        51.000          48.600
 198898764.267 7                  37849185.698
        44.200
 202025904.900 7                  38444260.956
        46.000
 123748192.515 7                  23548481.232
        44.800
 128942867.341 6                  24537007.075
        38.200
 124913188.607 7                  23770174.649
        44.800
                  96444518.815 6                                  23188642.080
                        37.600
 25  1  1  8 17 45.0000000  0 24G18G23G15E29G24E33G10G27G05R19R04R03
                                E15E26R18S35R17R02S31S33E07E08E13R24
 106631281.113 8  83089331.16047  20291257.098    20291256.8484   20291257.7694
        51.700          42.9004
 108882313.454 7  84843392.46746  20719615.840    20719615.4654   20719616.6424
        46.700          36.0004
 108616229.236 7  84636011.08945  20668962.589    20668962.3844   20668961.5544
        42.600          32.4004


 118164615.979 6  92076350.92645  22485980.326    22485980.0544   22485983.3034
        37.500          31.9004
 145764121.176 5                  27737992.693
        34.400
 123034171.419 6  95870741.03045  23412594.533    23412594.1534   23412599.4924
        40.500          34.3004
 123539944.880 7  96264852.26445  23508863.878    23508863.4364   23508863.7004
        44.100          31.3004
 129938823.875 4 101251058.93941  24726536.999    24726537.0434   24726544.8514
        29.400           6.6004
                  96217173.826 5                                  23125857.930
                        35.000
 123861030.025 6  96336351.925 5  23130173.564    23130172.798    23130174.449
        39.700          35.400
 105802660.599 8  82290976.673 8  19764810.408    19764810.736    19764814.885
        52.100          48.100


 126062947.378 7                  23988985.450
        45.300
 105731389.522 8  82235516.539 7  19807049.689    19807049.890    19807054.074
        48.600          45.200
 200877560.480 5                  38225740.488
        31.900
 103666041.171 8  80629189.738 7  19372485.980    19372486.653    19372491.238
        51.700          46.800
 107352357.272 8  83496308.486 8  20117782.895    20117783.237    20117787.228
        51.500          48.800
 198898762.693 7                  37849178.946
        42.800
 202025874.217 7                  38444250.765
        44.300
 123730705.452 7                  23545153.188
        44.400
 128967113.618 6                  24541621.868
        38.900
 124928498.064 7                  23773087.743
        44.600
 124063101.972 6  96493541.948 6  23200424.790    23200423.533    23200429.456
        39.700          37.100
 25  1  1  8 18  0.0000000  0 22G18G23G15E29G24E33G10G27G05R04R03E26
                                R18S35R17R02S31S33E07E08E13R24
 106632160.920 8  83090016.71747  20291424.416    20291424.1664   20291424.9144
        50.800          42.9004
 108869061.818 8  84833066.53146  20717094.068    20717093.7204   20717094.1424
        48.000          36.0004
 108648659.215 7  84661281.19845  20675133.470    20675133.2834   20675132.1384
        44.800          33.7004
 141868880.566 5                  26996752.582
        30.500
 118125232.536 6  92045662.58445  22478486.616    22478486.3214   22478489.1454
        41.200          34.8004
 145724612.585 5                  27730473.060
        31.900
 123000861.389 6  95844785.14345  23406255.078    23406254.7164   23406261.0694
        38.300          32.3004
 123515059.465 7  96245461.01145  23504127.366    23504126.9104   23504129.2264
        44.600          32.0004
 129981441.864 4 101284267.8214   24734645.738    24734645.8584   24734655.6994
        26.600           3.4004
 123809182.804 7  96296026.305 6  23120491.292    23120490.475    23120493.010
        42.900          36.400
 105784092.231 8  82276534.644 7  19761341.179    19761342.156    19761344.333
        51.700          46.500
 126040764.434 7                  23984763.440
        45.200
 105698482.162 8  82209921.933 7  19800886.265    19800886.264    19800889.983
        50.900          45.700
 200877567.424 5                  38225744.437
        33.800
 103691233.483 8  80648783.770 7  19377192.683    19377194.051    19377199.803
        51.300          46.900
 107387456.560 8  83523607.923 8  20124359.593    20124360.547    20124365.311
        50.700          49.500
 198898764.351 7                  37849178.816
        42.000
 202025845.373 7                  38444251.136
        44.700
 123713310.669 7                  23541843.255
        45.400
 128991434.117 6                  24546250.481
        39.400
 124943878.960 7                  23776015.128
        45.100
 124126184.467 6  96542606.084 5  23212219.000    23212216.650    23212224.921
        38.700          35.000
 25  1  1  8 18 15.0000000  0 23G18G23G15E29G24E33G10G27R19G29R04R03
                                E26R18S35R17R02S31S33E07E08E13R24
 106633155.938 8  83090792.03947  20291614.174    20291613.9294   20291613.7914
        50.200          42.6004
 108855858.813 8  84822778.47046  20714581.369    20714581.0074   20714581.1614
        48.900          37.1004
 108681191.729 7  84686631.16345  20681324.203    20681324.0344   20681322.9924
        46.000          35.4004
 141825277.431 5                  26988455.009
        32.000
 118085937.073 6  92015042.79246  22471009.330    22471009.0314   22471011.4074
        41.800          37.1004
 145685091.924 4                  27722952.756
        29.100
 122967569.508 6  95818843.43245  23399919.969    23399919.6034   23399924.2934
        38.000          32.3004
 123490301.568 7  96226169.14745  23499416.493    23499416.0284   23499417.9564
        42.100          31.6004
                  96121161.948 5                                  23102777.328
                        31.000


 123757395.932 7  96255747.587 5  23110818.588    23110819.290    23110821.052
        42.300          34.100
 105765651.872 8  82262192.150 7  19757895.490    19757896.820    19757899.476
        50.600          46.600
 126018624.261 7                  23980550.174
        44.200
 105665716.020 8  82184437.170 7  19794746.370    19794747.182    19794751.992
        50.600          45.800
 200877569.657 5                  38225739.656
        32.900
 103716598.076 8  80668511.778 7  19381933.435    19381933.653    19381939.530
        50.700          46.700
 107422636.716 8  83550970.288 8  20130953.022    20130952.935    20130957.842
        49.000          49.000
 198898761.643 6                  37849183.480
        41.100
 202025811.488 7                  38444240.999
        43.100
 123696001.824 7                  23538549.421
        46.600
 129015822.417 6                  24550892.034
        38.300
 124959324.950 7                  23778953.929
        45.800
 124189313.266 6  96591706.195 5  23224027.929    23224026.948    23224030.474
        39.100          31.600
 25  1  1  8 18 30.0000000  0 22G18G23G15E29G24E33G10G27G29R04R03E26
                                R18S35R17R02S31S33E07E08E13R24
 106634275.960 8  83091664.76847  20291827.308    20291827.0544   20291826.9134
        50.600          42.6004
 108842714.116 7  84812535.86146  20712080.376    20712080.0194   20712079.4904
        47.900          36.4004
 108713836.390 7  84712068.53345  20687536.163    20687536.0254   20687534.6134
        44.500          34.4004
 141781708.391 5                  26980163.209
        32.200
 118046739.615 7  91984499.35346  22463550.136    22463549.8644   22463552.6784
        43.000          37.8004


 122934305.330 6  95792923.32945  23393590.443    23393590.0014   23393591.3494
        40.900          32.4004
 123465680.985 6  96206984.27145  23494732.019    23494731.5634   23494735.6984
        41.200          33.9004


 123705679.067 6  96215523.292 5  23101153.510    23101154.070    23101164.131
        39.600          30.200
 105747349.033 8  82247956.590 7  19754476.306    19754477.138    19754481.046
        49.900          47.600
 125996536.707 7                  23976346.905
        46.000
 105633101.130 8  82159070.034 7  19788636.695    19788637.591    19788642.208
        50.300          46.000
 200877576.945 6                  38225733.799
        41.400
 103742144.677 8  80688381.346 7  19386706.749    19386707.656    19386713.171
        50.600          45.700
 107457907.065 7  83578402.798 8  20137561.875    20137561.864    20137567.308
        47.100          48.700
 198898763.426 7                  37849189.463
        42.700
 202025784.038 7                  38444228.818
        42.800
 123678788.621 7                  23535273.958
        46.100
 129040287.914 6                  24555547.512
        40.900
 124974845.754 7                  23781907.455
        45.600
 124252497.659 6                  23235845.261    23235844.444
        38.700
 25  1  1  8 18 45.0000000  0 23G18G23G15E29G24E33G10G27R19G29R04R03
                                E26R18S35R17R02S31S33E07E08E13R24
 106635512.830 8  83092628.54347  20292062.344    20292062.0904   20292062.4604
        49.900          42.1004
 108829619.413 7  84802332.19146  20709588.103    20709587.7374   20709587.5714
        46.300          36.0004
 108746584.637 7  84737586.63145  20693768.063    20693767.9344   20693766.5344
        43.700          34.2004
 141738165.367 5                  26971874.129
        33.500
 118007632.282 7  91954026.15246  22456107.717    22456107.4674   22456110.4764
        43.900          37.7004
 145606035.823 4                  27707910.508
        27.500
 122901060.545 7  95767018.29045  23387264.430    23387263.9344   23387263.9764
        44.100          33.1004
 123441189.599 6  96187900.04046  23490071.417    23490071.0154   23490077.0184
        40.900          36.3004
                  96025242.293 5                                  23079724.263
                        31.600
 125673770.344 5  97927587.70843  23914926.601    23914926.2174   23914917.5034
        32.700          21.8004
 123654024.196 6  96175347.516 5  23091510.192    23091509.410    23091520.568
        40.500          32.600
 105729175.324 8  82233821.499 7  19751080.574    19751081.026    19751086.342
        48.600          47.900
 125974493.599 7                  23972152.558
        47.800
 105600629.550 8  82133814.389 7  19782554.446    19782554.646    19782559.116
        52.200          46.000
 200877581.269 6                  38225723.210
        37.400
 103767864.721 8  80708385.825 7  19391514.024    19391515.070    19391518.359
        50.000          44.200
 107493258.781 8  83605898.537 8  20144187.044    20144187.775    20144192.437
        48.700          49.000
 198898762.684 7                  37849186.489
        43.600
 202025752.244 7                  38444239.769
        45.100
 123661662.776 7                  23532015.577
        46.900
 129064822.103 6                  24560215.605
        41.400
 124990433.022 7                  23784873.537
        46.400


 25  1  1  8 19  0.0000000  0 24G18G23G15E29G24E33G10G27R19G29R04R03
                                E15E26R18S35R17R02S31S33E07E08E13R24
 106636869.601 8  83093685.75846  20292320.776    20292320.5314   20292320.4954
        49.400          40.9004
 108816577.637 7  84792169.77745  20707106.468    20707106.1064   20707105.7094
        46.300          35.3004
 108779439.013 7  84763187.39145  20700019.778    20700019.6224   20700020.0404
        44.300          33.2004
 141694651.649 6                  26963594.390
        37.100
 117968618.459 7  91923625.81046  22448683.339    22448683.1074   22448686.3264
        42.900          37.1004


 122867838.117 7  95741130.68846  23380942.375    23380941.8844   23380942.1574
        46.600          38.2004
 123416830.605 6  96168918.95545  23485435.354    23485434.9794   23485442.4234
        37.800          34.9004
                  95977315.498 5                                  23068207.438
                        33.300
 125729465.989 6  97970986.92244  23925522.229    23925522.3584   23925517.5604
        37.000          24.9004
 123602434.476 6  96135222.080 5  23081875.133    23081875.116    23081882.634
        39.900          32.900
 105711133.376 8  82219788.867 8  19747710.263    19747710.862    19747717.019
        48.400          49.200


 125952498.084 7                  23967966.938
        47.100
 105568304.757 8  82108672.867 7  19776498.031    19776498.147    19776503.922
        50.500          46.000


 103793760.881 7  80728527.285 7  19396351.975    19396352.427    19396357.517
        47.200          43.300
 107528694.523 7  83633459.665 8  20150827.035    20150827.169    20150832.908
        47.300          48.700
 198898761.811 7                  37849188.381
        42.800
 202025720.784 7                  38444225.308
        42.600
 123644627.265 7                  23528773.865
        46.600
 129089427.761 6                  24564897.793
        40.400
 125006089.818 7                  23787853.034
        45.200


 25  1  1  8 19 15.0000000  0 25G18G23G15E29G32G24E33G10G27G05G29R04
                                R03E15E26R18S35R17R02S31S33E07E08E13
                                R24
 106638351.180 8  83094840.23746  20292602.322    20292602.0864   20292602.1234
        49.200          40.1004
 108803593.612 7  84782052.35645  20704635.879    20704635.5084   20704635.3074
        45.500          35.3004
 108812404.027 6  84788874.38145  20706292.307    20706292.0974   20706293.3024
        41.400          31.5004
 141651172.026 6                  26955318.066
        36.600


 117929703.312 7  91893302.36346  22441278.553    22441278.3304   22441281.4184
        42.300          36.6004


 122834642.936 7  95715264.30946  23374625.164    23374624.6864   23374626.7814
        46.700          40.9004
 123392608.936 6  96150044.94345  23480826.799    23480826.4554   23480831.5814
        40.500          34.7004
 130194584.366 4                  24775204.726
        27.100
 125785182.659 6  98014402.40244  23936128.054    23936128.2194   23936120.6004
        37.800          25.5004
 123550915.120 7  96095151.458 4  23072258.340    23072257.953    23072261.535
        43.200          29.100
 105693228.370 8  82205862.722 8  19744367.154    19744367.421    19744371.740
        50.500          49.000


 125930555.103 7                  23963791.625
        47.000
 105536131.967 8  82083649.578 7  19770470.740    19770470.923    19770477.101
        50.000          45.500
 200877622.630 5                  38225733.374
        35.700
 103819838.034 7  80748809.511 7  19401224.274    19401223.616    19401229.444
        45.800          42.100
 107564218.794 7  83661089.665 8  20157482.761    20157483.564    20157489.665
        45.900          48.200
 198898765.431 7                  37849188.072
        44.100
 202025694.307 7                  38444217.809
        44.400
 123627686.942 7                  23525550.006
        46.400
 129114109.493 6                  24569595.250
        39.300
 125021820.947 7                  23790846.283
        43.900
 124442341.552 6                  23271347.020    23271345.376
        37.200
 25  1  1  8 19 30.0000000  0 25G18G23G15E29G32G24E33G10G27R19G29R04
                                R03E15E26R18S35R17R02S31S33E07E08E13
                                R24
 106639950.380 7  83096086.38246  20292906.637    20292906.4054   20292906.3764
        47.000          38.2004
 108790659.998 7  84771974.21845  20702174.938    20702174.5634   20702174.3364
        46.700          35.8004
 108845471.974 6  84814641.59745  20712586.225    20712585.9624   20712586.1894
        40.800          30.6004
 141607719.315 6                  26947049.479
        37.700


 117890879.972 7  91863050.46646  22433890.387    22433890.1514   22433894.1454
        42.600          36.2004
 145487456.371 5                  27685342.276
        35.900
 122801467.536 7  95689413.36247  23368312.503    23368312.0384   23368315.0194
        46.900          42.1004
 123368517.509 6  96131272.35645  23476242.176    23476241.7874   23476246.3124
        39.900          34.0004
                  95881537.892 6                                  23045186.376
                        36.600
 125840912.213 6  98057827.92744  23946725.921    23946725.8454   23946726.3674
        37.700          26.6004
 123499458.627 7                  23062647.965    23062648.297
        43.800
 105675452.595 8  82192037.150 8  19741046.412    19741045.135    19741050.384
        48.600          48.000


 125908657.487 7                  23959624.748
        46.700
 105504104.259 8  82058739.119 7  19764471.095    19764471.396    19764476.608
        49.000          43.700
 200877628.651 5                  38225741.356
        32.500
 103846088.638 8  80769226.582 7  19406131.641    19406133.323    19406135.163
        49.700          42.900
 107599823.792 7  83688782.452 8  20164155.673    20164155.354    20164162.068
        45.300          48.600
 198898765.825 7                  37849179.370
        43.100
 202025664.422 7                  38444211.683
        44.500
 123610834.461 7                  23522343.025
        47.500
 129138859.732 6                  24574305.201
        36.400
 125037619.134 7                  23793853.024
        43.600


 25  1  1  8 19 45.0000000  0 24G18G23G15E29G32G24E33G10G27G29R04R03
                                E15E26R18S35R17R02S31S33E07E08E13R24
 106641670.722 7  83097426.93446  20293234.470    20293234.2474   20293233.8784
        44.900          36.6004
 108777780.189 7  84761938.00146  20699723.800    20699723.4074   20699723.3414
        47.400          36.7004
 108878646.007 6  84840491.46344  20718899.768    20718899.4964   20718898.9364
        36.300          29.6004
 141564297.029 6                  26938784.856
        37.700


 117852152.179 6  91832873.03145  22426519.844    22426519.6704   22426524.2144
        38.500          34.8004
 145447897.298 6                  27677807.986
        36.100
 122768315.380 7  95663580.52846  23362004.755    23362004.2904   23362006.7454
        43.700          41.2004
 123344559.814 7  96112603.98745  23471684.024    23471683.6134   23471687.1084
        42.200          35.2004
 125896657.668 5  98101265.94143  23957331.530    23957331.4194   23957334.6664
        33.000          23.8004
 123448068.722 6                  23053050.437    23053048.480
        37.200
 105657809.345 7  82178314.643 7  19737749.389    19737748.436    19737754.754
        47.800          47.800


 125886808.811 7                  23955466.604
        46.100
 105472225.395 7  82033944.467 7  19758497.040    19758496.485    19758504.188
        44.500          42.700
 200877635.384 5                  38225759.685
        31.600
 103872515.954 8  80789781.162 7  19411070.628    19411071.707    19411074.848
        51.400          44.000
 107635512.719 7  83716540.484 7  20170844.479    20170844.061    20170849.787
        46.800          47.900
 198898767.672 7                  37849181.705
        43.600
 202025636.214 7                  38444211.513
        46.200
 123594073.246 7                  23519152.878
        47.200
 129163681.797 6                  24579029.355
        36.500
 125053487.804 7                  23796872.569
        44.400
 124569072.843 6  96887162.947 5  23295052.407    23295058.699    23295071.240
        37.600          33.400
 25  1  1  8 20  0.0000000  0 25G18G23G15E29G32G24E33G10G27G05G29R04
                                R03E15E26R18S35R17R02S31S33E07E08E13
                                R24
 106643509.917 7  83098860.06746  20293583.590    20293583.3134   20293583.9934
        46.400          36.3004
 108764951.832 8  84751941.88346  20697282.472    20697282.1104   20697282.5514
        49.300          38.1004
 108911923.144 5  84866421.67244  20725230.615    20725230.3384   20725230.8524
        35.300          25.6004
 141520903.023 6                  26930528.159
        38.000


 117813517.991 7  91802768.53245  22419168.955    22419168.7994   22419171.0694
        42.400          35.2004
 145408329.825 5                  27670274.372
        35.100
 122735184.044 7  95637763.93046  23355700.233    23355699.7644   23355701.1984
        44.700          39.6004
 123320733.711 7  96094038.13546  23467149.077    23467148.6714   23467152.8744
        43.600          36.5004
 130322463.054 6 101550012.2324   24799540.230    24799540.5564   24799552.4514
        36.000           4.0004
 125952416.485 4  98144714.34842  23967951.577    23967951.4214   23967944.1724
        26.300          17.6004
 123396742.950 5  95975254.874 5  23043467.541    23043465.189    23043476.838
        35.000          34.800
 105640296.309 8  82164693.409 8  19734478.432    19734477.816    19734484.410
        48.600          48.500


 125865006.857 7                  23951317.907
        45.700
 105440493.613 7  82009264.161 7  19752555.292    19752553.529    19752561.071
        44.900          43.000
 200877640.486 5                  38225762.515
        32.700
 103899117.340 8  80810471.118 7  19416041.438    19416042.028    19416046.166
        50.800          45.700
 107671282.390 8  83744361.351 7  20177548.033    20177547.681    20177553.411
        48.300          47.800
 198898767.265 7                  37849183.829
        43.000
 202025605.664 7                  38444204.318
        44.700
 123577400.958 7                  23515980.227
        47.800
 129188573.020 6                  24583763.207
        36.300
 125069424.634 7                  23799904.951
        44.000
 124632548.654 6  96936532.963 5  23306933.530    23306933.602    23306950.325
        40.000          35.200
 25  1  1  8 20 15.0000000  0 25G18G23G15E29G32G24E33G10G27G05G29R04
                                R03E15E26R18S35R17R02S31S33E07E08E13
                                R24
 106645468.550 7  83100386.28146  20293956.544    20293956.2314   20293956.6274
        46.400          37.4004
 108752175.387 8  84741986.21846  20694850.782    20694850.4344   20694851.9114
        49.200          38.6004
 108945303.836 6  84892432.64743  20731583.990    20731583.6514   20731580.9634
        36.500          23.7004
 141477537.864 5                  26922273.975
        35.900


 117774978.262 7  91772737.65546  22411834.695    22411834.5214   22411836.7584
        42.600          36.9004
 145368754.612 5                  27662745.688
        34.000
 122702074.000 7  95611963.93845  23349396.180    23349395.6264   23349399.5464
        42.400          35.2004
 123297039.878 7  96075575.35446  23462640.355    23462639.9664   23462644.9874
        45.900          38.2004
 130365099.685 5 101583236.08741  24807654.256    24807654.6044   24807662.5084
        33.700           8.5004


 123345482.315 5  95935385.386 5  23033896.342    23033890.703    23033901.229
        35.000          35.300
 105622913.916 8  82151173.765 8  19731231.001    19731230.452    19731236.188
        48.300          48.500


 125843252.282 7                  23947178.652
        45.900
 105408909.626 7  81984698.861 6  19746638.865    19746637.537    19746642.485
        45.700          41.700
 200877644.469 5                  38225750.348
        34.900
 103925893.296 8  80831296.806 7  19421045.346    19421045.840    19421051.557
        49.900          47.400
 107707133.070 8  83772245.203 7  20184265.989    20184265.891    20184271.201
        48.800          46.200
 198898765.874 7                  37849184.996
        42.700
 202025573.846 7                  38444201.738
        44.500
 123560818.112 8                  23512824.691
        48.000
 129213533.718 6                  24588516.489
        38.300
 125085430.130 7                  23802950.828
        44.500
 124696070.992 6  96985939.229 5  23318808.770    23318808.095    23318828.341
        39.300          33.600
 25  1  1  8 20 30.0000000  0 27G18G23G15E29G32G24E33G10G27G05R19G29
                                R04R11R03E15E26R18S35R17R02S31S33E07
                                E08E13R24
 106647554.545 7  83102011.72146  20294353.768    20294353.4474   20294353.5464
        47.300          38.6004
 108739458.609 8  84732077.04246  20692431.093    20692430.7584   20692432.4324
        48.200          38.3004
 108978795.612 7  84918530.16244  20737956.834    20737956.5264   20737951.7734
        44.200          26.5004
 141434209.492 5                  26914027.238
        31.600
 131847211.797 5                  25089690.940
        32.200
 117736541.205 7  91742786.75646  22404520.182    22404520.0174   22404523.4334
        44.000          39.1004
 145329179.388 5                  27655215.445
        35.900
 122668993.016 6  95586186.57545  23343100.291    23343099.6974   23343104.1634
        41.600          33.3004
 123273486.246 7  96057221.82646  23458157.863    23458157.4664   23458164.3414
        45.000          38.4004
 130407744.956 5 101616466.16841  24815768.272    24815768.4864   24815775.9544
        30.300           6.6004
                  95690272.707 6                                  22999215.627
                        38.000
 126063981.493 5  98231648.38943  23989185.117    23989184.5944   23989172.0284
        35.200          19.0004
 123294294.478 7  95895572.643 5  23024333.853    23024333.419    23024338.508
        42.200          34.900
 129958862.041 5                  24320027.573
        30.200
 105605670.206 8  82137762.014 8  19728009.940    19728010.164    19728015.046
        50.000          49.400


 125821552.971 7                  23943048.634
        45.100
 105377481.832 8  81960255.024 6  19740752.025    19740752.448    19740754.091
        48.200          40.800
 200877654.731 6                  38225738.869
        37.000
 103952851.448 8  80852264.246 7  19426083.521    19426082.904    19426089.300
        49.200          47.600
 107743072.279 8  83800197.949 7  20191001.929    20191001.720    20191004.946
        49.700          44.700
 198898770.958 6                  37849186.409
        41.800
 202025548.846 7                  38444194.726
        43.800
 123544332.436 8                  23509688.046
        48.800
 129238571.524 6                  24593283.225
        38.000
 125101512.099 7                  23806011.346
        45.300
 124759647.370 6  97035387.567 5  23330695.566    23330697.683    23330708.221
        36.000          33.700
 25  1  1  8 20 45.0000000  0 24G18G23G15E29G24E33G10G27R19G29R04R03
                                E15E26R18S35R17R02S31G13S33E07E08E13
 106649754.996 8  83103726.39046  20294772.398    20294772.0854   20294772.6084
        48.000          39.6004
 108726788.541 7  84722204.27546  20690020.467    20690020.1504   20690021.2314
        47.400          37.4004
 109012385.182 7  84944703.85445  20744349.083    20744348.7934   20744344.7044
        43.000          30.5004
 141390905.073 5                  26905787.816
        34.800
 117698194.162 7  91712905.94446  22397223.074    22397222.8964   22397225.7544
        45.000          40.3004
 145289591.176 5                  27647680.366
        30.300
 122635928.034 6  95560421.67345  23336809.544    23336808.9144   23336813.0514
        39.800          34.4004
 123250059.962 7  96038967.61846  23453700.856    23453700.4544   23453706.1024
        44.200          38.0004
                  95642517.109 6                                  22987738.162
                        39.200


 123243166.769 7  95855806.743 5  23014783.541    23014784.989    23014789.899
        44.300          32.800
 105588551.607 8  82124447.564 8  19724811.955    19724812.860    19724816.816
        53.000          49.200
 146158393.575 5                  27813013.371
        32.800
 125799896.143 7                  23938927.314
        45.500
 105346197.260 7  81935922.581 7  19734889.462    19734888.630    19734892.076
        44.700          42.800


 103979978.528 8  80873363.078 7  19431151.040    19431152.374    19431157.097
        49.400          45.600
 107779086.537 8  83828208.999 7  20197751.202    20197751.799    20197755.021
        52.200          44.800
 198898769.735 6                  37849179.701
        41.800
 122879936.392 6                  23383272.854
        36.200
 202025516.401 6                  38444190.595
        38.100
 123527930.974 8                  23506567.267
        48.900
 129263673.099 5                  24598050.852
        32.200
 125117657.574 7                  23809084.294
        47.800
 25  1  1  8 21  0.0000000  0 25G18G23G15E29G24E33G10G27R19G29R04R03
                                E15E26R18S35R17R02S31G13S33E07E08E13
                                R24
 106652081.250 8  83105539.02546  20295215.390    20295215.0954   20295215.4604
        49.300          41.1004
 108714176.286 7  84712376.57046  20687620.062    20687619.7584   20687620.9444
        47.400          36.9004
 109046083.280 7  84970962.11245  20750762.632    20750762.3334   20750758.8574
        46.000          30.8004
 141347635.783 5                  26897553.365
        33.800
 117659948.878 7  91683104.46846  22389945.635    22389945.4434   22389947.9784
        45.900          40.9004
 145250001.647 4                  27640145.868
        26.100
 122602890.292 6  95534678.02146  23330524.388    23330523.8214   23330527.8284
        40.400          36.1004
 123226772.482 7  96020821.42245  23449268.828    23449268.3864   23449274.6484
        42.700          34.4004
                  95594791.166 6                                  22976268.016
                        39.600
 126175600.360 5  98318640.02342  24010424.458    24010424.0834   24010412.1154
        33.700          16.9004
 123192110.589 7  95816096.342 6  23005249.556    23005250.483    23005257.799
        44.100          38.800
 105571569.468 8  82111239.245 8  19721638.038    19721639.072    19721644.522
        52.000          49.600
 146196554.035 4                  27820283.777
        28.100
 125778293.130 7                  23934816.990
        44.700
 105315068.076 7  81911711.066 7  19729057.414    19729058.122    19729062.140
        47.600          42.800
 200877622.193 6                  38225742.335
        40.700
 104007285.752 8  80894602.030 7  19436255.385    19436256.078    19436260.905
        49.100          46.600
 107815186.836 8  83856287.015 7  20204516.349    20204516.962    20204521.364
        53.600          46.200
 198898773.104 7                  37849191.238
        42.900
 122932060.395 5                  23393192.504
        35.900
 202025490.407 7                  38444187.353
        42.500
 123511624.994 8                  23503463.581
        48.600
 129288849.475 5                  24602844.502
        35.600
 125133877.800 7                  23812170.735
        47.500
 124887135.974 6                  23354504.940    23354505.004
        37.000
 25  1  1  8 21 15.0000000  0 24G18G23G15E29G24E33G10G27R19R04R03E15
                                E26R18S35R17R02S31G13S33E07E08E13R24
 106654524.021 8  83107442.47746  20295680.254    20295679.9684   20295680.7734
        50.100          41.4004
 108701612.615 7  84702586.70045  20685229.429    20685229.1124   20685229.5124
        46.100          35.6004
 109079880.191 7  84997297.30245  20757192.358    20757192.0414   20757191.6714
        42.800          30.7004
 141304392.623 6                  26889327.597
        36.300
 117621796.262 7  91653375.18347  22382685.188    22382684.9964   22382687.8074
        45.300          42.5004


 122569870.457 7  95508948.28246  23324241.144    23324240.6174   23324244.8134
        44.300          40.5004
 123203614.602 6  96002776.29145  23444860.976    23444860.5834   23444866.9074
        38.900          33.0004
 122846161.653 5  95547087.817 6  22964795.455                    22964800.638
        31.800          37.300
 123141116.748 7  95776434.454 6  22995729.708    22995731.249    22995734.406
        44.000          38.500
 105554714.324 8  82098129.673 8  19718491.696    19718491.832    19718496.048
        52.500          49.700
 146234741.091 4                  27827551.238
        28.800
 125756734.763 7                  23930714.348
        45.100
 105284084.955 7  81887613.078 7  19723253.255    19723253.500    19723258.712
        46.200          44.100


 104034763.166 8  80915973.328 7  19441390.735    19441390.883    19441395.097
        50.300          45.900
 107851363.070 8  83884424.046 7  20211296.000    20211296.630    20211300.380
        52.400          46.200
 198898771.401 6                  37849180.582
        41.500
 122984232.743 6                  23403120.110
        36.000
 202025459.221 7                  38444177.193
        43.900
 123495405.149 7                  23500377.299
        47.500
 129314091.354 6                  24607649.109
        36.100
 125150163.485 7                  23815269.372
        46.800
 124950845.636 5                  23366417.414    23366418.287
        34.400
 25  1  1  8 21 30.0000000  0 24G18G23G15E29G24E33G10G27R19R04R03E15
                                E26R18S35R17R02S31G13S33E07E08E13R24
 106657085.859 8  83109438.72646  20296167.383    20296167.1064   20296168.1354
        49.000          41.2004
 108689099.799 7  84692836.45745  20682848.655    20682848.3514   20682847.8674
        47.000          35.6004
 109113778.105 6  85023711.26944  20763642.079    20763641.7494   20763642.2244
        39.400          27.5004
 141261178.030 6                  26881102.995
        37.400
 117583739.159 7  91623720.34146  22375442.998    22375442.8384   22375446.4124
        44.100          41.7004


 122536870.908 7  95483234.33446  23317961.355    23317960.8194   23317963.5434
        42.900          38.9004
 123180588.758 6  95984833.99345  23440479.245    23440478.8744   23440483.9484
        36.500          31.5004
 122784860.902 5  95499409.418 6  22953339.687    22953337.706    22953342.598
        33.600          37.700
 123090187.563 7  95736822.934 6  22986215.614    22986218.050    22986224.061
        45.700          38.300
 105537988.103 8  82085120.431 8  19715366.871    19715366.468    19715371.609
        51.600          49.700
 146272956.750 4                  27834819.619
        29.700
 125735223.557 7                  23926621.575
        46.400
 105253250.853 7  81863630.996 7  19717478.847    19717478.757    19717482.422
        47.500          45.100


 104062413.277 8  80937478.934 7  19446558.555    19446559.305    19446562.423
        52.100          46.900
 107887617.510 8  83912621.942 7  20218090.131    20218090.398    20218093.758
        52.600          45.700
 198898768.473 6                  37849189.087
        41.100
 123036455.788 5                  23413057.284
        32.100
 202025425.859 6                  38444169.059
        41.900
 123479273.769 8                  23497307.816
        48.100
 129339400.617 5                  24612465.080
        35.800
 125166516.994 7                  23818382.066
        46.600


 25  1  1  8 21 45.0000000  0 24G18G23G15E29G24E33G10G27R19G29R04R03
                                E15E26R18S35R17R02S31S33E07E08E13R24
 106659773.395 8  83111532.90446  20296679.499    20296679.2274   20296679.1294
        49.200          40.1004
 108676644.512 7  84683131.01946  20680477.884    20680477.5804   20680477.2464
        47.500          36.0004
 109147783.321 7  85050208.85545  20770114.654    20770114.3464   20770115.1344
        44.700          34.4004
 141217998.712 6                  26872886.076
        36.400
 117545784.506 7  91594145.35846  22368220.844    22368220.6574   22368224.3754
        43.200          39.6004
 145131134.330 5                  27617535.900
        31.400
 122503898.154 7  95457541.28546  23311687.072    23311686.5764   23311687.7954
        44.400          38.5004
 123157701.893 6  95967000.12745  23436125.595    23436125.2564   23436128.6054
        41.300          33.2004
 122723598.925 5  95451761.239 5  22941881.439    22941883.247    22941890.947
        33.500          33.000
 126343158.951 3                  24042303.924
        23.100
 123039330.143 6  95697267.195 6  22976721.550    22976720.414    22976728.230
        41.600          36.800
 105521398.004 8  82072217.043 7  19712266.400    19712266.475    19712272.838
        51.500          47.900
 146311207.589 4                  27842095.557
        29.800
 125713766.339 7                  23922537.466
        44.100
 105222572.812 7  81839770.285 7  19711730.668    19711730.965    19711736.696
        47.900          45.800
 200877683.690 7                  38225743.855
        42.100
 104090242.722 8  80959124.045 7  19451759.202    19451759.569    19451762.813
        50.800          46.300
 107923956.476 7  83940885.622 7  20224896.143    20224896.158    20224904.759
        45.600          47.700
 198898769.045 6                  37849189.128
        41.800
 202025396.885 7                  38444160.197
        42.800
 123463237.564 7                  23494255.862
        46.100


 125182944.956 7                  23821508.194
        46.700
 125078401.338 6                  23390267.494    23390270.029
        36.400
 25  1  1  8 22  0.0000000  0 24G18G23G15E29G32G24E33G10G27R19R04R03
                                E15E26R18S35R17R02S31S33E07E08E13R24
 106662580.012 7  83113719.85846  20297213.164    20297212.8784   20297212.4824
        47.400          39.5004
 108664239.961 7  84673465.13645  20678117.102    20678116.8034   20678116.4844
        46.600          35.7004
 109181888.593 7  85076784.39045  20776604.917    20776604.6364   20776607.0904
        42.000          34.9004
 141174848.171 5                  26864674.193
        33.200


 117507926.025 6  91564645.25446  22361016.761    22361016.5424   22361019.5674
        41.700          36.0004
 145091515.879 5                  27609998.907
        34.600
 122470945.388 7  95431863.82046  23305416.075    23305415.6194   23305417.3464
        46.100          40.4004
 123134947.318 7  95949269.24345  23431794.731    23431794.3694   23431798.3534
        42.300          32.9004
 122662369.376 4  95404138.361 5  22930434.647    22930435.057    22930441.996
        29.300          33.300
 122988537.622 7  95657761.947 6  22967235.716    22967235.270    22967243.235
        42.000          36.200
 105504936.657 8  82059413.731 8  19709191.690    19709191.211    19709197.095
        49.900          48.100
 146349486.940 5                  27849379.828
        34.100
 125692356.457 7                  23918463.609
        44.900
 105192044.469 7  81816025.969 8  19706012.139    19706011.925    19706017.835
        46.500          48.600
 200877687.108 5                  38225745.228
        30.600
 104118244.373 8  80980903.089 7  19456991.477    19456991.171    19456994.866
        50.200          45.800
 107960372.589 8  83969209.238 8  20231723.073    20231722.721    20231728.670
        50.100          48.400
 198898767.271 7                  37849186.449
        43.000
 202025365.270 7                  38444156.610
        44.600
 123447289.759 7                  23491220.903
        46.100
 129390202.879 5                  24622138.919
        34.800
 125199440.681 7                  23824647.085
        46.800


 25  1  1  8 22 15.0000000  0 24G18G23G15E29G32G24E33G10G27R19R04R03
                                E15E26R18S35R17R02S31S33E07E08E13R24
 106665512.677 8  83116005.03146  20297772.244    20297771.9724   20297770.5014
        50.300          41.1004
 108651893.030 7  84663844.15545  20675767.492    20675767.2024   20675767.2454
        45.200          35.7004
 109216100.640 7  85103443.12445  20783114.638    20783114.3934   20783118.4794
        44.300          33.9004
 141131733.355 6                  26856472.035
        36.300
 131484276.991 5                  25020624.686
        32.400
 117470171.026 6  91535225.79645  22353831.895    22353831.6944   22353834.8194
        36.500          33.6004
 145051896.122 6                  27602458.369
        36.600
 122438019.527 7  95406207.32446  23299149.747    23299149.2964   23299152.0224
        47.400          41.2004
 123112332.118 6  95931647.02344  23427490.968    23427490.6114   23427492.8874
        39.500          29.3004
 122601180.072 4  95356546.695 5  22918997.520    22918995.216    22919003.054
        24.800          34.800
 122937817.354 6  95618312.743 6  22957764.158    22957763.439    22957772.048
        40.800          36.700
 105488611.411 8  82046716.320 7  19706143.177    19706141.636    19706146.911
        49.000          47.100
 146387801.662 5                  27856668.393
        31.800
 125671000.957 7                  23914399.550
        45.600
 105161673.130 7  81792403.796 8  19700320.949    19700319.800    19700327.945
        43.800          48.400


 104146424.909 7  81002821.293 7  19462256.362    19462256.019    19462261.664
        47.300          46.700
 107996872.568 8  83997598.086 7  20238563.004    20238562.752    20238568.356
        49.300          47.300
 198898770.429 7                  37849185.608
        42.100
 202025338.609 7                  38444151.870
        44.200
 123431437.194 7                  23488203.953
        45.700
 129415726.625 5                  24626996.879
        33.500
 125216011.046 7                  23827799.672
        42.200
 125206141.691 6                  23414153.730    23414156.775
        39.400
 25  1  1  8 22 30.0000000  0 26G18G23G15E29G32G24E33G10G27G05R19R04
                                R03E15E26R18S35R17R02S31G13S33E07E08
                                E13R24
 106668563.998 8  83118382.68347  20298352.390    20298352.1184   20298352.0574
        50.700          42.6004
 108639596.122 7  84654262.15446  20673428.061    20673427.7894   20673428.1044
        46.200          37.1004
 109250411.284 7  85130178.67045  20789643.553    20789643.3124   20789646.0954
        43.400          32.3004
 141088646.766 6                  26848272.704
        37.900
 131432543.005 6                  25010779.559
        36.900
 117432512.197 5  91505881.27745  22346664.960    22346664.7594   22346668.2934
        35.600          30.2004
 145012267.624 4                  27594917.025
        29.600
 122405113.054 7  95380565.94047  23292889.396    23292888.9364   23292890.1364
        47.400          42.9004
 123089848.881 6  95914127.66044  23423214.251    23423213.8714   23423212.3414
        41.100          28.5004
 130748963.863 5 101882324.01041  24880696.503    24880696.2224   24880704.8754
        31.600           8.0004
 122540023.586 4  95308980.473 6  22907566.512    22907566.070    22907572.495
        29.100          37.400
 122887161.831 6  95578913.930 6  22948307.683    22948307.371    22948311.091
        38.300          36.100
 105472414.224 8  82034118.534 7  19703117.613    19703117.670    19703121.872
        52.000          46.300
 146426143.954 5                  27863966.200
        30.400
 125649692.430 7                  23910345.043
        46.700
 105131451.470 7  81768898.064 7  19694661.374    19694659.741    19694666.160
        46.200          47.800


 104174776.734 7  81024872.707 7  19467553.537    19467552.585    19467561.002
        47.600          47.200
 108033448.151 8  84026045.778 7  20245417.230    20245417.695    20245422.974
        49.900          47.800
 198898769.846 7                  37849178.570
        42.400
 123245926.577 5                  23452915.124
        34.900
 202025308.720 7                  38444143.437
        43.900
 123415672.398 7                  23485204.149
        47.100
 129441316.258 6                  24631866.132
        37.700
 125232648.527 6                  23830964.710
        40.200
 125270077.544 6                  23426109.942    23426112.141
        38.100
 25  1  1  8 22 45.0000000  0 26G18G23G15E29G32G24E33G10G27G05R19R04
                                R03E15E26R18S35R17R02S31G13S33E07E08
                                E13R24
 106671738.396 8  83120856.23847  20298956.353    20298956.0814   20298957.2344
        50.100          43.1004
 108627353.634 7  84644722.56246  20671098.441    20671098.1734   20671099.1314
        46.000          37.8004
 109284824.792 7  85156994.38645  20796192.760    20796192.5014   20796192.2384
        43.500          30.5004
 141045592.992 6                  26840078.957
        37.300
 131380836.609 6 102374733.31042  25000938.806    25000939.1504   25000954.6084
        36.000          16.2004
 117394954.475 5  91476615.53644  22339515.368    22339515.1004   22339520.7934
        34.200          28.5004
 144972634.990 5                  27587375.110
        30.200
 122372230.229 8  95354942.96847  23286633.060    23286632.5734   23286632.8694
        48.100          43.8004
 123067502.140 7  95896714.57644  23418961.834    23418961.3694   23418958.0314
        42.300          28.4004
 130791624.387 5 101915566.1244   24888812.878    24888812.3024   24888821.8764
        30.900           3.2004
 122478904.257 5  95261443.214 6  22896135.624    22896139.130    22896146.073
        30.800          36.700
 122836575.295 5  95539568.939 5  22938853.269    22938853.261    22938865.276
        31.200          34.300
 105456349.274 8  82021623.640 7  19700115.953    19700116.791    19700119.057
        52.300          45.700
 146464518.233 5                  27871271.828
        33.600
 125628435.398 7                  23906300.062
        47.500
 105101384.548 7  81745512.688 7  19689028.023    19689026.216    19689033.517
        44.500          47.900
 200877702.838 6                  38225754.690
        37.900
 104203303.960 8  81047060.554 7  19472885.493    19472885.013    19472892.191
        48.600          47.700
 108070103.693 8  84054555.646 8  20252286.421    20252286.345    20252292.271
        50.300          48.600
 198898770.585 7                  37849185.819
        43.100
 123298413.038 6                  23462898.400
        36.000
 202025279.666 7                  38444138.715
        44.700
 123399999.676 8                  23482221.973
        48.700
 129466975.978 6                  24636748.652
        37.900
 125249357.489 6                  23834143.770
        39.100
                                                  23438076.768

 25  1  1  8 23  0.0000000  0 27G18G23G15E29G32G24E33G10G27G05R19G29
                                R04R03E15E26R18S35R17R02S31G13S33E07
                                E08E13R24
 106675032.858 8  83123423.34446  20299582.799    20299582.5224   20299584.0974
        49.300          41.7004
 108615162.443 7  84635222.94546  20668778.311    20668778.0214   20668779.8794
        45.600          37.7004
 109319337.841 7  85183887.64444  20802760.470    20802760.1714   20802754.8714
        43.500          27.7004
 141002569.112 6                  26831890.190
        36.900
 131329155.175 5 102334462.08242  24991105.483    24991105.5764   24991117.4594
        33.300          16.7004
 117357494.973 6  91447426.31744  22332389.374    22332389.1114   22332392.6694
        37.400          28.5004
 144932995.067 5                  27579830.659
        31.200
 122339367.979 7  95329336.01147  23280378.202    23280377.6884   23280379.0814
        47.600          43.6004
 123045288.936 7  95879405.63444  23414734.435    23414733.9214   23414728.5244
        42.200          26.6004
 130834285.051 5                  24896934.279
        30.300
 122417820.184 4  95213933.350 6  22884733.823                    22884727.240
        24.300          36.500
 126622599.506 5  98666930.18441  24095481.251    24095481.4874   24095469.7854
        32.200           9.1004


 105440413.381 8  82009229.119 7  19697138.589    19697139.079    19697143.197
        51.400          45.500
 146502921.296 5                  27878575.999
        31.800
 125607226.932 7                  23902264.639
        47.700
 105071469.503 7  81722245.417 8  19683424.864    19683424.812    19683430.417
        47.500          48.200
 200877707.097 6                  38225750.768
        36.100
 104232003.224 8  81069382.198 7  19478248.905    19478249.887    19478255.889
        50.800          47.700
 108106835.476 8  84083124.794 8  20259171.683    20259171.691    20259176.795
        51.800          49.400
 198898770.264 7                  37849178.552
        42.600
 123350948.376 6                  23472897.073
        36.500
 202025249.408 7                  38444140.700
        43.000
 123384415.946 8                  23479256.582
        49.300
 129492702.410 7                  24641644.802
        42.400
 125266134.882 6                  23837337.668
        39.300
 125398081.698 6                  23450059.490    23450057.448
        38.900
 25  1  1  8 23 15.0000000  0 26G18G23G15E29G32G24E33G10G27G05G29R04
                                R03E15E26R18S35R17R02S31G13S33E07E08
                                E13R24
 106678451.266 8  83126087.01446  20300233.258    20300232.9814   20300233.3414
        48.700          39.7004
 108603026.340 7  84625766.25146  20666469.141    20666468.8204   20666470.7644
        44.800          36.3004
 109353953.764 6  85210861.09044  20809347.924    20809347.5984   20809340.5654
        41.800          28.1004
 140959578.872 5                  26823708.434
        35.500
 131277502.607 5 102294213.30542  24981278.793    24981278.8644   24981285.9664
        31.000          15.7004
 117320137.904 6  91418316.95344  22325278.318    22325277.9474   22325284.9584
        37.300          28.2004
 144893351.831 5                  27572286.668
        32.800
 122306530.056 7  95303748.01147  23274128.441    23274127.9324   23274130.4054
        45.800          42.4004
 123023213.255 7  95862203.80944  23410533.937    23410533.3474   23410524.8594
        42.300          25.4004
 130876949.740 4                  24905053.123
        28.000
 126678521.709 5  98710505.94342  24106106.000    24106105.5894   24106112.9404
        32.800          15.6004
 122735742.190 6                  22920013.534    22920027.278
        40.800
 105424610.680 8  81996938.206 7  19694185.904    19694186.914    19694190.459
        50.900          45.500
 146541356.747 5                  27885891.971
        30.200
 125586070.949 7                  23898239.163
        47.700
 105041710.539 8  81699099.552 8  19677848.287    19677848.931    19677855.368
        48.100          48.400
 200877712.757 5                  38225753.380
        34.200
 104260878.244 8  81091840.506 7  19483645.778    19483646.621    19483651.121
        52.500          46.500
 108143647.043 8  84111756.010 8  20266069.242    20266069.969    20266075.628
        51.900          49.800
 198898770.783 6                  37849175.798
        41.300
 123403536.051 5                  23482903.757
        35.900
 202025220.594 7                  38444129.141
        43.800
 123368925.034 8                  23476308.901
        49.600
 129518499.212 7                  24646553.987
        43.600
 125282984.508 7                  23840543.572
        42.700
 125462149.805 6  97581654.975 5  23462038.469    23462039.048    23462049.238
        40.200          31.900
 25  1  1  8 23 30.0000000  0 26G18G23G15E29G32G24E33G10G27G05G29R04
                                R03E15E26R18S35R17R02S31G13S33E07E08
                                E13R24
 106681993.590 8  83128847.24046  20300906.594    20300906.3224   20300906.3164
        48.400          39.0004
 108590945.167 7  84616352.34145  20664171.086    20664170.7244   20664171.4874
        43.400          34.7004
 109388672.209 7  85237914.42644  20815955.134    20815954.8354   20815947.8304
        45.100          28.9004
 140916622.475 6                  26815536.169
        36.100
 131225878.993 5 102253987.11641  24971462.397    24971462.3534   24971460.4434
        30.200          10.9004
 117282883.654 6  91389287.71344  22318190.382    22318189.9354   22318196.0634
        36.100          27.5004
 144853705.277 6                  27564742.483
        36.400
 122273716.331 7  95278178.86646  23267884.038    23267883.5424   23267885.8824
        44.100          40.4004
 123001275.103 7  95845109.13644  23406358.452    23406357.7864   23406349.1024
        44.100          25.3004
 130919618.115 4                  24913171.852
        29.700
 126734455.499 5  98754090.72342  24116754.280    24116754.1024   24116757.5354
        32.000          17.3004
 122685362.192 5                  22910591.982    22910593.567
        32.900
 105408940.500 8  81984750.333 7  19691257.807    19691258.064    19691263.205
        48.900          45.100
 146579824.380 5                  27893215.732
        33.700
 125564967.511 7                  23894223.256
        47.600
 105012107.992 7  81676075.331 8  19672303.905    19672303.368    19672309.608
        46.700          48.200
 200877721.662 6                  38225763.074
        38.100
 104289928.668 8  81114435.249 7  19489074.505    19489074.867    19489079.635
        52.400          45.800
 108180537.903 8  84140448.901 8  20272983.029    20272984.301    20272989.042
        53.200          49.800
 198898773.363 6                  37849181.763
        40.900
 123456175.464 6                  23492918.970
        36.000
 202025193.472 7                  38444128.072
        43.500
 123353526.776 8                  23473378.666
        50.200
 129544365.982 7                  24651476.422
        42.900
 125299906.277 7                  23843764.626
        45.800
 125526262.554 5  97631520.491 4  23474025.112    23474020.828    23474021.971
        35.500          28.500
 25  1  1  8 23 45.0000000  0 25G18G23G15E29G32G24E33G10G27G05G29R04
                                R03E15E26R18S35R17R02S31G13S33E07E08
                                E13
 106685655.456 8  83131700.63046  20301603.964    20301603.6784   20301603.2314
        48.100          39.5004
 108578914.462 7  84606977.75545  20661881.847    20661881.4724   20661881.6194
        42.000          34.4004
 109423488.161 7  85265043.69744  20822578.933    20822578.6344   20822573.4344
        45.900          28.9004
 140873695.528 5                  26807367.267
        30.300


 117245728.027 6  91360335.31544  22311121.426    22311121.0154   22311123.8394
        39.100          26.7004
 144814050.996 5                  27557194.881
        35.600
 122240922.325 6  95252625.08246  23261643.791    23261643.2954   23261645.6084
        40.800          37.5004
 122979470.142 6  95828118.20244  23402208.736    23402208.0084   23402202.4014
        41.000          27.0004
 130962285.498 4                  24921294.241
        27.500
 126790396.007 4  98797680.67443  24127398.333    24127398.0614   24127404.4734
        29.700          18.1004
 122635048.245 5  95382708.318 6  22901207.684    22901207.730    22901205.915
        34.800          36.500
 105393398.652 8  81972662.225 7  19688356.405    19688356.410    19688358.864
        50.500          44.400
 146618319.753 5                  27900544.240
        32.500
 125543912.267 7                  23890215.769
        46.700
 104982657.750 8  81653169.567 8  19666787.686    19666786.642    19666793.115
        48.200          48.200
 200877726.611 6                  38225755.517
        38.100
 104319149.718 8  81137162.723 7  19494535.651    19494535.286    19494540.224
        52.000          46.300
 108217502.905 8  84169199.456 7  20279910.293    20279911.108    20279915.143
        52.200          47.700
 198898773.741 7                  37849183.136
        42.000
 123508861.794 5                  23502945.865
        34.200
 202025164.629 7                  38444121.647
        43.800
 123338216.690 8                  23470465.061
        49.500
 129570298.074 7                  24656411.313
        44.100
 125316895.727 7                  23846997.450
        45.300
 25  1  1  8 24  0.0000000  0 25G18G23G15E29G32G24E33G10G27G05G29R04
                                R03E15E26R18S35R17R02S31G13S33E07E08
                                E13
 106689442.155 8  83134651.27746  20302325.616    20302325.3304   20302324.5854
        48.100          41.3004
 108566939.432 7  84597646.55245  20659601.895    20659601.4934   20659602.6924
        43.800          35.2004
 109458406.674 7  85292252.89945  20829223.573    20829223.2564   20829220.2234
        45.800          31.1004
 140830803.256 5                  26799204.982
        31.100


 117208676.632 6  91331464.10444  22304069.494    22304069.0654   22304071.9294
        41.700          24.8004
 144774394.322 6                  27549648.980
        36.000
 122208153.197 6  95227090.65946  23255406.492    23255405.9834   23255410.0244
        38.200          36.1004
 122957803.745 6  95811235.25844  23398086.317    23398085.5714   23398083.0534
        40.600          28.3004
 131004957.412 4                  24929411.858
        24.500
 126846348.213 6  98841279.92143  24138046.848    24138046.6204   24138051.0304
        36.400          18.4004
 122584805.654 5  95343630.735 5  22891829.974    22891832.070    22891821.647
        34.600          35.800
 105377989.784 8  81960677.570 7  19685476.789    19685477.512    19685480.382
        51.000          44.600
 146656848.061 4                  27907874.139
        28.200
 125522910.588 7                  23886219.908
        45.400
 104953365.468 8  81630386.700 7  19661299.863    19661300.064    19661305.849
        50.300          47.300


 104348546.586 8  81160027.002 7  19500027.875    19500028.343    19500034.037
        52.300          46.200
 108254547.228 8  84198011.689 7  20286852.275    20286852.278    20286856.188
        51.400          45.600
 198898775.827 7                  37849186.507
        42.100
 123561599.881 5                  23512982.428
        33.900
 202025137.719 7                  38444113.987
        45.500
 123323000.023 8                  23467569.570
        50.000
 129596300.486 7                  24661359.226
        42.800
 125333958.097 7                  23850244.981
        47.600
 25  1  1  8 24 15.0000000  0 25G18G23G15E29G32G24E33G10G27R19G29R04
                                R03E15E26R18S35R17R02S31G13S33E07E08
                                E13
 106693347.972 8  83137694.73647  20303068.521    20303068.2314   20303068.2834
        49.900          42.5004
 108555014.228 7  84588354.19945  20657332.262    20657331.8564   20657333.1164
        45.700          35.0004
 109493421.589 7  85319537.19545  20835886.054    20835885.7414   20835886.5504
        44.000          32.0004
 140787940.085 5                  26791047.807
        32.300


 117171724.062 6  91302669.93244  22297037.707    22297037.3594   22297042.3154
        41.200          27.7004
 144734729.538 6                  27542102.413
        37.600
 122175403.208 6  95201571.17845  23249176.332    23249175.8544   23249178.0274
        37.100          34.6004
 122936270.243 6  95794455.89445  23393987.996    23393987.2504   23393988.4464
        41.000          30.5004
                  94976833.582 5                                  22827739.742
                        32.600
 126902306.110 6  98884883.43843  24148693.951    24148693.7234   24148700.7584
        36.300          18.0004
 122534628.124 4  95304604.014 6  22882474.931    22882468.215    22882452.422
        27.600          37.600
 105362708.543 8  81948792.216 7  19682621.767    19682622.328    19682625.542
        50.500          44.400


 125501956.838 7                  23882232.687
        44.000
 104924225.578 8  81607722.317 7  19655841.206    19655841.452    19655845.362
        50.200          45.300


 104378112.998 8  81183023.108 7  19505552.866    19505553.328    19505559.170
        52.000          45.400
 108291664.182 8  84226880.429 7  20293807.322    20293807.529    20293811.690
        50.500          45.800
 198898774.909 6                  37849187.911
        40.800
 123614383.511 5                  23523025.650
        32.400
 202025106.923 7                  38444114.461
        44.400
 123307870.964 8                  23464690.121
        48.200
 129622367.145 7                  24666318.839
        42.100
 125351087.555 8                  23853504.460
        48.800
 25  1  1  8 24 30.0000000  0 25G18G23G15E29G32G24E33G10G27R19G29R04
                                R03E15E26R18S35R17R02S31G13S33E07E08
                                E13
 106697378.701 8  83140835.56547  20303834.656    20303834.3614   20303835.6404
        50.600          42.6004
 108543144.534 7  84579105.09145  20655072.619    20655072.2134   20655074.7944
        46.500          35.2004
 109528538.086 6  85346900.69045  20842569.608    20842569.2914   20842572.0954
        41.500          31.0004
 140745111.761 5                  26782900.683
        31.800
 131019602.048 6 102093250.58942  24932207.774    24932207.5644   24932212.4534
        38.500          14.4004
 117134876.405 6  91273957.48743  22290027.366    22290026.9774   22290032.8644
        39.100          20.6004
 144695062.426 5                  27534554.716
        35.400
 122142677.800 6  95176070.87046  23242950.586    23242950.1664   23242950.7334
        40.700          36.6004
 122914875.485 7  95777784.58845  23389917.437    23389916.6504   23389917.9014
        42.600          31.7004
                  94929504.799 5                                  22816368.231
                        33.900
 126958274.597 6  98928495.33842  24159344.381    24159344.2434   24159353.2414
        36.600          16.1004
                  95265632.972 6                                  22873097.072
                        40.100
 105347559.784 8  81937009.869 7  19679792.265    19679792.904    19679796.154
        50.700          45.100


 125481056.826 7                  23878255.139
        42.900
 104895244.379 8  81585181.395 7  19650411.986    19650413.005    19650414.179
        50.600          42.800
 200877730.421 6                  38225764.013
        38.100
 104407854.751 8  81206155.534 7  19511111.712    19511112.159    19511116.887
        52.300          45.200
 108328859.403 8  84255810.025 7  20300776.492    20300776.843    20300781.858
        48.300          45.400
 198898776.554 7                  37849191.171
        44.300
 123667218.132 5                  23533078.410
        30.100
 202025079.056 7                  38444106.765
        42.900
 123292835.181 8                  23461829.058
        48.400
 129648503.643 7                  24671293.219
        42.700
 125368289.834 8                  23856777.389
        48.500
 25  1  1  8 24 45.0000000  0 25G18G23G15E29G32G24E33G10G27G29R04R03
                                E15E26R18S35R17R02S31G13S33E07E08E13
                                R24
 106701530.294 8  83144070.57147  20304624.724    20304624.4344   20304625.9144
        50.800          43.2004
 108531326.219 7  84569896.03545  20652823.549    20652823.1604   20652825.4474
        47.600          34.7004
 109563751.868 7  85374340.00144  20849270.909    20849270.5434   20849274.2304
        42.300          29.4004
 140702314.398 5                  26774768.372
        33.900
 130968114.380 5 102053130.37643  24922412.778    24922412.5824   24922413.1384
        34.300          18.6004
 117098129.811 6  91245323.91342  22283036.180    22283035.9174   22283043.6334
        39.000          12.5004
 144655388.942 5                  27527004.964
        35.400
 122109972.933 6  95150586.56546  23236724.983    23236724.5104   23236728.0814
        41.200          38.4004
 122893615.552 7  95761218.39645  23385871.135    23385870.3664   23385873.6904
        43.000          33.2004
 127014249.673 5  98972112.32742  24169996.190    24169996.0974   24170007.7724
        35.700          13.0004


 105332539.863 8  81925327.716 7  19676986.977    19676986.921    19676990.895
        51.400          45.400


 125460206.603 7                  23874287.025
        46.900
 104866418.055 8  81562761.000 7  19645011.035    19645011.696    19645015.835
        48.300          44.700


 104437767.465 8  81229420.960 7  19516701.673    19516701.910    19516706.969
        52.300          45.200
 108366128.299 8  84284796.896 7  20307761.613    20307761.804    20307764.914
        50.500          43.600
 198898776.182 7                  37849188.944
        42.200
 123720099.179 5                  23543143.324
        33.700
 202025049.335 7                  38444099.977
        43.400
 123277888.517 8                  23458984.940
        48.100
 129674705.466 5                  24676277.835
        34.300
 125385560.812 8                  23860064.745
        48.600


 25  1  1  8 25  0.0000000  0 24G18G23G15E29G32G24E33G10G27G29R04R03
                                E15E26R18S35R17R02S31S33E07E08E13R24
 106705808.422 8  83147404.17447  20305438.977    20305438.6784   20305440.2374
        49.200          43.2004
 108519564.876 7  84560731.37445  20650586.108    20650585.7284   20650586.1794
        45.200          33.0004
 109599068.347 6  85401859.39344  20855990.569    20855990.2074   20855996.0624
        40.100          28.2004
 140659553.606 6                  26766613.029
        36.000
 130916658.980 5 102013035.24942  24912619.427    24912619.3834   24912622.3064
        34.000          15.8004
 117061490.355 6  91216773.08343  22276063.854    22276063.6094   22276070.4554
        37.500          23.6004
 144615714.839 6                  27519455.061
        38.100
 122077294.266 7  95125122.72946  23230507.034    23230506.5564   23230510.3804
        45.600          39.1004
 122872496.090 7  95744761.66145  23381853.213    23381852.4674   23381853.6164
        43.200          31.7004
 127070236.272 5  99015738.37442  24180647.064    24180647.0864   24180663.8234
        33.700          17.4004
                  95187852.565 6                                  22854418.447
                        38.700
 105317654.197 8  81913749.973 7  19674206.099    19674206.314    19674210.794
        50.500          46.100


 125439411.847 7                  23870328.829
        45.600
 104837752.614 8  81540465.678 7  19639641.532    19639641.975    19639644.294
        50.100          42.700


 104467856.530 8  81252823.595 7  19522323.508    19522323.366    19522329.382
        51.100          44.700
 108403476.326 8  84313845.314 7  20314761.681    20314762.228    20314763.553
        52.800          42.800
 198898779.410 6                  37849187.133
        41.600
 202025023.258 7                  38444088.557
        43.800
 123263036.608 8                  23456158.668
        49.300
 129700978.275 5                  24681281.819
        35.800
 125402906.080 8                  23863365.242
        48.000


 25  1  1  8 25 15.0000000  0 24G18G23G15E29G32G24E33G10G27R19R04R03
                                E15E26R18S35R17R02S31S33E07E08E13R24
 106710204.474 8  83150829.67147  20306275.925    20306275.6354   20306276.5154
        49.700          43.1004
 108507851.805 7  84551604.31745  20648357.638    20648357.2764   20648356.5214
        46.700          34.2004
 109634478.372 6  85429451.64544  20862729.901    20862729.5664   20862734.5434
        39.100          28.2004
 140616820.825 5                  26758482.158
        33.700
 130865227.284 5 101972958.66642  24902834.777    24902834.3174   24902835.7304
        35.600          16.9004
 117024949.746 5  91188299.89043  22269110.746    22269110.4164   22269115.9194
        35.600          23.8004
 144576031.576 5                  27511902.615
        35.900
 122044632.981 7  95099672.41646  23224292.163    23224291.6584   23224295.0664
        44.500          38.1004
 122851508.576 7  95728407.70745  23377859.732    23377858.9774   23377859.4474
        44.800          33.2004
 121869833.251 5  94787704.399 5  22782280.824    22782279.372    22782278.799
        34.200          31.500
 122334562.249 6  95149041.204 6  22845106.548    22845094.041    22845100.445
        40.600          38.700
 105302893.820 8  81902269.676 7  19671448.922    19671449.246    19671453.484
        51.400          45.900


 125418664.136 7                  23866381.911
        46.900
 104809239.738 7  81518288.987 7  19634297.677    19634297.206    19634305.212
        47.400          45.100
 200877736.730 5                  38225774.191
        34.400
 104498112.888 8  81276356.259 7  19527978.134    19527978.645    19527983.217
        52.300          44.800
 108440894.150 8  84342948.087 7  20321774.207    20321775.181    20321776.238
        53.900          43.200
 198898777.802 7                  37849183.757
        42.000
 202024992.120 7                  38444088.740
        45.000
 123248270.731 8                  23453349.226
        50.300
 129727312.942 5                  24686289.933
        35.100
 125420316.979 7                  23866677.915
        46.800
                  97981438.252 5                                  23558169.828
                        34.000
 25  1  1  8 25 30.0000000  0 25G18G23G15E29G32G24E33G10G27R19G29R04
                                R03E15E26R18S35R17R02S31S33E07E08E13
                                R24
 106714723.298 8  83154350.82747  20307136.088    20307135.7984   20307136.2254
        51.100          44.6004
 108496191.716 7  84542518.55745  20646139.387    20646139.0344   20646138.6284
        46.500          34.8004
 109669986.305 7  85457120.20044  20869485.817    20869485.4694   20869492.1664
        42.500          29.8004
 140574121.044 5                  26750359.972
        34.800
 130813824.149 5 101932904.33242  24893056.450    24893055.8694   24893054.2174
        32.400          16.0004
 116988513.099 6  91159907.71143  22262175.157    22262174.7734   22262182.9374
        36.100          23.4004
 144536343.910 5                  27504350.268
        34.600
 122011993.910 6  95074239.43645  23218082.341    23218081.8414   23218083.0564
        39.700          35.9004
 122830657.911 7  95712160.39845  23373890.630    23373889.8794   23373890.9894
        43.700          34.4004
 121809141.122 5  94740499.471 5  22770933.444    22770933.425    22770935.513
        35.700          31.800
 127182186.179 4  99103041.50742  24201959.120    24201959.0764   24201971.4984
        29.000          12.1004
 122284731.204 7  95110283.863 6  22835790.440    22835791.787    22835796.009
        43.100          39.300
 105288263.469 8  81890890.536 7  19668716.119    19668716.995    19668719.270
        51.400          45.300


 125397968.281 7                  23862443.071
        44.200
 104780884.564 8  81496234.912 7  19628988.583    19628988.451    19628993.448
        51.100          44.900
 200877739.381 5                  38225774.517
        32.700
 104528541.041 8  81300022.583 7  19533664.883    19533664.684    19533671.268
        52.000          46.500
 108478386.126 8  84372108.487 7  20328800.325    20328800.480    20328802.856
        53.800          44.400
 198898776.467 7                  37849185.094
        43.300
 202024961.758 7                  38444083.235
        44.900
 123233595.670 8                  23450556.452
        49.200
 129753714.116 5                  24691320.612
        33.400
 125437798.286 7                  23870004.812
        46.100
                  98031556.471 5                                  23570218.494
                        34.000
 25  1  1  8 25 45.0000000  0 25G18G23G15E29G32G24E33G10G27R19G29R04
                                R03E15E26R18S35R17R02S31S33E07E08E13
                                R24
 106719365.804 8  83157968.35547  20308019.378    20308019.0794   20308019.6304
        51.400          44.9004
 108484585.489 7  84533474.77345  20643931.101    20643930.7534   20643931.3284
        46.800          34.8004
 109705592.710 6  85484865.47844  20876259.644    20876259.2554   20876267.6944
        40.900          29.1004
 140531455.229 6                  26742241.785
        37.100
 130762450.593 5 101892873.10642  24883279.861    24883279.1104   24883278.9734
        31.800          14.0004
 116952181.684 5  91131597.39243  22255258.837    22255258.5474   22255268.7134
        33.000          20.5004
 144496652.831 5                  27496797.366
        34.800
 121979377.849 6  95048824.37345  23211874.811    23211874.3204   23211875.0804
        37.600          33.3004
 122809945.111 6  95696020.51545  23369949.805    23369949.0684   23369950.6764
        41.900          35.2004
 121748491.751 5  94693327.754 5  22759594.568    22759595.447    22759599.619
        34.800          32.400
 127238189.368 5  99146680.36042  24212619.001    24212618.8494   24212626.2434
        34.200          15.3004
 122234970.811 7  95071581.306 6  22826499.313    22826500.989    22826504.335
        46.000          41.500
 105273763.884 8  81879613.068 7  19666007.239    19666008.497    19666011.054
        51.100          45.900


 125377325.319 7                  23858514.720
        43.400
 104752688.344 8  81474304.519 7  19623706.402    19623706.883    19623712.100
        52.200          45.200
 200877743.164 5                  38225779.624
        34.500
 104559141.756 8  81323823.124 7  19539383.758    19539383.657    19539389.655
        52.600          46.600
 108515953.018 8  84401327.166 7  20335839.892    20335840.687    20335843.730
        53.700          45.600
 198898775.340 7                  37849188.059
        42.900
 202024931.222 7                  38444074.690
        44.700
 123219012.221 8                  23447781.377
        48.900
 129780182.484 3                  24696368.387
        23.900
 125455350.860 7                  23873344.756
        46.100
 126105022.643 5  98081705.961 5  23582277.335                    23582276.010
        31.900          33.600
 25  1  1  8 26  0.0000000  0 24G18G23G15E29G32G24E33G10G27R19G29R04
                                R03E26R18S35R17R02S31S33E07E08E13R24
 106724134.222 8  83161683.99947  20308927.088    20308926.7934   20308927.1374
        51.800          45.1004
 108473035.246 7  84524474.61845  20641732.751    20641732.3984   20641732.9084
        47.100          34.0004
 109741299.192 6  85512688.73844  20883057.717    20883057.2934   20883061.0144
        37.700          28.7004
 140488825.501 6                  26734129.659
        37.900




 144456960.573 6                  27489245.057
        38.000
 121946786.833 6  95023428.79545  23205671.335    23205670.8394   23205672.8734
        36.100          32.8004
 122789372.415 6  95679989.84345  23366034.868    23366034.1444   23366036.7184
        40.000          34.2004
 121687887.235 5  94646190.969 4  22748265.770    22748263.144    22748272.373
        31.600          28.700
 127294201.613 6  99190326.29342  24223275.913    24223275.5924   24223284.3864
        37.300          16.2004
 122185283.321 7  95032935.544 6  22817216.787    22817218.795    22817225.794
        45.300          41.700
 105259397.039 8  81868438.887 7  19663322.257    19663322.711    19663328.515
        49.400          47.400
 125356737.576 7                  23854596.726
        43.600
 104724653.647 8  81452499.785 7  19618454.393    19618455.003    19618458.806
        52.000          44.000


 104589917.073 8  81347759.503 7  19545134.796    19545134.633    19545140.157
        51.800          45.900
 108553596.265 9  84430605.262 7  20342894.932    20342895.504    20342898.783
        54.200          46.600
 198898776.776 7                  37849189.302
        42.700
 202024903.596 7                  38444073.684
        45.400
 123204522.541 8                  23445024.713
        49.200


 125472976.852 7                  23876699.111
        45.600
 126169542.471 5  98131887.952 5  23594337.050    23594335.901    23594339.531
        34.400          32.000
 25  1  1  8 26 15.0000000  0 24G18G23G15E29G32G24E33G10G27R19G29R04
                                R03E26R18S35R17R02S31S33E07E08E13R24
 106729024.503 8  83165494.60847  20309857.265    20309856.9794   20309857.9054
        52.300          45.1004
 108461536.849 7  84515514.84145  20639543.996    20639543.6394   20639543.4504
        46.600          32.9004
 109777101.417 7  85540586.64344  20889871.710    20889871.2954   20889873.7594
        42.000          28.4004
 140446227.943 6                  26726023.457
        36.100


 116879846.131 5  91075242.71543  22241493.932    22241493.6064   22241502.0984
        33.600          22.7004
 144417263.165 6                  27481690.920
        38.900
 121914216.891 6  94998049.59446  23199475.034    23199474.5294   23199475.9914
        40.700          37.7004
 122768935.756 6  95664065.19945  23362145.662    23362144.9474   23362148.3834
        40.100          31.7004
 121627324.150 5                  22736943.029    22736941.090
        31.400
 127350218.465 6  99233975.76842  24233939.925    24233939.3224   24233943.1524
        36.500          16.8004
 122135664.563 6  94994343.182 6  22807948.749    22807949.176    22807958.633
        41.400          40.300
 105245158.519 8  81857364.509 8  19660659.703    19660661.362    19660668.208
        48.200          48.300
 125336200.970 7                  23850688.072
        43.400
 104696776.761 8  81430817.754 7  19613232.637    19613233.310    19613234.851
        52.000          42.100
 200877822.067 6                  38225776.301
        39.000
 104620862.506 8  81371828.160 7  19550918.477    19550917.698    19550923.177
        51.200          44.400
 108591311.444 8  84459939.300 7  20349962.244    20349962.845    20349966.053
        53.900          47.100
 198898776.868 6                  37849188.108
        41.900
 202024874.571 7                  38444065.184
        44.300
 123190122.486 8                  23442283.812
        49.100


 125490672.166 7                  23880066.302
        47.100
 126234099.417 6  98182098.924 5  23606405.957    23606406.107    23606416.547
        36.200          31.100
 25  1  1  8 26 30.0000000  0 24G18G23G15E29G32G24E33G10G27R19R04R03
                                E15E26R18S35R17R02S31S33E07E08E13R24
 106734035.203 8  83169399.04547  20310810.296    20310810.0154   20310811.4304
        50.900          44.7004
 108450088.729 7  84506594.25345  20637364.884    20637364.5184   20637364.0484
        44.700          31.0004
 109812997.766 7  85568557.85844  20896701.099    20896700.6484   20896704.7264
        44.400          29.1004
 140403661.105 6                  26717923.315
        39.300


 116843829.045 6  91047177.48645  22234641.305    22234641.2924   22234643.9934
        38.700          31.4004
 144377559.085 6                  27474135.278
        38.800
 121881666.205 7  94972685.42846  23193280.249    23193279.7134   23193282.3964
        45.700          40.6004
 122748633.896 7  95648245.56445  23358282.582    23358281.8094   23358285.6034
        42.100          31.9004
 121566801.135 5                  22725628.684    22725628.327
        30.300
 122086113.217 6  94955803.290 6  22798696.536    22798697.071    22798703.229
        40.400          38.700
 105231046.961 7  81846388.864 7  19658024.705    19658023.271    19658031.811
        44.700          47.800


 125315714.229 7                  23846790.226
        44.100
 104669056.349 8  81409257.500 6  19608038.875    19608039.887    19608041.943
        49.600          40.700


 104651976.292 8  81396027.714 7  19556732.216    19556732.770    19556735.754
        51.900          42.900
 108629096.413 8  84489327.621 7  20357042.629    20357043.257    20357047.145
        53.000          47.600
 198898773.803 6                  37849184.848
        41.700
 202024842.700 7                  38444061.244
        44.100
 123175810.513 8                  23439560.136
        49.800
 129859995.158 5                  24711539.296
        35.100
 125508435.227 7                  23883446.611
        47.800
 126298691.749 5                  23618481.414    23618478.098
        34.000
 25  1  1  8 26 45.0000000  0 24G18G23G15E29G32G24E33G10G27G29R04R03
                                E15E26R18S35R17R02S31S33E07E08E13R24
 106739172.204 8  83173401.89047  20311787.918    20311787.6464   20311788.9894
        51.200          44.7004
 108438696.755 7  84497717.37945  20635197.398    20635196.9964   20635196.9834
        42.500          30.6004
 109848993.544 7  85596606.48744  20903550.060    20903549.5954   20903555.7224
        44.000          26.2004
 140361131.001 6                  26709829.631
        41.400


 116807920.986 6  91019197.21245  22227808.161    22227808.5004   22227810.8574
        36.600          35.4004
 144337854.338 6                  27466580.376
        39.700
 121849140.745 7  94947340.93446  23187090.952    23187090.3354   23187093.0444
        45.700          41.4004
 122728472.636 6  95632535.46745  23354445.197    23354444.4734   23354449.2514
        40.100          30.1004
 127462265.553 5  99321285.15341  24255258.792    24255258.1844   24255263.6024
        35.200          10.3004
 122036635.593 6  94917320.653 6  22789458.093    22789462.544    22789464.973
        38.600          40.300
 105217068.317 8  81835516.503 8  19655416.412    19655415.680    19655420.003
        49.000          48.200


 125295283.275 7                  23842902.668
        44.900
 104641498.761 7  81387823.797 6  19602875.515    19602876.228    19602878.408
        47.800          39.600


 104683264.103 8  81420362.686 7  19562578.148    19562579.104    19562582.669
        51.300          42.300
 108666956.850 8  84518774.601 7  20364138.199    20364138.528    20364142.528
        53.100          47.300
 198898773.973 6                  37849192.325
        40.700
 202024813.776 7                  38444055.999
        43.200
 123161592.457 8                  23436855.059
        49.400
 129886728.734 5                  24716625.543
        35.800
 125526271.898 7                  23886840.918
        47.600
 126363235.963 5                  23630564.868    23630570.094
        33.700
 25  1  1  8 27  0.0000000  0 23G18G23G15E29G32G24E33G10G27R04R03E15
                                E26R18S35R17R02S31G13S33E07E08E13
 106744431.815 8  83177500.29047  20312788.724    20312788.4524   20312789.9174
        51.300          45.0004
 108427357.042 7  84488881.24945  20633039.532    20633039.1484   20633040.3514
        44.300          32.8004
 109885084.521 7  85624729.38243  20910418.928    20910418.4954   20910430.2384
        44.400          23.4004
 140318633.936 6                  26701742.798
        41.000


 116772118.440 7  90991299.16346  22220996.667    22220997.1814   22220997.9524
        42.600          38.3004
 144298145.183 6                  27459023.667
        38.400
 121816636.657 7  94922013.08647  23180905.588    23180904.9624   23180907.4444
        46.500          43.1004
 122708448.458 6  95616932.24145  23350635.773    23350635.0854   23350638.7584
        40.600          31.4004
 121987227.178 5  94878892.029 6  22780226.233    22780228.411    22780236.523
        33.400          38.200
 105203218.263 8  81824744.226 8  19652827.011    19652827.733    19652833.451
        48.800          48.400


 125274904.426 7                  23839025.067
        46.900
 104614100.625 8  81366514.136 7  19597742.999    19597743.529    19597748.013
        48.000          42.900
 200877810.522 5                  38225769.813
        31.100
 104714721.974 8  81444829.854 7  19568457.336    19568457.342    19568461.981
        50.500          43.000
 108704888.520 8  84548276.996 8  20371246.093    20371245.729    20371251.035
        51.100          48.000
 198898772.905 7                  37849188.269
        42.700
 124198120.241 6                  23634115.498
        36.300
 202024784.068 7                  38444046.756
        44.700
 123147464.472 7                  23434165.896
        47.800
 129913526.801 6                  24721724.223
        37.000
 125544178.387 7                  23890248.621
        47.700
 25  1  1  8 27 15.0000000  0 24G18G23G15E29G32G24E33G10G27R19R04R03
                                E15E26R18S35R17R02S31G13S33E07E08E13
 106749817.174 8  83181696.68447  20313813.891    20313813.6234   20313814.8984
        52.100          45.8004
 108416072.721 7  84480088.27445  20630891.833    20630891.4494   20630893.6594
        44.700          33.3004
 109921273.665 7  85652928.87843  20917305.339    20917304.9064   20917323.2754
        45.100          20.7004
 140276173.113 6                  26693662.987
        39.200


 116736424.933 7  90963486.08246  22214203.922    22214204.3114   22214205.5174
        43.800          38.3004
 144258434.895 6                  27451467.161
        38.200
 121784156.969 7  94896704.26246  23174725.603    23174724.9734   23174727.4384
        44.500          41.7004
 122688564.495 6  95601438.24645  23346850.902    23346850.2364   23346856.1184
        41.500          31.4004
 121385504.927 5                  22691736.177    22691738.589
        31.100
 121937892.322 5  94840520.495 6  22771020.332    22771016.162    22771023.058
        33.900          36.400
 105189499.782 8  81814074.306 8  19650265.837    19650265.949    19650270.626
        50.200          48.100


 125254580.993 7                  23835157.577
        47.300
 104586865.393 7  81345331.177 7  19592639.849    19592640.827    19592646.839
        47.300          45.300
 200877816.711 5                  38225787.762
        30.100
 104746352.710 8  81469431.510 7  19574368.150    19574367.884    19574374.034
        49.900          44.800
 108742894.125 8  84577836.924 8  20378367.613    20378367.334    20378373.122
        50.800          48.100
 198898774.199 6                  37849184.280
        41.900
 124251466.700 5                  23644267.565
        35.500
 202024755.802 7                  38444046.841
        44.700
 123133429.675 7                  23431495.706
        47.800
 129940392.278 6                  24726835.496
        39.800
 125562157.787 7                  23893669.809
        47.500
 25  1  1  8 27 30.0000000  0 25G18G23G15E29G32G24E33G10G27R19G29R04
                                R03E15E26R18S35R17R02S31G13S33E07E08
                                E13
 106755325.605 8  83185988.95647  20314862.217    20314861.9454   20314862.9704
        50.900          45.7004
 108404841.051 7  84471336.32045  20628754.889    20628754.5004   20628756.3854
        45.600          34.0004
 109957557.669 7  85681202.14044  20924209.831    20924209.4114   20924230.0364
        46.400          25.1004
 140233745.896 6                  26685589.968
        40.900
 130403751.259 4 101613306.12741  24815002.278    24815001.9164   24815005.6764
        28.600          10.7004
 116700838.118 6  90935756.12946  22207431.784    22207432.1594   22207433.5574
        40.400          37.8004
 144218720.816 6                  27443910.889
        38.300
 121751699.060 7  94871412.41046  23168550.050    23168549.4114   23168550.5804
        43.700          40.1004
 122668818.248 6  95586051.51845  23343094.052    23343093.3594   23343100.5954
        36.000          31.6004
 121325162.665 4  94364007.961 6  22680452.150    22680454.078    22680464.823
        28.100          36.700
 127630519.338 4                  24287271.714
        29.400
 121888627.677 6  94802203.522 6  22761823.582    22761822.645    22761824.895
        41.600          38.200
 105175910.189 8  81803504.621 7  19647727.372    19647729.140    19647730.297
        51.300          47.000


 125234310.354 7                  23831300.317
        47.700
 104559790.640 8  81324273.031 7  19587568.633    19587569.068    19587575.460
        48.100          45.400


 104778153.364 8  81494165.359 7  19580311.429    19580311.252    19580317.138
        50.200          45.000
 108780970.661 8  84607452.001 8  20385504.146    20385504.008    20385508.674
        52.000          48.200
 198898774.435 6                  37849187.478
        41.600
 124304856.962 4  96860909.9764   23654425.197    23654424.7194   23654424.3774
        29.700           2.6004
 202024727.965 7                  38444037.459
        46.100
 123119485.317 7                  23428841.747
        47.400
 129967322.307 6                  24731959.720
        40.300
 125580207.403 7                  23897104.140
        47.200
 25  1  1  8 27 45.0000000  0 24G18G23G15E29G32G24E33G10G27R19R04R03
                                E15E26R18S35R17R02S31S33E07E08E13R24
 106760959.507 8  83190379.00147  20315934.651    20315934.3834   20315935.1674
        51.700          46.0004
 108393664.315 8  84462627.20145  20626628.150    20626627.7664   20626629.2784
        48.000          35.3004
 109993938.505 7  85709550.84544  20931132.203    20931131.7744   20931155.7344
        44.900          26.8004
 140191354.778 6                  26677523.887
        41.800
 130352630.317 5 101573462.71141  24805270.040    24805269.3974   24805276.6244
        30.100          10.5004
 116665360.630 6  90908111.36445  22200680.659    22200680.9404   22200683.5044
        39.900          35.6004
 144179005.284 6                  27436351.685
        36.200
 121719265.018 6  94846139.11946  23162377.492    23162376.8494   23162377.6664
        41.000          37.7004
 122649211.947 6  95570773.86545  23339363.895    23339363.1984   23339370.2824
        38.900          30.0004
 121264867.532 4  94317111.639 6  22669183.335    22669181.372    22669191.455
        25.000          40.100
 121839435.758 6  94763943.126 6  22752635.654    22752636.305    22752636.108
        40.600          36.700
 105162451.545 8  81793036.790 7  19645211.819    19645212.502    19645215.779
        49.900          46.400


 125214094.967 8                  23827453.923
        50.400
 104532879.190 7  81303341.887 7  19582528.935    19582527.944    19582532.539
        46.000          45.700


 104810125.930 8  81519032.963 7  19586285.115    19586284.830    19586291.977
        48.900          45.000
 108819120.099 8  84637123.786 7  20392652.421    20392652.934    20392657.622
        51.200          47.800
 198898776.853 6                  37849182.608
        40.500
 202024701.236 7                  38444031.262
        43.200
 123105633.660 7                  23426205.434
        47.300
 129994318.898 6                  24737097.126
        40.100
 125598329.497 7                  23900552.665
        47.500
 126622245.771 5                  23678997.565
        32.100
 25  1  1  8 28  0.0000000  0 24G18G23G15E29G32G24E33G10G27R19G29R04
                                R03E15E26R18S35R17R02S31S33E07E08E13
 106766714.339 8  83194863.27247  20317029.931    20317029.6634   20317030.3574
        51.700          45.8004
 108382537.861 7  84453957.23645  20624510.748    20624510.3594   20624511.4694
        47.200          34.9004
 110030411.406 6  85737971.47143  20938072.945    20938072.5744   20938098.8724
        39.500          19.8004
 140148995.203 6                  26669462.846
        38.500


 116629988.186 6  90880548.47245  22193949.043    22193949.2214   22193952.4564
        37.500          33.2004
 144139283.809 6                  27428793.387
        37.900
 121686850.388 6  94820880.92546  23156208.149    23156207.4654   23156209.1844
        41.400          37.9004
 122629741.210 6  95555601.91144  23335658.514    23335657.8124   23335662.5384
        41.200          28.5004
 121204615.334 4  94270248.787 6  22657928.424    22657922.752    22657928.793
        29.400          40.000
 127742542.403 4                  24308596.148
        28.500
 121790312.074 6  94725735.866 6  22743460.256    22743462.923    22743467.775
        39.100          37.000
 105149119.235 8  81782667.259 7  19642722.224    19642723.355    19642725.930
        51.200          46.800


 125193930.334 8                  23823616.825
        49.100
 104506126.581 7  81282534.310 7  19577516.803    19577517.500    19577520.986
        47.600          46.300


 104842265.442 8  81544030.350 7  19592290.838    19592291.708    19592298.345
        49.500          45.600
 108857336.952 8  84666848.013 7  20399815.120    20399815.024    20399818.353
        51.500          45.900
 198898776.078 6                  37849186.386
        39.800
 202024671.522 7                  38444030.354
        42.700
 123091870.035 7                  23423586.298
        47.600
 130021377.220 6                  24742246.171
        39.900
 125616519.445 7                  23904013.784
        47.500
 25  1  1  8 28 15.0000000  0 25G18G23G15E29G32G24E33G10G27R19R04R03
                                E15E26R18S35R17R02S31G13S33E07E08E13
                                R24
 106772594.638 8  83199445.30947  20318148.542    20318148.2654   20318149.3674
        50.800          44.8004
 108371466.142 7  84445329.92645  20622404.520    20622404.1544   20622404.3154
        47.600          35.8004
 110066980.321 6  85766466.84843  20945033.553    20945033.2944   20945063.4244
        41.800          18.5004
 140106671.727 6                  26661411.711
        36.200
 130250443.745 5 101493852.54842  24785830.388    24785830.4324   24785834.9394
        33.200          12.6004
 116594725.663 6  90853071.22345  22187238.409    22187238.5694   22187241.8434
        37.200          30.4004
 144099561.008 6                  27421233.691
        37.900
 121654459.474 6  94795641.24046  23150043.913    23150043.2524   23150045.6514
        40.600          37.4004
 122610410.614 7  95540539.14144  23331980.020    23331979.3274   23331978.5474
        43.700          26.5004
 121144410.978 5  94223423.014 6  22646670.215    22646670.272    22646677.158
        32.700          40.000
 121741261.494 6  94687585.479 5  22734303.958    22734306.006    22734304.003
        37.400          35.200
 105135917.246 8  81772399.022 7  19640256.241    19640257.193    19640260.353
        51.900          47.400


 125173821.084 8                  23819790.127
        49.500
 104479537.756 7  81261854.132 7  19572534.391    19572534.458    19572540.868
        47.900          47.500
 200877799.122 5                  38225779.628
        33.900
 104874576.578 8  81569161.273 7  19598329.558    19598329.798    19598334.397
        49.100          43.200
 108895625.619 8  84696628.054 7  20406989.050    20406989.743    20406994.118
        50.400          46.100
 198898776.455 6                  37849179.451
        40.700
 124465394.003 5                  23684957.172
        31.800
 202024642.952 7                  38444021.433
        42.300
 123078198.926 8                  23420985.016
        48.500
 130048501.539 6                  24747407.916
        41.500
 125634781.812 8                  23907490.124
        48.300
 126751917.349 6                  23703237.669    23703241.281
        38.400
 25  1  1  8 28 30.0000000  0 25G18G23G15E29G32G24E33G10G27R19R04R03
                                E15E26R18S35R17R02S31G13S33E07E08E13
                                R24
 106778594.323 8  83204120.38747  20319290.146    20319289.8694   20319290.6994
        51.100          43.9004
 108360443.065 8  84436740.52146  20620307.090    20620306.7334   20620307.2544
        48.300          36.6004
 110103638.836 6  85795031.91842  20952008.399    20952008.0914   20952044.0344
        40.300          16.1004
 140064378.549 5                  26653359.980
        32.400
 130199400.987 5 101454078.91642  24776114.281    24776113.5974   24776121.6094
        35.600          13.6004
 116559567.266 5  90825675.06244  22180545.080    22180545.1914   22180551.0174
        32.300          28.2004
 144059830.876 6                  27413673.977
        39.200
 121622086.183 7  94770415.30446  23143884.761    23143884.1224   23143885.3704
        42.400          37.4004
 122591214.168 7  95525580.87243  23328327.519    23328326.8264   23328318.1404
        44.900          22.9004
 121084248.649 4  94176630.083 6  22635421.258    22635418.874    22635426.381
        29.100          37.800


 105122839.605 8  81762227.527 8  19637812.965    19637814.618    19637817.466
        51.400          48.100


 125153761.283 8                  23815972.491
        48.200
 104453106.945 8  81241296.838 8  19567583.972    19567583.920    19567590.188
        49.200          48.500
 200877799.419 6                  38225775.197
        39.200
 104907052.668 8  81594420.441 7  19604398.494    19604399.055    19604403.077
        50.200          42.800
 108933979.694 8  84726458.979 7  20414177.276    20414177.313    20414182.488
        51.400          46.600
 198898772.278 6                  37849186.029
        41.500
 124518954.094 5                  23695152.198
        35.100
 202024610.826 7                  38444014.842
        43.100
 123064614.192 8                  23418400.301
        48.800
 130075685.534 6                  24752580.395
        41.300
 125653110.405 8                  23910978.352
        48.500
 126816802.247 5                  23715366.184    23715367.100
        31.100
 25  1  1  8 28 45.0000000  0 26G18G23G15E29G32G24E33G10G27R19R04R11
                                R03E15E26R18S35R17R02S31G13S33E07E08
                                E13R24
 106784722.154 8  83208895.31647  20320456.198    20320455.9214   20320456.2504
        50.600          43.0004
 108349477.275 8  84428195.74346  20618220.002    20618219.6494   20618220.9424
        48.800          36.3004
 110140395.335 6  85823673.28741  20959003.222    20959002.6994   20959042.3114
        38.200          10.7004
 140022124.270 3                  26645315.710
        23.200
 130148393.815 5 101414332.98442  24766405.784    24766405.0654   24766415.5774
        33.700          16.3004
 116524522.115 5  90798367.19244  22173879.801    22173879.8854   22173882.0704
        33.200          28.2004
 144020102.228 6                  27406114.219
        39.200
 121589739.198 6  94745209.86645  23137726.954    23137726.3644   23137729.4264
        39.900          34.9004
 122572160.742 7  95510734.05343  23324701.498    23324700.7964   23324686.2254
        42.300          20.1004
 121024137.716 4  94129877.231 5  22624177.245    22624181.999    22624189.475
        27.100          35.500
                  94611447.551 6                                  22716029.349
                        40.300
 129562870.932 5                  24245923.366
        31.600
 105109894.882 8  81752159.426 8  19635394.374    19635395.886    19635399.177
        51.800          48.100


 125133759.767 7                  23812166.198
        46.800
 104426843.322 8  81220869.569 8  19562663.770    19562664.313    19562670.334
        50.500          48.500
 200877804.298 5                  38225786.711
        32.700
 104939702.053 8  81619814.387 7  19610499.514    19610500.361    19610503.949
        48.100          43.500
 108972407.411 8  84756347.194 7  20421378.287    20421378.333    20421383.142
        51.100          45.700
 198898771.984 7                  37849187.004
        42.700
 124572561.118 5                  23705351.619
        33.400
 202024581.597 7                  38444011.394
        44.500
 123051124.509 8                  23415833.250
        48.700
 130102937.661 7                  24757766.451
        43.400
 125671513.957 8                  23914479.941
        48.700
                                                  23727524.646

 25  1  1  8 29  0.0000000  0 25G18G23G15E29G32G24E33G10G27G29R04R11
                                R03E15E26R18S35R17R02S31G13S33E07E08
                                E13
 106790976.811 8  83213769.07347  20321646.451    20321646.1794   20321645.7114
        50.900          42.7004
 108338567.382 8  84419694.53345  20616144.018    20616143.6744   20616144.5764
        48.800          35.7004
 110177248.008 5  85852389.4934   20966019.594    20966019.0224   20966058.7074
        35.900           4.4004
 139979907.603 4                  26637293.923
        26.400
 130097420.867 5 101374613.82942  24756706.035    24756705.4684   24756715.5364
        33.900          14.9004
 116489589.237 5  90771146.80245  22167232.602    22167232.6334   22167234.5164
        33.000          30.4004
 143980373.740 6                  27398554.375
        38.400
 121557417.082 6  94720023.81445  23131576.944    23131576.3774   23131578.4814
        36.300          32.2004
 122553248.997 6  95495997.66843  23321102.261    23321101.5644   23321088.2014
        38.300          18.9004
 127966714.439 5  99714291.43142  24351248.444    24351248.3424   24351248.5324
        31.500          12.1004
 121594435.477 6  94573465.996 7  22706901.527    22706901.604    22706910.338
        36.500          42.100
 129553652.297 4                  24244185.960
        25.200
 105097081.446 8  81742193.407 8  19632999.669    19633001.305    19633005.772
        50.200          48.300


 125113815.243 7                  23808370.580
        44.100
 104400745.812 8  81200571.482 8  19557774.174    19557773.882    19557780.691
        50.200          48.500


 104972523.366 7  81645342.066 7  19616634.221    19616632.896    19616638.653
        45.600          45.900
 109010907.140 8  84786291.353 7  20428594.314    20428594.356    20428597.399
        52.300          45.500
 198898774.415 7                  37849185.886
        42.500
 124626212.891 5                  23715559.312
        32.900
 202024555.330 7                  38444007.754
        46.100
 123037728.433 8                  23413284.262
        49.100
 130130256.304 7                  24762965.159
        43.100
 125689991.033 8                  23917996.163
        48.800
 25  1  1  8 29 15.0000000  0 26G18G23G15E29G32G24E33G10G27G29R04R11
                                R03E15E26R18S35R17R02S31G13S33E07E08
                                E13R24
 106797349.253 8  83218734.62647  20322859.472    20322859.1954   20322858.1114
        51.300          43.3004
 108327704.280 8  84411229.77945  20614076.542    20614076.2074   20614076.5354
        49.100          34.8004
 110214187.554 6  85881173.3094   20973047.419    20973046.8654   20973091.2234
        36.700           5.0004
 139937719.665 5                  26629260.509
        30.600
 130046473.371 5 101334914.48041  24747014.575    24747014.2804   24747020.0794
        34.800          11.9004
 116454759.695 6  90744006.91645  22160605.479    22160605.4034   22160606.2924
        38.300          32.1004
 143940636.369 5                  27390991.909
        34.100
 121525110.734 5  94694850.10044  23125428.091    23125427.4484   23125430.2904
        31.200          28.0004
 122534469.936 6  95481364.73043  23317529.897    23317529.2044   23317523.2544
        40.400          22.1004
 128022771.194 5  99757972.01342  24361926.306    24361926.1634   24361916.4824
        31.800          13.9004
 121545667.459 6  94535535.338 7  22697792.822    22697794.899    22697802.832
        39.300          43.300
 129544592.920 4                  24242499.746
        27.800
 105084390.408 8  81732322.634 8  19630627.789    19630628.730    19630634.699
        48.800          48.200


 125093918.775 6                  23804583.638
        41.800
 104374805.595 8  81180395.738 8  19552916.046    19552915.192    19552921.106
        50.700          48.400


 105005506.995 7  81670996.046 7  19622795.336    19622795.655    19622803.071
        46.000          46.900
 109049468.902 8  84816283.838 7  20435820.714    20435820.793    20435824.033
        52.500          45.700
 198898770.270 7                  37849189.074
        44.300
 124679900.229 4  97153072.3394   23725776.473    23725776.4204   23725772.7514
        29.900           4.1004
 202024522.708 7                  38443998.190
        45.500
 123024416.851 8                  23410751.039
        48.800
 130157632.196 7                  24768175.488
        42.100
 125708532.577 7                  23921524.357
        47.300
                  98786882.642 5                                  23751827.372
                        32.400
 25  1  1  8 29 30.0000000  0 26G18G23G15E29G32G24E33G10G27R19R04R11
                                R03E15E26R18S35R17R02S31G13S33E07E08
                                E13R24
 106803851.068 8  83223800.97847  20324096.373    20324096.0964   20324095.7984
        50.900          44.1004
 108316899.423 8  84402810.43845  20612020.794    20612020.4644   20612020.0494
        48.200          34.2004






 116420045.606 6  90716956.95245  22153997.586    22153997.5154   22154000.4364
        36.400          33.5004


 121492831.488 5  94669697.39044  23119286.134    23119285.4324   23119287.6944
        34.500          24.8004
 122515835.156 6  95466844.09144  23313981.815    23313981.1224   23313986.4784
        39.000          27.5004
                  93989842.815 6                                  22590532.914
                        38.400
 121496976.706 6  94497664.788 7  22688704.402    22688702.110    22688707.673
        41.300          42.200
 129535704.524 4                  24240833.445
        29.400
 105071832.976 8  81722555.719 8  19628284.199    19628285.125    19628289.082
        51.400          48.400


 125074082.073 6                  23800808.773
        40.700
 104349034.656 8  81160351.675 7  19548088.408    19548088.666    19548092.880
        52.100          47.900


 105038664.608 7  81696785.269 7  19628991.984    19628993.351    19628999.568
        47.300          47.000
 109088104.274 8  84846333.544 7  20443060.853    20443061.106    20443065.217
        52.700          46.100
 198898770.864 7                  37849185.904
        44.900
 124733634.488 4  97194943.4304   23736001.735    23736001.6774   23735996.7404
        29.000           2.6004
 202024495.300 7                  38443993.275
        44.200
 123011201.299 8                  23408236.074
        49.000
 130185076.550 7                  24773397.749
        43.000
 125727150.059 7                  23925066.635
        47.400
 127076609.118 4                  23763965.541    23763970.659
        29.600
 25  1  1  8 29 45.0000000  0 23G18G23G15E29G32G24E33G10G27R04R03E15
                                E26R18S35R17R02S31S33E07E08E13R24
 106810477.817 8  83228964.67347  20325357.337    20325357.0604   20325357.4084
        51.100          44.4004
 108306148.451 8  84394433.06845  20609974.499    20609974.1784   20609974.1084
        48.400          33.1004
 110288247.010 6                  20987158.761    20987158.2564
        36.200




 116385442.740 6  90689993.66845  22147410.374    22147410.3394   22147415.7664
        36.200          30.8004




 122497340.371 6  95452432.56444  23310462.759    23310462.0574   23310470.7414
        37.800          26.6004
 121448358.680 7  94459850.802 6  22679622.078    22679622.292    22679625.392
        42.500          38.300
 105059404.564 8  81712889.170 8  19625964.902    19625965.865    19625967.836
        52.400          48.900


 125054300.721 6                  23797044.819
        41.800
 104323428.955 8  81140436.147 8  19543290.956    19543291.540    19543296.153
        51.300          48.000
 200877813.218 5                  38225770.716
        31.300
 105071991.139 7  81722705.907 7  19635220.589    19635221.427    19635225.587
        47.300          45.500
 109126808.333 8  84876436.695 7  20450313.766    20450314.019    20450318.632
        52.400          47.100
 198898771.833 7                  37849180.104
        42.600
 202024468.001 7                  38443989.282
        44.700
 122998077.295 7                  23405738.135
        47.800
 130212584.787 7                  24778632.349
        42.300
 125745839.064 7                  23928623.155
        47.100


 25  1  1  8 30  0.0000000  0 24G18G23G15E29G32G24E33G10G27R19R04R03
                                E15E26R18S35R17R02S31S33E07E08E13R24
 106817229.099 8  83234225.41647  20326642.036    20326641.7594   20326642.6154
        50.800          44.5004
 108295450.753 7  84386097.21445  20607938.708    20607938.3954   20607938.0624
        46.100          33.3004
 110325470.201 6  85968131.45641  20994243.863    20994243.3224   20994295.0584
        37.400           7.1004




 116350950.973 5  90663116.93944  22140845.933    22140845.8494   22140851.6484
        31.700          25.7004
 143821414.567 5                  27368307.129
        32.800


 122478985.132 6  95438129.77444  23306968.734    23306968.0504   23306980.6174
        36.700          24.6004
                  93896679.818 6                                  22568145.042
                        39.100
 121399813.227 7  94422093.309 6  22670560.686    22670561.180    22670558.801
        43.100          36.500
 105047104.653 8  81703322.594 8  19623664.658    19623665.984    19623669.145
        51.900          48.400


 125034574.435 6                  23793290.928
        41.800
 104297988.216 8  81120648.910 8  19538525.066    19538525.564    19538530.092
        50.900          48.100
 200877818.991 5                  38225789.993
        35.400
 105105485.935 7  81748757.424 7  19641478.546    19641479.405    19641484.571
        47.400          44.500
 109165580.098 8  84906592.556 7  20457579.280    20457580.285    20457585.103
        53.100          47.500
 198898773.359 7                  37849181.396
        42.100
 202024440.662 7                  38443980.652
        44.300
 122985044.275 7                  23403257.672
        47.400
 130240156.132 7                  24783879.405
        42.200
 125764599.059 7                  23932193.489
        46.900
 127206766.037 6  98938696.275 5  23788309.868    23788309.240    23788330.153
        36.900          30.800
 25  1  1  8 30 15.0000000  0 25G18G23G15E29G32G24E33G10G27R19G29R04
                                R03E15E26R18S35R17R02S31S33E07E08E13
                                R24
 106824106.906 8  83239584.73747  20327950.641    20327950.3914   20327951.9374
        50.100          44.5004
 108284808.306 8  84377804.41345  20605914.048    20605913.7444   20605913.2804
        48.000          35.3004
 110362787.410 6                  21001344.660
        39.900




 116316572.584 6  90636328.59745  22134308.015    22134307.9574   22134309.5664
        39.400          30.9004
 143781676.519 6                  27360745.086
        36.100
 121395910.853 6  94594235.45444  23100883.823    23100884.6684   23100883.9894
        38.200          29.4004
 122460771.477 5  95423937.24143  23303502.719    23303502.0494   23303515.1184
        32.600          22.8004
                  93850157.946 6                                  22556962.145
                        37.600
 128247034.569 4  99932701.42242  24404603.182    24404602.9904   24404587.4594
        27.400          16.3004
 121351342.326 6  94384393.715 5  22661512.776    22661511.944    22661507.705
        38.300          35.500
 105034934.669 8  81693857.041 8  19621390.542    19621391.797    19621396.604
        51.000          48.500


 125014905.277 7                  23789548.545
        44.100
 104272714.719 8  81100991.745 7  19533790.116    19533790.375    19533795.355
        49.800          47.900
 200877827.113 6                  38225788.531
        36.900
 105139150.709 8  81774941.083 7  19647771.045    19647771.993    19647776.430
        49.200          44.800
 109204421.135 8  84936802.212 7  20464858.304    20464858.468    20464862.472
        52.800          45.600
 198898776.124 7                  37849186.717
        42.300
 202024415.160 7                  38443972.295
        42.900
 122972104.168 7                  23400795.542
        47.500
 130267792.332 6                  24789137.114
        38.800
 125783431.985 7                  23935777.042
        46.900
 127271895.702 6  98989352.725 5  23800492.414    23800493.585    23800508.939
        36.400          33.000
 25  1  1  8 30 30.0000000  0 22G18G23G15E29G32G24E33G10G27R04R03E26
                                R18S35R17R02S31G13S33E07E08E13
 106831106.236 8  83245038.74447  20329282.951    20329282.7234   20329284.1104
        49.800          44.1004
 108274216.025 7  84369550.67645  20603897.967    20603897.6464   20603897.0884
        47.300          33.5004
 110400192.991 6  86026356.10241  21008462.102    21008461.7404   21008521.3024
        41.900           7.5004




 116282302.883 6  90609624.97845  22127785.205    22127785.0894   22127787.8474
        41.900          33.8004
 143741933.504 6                  27353181.182
        36.700
 121363719.860 7  94569151.60045  23094759.553    23094760.0134   23094759.9324
        42.500          30.5004
 122442694.644 5  95409851.31343  23300063.847    23300063.2714   23300070.6634
        33.200          20.4004
 121302941.089 5  94346748.206 5  22652489.957    22652483.362    22652469.738
        35.500          34.400
 105022889.478 8  81684488.575 7  19619141.269    19619141.941    19619145.495
        51.100          46.900
 124995288.372 7                  23785815.454
        45.300
 104247603.944 8  81081461.141 8  19529086.466    19529086.461    19529091.087
        50.500          48.000
 200877831.655 6                  38225788.299
        37.800
 105172980.179 8  81801252.871 7  19654092.781    19654093.391    19654099.528
        49.200          46.500
 109243326.028 8  84967061.638 7  20472148.013    20472147.392    20472153.471
        50.800          45.400
 198898775.364 6                  37849190.174
        41.500
 124948878.268 4                  23776983.485
        28.000
 202024386.259 7                  38443968.833
        42.800
 122959251.919 8                  23398350.446
        48.600
 130295488.126 5                  24794407.363
        30.700
 125802332.789 7                  23939373.919
        47.000
 25  1  1  8 30 45.0000000  0 21G18G23G15E29G32G24E33G10G27R04R03E26
                                R18S35R17R02S31S33E07E08E13
 106838230.185 8  83250589.84847  20330638.254    20330638.0404   20330639.3204
        49.800          43.1004
 108263676.913 8  84361338.37846  20601892.861    20601892.5484   20601892.1734
        48.600          36.7004
 110437689.894 7  86055574.29241  21015596.590    21015596.2014   21015656.4824
        43.300           7.9004
 139685368.700 4                  26581237.758
        29.200
 129741514.424 4 101097312.79641  24688986.835    24688986.5544   24688993.8684
        29.400           8.1004
 116248145.347 6  90583008.70345  22121285.153    22121285.0554   22121288.1614
        41.600          33.4004
 143702188.878 6                  27345619.094
        36.600
 121331550.952 7  94544084.96144  23088638.957    23088639.5154   23088638.6704
        42.500          29.6004
 122424757.458 5  95395874.28143  23296649.633    23296648.9584   23296652.7614
        33.400          22.7004
                  94309159.144 5                                  22643442.064
                        35.200
 105010972.144 8  81675219.520 7  19616915.302    19616915.712    19616919.047
        50.900          47.100
 124975726.878 7                  23782093.469
        45.800
 104222659.131 8  81062059.578 8  19524412.532    19524412.614    19524418.394
        48.100          48.500
 200877836.200 4                  38225774.115
        29.400
 105206977.060 8  81827694.906 7  19660447.469    19660447.876    19660453.096
        51.200          46.900
 109282297.614 8  84997372.815 7  20479451.214    20479451.398    20479456.681
        53.000          46.500
 198898774.772 7                  37849188.336
        42.100
 202024357.498 7                  38443963.315
        43.100
 122946490.505 8                  23395921.949
        49.400
 130323246.340 4                  24799688.780
        28.700
 125821304.534 7                  23942984.268
        47.200
 25  1  1  8 31  0.0000000  0 22G18G23G15E29G32G24E33G10G27R19R04R03
                                E26R18S35R17R02S31S33E07E08E13
 106845477.550 8  83256237.15147  20332017.896    20332017.6734   20332017.9084
        50.300          43.3004
 108253189.777 8  84353166.57846  20599897.301    20599896.9934   20599897.1374
        49.200          38.3004
 110475276.428 6  86084862.57142  21022748.383    21022748.1514   21022805.9324
        41.500          12.5004
 139643433.561 5                  26573257.671
        30.900
 129690798.600 4 101057794.04241  24679339.412    24679339.2474   24679339.5904
        28.200           9.4004
 116214098.973 6  90556479.10645  22114806.623    22114806.5124   22114809.1194
        41.400          32.4004
 143662441.323 6                  27338054.740
        38.800
 121299402.730 7  94519034.41344  23082520.732    23082521.1704   23082522.0134
        42.400          28.0004


 120485355.154 5                  22523466.120    22523466.298
        32.500
                                                  22634427.214

 104999181.071 8  81666048.718 7  19614711.992    19614712.709    19614716.970
        51.200          47.700
 124956219.698 8                  23778381.450
        48.400
 104197879.393 7  81042786.447 7  19519770.771    19519769.572    19519775.799
        47.400          47.900


 105241139.717 8  81854265.853 7  19666831.026    19666831.877    19666836.475
        50.900          46.800
 109321333.938 9  85027734.367 7  20486767.789    20486768.413    20486772.023
        54.000          45.800
 198898772.575 6                  37849175.748
        38.600
 202024327.447 7                  38443950.759
        42.400
 122933818.607 8                  23393510.804
        48.800


 125840345.896 7                  23946607.811
        45.100
 25  1  1  8 31 15.0000000  0 23G18G23G15E29G32G24E33G10G27R19G29R04
                                R03E26R18S35R17R02S31S33E07E08E13
 106852850.351 8  83261982.17847  20333420.960    20333420.7284   20333421.0184
        50.000          44.3004
 108242756.479 8  84345036.70446  20597911.628    20597911.3154   20597912.3584
        49.400          39.2004
 110512954.290 6  86114222.04041  21029918.111    21029917.6384   21029974.4174
        41.400           9.1004


 129640116.777 5 101018301.68641  24669692.268    24669691.5844   24669693.8894
        34.100          11.4004
 116180166.174 5  90530038.00745  22108347.205    22108347.1974   22108352.1464
        33.900          30.3004
 143622693.064 6                  27330490.831
        36.600
 121267277.405 6  94494001.69144  23076408.527    23076408.9114   23076409.9364
        40.900          28.8004
 122389312.457 5  95368315.28144  23289909.118    23289908.7254   23289912.8944
        33.700          24.5004
                                                  22512323.476

 128471217.692 5 100107414.68842  24447263.168    24447263.4364   24447259.0894
        33.500          17.0004
 121158291.999 7  94234139.103 5  22625432.980    22625430.457    22625436.637
        42.300          31.300
 104987518.756 8  81656978.021 8  19612533.996    19612534.895    19612538.194
        51.800          48.000
 124936768.929 8                  23774679.892
        48.000
 104173267.240 8  81023643.625 8  19515159.863    19515160.295    19515165.628
        48.000          48.500
 200877799.870 5                  38225782.074
        34.600
 105275470.218 8  81880967.340 7  19673245.961    19673246.353    19673251.277
        48.900          45.900
 109360436.705 9  85058147.595 7  20494095.937    20494096.606    20494099.868
        54.100          46.000
 198898771.113 6                  37849180.703
        40.400
 202024297.547 6                  38443957.422
        41.700
 122921238.260 8                  23391116.866
        48.300
 130378931.072 5                  24810289.929
        35.000
 125859458.922 7                  23950245.004
        43.800
 25  1  1  8 31 30.0000000  0 24G18G23G15E29G32G24E33G10G27R19G29R04
                                R03E15E26R18S35R17R02S31S33E07E08E13
 106860352.412 8  83267827.94047  20334848.887    20334848.6684   20334848.8924
        50.500          44.6004
 108232380.874 7  84336951.81946  20595937.086    20595936.7694   20595938.2034
        47.400          38.3004
 110550726.892 6  86143655.38941  21037106.611    21037106.0614   21037161.9064
        40.000          10.9004




 116146351.120 6  90503688.60844  22101913.796    22101913.7744   22101917.8474
        36.100          29.1004
 143582947.822 5                  27322927.256
        35.400
 121235178.554 6  94468989.57144  23070299.308    23070299.6344   23070301.0204
        40.700          25.4004
 122371799.567 5  95354668.86844  23286573.866    23286573.9824   23286573.1514
        31.100          24.4004
 120366186.080 5                  22501185.616    22501189.127
        30.300
 128527280.825 6 100151100.19443  24457933.653    24457933.8184   24457932.9824
        38.000          19.0004
 121110186.359 7  94196723.563 4  22616447.167    22616447.790    22616452.911
        43.600          29.800
 104975988.101 8  81648009.745 7  19610380.132    19610380.664    19610384.411
        52.000          47.800


 124917378.511 8                  23770990.432
        48.100
 104148826.731 7  81004634.357 8  19510581.759    19510581.098    19510587.871
        47.100          48.700
 200877807.591 6                  38225782.521
        39.500
 105309971.861 8  81907801.936 7  19679693.468    19679693.176    19679698.499
        49.700          46.500
 109399609.353 8  85088615.236 7  20501435.902    20501435.643    20501442.411
        52.200          47.700
 198898773.721 6                  37849184.513
        41.300
 202024272.462 7                  38443951.658
        43.100
 122908753.168 8                  23388741.142
        48.700
 130406879.026 6                  24815608.006
        39.300
 125878647.393 6                  23953896.227
        40.500
 25  1  1  8 31 45.0000000  0 25G18G23G15E29G32G24E33G10G27R19G29R04
                                R03E15E26R18S35R17R02S31S33E07E08E13
                                R24
 106867976.892 8  83273769.09547  20336299.473    20336299.2594   20336300.2424
        52.000          45.9004
 108222056.007 8  84328906.48846  20593972.611    20593972.3074   20593973.5654
        48.400          38.6004
 110588586.751 6  86173156.69741  21044311.375    21044310.8214   21044365.7534
        39.300          11.6004




 116112647.118 5  90477425.80045  22095499.732    22095499.7104   22095505.4834
        31.900          31.6004
 143543199.045 5                  27315364.970
        35.600
 121203099.234 6  94443992.66043  23064196.047    23064196.2434   23064195.0284
        36.700          23.7004
 122354424.310 6  95341129.66944  23283267.132    23283267.5294   23283262.1524
        38.500          26.4004
 120306680.135 4  93571867.546 5  22490066.852    22490070.245    22490068.299
        27.600          35.800
 128583339.636 5 100194782.26342  24468598.908    24468598.8594   24468599.5274
        34.600          14.0004
 121062151.557 6  94159363.264 5  22607474.523    22607474.362    22607484.526
        37.700          32.700
 104964582.447 8  81639138.686 8  19608249.248    19608249.820    19608253.347
        51.000          48.300


 124898041.646 8                  23767311.061
        48.200
 104124551.230 8  80985753.412 7  19506035.381    19506035.556    19506039.448
        48.100          47.300
 200877812.572 5                  38225807.486
        31.100
 105344637.533 8  81934764.147 7  19686172.108    19686173.165    19686176.467
        51.100          45.400
 109438844.562 8  85119131.483 7  20508788.558    20508788.435    20508794.747
        52.400          47.500
 198898773.357 7                  37849188.238
        42.700
 202024244.835 7                  38443943.605
        44.700
 122896356.401 8                  23386382.239
        48.900
 130434886.156 6                  24820937.605
        38.700
 125897904.303 7                  23957561.454
        42.500
 127663392.911 4                  23873702.155    23873707.640
        28.400
 25  1  1  8 32  0.0000000  0 24G18G23G15E29G32G24E33G10G27G29R04R03
                                E15E26R18S35R17R02S31S33E07E08E13R24
 106875727.188 8  83279808.28447  20337773.660    20337773.4374   20337775.3994
        51.500          46.2004
 108211785.196 7  84320903.26346  20592018.482    20592018.1784   20592018.3434
        46.200          37.7004
 110626537.139 7  86202728.67541  21051533.597    21051533.0434   21051585.6524
        43.600          11.0004




 116079057.874 6  90451252.33845  22089109.081    22089109.0734   22089113.7234
        38.800          32.7004
 143503449.891 5                  27307800.488
        32.500
 121171042.681 6  94419013.58344  23058093.913    23058094.0114   23058097.7744
        38.500          29.2004
 122337190.365 6  95327700.71544  23279986.518    23279986.8044   23279981.2204
        41.100          26.8004
 128639396.845 5 100238463.11941  24479265.779    24479265.5654   24479265.2104
        35.000           9.0004
 121014191.168 7  94122060.640 5  22598521.640    22598524.838    22598531.752
        42.100          34.100
 104953304.865 8  81630367.249 8  19606141.095    19606140.877    19606146.869
        49.600          48.200


 124878761.891 8                  23763642.266
        48.500
 104100444.373 7  80967003.649 7  19501518.692    19501518.640    19501522.797
        47.500          46.500


 105379470.205 8  81961856.260 7  19692681.860    19692681.987    19692686.237
        49.600          46.800
 109478145.418 8  85149698.818 7  20516153.401    20516153.385    20516159.075
        52.400          46.900
 198898774.260 7                  37849187.589
        42.000
 202024216.883 7                  38443933.821
        42.200
 122884051.229 8                  23384040.684
        48.600
 130462955.436 6                  24826278.499
        37.600
 125917233.080 7                  23961238.354
        42.100
 127728789.491 5                  23885928.421
        35.700
 25  1  1  8 32 15.0000000  0 25G18G23G15E29G32G24E33G10G27R19G29R04
                                R03E15E26R18S35R17R02S31G13S33E07E08
                                E13
 106883603.223 8  83285945.45347  20339272.697    20339272.4694   20339273.9614
        50.500          45.7004
 108201568.333 7  84312942.07246  20590074.910    20590074.6154   20590073.5274
        46.200          37.4004
 110664577.611 7  86232370.45241  21058771.587    21058771.0644   21058824.3644
        43.900          11.2004


 129437763.026 5 100860579.47141  24631183.994    24631183.7714   24631183.2924
        30.300           9.3004
 116045583.724 6  90425168.64145  22082737.551    22082737.4754   22082743.7094
        38.400          34.3004
 143463700.515 5                  27300236.928
        34.700
 121139008.982 6  94394052.29144  23051996.076    23051996.1074   23052005.7434
        39.900          26.2004
 122320097.738 6  95314381.81344  23276732.034    23276732.3204   23276727.9624
        36.200          24.6004
 120187831.182 4  93479429.634 6  22467856.883                    22467852.692
        29.900          38.500
 128695452.046 5 100282142.40842  24489932.489    24489932.2394   24489932.3154
        34.700          13.9004
 120966304.771 5                  22589573.169    22589569.676
        32.500
 104942155.040 8  81621695.162 8  19604058.537    19604058.116    19604063.656
        50.000          48.400


 124859539.195 7                  23759984.308
        47.400
 104076506.461 7  80948385.271 7  19497032.670    19497032.722    19497039.002
        44.100          47.300
 200877870.606 5                  38225784.444
        33.200
 105414469.591 8  81989078.056 7  19699221.964    19699222.040    19699227.237
        49.800          47.300
 109517511.189 8  85180316.625 7  20523530.732    20523531.504    20523534.739
        51.400          45.700
 198898774.717 7                  37849186.176
        42.100
 125327331.047 5                  23848984.032
        31.800
 202024189.276 7                  38443935.560
        45.100
 122871837.528 8                  23381716.245
        48.300
 130491086.649 6                  24831631.975
        38.400
 125936633.497 7                  23964931.173
        43.700
 25  1  1  8 32 30.0000000  0 25G18G23G15E29G32G24E33G10G27R19G29R04
                                R03E26R18S35R17R02S31G13S33E07E08E13
                                R24
 106891602.036 8  83292178.27647  20340794.817    20340794.5854   20340795.8204
        50.400          45.0004
 108191402.420 7  84305020.59446  20588139.356    20588139.0524   20588139.2564
        46.800          37.0004
 110702704.749 7  86262080.16342  21066027.672    21066027.1364   21066080.5654
        44.900          14.0004


 129387252.216 5 100821220.31842  24621566.621    24621566.8404   24621571.4364
        33.700          13.5004
 116012222.000 6  90399172.52945  22076388.551    22076388.4624   22076395.1764
        39.500          33.6004
 143423947.962 5                  27292671.337
        35.900
 121106994.957 6  94369106.28344  23045905.494    23045905.6104   23045916.2244
        41.100          27.0004
 122303143.400 6  95301170.81044  23273508.685    23273508.9804   23273501.0114
        41.700          25.3004
                  93433272.039 6                                  22456755.981
                        38.200
 128751501.710 5 100325817.53842  24500605.297    24500605.0474   24500599.2144
        33.900          14.8004
 120918489.622 6                  22580703.097
        40.300
 104931129.765 8  81613119.942 8  19602000.223    19602000.003    19602004.451
        51.500          48.200
 124840370.757 7                  23756336.893
        47.200
 104052734.834 7  80929896.220 7  19492580.880    19492579.692    19492585.790
        46.700          47.600
 200877874.212 5                  38225797.072
        31.100
 105449632.344 8  82016426.890 7  19705793.578    19705794.422    19705797.902
        51.500          47.400
 109556938.657 8  85210982.415 7  20530919.147    20530919.792    20530923.617
        50.800          45.800
 198898772.669 6                  37849177.765
        40.800
 125381537.724 5                  23859305.592
        32.700
 202024160.850 7                  38443929.282
        44.600
 122859712.317 7                  23379408.603
        47.400
 130519276.504 6                  24836996.958
        38.000
 125956102.699 7                  23968635.735
        43.300
 127859522.978 5                  23910372.710    23910374.319
        33.700
 25  1  1  8 32 45.0000000  0 24G18G23G15E29G32G24E33G10G27R19R04R03
                                E26R18S35R17R02S31G13S33E07E08E13R24
 106899729.759 8  83298511.54647  20342341.252    20342341.0204   20342342.4114
        49.500          44.9004
 108181293.523 7  84297143.53846  20586215.336    20586215.0324   20586216.0914
        44.900          36.3004
 110740924.304 7  86291861.63841  21073300.705    21073300.1914   21073353.2834
        45.200          10.1004


 129336779.675 5 100781891.05942  24611962.418    24611962.8564   24611969.2574
        34.300          13.1004
 115978979.105 6  90373269.01645  22070062.822    22070062.7114   22070069.5834
        36.900          33.1004
 143384198.475 6                  27285107.990
        37.500
 121075006.678 7  94344180.51644  23039819.412    23039819.5144   23039819.4534
        44.200          25.6004
 122286333.631 6  95288072.36344  23270306.563    23270306.8134   23270303.1664
        41.900          25.9004
                  93387159.995 6                                  22445673.234
                        38.700
 120870752.374 7                  22571732.043    22571752.376
        43.000
 104920235.059 8  81604646.270 8  19599965.114    19599965.889    19599969.438
        52.800          48.300
 124821262.787 7                  23752699.763
        46.800
 104029135.954 7  80911541.557 8  19488160.202    19488158.854    19488165.327
        47.300          48.400
 200877880.509 6                  38225798.762
        36.900
 105484964.346 8  82043907.360 7  19712395.486    19712395.860    19712400.275
        50.000          47.500
 109596433.448 8  85241700.579 7  20538320.474    20538320.909    20538326.760
        50.800          47.400
 198898774.713 7                  37849185.304
        42.700
 125435785.286 5                  23869630.328
        30.700
 202024134.302 7                  38443926.679
        44.900
 122847681.586 7                  23377118.971
        45.900
 130547530.900 6                  24842373.305
        38.200
 125975646.699 7                  23972354.493
        43.500
 127924959.095 4                  23922611.683    23922603.039
        28.600
 25  1  1  8 33  0.0000000  0 23G18G23G15E29G32G24E33G10G27R19R04R03
                                E26R18S35R17R02S31G13S33E07E08E13
 106907983.561 8  83304943.06647  20343912.651    20343912.4284   20343913.1444
        51.000          45.7004
 108171238.711 7  84289308.61545  20584302.560    20584302.2564   20584302.4334
        45.300          35.1004
 110779233.068 7  86321712.53442  21080590.681    21080590.1944   21080641.6084
        45.300          16.5004


 129286342.708 4 100742589.51741  24602368.449    24602368.9724   24602373.5764
        27.200           8.9004
 115945852.475 5  90347456.09845  22063759.742    22063759.6664   22063765.4904
        33.700          30.6004
 143344449.329 6                  27277545.181
        40.000
 121043041.249 7  94319272.43244  23033736.220    23033736.3404   23033731.9474
        42.700          26.5004
 122269665.620 6  95275084.34944  23267135.075    23267135.2044   23267133.1754
        38.900          26.2004
                  93341091.462 6                                  22434600.862
                        38.600
 120823090.119 6                  22562833.568    22562852.778
        41.900
 104909467.825 8  81596271.745 8  19597953.262    19597953.878    19597957.946
        52.400          48.400
 124802212.570 7                  23749074.860
        46.200
 104005707.408 8  80893319.327 8  19483771.841    19483771.897    19483776.300
        51.300          48.400
 200877887.727 5                  38225799.791
        32.000
 105520462.394 8  82071516.968 7  19719028.883    19719028.430    19719034.638
        48.900          47.200
 109635992.371 8  85272468.608 8  20545734.571    20545735.744    20545739.780
        52.300          48.000
 198898776.935 7                  37849181.535
        42.700
 125490070.702 4                  23879966.236
        27.800
 202024109.031 7                  38443921.783
        45.600
 122835742.434 7                  23374846.931
        44.800
 130575846.775 6                  24847760.874
        38.200
 125995262.602 7                  23976087.940
        44.400
 25  1  1  8 33 15.0000000  0 23G18G23G15E29G32G24E33G10G27G29R04R03
                                E26R18S35R17R02S31S33E07E08E13R24
 106916358.708 8  83311469.14647  20345505.814    20345505.6004   20345506.8534
        51.900          46.0004
 108161233.273 7  84281512.16145  20582397.309    20582396.9614   20582398.0904
        45.900          34.5004
 110817625.918 7  86351629.01442  21087895.607    21087895.1114   21087941.4064
        43.400          17.5004




 115912837.832 6  90321730.44744  22057477.842    22057477.7494   22057481.6134
        37.400          29.0004
 143304695.795 6                  27269980.370
        39.600
 121011093.913 7  94294378.42644  23027659.498    23027659.6414   23027654.7934
        43.000          29.4004
 122253134.626 6  95262203.11244  23263990.084    23263990.1514   23263988.1404
        41.800          28.4004
 128919682.037 5                  24532599.348
        34.100
 120775497.740 5                  22553939.147    22553964.968
        35.300
 104898823.471 8  81587992.801 8  19595964.476    19595964.757    19595968.839
        51.800          48.000
 124783215.480 7                  23745459.837
        46.700
 103982444.588 8  80875226.020 8  19479413.613    19479413.764    19479418.556
        51.600          48.400


 105556121.489 8  82099251.810 7  19725693.080    19725693.424    19725697.825
        49.100          46.700
 109675610.179 8  85303282.475 8  20553157.839    20553158.879    20553163.818
        50.300          48.000
 198898775.014 7                  37849187.334
        43.600
 202024079.318 7                  38443909.589
        43.800
 122823890.069 7                  23372591.562
        46.100
 130604219.064 5                  24853158.465
        34.300
 126014945.601 7                  23979833.620
        47.100
                  99599070.503 5                                  23947113.727
                        33.100
 25  1  1  8 33 30.0000000  0 23G18G23G15E29G32G24E33G10G27G29R04R03
                                E26R18S35R17R02S31S33E07E08E13R24
 106924862.727 8  83318095.64747  20347124.109    20347123.8904   20347124.9904
        52.400          46.1004
 108151284.614 7  84273759.96845  20580504.362    20580504.0274   20580505.1814
        45.700          35.3004
 110856110.033 7  86381616.82243  21095219.060    21095218.5824   21095261.0284
        42.200          19.5004




 115879942.863 6  90296098.04245  22051217.869    22051217.7134   22051221.1714
        40.600          30.9004
 143264945.451 5                  27262415.072
        35.300
 120979172.090 6  94269504.31045  23021585.441    23021585.5524   23021584.6684
        39.300          30.5004
 122236748.259 7  95249434.55145  23260871.541    23260871.5994   23260871.0264
        43.000          31.2004
 128975719.965 6 100500542.37941  24543259.358    24543259.2514   24543253.4544
        37.500          11.3004
 120727983.586 5  93899469.984 6  22545072.739                    22545081.580
        35.800          37.000
 104888308.950 8  81579814.841 7  19593999.684    19593999.975    19594004.634
        51.400          47.600
 124764279.118 7                  23741856.550
        46.400
 103959355.306 8  80857267.694 8  19475087.747    19475087.707    19475093.509
        50.900          48.100


 105591948.621 8  82127117.323 7  19732387.347    19732388.628    19732394.152
        49.000          47.400
 109715294.054 8  85334147.711 8  20560595.193    20560594.566    20560600.828
        49.600          48.700
 198898776.782 6                  37849180.305
        41.400
 202024053.402 7                  38443910.662
        44.800
 122812131.973 7                  23370353.915
        47.400
 130632655.101 4                  24858570.718
        29.900
 126034703.156 7                  23983593.375
        47.000
                  99650031.245 4                                  23959370.351
                        29.400
 25  1  1  8 33 45.0000000  0 24G18G23G15E29G32G24E33G10G27R19G29R04
                                R03E26R18S35R17R02S31S33E07E08E13R24
 106933486.517 8  83324815.48247  20348765.486    20348765.2724   20348765.9644
        52.300          45.6004
 108141383.598 7  84266044.90145  20578620.517    20578620.2044   20578621.4744
        45.900          35.7004
 110894675.678 7  86411668.13043  21102557.449    21102556.9984   21102599.5244
        42.100          20.2004




 115847158.835 6  90270552.08645  22044980.318    22044980.1174   22044982.3504
        41.000          32.9004
 143225189.241 5                  27254849.685
        32.700
 120947266.863 5  94244643.01944  23015511.991    23015512.1744   23015516.6234
        30.200          27.5004
 122220497.430 7  95236771.61045  23257779.901    23257779.9544   23257779.2384
        44.800          31.8004
                  93203138.997 5                                  22401441.505
                        33.700
 129031747.324 6 100544200.07242  24553920.356    24553919.7984   24553914.3214
        38.500          12.4004
 120680538.034 6  93862567.781 6  22536214.893    22536212.327    22536219.754
        37.400          38.000
 104877915.211 8  81571730.835 8  19592057.933    19592058.392    19592063.516
        51.000          48.100
 124745394.474 7                  23738263.156
        47.000
 103936430.722 8  80839437.470 7  19470793.102    19470793.071    19470798.614
        50.300          47.300


 105627934.577 7  82155106.394 8  19739111.799    19739112.455    19739119.293
        47.800          48.200
 109755034.348 8  85365056.826 8  20568042.645    20568041.723    20568047.985
        49.900          48.400
 198898772.235 7                  37849181.177
        42.200
 202024021.391 7                  38443902.895
        45.100
 122800458.879 8                  23368132.887
        48.100
 130661145.473 5                  24863992.484
        30.300
 126054526.134 7                  23987365.468
        46.600


 25  1  1  8 34  0.0000000  0 24G18G23G15E29G32G24E33G10G27R19G29R04
                                R03E15E26R18S35R17R02S31S33E07E08E13
 106942240.019 8  83331636.40147  20350431.396    20350431.1824   20350431.5364
        52.600          45.1004
 108131540.166 7  84258374.71545  20576748.045    20576747.7104   20576748.5484
        43.700          35.1004
 110933332.556 6  86441790.40142  21109913.189    21109912.7384   21109952.3154
        41.400          17.5004




 115814495.954 7  90245100.53745  22038765.282    22038765.0634   22038767.0184
        43.800          35.5004
 143185437.183 5                  27247286.381
        30.100


 122204392.170 7  95224222.11945  23254714.876    23254714.9074   23254713.0964
        44.200          30.6004
                  93157244.512 5                                  22390409.533
                        34.500
 129087773.864 6 100587857.12642  24564582.020    24564581.2694   24564577.6114
        38.600          16.5004
 120633171.346 7  93825726.843 6  22527373.357    22527372.680    22527374.742
        42.000          36.800
 104867651.991 8  81563748.367 8  19590141.115    19590141.417    19590147.005
        51.100          48.200


 124726571.617 7                  23734681.095
        47.800
 103913681.211 8  80821743.424 7  19466530.615    19466531.016    19466536.245
        50.000          46.400


 105664088.936 7  82183226.491 8  19745868.441    19745867.605    19745876.179
        45.700          49.000
 109794840.729 8  85396017.365 8  20575502.148    20575502.433    20575508.127
        51.700          48.400
 198898771.453 6                  37849182.934
        40.600
 202023993.402 7                  38443899.859
        44.100
 122788880.688 8                  23365929.475
        48.500
 130689699.839 5                  24869425.559
        31.200
 126074424.455 7                  23991151.752
        45.400
 25  1  1  8 34 15.0000000  0 24G18G23G15E29G32G24E33G10G27R19G29R04
                                R03E15E26R18S35R17R02S31S33E07E08E13
 106951119.834 8  83338555.74947  20352121.197    20352120.9784   20352121.0184
        52.800          44.5004
 108121750.798 7  84250746.66245  20574885.618    20574885.2524   20574885.6844
        44.800          35.3004
 110972077.032 7  86471981.04242  21117285.045    21117284.6344   21117322.5334
        42.000          15.3004


 129034634.216 5 100546496.77941  24554472.155    24554471.8384   24554485.4454
        33.400          11.0004
 115781951.177 7  90219741.00446  22032571.668    22032571.4544   22032574.0094
        45.000          38.0004
 143145686.084 4                  27239721.254
        28.900
 120883561.163 6  94195018.91943  23003380.774    23003380.7074   23003386.2114
        37.000          22.0004
 122188429.069 6  95211783.38445  23251677.867    23251677.8804   23251673.8954
        40.900          30.8004
                  93111395.266 5                                  22379391.849
                        33.800
 129143795.673 5 100631510.41742  24575242.322    24575241.6884   24575241.2284
        34.400          15.7004
 120585879.961 7  93788944.731 5  22518539.645    22518546.913    22518538.006
        42.400          32.300
 104857515.402 8  81555864.360 8  19588247.698    19588247.407    19588252.473
        49.900          48.300


 124707807.244 8                  23731110.503
        49.200
 103891103.696 8  80804183.118 7  19462301.680    19462301.889    19462306.793
        50.600          45.500


 105700408.021 7  82211474.644 8  19752656.696    19752655.788    19752662.175
        47.400          48.100
 109834709.451 8  85427026.349 8  20582974.498    20582975.064    20582979.649
        53.400          48.500
 198898771.146 7                  37849180.533
        42.100
 202023965.332 7                  38443891.859
        45.300
 122777393.922 7                  23363743.938
        47.500
 130718314.608 5                  24874872.989
        33.700
 126094394.593 7                  23994951.467
        43.100
 25  1  1  8 34 30.0000000  0 24G18G23G15E29G32G24E33G10G27G29R04R03
                                E15E26R18S35R17R02S31S33E07E08E13R24
 106960123.407 8  83345571.52347  20353834.290    20353834.0714   20353834.2444
        52.000          43.6004
 108112012.966 7  84243158.75446  20573032.094    20573031.7324   20573032.8364
        46.100          37.1004
 111010906.033 6  86502237.36041  21124673.728    21124673.3894   21124708.3844
        40.700           8.5004


 128984406.963 5 100507358.63442  24544915.203    24544914.7474   24544926.8734
        34.500          15.4004
 115749522.270 7  90194471.75046  22026401.093    22026400.8744   22026403.2284
        44.100          38.8004
 143105933.264 4                  27232156.194
        29.900
 120851724.991 4  94170211.52843  22997325.021    22997324.4224   22997327.0864
        26.100          20.2004
 122172605.678 6  95199453.50545  23248666.824    23248666.8284   23248664.2434
        40.400          31.3004
 129199809.440 4 100675157.49542  24585901.353    24585900.7274   24585902.6184
        28.600          14.2004
 120538661.433 6  93752219.262 5  22509737.130    22509737.356    22509722.864
        40.600          33.800
 104847502.890 8  81548076.862 8  19586376.176    19586376.597    19586381.649
        49.200          48.200


 124689098.917 8                  23727550.216
        49.300
 103868695.825 8  80786754.773 7  19458104.033    19458104.462    19458110.023
        51.200          46.000


 105736888.978 8  82239848.712 7  19759473.221    19759474.753    19759478.408
        50.200          47.100
 109874637.266 8  85458081.342 7  20590455.751    20590456.652    20590461.492
        52.800          47.600
 198898769.388 7                  37849183.650
        42.500
 202023936.076 7                  38443889.614
        44.300
 122765995.997 7                  23361575.300
        46.900
 130746986.935 6                  24880328.996
        38.800
 126114434.024 6                  23998763.799
        40.900
 128383895.919 5                  24008402.299
        30.100
 25  1  1  8 34 45.0000000  0 24G18G23G15E29G32G24E33G10G27R19R04R03
                                E15E26R18S35R17R02S31S33E07E08E13R24
 106969253.377 8  83352685.77547  20355571.707    20355571.4844   20355571.5284
        52.400          43.0004
 108102329.206 7  84235612.95946  20571188.570    20571188.2134   20571190.1654
        46.700          37.9004
 111049821.873 6  86532560.98841  21132081.676    21132081.2564   21132111.2984
        38.500          11.3004
 139018835.503 5                  26454406.850
        35.200
 128934216.563 5 100468249.23042  24535360.317    24535360.0894   24535374.2004
        34.000          14.3004
 115717212.095 7  90169295.01546  22020252.577    22020252.3634   22020255.5214
        44.800          38.2004
 143066181.577 5                  27224591.830
        33.400
 120819911.384 5  94145421.75343  22991274.453    22991273.8364   22991271.7314
        35.800          20.9004
 122156924.702 6  95187234.52644  23245681.533    23245681.5374   23245682.3374
        38.100          29.1004
                  93019829.986 5                                  22357381.463
                        33.800
 120491518.751 6  93715552.548 5  22500927.766                    22500919.898
        37.900          31.700
 104837616.884 8  81540387.760 8  19584528.289    19584529.580    19584535.611
        49.900          48.700


 124670449.385 8                  23724001.611
        48.700
 103846460.506 8  80769460.645 7  19453939.092    19453939.450    19453943.132
        52.100          45.400
 200877962.991 4                  38225803.323
        29.200
 105773534.097 8  82268350.458 7  19766322.588    19766324.581    19766327.123
        51.300          47.000
 109914626.749 9  85489184.252 7  20597951.428    20597951.892    20597955.185
        54.200          47.100
 198898767.561 6                  37849180.627
        40.100
 202023906.935 7                  38443880.658
        44.500
 122754689.391 7                  23359423.709
        47.100
 130775719.183 6                  24885796.377
        39.500
 126134545.313 6                  24002591.357
        37.300
 128449547.520 4                  24020690.607
        29.000
 25  1  1  8 35  0.0000000  0 23G18G23G15E29G32G24E33G10G27R19R04R03
                                E15E26R18S35R17R02S31S33E07E08E13
 106978512.537 8  83359900.69747  20357333.165    20357332.9464   20357333.4544
        52.000          42.8004
 108092702.246 7  84228111.41646  20569357.443    20569357.1174   20569357.9274
        46.900          38.4004
 111088826.832 5  86562954.20241  21139504.648    21139504.2514   21139530.8024
        35.700           8.4004
 138977502.437 6                  26446543.733
        36.500
 128884065.829 4 100429170.81241  24525826.947    24525827.1214   24525828.4624
        28.700          11.6004
 115685023.793 7  90144213.26046  22014127.079    22014126.8604   22014128.8394
        44.500          37.5004
 143026433.770 5                  27217027.047
        32.900
 120788123.351 6  94120651.83343  22985220.415    22985219.7544   22985221.5194
        38.100          23.7004
 122141388.910 7  95175128.68545  23242725.967    23242726.0114   23242726.9794
        43.200          30.5004
 119538147.079 5  92974119.032 5  22346393.439    22346393.797    22346394.682
        34.400          34.700
 120444454.507 6  93678947.064 5  22492136.014    22492132.739    22492128.568
        36.100          32.000
 104827860.219 7  81532799.236 8  19582706.608    19582705.788    19582713.049
        47.900          49.200


 124651861.512 8                  23720464.321
        49.200
 103824400.949 8  80752303.245 7  19449806.516    19449806.727    19449810.043
        51.500          44.400


 105810345.698 8  82296981.718 7  19773200.824    19773201.641    19773206.088
        49.400          46.700
 109954680.015 8  85520336.785 7  20605456.568    20605457.640    20605461.268
        53.900          47.400
 198898768.548 6                  37849184.146
        41.200
 202023880.665 7                  38443880.336
        43.400
 122743476.871 7                  23357289.305
        47.000
 130804513.887 6                  24891275.838
        39.400
 126154731.229 5                  24006433.730
        33.800
