     2.11           OBSERVATION DATA    M (MIXED)           RINEX VERSION / TYPE
teqc  2019Feb25                         20260317 16:18:01UTCPGM / RUN BY / DATE
Linux 2.4.21-27.ELsmp|Opteron|gcc -static|Linux 64|=+       COMMENT
BIT 2 OF LLI FLAGS DATA COLLECTED UNDER A/S CONDITION       COMMENT
-Unknown-                                                   MARKER NAME
-Unknown-           -Unknown-                               OBSERVER / AGENCY
-Unknown-           -Unknown-           -Unknown-           REC # / TYPE / VERS
-Unknown-           -Unknown-                               ANT # / TYPE
        0.0000        0.0000        0.0000                  APPROX POSITION XYZ
        0.0000        0.0000        0.0000                  ANTENNA: DELTA H/E/N
     1     1                                                WAVELENGTH FACT L1/2
     7    L1    L2    C1    P1    P2    S1    S2            # / TYPES OF OBSERV
 SNR is mapped to RINEX snr flag value [0-9]                COMMENT
  L1 & L2: min(max(int(snr_dBHz/6), 0), 9)                  COMMENT
  2025     1     1    23     0    0.0000000     GPS         TIME OF FIRST OBS
    18                                                      LEAP SECONDS
                                                            END OF HEADER
 25  1  1 23  0  0.0000000  0 27E31G02G30G06G13G19E10G17E33E24G03E03
                                E25R12E12G14S35G24S31E05R13S33R11R21
                                R23E11R22
 130133471.399 7                  24763569.186
        42.400
 123009877.598 6  95851835.92842  23407997.888    23407997.6964   23407997.2974
        37.700          16.0004


 121239026.993 6  94471986.45344  23071018.442    23071018.4254   23071022.2364
        38.500          29.5004
 127265864.255 5  99168149.23141  24217896.825    24217896.7414   24217911.8344
        33.300           6.6004
 111003410.133 7  86496149.64545  21123221.970    21123220.6924   21123219.7674
        46.200          35.6004
 129980270.459 7                  24734397.047
        44.200
 107284829.967 8  83598591.39048  20415620.655    20415620.1954   20415622.8694
        51.500          53.3004
 133624424.324 5                  25427880.776
        35.900
 125072093.902 7                  23800426.594
        44.400




 138908665.986 6                  26433439.790
        39.500
 103423021.036 7  80440157.638 7  19361003.049    19361003.191    19361009.715
        45.700          45.200
 126923209.656 7                  24152672.578
        43.500
 105992380.579 8  82591467.51346  20169679.698    20169679.4444   20169679.1704
        50.700          40.6004


 126928533.793 4  98905328.76342  24153698.555    24153697.8714   24153691.5214
        29.300          12.6004
 198898014.518 7                  37849048.182
        42.000
 137159417.020 5                  26100579.835
        34.400
 118231457.295 5                  22140951.290    22140950.004
        32.400
 202056082.972 7                  38450004.267
        44.200
 111367563.452 7  86619203.089 7  20840930.677    20840930.626    20840938.998
        45.400          42.200
 114367583.055 7  88952196.387 7  21372226.986    21372225.985    21372234.675
        44.900          47.200
 114198611.460 7                  21348212.689    21348212.768
        45.700
 138836850.647 3                  26419791.076
        23.400
 102068088.302 8  79386152.019 8  19120747.559    19120747.765    19120752.422
        50.700          49.900
 25  1  1 23  0 15.0000000  0 27E31G02G30G06G13G19E10G17E33E24G03E03
                                E25R12E12G14S35G24S31E05R13S33R11R21
                                R23E11R22
 130154959.129 6                  24767658.298
        41.100
 123054031.967 5  95886241.91442  23416394.828    23416394.7124   23416399.0784
        31.600          14.0004


 121184549.786 6  94429536.83145  23060652.104    23060651.8724   23060656.5854
        39.300          30.9004
 127305098.947 6  99198721.48141  24225363.465    24225363.4214   24225377.7984
        36.400           9.2004
 110977118.137 7  86475662.41945  21118219.388    21118218.1014   21118216.3134
        46.400          34.8004
 129945043.929 7                  24727693.583
        46.300
 107290317.591 8  83602867.47748  20416665.279    20416664.8284   20416667.1494
        51.500          53.4004
 133650991.389 6                  25432936.002
        38.400
 125062069.090 7                  23798518.867
        44.300




 138875657.031 6                  26427157.994
        40.000
 103402710.998 7  80424360.955 7  19357200.149    19357202.611    19357208.482
        46.200          45.700
 126905388.728 7                  24149281.646
        43.100
 105999141.817 8  82596736.01146  20170966.125    20170965.8804   20170966.0854
        50.200          41.0004


 126886850.870 5  98872848.49941  24145766.335    24145765.2274   24145759.6544
        32.000           9.3004
 198898019.090 6                  37849041.756
        41.400
 137193620.483 6                  26107088.135
        36.500
 118176012.994 5                  22130569.989    22130568.448
        34.700
 202056082.336 7                  38450003.968
        45.100
 111408537.998 8  86651072.155 7  20848599.329    20848600.492    20848606.346
        48.000          43.000
 114420180.165 7  88993105.283 7  21382055.192    21382056.060    21382062.818
        45.100          46.300
 114146430.390 7                  21338458.160    21338458.992
        46.200


 102063743.445 8  79382772.704 8  19119933.871    19119934.788    19119938.140
        51.900          49.600
 25  1  1 23  0 30.0000000  0 26E31G30G06G13G19E10G17E33E24G03E03E25
                                R12E12G14S35G24S31E05R13S33R11R21R23
                                E11R22
 130176489.466 6                  24771755.208
        37.900
 117883772.522 5  91857585.67742  22432534.427    22432534.3074   22432560.7114
        35.600          16.5004
 121130124.335 5  94387127.53245  23050295.281    23050295.0534   23050300.8224
        35.900          31.5004
 127344375.027 6  99229326.03442  24232843.972    24232843.9014   24232851.5604
        39.900          12.6004
 110950898.671 7  86455231.71145  21113228.868    21113227.5404   21113227.3144
        46.700          34.9004
 129909891.870 7                  24721004.820
        47.500
 107295876.162 8  83607198.84848  20417722.888    20417722.4374   20417724.7594
        51.600          52.9004
 133677642.193 6                  25438007.616
        40.200
 125052084.648 7                  23796618.550
        43.700
 126113506.806 4  98270304.48941  23998601.142    23998601.6384   23998617.0674
        27.500           6.5004


 138842648.319 6                  26420876.634
        40.100
 103382533.469 7  80408667.321 7  19353426.741    19353426.966    19353431.106
        47.700          45.200
 126887670.777 7                  24145909.888
        43.700
 106005993.909 8  82602075.31046  20172270.022    20172269.7774   20172270.7934
        49.800          41.1004


 126845264.082 4  98840443.1894   24137850.888    24137849.7124   24137846.0724
        29.100           4.9004
 198898023.949 7                  37849049.591
        42.500
 137227853.383 5                  26113598.737
        35.000
 118120598.692 5                  22120197.348    22120193.086
        34.000
 202056082.007 7                  38450003.624
        44.700
 111449629.237 7  86683031.981 7  20856286.927    20856288.217    20856297.712
        45.600          46.100
 114472852.939 7  89034073.030 7  21391899.057    21391899.872    21391905.061
        45.500          44.800
 114094358.247 7                  21328725.288    21328726.720
        45.700


 102059578.580 8  79379533.385 8  19119153.059    19119154.244    19119158.038
        51.600          49.200
 25  1  1 23  0 45.0000000  0 26E31G30G06G13G19E10G17E33E24G03E03E25
                                R12E12G14S35G24S31E05R13S33R11R21R23
                                E11R22
 130198062.360 6                  24775860.799
        36.500
 117932979.791 4  91895928.5834   22441893.452    22441892.9384   22441919.0034
        28.500           5.1004
 121075750.671 5  94344758.58845  23039948.148    23039947.8314   23039955.0704
        35.000          30.8004
 127383692.070 5  99259962.59441  24240316.026    24240316.0134   24240333.1304
        30.900           9.7004
 110924751.675 7  86434857.45046  21108253.340    21108252.0264   21108252.9074
        47.100          36.1004
 129874814.343 7                  24714330.450
        47.800
 107301505.244 8  83611585.16248  20418794.262    20418793.8114   20418795.8024
        51.400          52.9004
 133704376.355 6                  25443095.249
        41.700
 125042140.570 7                  23794726.447
        42.100
 126080422.316 4  98244524.30641  23992303.762    23992304.1154   23992322.6594
        29.800           6.3004


 138809639.740 6                  26414592.540
        38.300
 103362488.511 7  80393076.799 7  19349672.588    19349673.530    19349678.436
        46.400          45.100
 126870055.667 7                  24142557.859
        43.300
 106012936.790 8  82607485.37646  20173591.146    20173590.8924   20173592.5784
        49.900          41.1004


 126803773.312 5  98808112.96041  24129944.003    24129942.9574   24129949.9114
        32.300           9.6004
 198898028.613 7                  37849053.615
        42.900
 137262115.284 5                  26120119.507
        34.200
 118065214.926 6                  22109824.718    22109822.422
        36.900
 202056080.630 7                  38450006.078
        43.600
 111490836.916 7  86715082.344 7  20864000.521    20864001.261    20864009.924
        47.500          46.800
 114525600.697 7  89075099.043 7  21401757.054    21401757.032    21401761.563
        46.900          44.300
 114042395.203 6                  21319004.189    21319004.626
        41.500


 102055593.511 8  79376433.896 8  19118406.289    19118406.732    19118411.380
        50.700          48.900
 25  1  1 23  1  0.0000000  0 26E31G02G06G13G19E10G17E33E24G03E03E25
                                R12E12G14S35G24S31E05R13S33R11R21R23
                                E11R22
 130219675.642 6                  24779974.955
        38.400
 123186965.775 5  95989836.04042  23441689.952    23441689.9304   23441692.6374
        34.300          14.0004
 121021427.280 6  94302428.79745  23029610.638    23029610.1514   23029617.9224
        36.400          31.0004
 127423047.661 4  99290629.17141  24247807.518    24247807.5894   24247822.3514
        28.700           7.8004
 110898675.085 7  86414538.04746  21103291.106    21103289.7924   21103291.6954
        46.500          36.9004
 129839809.419 7                  24707668.586
        47.200
 107307202.803 8  83616024.84148  20419878.559    20419878.1034   20419880.0144
        51.100          52.6004
 133731191.570 6                  25448198.032
        41.400
 125032234.820 7                  23792842.566
        42.500
 126047412.568 5  98218802.51843  23986024.538    23986024.9804   23986037.7934
        35.600          19.1004


 138776629.236 6                  26408312.987
        37.400
 103342574.434 7  80377588.076 7  19345942.853    19345944.461    19345951.106
        45.000          45.800
 126852541.470 7                  24139224.921
        43.100
 106019968.460 8  82612964.62646  20174929.212    20174928.9534   20174930.9614
        48.700          40.1004


 126762377.023 5  98775856.20842  24122068.725    24122067.6124   24122072.2894
        34.100          13.9004
 198898030.426 7                  37849049.832
        42.700
 137296403.889 5                  26126646.188
        34.100
 118009859.585 6                  22099457.663    22099456.079
        37.500
 202056076.906 7                  38450003.865
        43.700
 111532158.653 7  86747221.441 7  20871732.696    20871733.631    20871740.688
        46.200          45.500
 114578421.025 8  89116181.523 7  21411627.801    21411628.635    21411632.992
        48.500          44.200
 113990539.311 6                  21309315.751    21309312.232
        40.900


 102051785.994 8  79373472.534 8  19117693.447    19117693.517    19117698.367
        50.700          49.000
 25  1  1 23  1 15.0000000  0 26E31G02G06G13G19E10G17E33E24G03E03E25
                                R12E12G14S35G24S31E05R13S33R11R21R23
                                E11R22
 130241335.707 6                  24784101.860
        37.600
 123231379.340 6  96024443.98842  23450136.343    23450136.6964   23450138.6874
        37.100          16.8004
 120967160.498 6  94260143.11345  23019284.696    23019284.1824   23019292.3464
        38.700          33.0004
 127462447.518 5  99321330.13341  24255303.192    24255303.2274   24255320.1004
        32.900           9.0004
 110872675.108 8  86394278.34046  21098343.676    21098342.3754   21098344.3954
        48.100          37.3004
 129804883.569 7                  24701022.127
        45.600
 107312974.990 8  83620522.67148  20420976.594    20420976.1294   20420978.3124
        51.000          52.1004
 133758093.954 7                  25453318.033
        42.100
 125022373.800 7                  23790966.343
        42.800
 126014484.251 5  98193144.24643  23979756.658    23979757.2214   23979767.9524
        32.400          21.3004


 138743623.258 6                  26402031.383
        37.300
 103322797.907 7  80362206.302 7  19342241.485    19342242.145    19342248.857
        46.600          46.200
 126835134.474 7                  24135912.170
        42.500
 106027095.295 7  82618518.02046  20176285.698    20176285.4264   20176287.1064
        47.700          38.7004


 126721081.818 5  98743678.19742  24114208.772    24114207.6594   24114215.2104
        34.200          17.4004
 198898036.573 7                  37849050.337
        42.600
 137330725.190 6                  26133177.064
        36.100
 117954540.038 6                  22089096.454    22089095.893
        36.800
 202056077.424 7                  38450004.625
        44.400
 111573600.691 7  86779454.103 7  20879487.338    20879486.222    20879494.898
        45.000          43.400
 114631319.690 8  89157324.887 7  21421513.734    21421514.538    21421518.681
        49.900          44.500
 113938797.489 7                  21299644.412    21299641.946
        44.000


 102048162.265 8  79370654.089 8  19117015.171    19117014.805    19117018.801
        50.700          48.800
 25  1  1 23  1 30.0000000  0 26E31G02G06G13G19E10G17E33E24G03E03E25
                                R12E12G14S35G24S31E05R13S33R11R21R23
                                E11R22
 130263037.943 5                  24788222.380
        34.700
 123275855.850 6  96059100.97442  23458596.366    23458596.5584   23458600.7184
        36.700          16.3004
 120912946.244 6  94217898.34345  23008966.317    23008965.8484   23008976.4294
        40.300          33.8004
 127501886.628 5  99352061.72341  24262809.797    24262809.9174   24262825.1064
        33.800          11.6004
 110846747.129 8  86374074.75246  21093408.977    21093407.6584   21093410.1524
        48.400          37.7004
 129770032.371 7                  24694390.736
        44.000
 107318816.993 8  83625074.90848  20422088.444    20422087.9794   20422089.5064
        50.700          51.2004
 133785078.678 7                  25458453.052
        43.300
 125012553.006 7                  23789096.663
        43.300
 125981633.084 4  98167546.14743  23973502.481    23973503.0264   23973515.0864
        25.900          18.8004


 138710617.200 6                  26395750.874
        37.400
 103303154.587 7  80346928.150 7  19338563.805    19338563.717    19338571.404
        46.900          46.500
 126817830.286 6                  24132619.381
        41.200
 106034312.792 8  82624142.05046  20177659.812    20177659.5534   20177660.1444
        48.000          37.8004


 126679883.408 5  98711575.60443  24106368.717    24106367.7434   24106376.0714
        35.300          19.4004
 198898041.943 7                  37849049.188
        42.500
 137365074.273 6                  26139714.002
        37.900
 117899251.538 6                  22078743.730    22078742.848
        36.300
 202056076.368 7                  38450002.957
        44.600
 111615158.320 7  86811776.639 6  20887261.151    20887265.235    20887271.689
        44.600          41.400
 114684291.498 8  89198525.198 7  21431411.799    21431411.970    21431417.753
        48.100          45.000
 113887165.212 7                  21289990.761    21289991.013
        46.300


 102044717.534 8  79367974.898 8  19116369.727    19116369.456    19116373.586
        50.600          49.300
 25  1  1 23  1 45.0000000  0 27E31G02G30G06G13G19E10G17E33E24G03E03
                                E25R12E12G14S35G24S31E05R13S33R11R21
                                R23E11R22
 130284785.664 5                  24792363.267
        34.700
 123320398.349 5  96093809.38541  23467071.934    23467071.9964   23467075.3284
        32.700          11.3004
 118130463.505 6  92049820.85343  22479479.061    22479478.0824   22479507.0154
        38.900          18.0004
 120858788.045 6  94175697.25345  22998660.445    22998660.0254   22998669.6614
        40.700          32.6004
 127541367.884 6  99382826.25142  24270325.127    24270325.2034   24270338.0094
        37.600          15.2004
 110820894.465 7  86353929.87346  21088489.583    21088488.2914   21088489.7844
        47.300          37.5004
 129735259.222 7                  24687773.301
        44.100
 107324732.091 8  83629684.09648  20423214.155    20423213.6864   20423214.3694
        50.200          50.3004
 133812148.793 7                  25463604.068
        44.000
 125002775.777 7                  23787236.018
        42.500
 125948862.811 5  98142010.92842  23967269.553    23967269.9684   23967278.5764
        30.300          15.2004


 138677614.352 5                  26389470.163
        35.500
 103283648.167 8  80331756.482 7  19334914.191    19334913.720    19334919.613
        50.100          46.700
 126800632.096 6                  24129346.364
        38.700
 106041624.254 8  82629839.29646  20179050.289    20179050.0264   20179050.9624
        48.300          37.4004


 126638785.309 6  98679551.20843  24098549.362    24098548.4504   24098552.5614
        37.700          22.0004
 198898049.471 6                  37849052.833
        41.800
 137399454.178 6                  26146256.589
        40.200
 117843997.819 6                  22068395.915    22068395.598
        36.100
 202056079.181 7                  38450006.861
        45.100
 111656834.611 7  86844191.444 6  20895068.963    20895068.328    20895069.980
        44.400          39.800
 114737339.449 7  89239784.739 7  21441326.255    21441324.837    21441331.005
        46.800          45.100
 113835645.991 7                  21280359.285    21280360.072
        46.600


 102041454.978 8  79365437.384 8  19115758.304    19115758.239    19115762.901
        50.400          49.700
 25  1  1 23  2  0.0000000  0 27E31G02G30G06G13G19E10G17E33E24G03E03
                                E25R12E12G14S35G24S31E05R13S33R11R21
                                R23E11R22
 130306572.670 5                  24796509.583
        33.300
 123365000.286 5  96128564.06441  23475559.885    23475559.8454   23475562.0124
        32.300          10.7004
 118179996.737 6  92088418.15242  22488905.305    22488904.5454   22488936.6614
        38.200          17.9004
 120804679.935 6  94133535.17645  22988363.773    22988363.3494   22988372.2664
        39.300          31.6004
 127580884.711 5  99413618.47042  24277845.519    24277845.5024   24277857.1634
        34.600          14.2004
 110795110.864 8  86333838.81046  21083583.817    21083582.5434   21083582.6794
        48.100          37.5004
 129700558.038 7                  24681169.645
        44.700
 107330713.958 8  83634345.30248  20424352.801    20424352.3364   20424352.0844
        50.100          50.4004
 133839297.829 7                  25468769.641
        43.900
 124993035.942 7                  23785382.761
        42.400
 125916167.351 4  98116533.92041  23961045.014    23961045.3134   23961055.1914
        26.600           8.9004


 138644608.551 5                  26383191.824
        35.300
 103264272.561 8  80316686.566 7  19331287.025    19331286.684    19331292.617
        51.100          46.500
 126783533.689 6                  24126092.416
        38.300
 106049023.522 7  82635604.95946  20180458.334    20180458.0664   20180458.9964
        47.400          37.4004


 126597781.586 6  98647600.28744  24090746.263    24090745.3654   24090747.1964
        38.300          25.0004
 198898053.863 7                  37849058.181
        42.100
 137433858.399 6                  26152803.224
        41.500
 117788772.975 5                  22058051.824    22058051.305
        30.600
 202056077.593 7                  38450003.342
        45.200
 111698622.797 6  86876693.336 6  20902880.085    20902882.672    20902888.983
        41.100          39.200
 114790456.485 7  89281098.001 7  21451251.536    21451251.396    21451256.844
        47.000          44.500
 113784233.896 7                  21270748.702    21270747.984
        44.600


 102038368.130 8  79363036.538 8  19115179.141    19115179.701    19115184.202
        50.700          49.500
 25  1  1 23  2 15.0000000  0 27E31G02G30G06G13G19E10G17E33E24G03E03
                                E25R12E12G14S35G24S31E05R13S33R11R21
                                R23E11R22
 130328405.216 5                  24800665.162
        33.200
 123409667.501 5  96163369.70441  23484063.673    23484063.8424   23484061.3634
        33.600           6.8004
 118229596.739 6  92127067.55042  22498342.144    22498341.5684   22498373.6274
        36.800          14.8004
 120750628.563 6  94091417.38245  22978078.972    22978078.5664   22978084.5824
        40.200          31.1004
 127620442.909 6  99444442.98742  24285372.772    24285372.7464   24285384.0884
        37.500          13.7004
 110769402.625 7  86313806.45146  21078691.480    21078690.1974   21078690.5544
        47.900          37.8004
 129665935.289 7                  24674580.711
        45.400
 107336768.938 8  83639063.49548  20425505.370    20425504.9054   20425504.3724
        50.200          50.7004
 133866531.785 7                  25473952.609
        43.000
 124983339.860 7                  23783537.443
        43.600
 125883553.462 5  98091120.67741  23954842.528    23954842.9754   23954847.2294
        32.700           6.5004
 146481892.353 4                  27874580.483
        29.100
 138611606.120 5                  26376910.010
        31.100
 103245034.354 8  80301723.511 7  19327685.082    19327685.395    19327690.739
        51.200          45.800
 126766541.518 6                  24122857.474
        36.800
 106056516.975 8  82641444.01646  20181884.716    20181884.4624   20181884.7374
        48.000          37.0004


 126556878.882 5  98615728.05944  24082962.100    24082961.2114   24082962.5304
        34.400          24.7004
 198898059.940 7                  37849055.484
        42.500
 137468292.896 6                  26159356.320
        41.100
 117733583.630 5                  22047722.992    22047720.269
        31.100
 202056077.815 7                  38450001.965
        44.500
 111740529.281 6  86909287.229 6  20910723.946    20910725.885    20910732.254
        38.400          41.100
 114843648.680 7  89322469.719 7  21461190.749    21461191.939    21461197.834
        47.800          45.500
 113732935.560 7                  21261159.341    21261158.388
        44.800


 102035463.178 8  79360777.148 8  19114634.360    19114635.053    19114639.674
        51.000          49.300
 25  1  1 23  2 30.0000000  0 26E31G02G30G06G13G19E10G17E33E24G03E03
                                E25R12E12G14S35G24S31E05R13S33R11R21
                                R23R22
 130350279.428 6                  24804829.725
        39.500
 123454395.622 4  96198222.6624   23492574.737    23492574.9694   23492572.1584
        28.000           3.4004
 118279259.254 6  92165765.73843  22507794.146    22507793.7624   22507818.7354
        38.400          20.7004
 120696630.318 6  94049341.01245  22967802.885    22967802.4964   22967807.3724
        40.200          30.5004
 127660038.122 6  99475296.29342  24292906.300    24292906.2964   24292918.3924
        37.300          13.2004
 110743765.851 8  86293829.76946  21073812.900    21073811.6224   21073812.5154
        48.200          38.6004
 129631387.259 7                  24668006.608
        44.600
 107342892.355 8  83643835.01448  20426669.991    20426669.5264   20426670.2984
        50.900          50.5004
 133893846.683 6                  25479150.044
        41.200
 124973683.766 7                  23781699.489
        44.100
 125851017.668 5  98065768.47541  23948650.392    23948650.6824   23948653.9474
        32.900           9.5004


 138578603.291 5                  26370627.290
        32.400
 103225930.213 8  80286864.761 7  19324108.982    19324108.920    19324114.246
        52.000          45.500
 126749651.699 6                  24119643.313
        37.300
 106064100.781 7  82647353.47846  20183327.339    20183327.0804   20183327.7294
        46.500          37.0004


 126516073.508 5  98583931.66444  24075197.165    24075196.3704   24075196.8964
        32.900          24.5004
 198898065.192 7                  37849054.728
        43.200
 137502753.534 6                  26165913.963
        40.000
 117678426.655 6                  22037395.588    22037396.473
        37.000
 202056077.781 7                  38450003.328
        44.500
 111782549.899 6  86941969.947 7  20918593.249    20918590.306    20918596.840
        37.000          43.600
 114896911.516 7  89363896.376 7  21471144.149    21471146.441    21471150.736
        47.000          45.100
 113681747.330 7                  21251588.080    21251587.350
        42.300
 102032736.142 8  79358656.155 8  19114124.572    19114124.697    19114129.230
        51.300          49.800
 25  1  1 23  2 45.0000000  0 25E31G30G06G13G19E10G17E33E24G03E03E25
                                R12E12G14S35G24S31E05R13S33R11R21R23
                                R22
 130372197.588 7                  24808999.667
        44.100
 118328986.301 5  92204514.06944  22517256.802    22517256.4634   22517271.6614
        34.300          26.3004
 120642687.782 7  94007308.02445  22957536.774    22957536.3854   22957542.0654
        42.600          31.5004
 127699672.255 6  99506179.90641  24300447.688    24300447.8084   24300460.1774
        37.000          10.4004
 110718202.696 8  86273910.44846  21068948.943    21068947.6654   21068948.6464
        48.400          39.2004
 129596916.368 7                  24661447.131
        43.800
 107349086.106 8  83648661.34248  20427848.492    20427848.0144   20427849.5064
        50.700          50.4004
 133921244.511 6                  25484364.197
        40.600
 124964069.973 7                  23779870.417
        44.800
 125818562.605 4  98040479.00541  23942470.864    23942471.1414   23942476.5574
        29.100           9.5004


 138545602.298 5                  26364347.859
        35.300
 103206962.592 8  80272112.193 7  19320557.849    19320557.736    19320563.455
        52.500          46.000
 126732866.539 6                  24116450.049
        38.500
 106071777.253 7  82653335.14346  20184787.958    20184787.7394   20184789.3514
        45.700          37.1004


 126475368.108 5  98552213.18444  24067451.657    24067450.9114   24067451.2814
        33.800          25.4004
 198898071.651 7                  37849054.308
        43.000
 137537242.282 6                  26172476.581
        38.800
 117623304.047 6                  22027072.259    22027071.738
        40.300
 202056077.536 7                  38450004.384
        44.500
 111824686.892 7  86974743.144 7  20926475.621    20926479.317    20926484.152
        43.200          45.500
 114950246.701 7  89405379.300 7  21481112.565    21481114.837    21481117.235
        47.700          45.100
 113630671.992 7                  21242039.748    21242041.187
        43.800
 102030189.039 8  79356675.109 8  19113647.933    19113648.121    19113652.331
        52.000          50.700
 25  1  1 23  3  0.0000000  0 25E31G30G06G13G19E10G17E33E24G03E03E25
                                R12E12G14S35G24S31E05R13S33R11R21R23
                                R22
 130394159.644 7                  24813178.061
        44.800
 118378777.250 5  92243312.18344  22526732.641    22526732.4054   22526740.6174
        33.600          27.2004
 120588801.170 7  93965318.60745  22947282.519    22947282.1624   22947288.8044
        44.200          34.2004
 127739344.862 6  99537093.52241  24307997.550    24307997.5634   24308009.3054
        39.000           9.8004
 110692713.246 8  86254048.57346  21064098.183    21064096.9004   21064098.3934
        48.700          39.0004
 129562522.654 7                  24654902.162
        42.500
 107355350.331 8  83653542.57048  20429040.675    20429040.1884   20429041.3854
        50.400          50.0004
 133948724.992 6                  25489593.325
        38.700
 124954498.526 7                  23778048.994
        45.200
 125786188.471 4  98015252.62141  23936311.454    23936311.6064   23936314.5404
        28.600           7.8004
 146516821.647 5                  27881219.445
        35.300
 138512603.049 6                  26358068.945
        39.300
 103188131.615 8  80257465.891 7  19317032.700    19317032.533    19317038.578
        53.100          46.600
 126716186.078 6                  24113277.625
        40.100
 106079546.389 7  82659389.00746  20186266.048    20186265.8524   20186268.1524
        45.500          36.0004


 126434762.841 5  98520572.69344  24059723.652    24059722.8704   24059724.6844
        33.400          25.9004
 198898077.901 7                  37849057.818
        42.900
 137571758.781 6                  26179044.462
        38.500
 117568216.573 7                  22016756.032    22016755.365
        42.000
 202056078.716 7                  38450003.020
        44.200
 111866939.921 7  87007606.583 7  20934381.715    20934382.119    20934391.358
        43.100          46.900
 115003653.861 8  89446918.188 7  21491093.188    21491094.788    21491098.022
        48.400          45.000
 113579709.462 7                  21232514.292    21232515.267
        46.000
 102027821.715 8  79354833.881 8  19113203.829    19113204.058    19113209.118
        51.800          51.500
 25  1  1 23  3 15.0000000  0 25E31G30G06G13G19E10G17E33E24G03E03E25
                                R12E12G14S35G24S31E05R13S33R11R21R23
                                R22
 130416165.191 7                  24817364.696
        44.000
 118428631.523 5  92282159.59444  22536220.350    22536220.2484   22536224.9824
        35.200          24.5004
 120534970.450 7  93923372.73945  22937039.616    22937039.2864   22937046.6384
        44.000          35.7004
 127779055.074 6  99568036.30641  24315554.037    24315553.9704   24315565.5784
        38.300          11.8004
 110667296.982 8  86234243.72746  21059261.493    21059260.2154   21059261.3364
        48.300          38.5004
 129528205.883 7                  24648371.991
        43.000
 107361684.479 8  83658478.27448  20430246.094    20430245.6034   20430246.0144
        50.800          50.1004
 133976287.522 6                  25494838.529
        39.000
 124944969.077 7                  23776235.208
        45.000
 125753895.241 5  97990089.21442  23930166.397    23930166.5624   23930168.8094
        30.700          14.9004
 146528615.853 5                  27883455.922
        34.100
 138479605.256 6                  26351790.731
        41.300
 103169437.300 9  80242925.862 7  19313533.221    19313533.850    19313539.605
        54.100          47.100
 126699609.900 6                  24110123.219
        41.000
 106087407.845 7  82665514.82545  20187761.417    20187761.1984   20187763.4314
        44.900          35.1004


 126394257.632 5  98489010.18844  24052015.329    24052014.4984   24052017.5614
        33.500          26.9004
 198898085.015 7                  37849059.714
        43.100
 137606302.382 5                  26185618.428
        35.100
 117513163.832 6                  22006443.207    22006443.683
        39.900
 202056079.695 7                  38450003.284
        44.300
 111909308.374 7  87040559.804 7  20942312.565    20942313.632    20942320.363
        43.100          47.200
 115057131.939 7  89488512.234 7  21501087.013    21501085.837    21501092.439
        45.300          46.400
 113528859.791 7                  21223008.474    21223009.085
        46.500
 102025633.655 8  79353132.080 8  19112794.480    19112793.849    19112799.289
        51.100          51.500
 25  1  1 23  3 30.0000000  0 26E31G02G30G06G13G19E10G17E33E24G03E03
                                E25R12E12G14S35G24S31E05R13S33R11R21
                                R23R22
 130438210.961 7                  24821560.445
        42.700
 123633852.029 5                  23526737.591
        35.700
 118478545.364 6  92321053.41843  22545717.414    22545717.2494   22545722.3324
        39.200          20.6004
 120481192.647 7  93881468.11445  22926806.604    22926806.2914   22926814.3494
        42.600          34.8004
 127818799.280 6  99599005.66441  24323119.329    24323119.2094   24323128.4284
        36.100           9.0004
 110641950.410 8  86214493.19046  21054438.112    21054436.8384   21054437.3904
        48.100          37.8004
 129493962.927 7                  24641856.162
        44.500
 107368084.938 8  83663465.65548  20431464.172    20431463.6854   20431463.7304
        51.600          50.5004
 134003928.514 6                  25500098.232
        38.200
 124935478.427 7                  23774429.260
        44.600
 125721680.044 5  97964986.63442  23924037.847    23924038.0214   23924039.2074
        32.800          16.6004
 146540498.262 6                  27885714.388
        36.200
 138446605.689 7                  26345511.620
        42.500
 103150876.648 9  80228489.820 7  19310058.931    19310059.306    19310063.674
        54.100          46.300
 126683134.825 6                  24106988.767
        40.400
 106095358.404 7  82671710.08945  20189275.090    20189274.8544   20189275.6454
        45.600          35.6004


 126353849.488 5  98457523.32244  24044327.327    24044326.3884   24044328.8034
        31.600          26.6004
 198898089.611 7                  37849062.138
        43.100
 137640869.457 5                  26192197.024
        31.900
 117458143.004 5                  21996135.609    21996135.139
        34.200
 202056077.715 7                  38450003.695
        44.200
 111951788.658 6  87073599.991 7  20950269.069    20950264.571    20950267.970
        40.900          45.800
 115110677.133 7  89530158.494 7  21511094.320    21511092.501    21511098.910
        44.100          46.800
 113478119.691 7                  21213522.756    21213522.041
        45.600
 102023621.354 8  79351566.973 8  19112417.326    19112417.128    19112421.732
        51.900          51.100
 25  1  1 23  3 45.0000000  0 25E31G02G30G06G19E10G17E33E24G03E03E25
                                R12E12G14S35G24S31E05R13S33R11R21R23
                                R22
 130460303.159 6                  24825764.145
        40.700
 123678890.052 5                  23535306.933
        34.000
 118528524.628 6  92359998.10442  22555227.125    22555226.8754   22555230.3934
        36.700          14.5004
 120427474.217 6  93839609.76745  22916584.815    22916584.5524   22916591.5224
        41.100          32.8004
 110616679.993 7  86194801.97846  21049629.633    21049628.3464   21049628.3664
        46.600          37.0004
 129459800.152 7                  24635355.056
        45.600
 107374558.014 8  83668509.62548  20432695.722    20432695.2354   20432695.8144
        51.700          50.7004
 134031654.028 6                  25505374.795
        38.000
 124926032.891 7                  23772632.432
        44.400
 125689549.571 5  97939950.03942  23917923.502    23917923.6454   23917924.6884
        34.700          17.1004
 146552474.862 6                  27887991.774
        36.400
 138413610.602 7                  26339233.204
        42.700
 103132456.298 8  80214162.892 7  19306610.779    19306610.961    19306615.038
        53.800          46.000
 126666767.090 6                  24103874.540
        39.800
 106103404.352 7  82677979.68346  20190806.401    20190806.1694   20190806.9884
        45.900          36.5004


 126313544.973 4  98426117.16944  24036659.255    24036658.2854   24036659.3134
        28.800          24.6004
 198898096.658 7                  37849060.881
        42.700
 137675465.976 5                  26198780.546
        32.800
 117403160.774 5                  21985842.372    21985837.820
        33.900
 202056078.772 7                  38450003.749
        44.100
 111994386.736 5  87106731.967 7  20958231.656    20958227.878    20958239.036
        34.800          44.800
 115164295.382 6  89571861.595 7  21521112.674    21521110.161    21521118.551
        40.700          46.900
 113427496.107 7                  21204061.339    21204059.163
        44.900
 102021790.954 8  79350143.318 8  19112074.817    19112075.550    19112078.996
        52.700          50.700
 25  1  1 23  4  0.0000000  0 25E31G02G30G06G19E10G17E33E24G03E03E25
                                R12E12G14S35G24S31E05R13S33R11R21R23
                                R22
 130482436.821 6                  24829976.744
        41.200
 123723986.862 5                  23543889.964
        35.200
 118578563.946 5  92398989.55241  22564750.225    22564749.8904   22564748.4924
        33.200          10.0004
 120373810.532 6  93797794.03744  22906371.309    22906371.0954   22906376.9724
        37.400          27.3004
 110591480.748 7  86175166.21946  21044834.134    21044832.8384   21044833.5614
        46.000          36.8004
 129425712.722 7                  24628868.250
        46.400
 107381098.919 8  83673606.45148  20433940.675    20433940.1884   20433940.9064
        51.500          50.9004
 134059458.830 5                  25510666.356
        35.200
 124916627.514 7                  23770842.344
        45.100
 125657499.064 6  97914975.70542  23911826.061    23911826.1284   23911824.5774
        38.100          16.2004
 146564540.537 5                  27890287.116
        34.800
 138380615.069 6                  26332954.437
        41.900
 103114171.446 8  80199941.386 7  19303187.489    19303188.179    19303192.423
        53.400          45.900
 126650501.753 6                  24100779.144
        38.500
 106111540.727 7  82684319.72546  20192354.585    20192354.3754   20192356.3384
        46.300          37.4004




 198898102.729 7                  37849064.620
        42.700
 137710086.649 6                  26205369.029
        36.000
 117348212.482 6                  21975553.398    21975551.908
        39.300
 202056078.590 7                  38450003.856
        43.900
 112037097.734 6  87139951.595 7  20966222.908    20966223.725    20966232.249
        39.900          44.600
 115217981.095 7  89613617.163 7  21531142.763    21531141.472    21531150.918
        42.400          46.500
 113376983.947 7                  21194618.128    21194617.135
        45.700
 102020137.161 8  79348857.084 8  19111764.004    19111764.558    19111769.528
        52.100          50.700
 25  1  1 23  4 15.0000000  0 27E31G02G30G06G13G19E10G17E33E24G03E03
                                E25R12E12G14S35G24S31E05R13S33R11R21
                                R23E11R22
 130504610.164 6                  24834195.479
        41.800
 123769140.355 5  96443496.0274   23552495.017    23552494.3914   23552486.8164
        35.100           4.7004
 118628661.192 4  92438026.28741  22574282.881    22574282.5914   22574278.8214
        29.100           8.0004
 120320200.083 5  93756019.80143  22896168.298    22896167.9454   22896174.6034
        33.400          22.3004
 127938339.908 5  99692225.24441  24345851.287    24345850.9704   24345859.3144
        33.300           8.4004
 110566350.754 7  86155584.42246  21040051.648    21040050.3524   21040051.8864
        45.100          36.2004
 129391699.007 7                  24622395.408
        45.200
 107387705.021 8  83678754.07948  20435197.843    20435197.3654   20435198.2284
        51.500          50.9004
 134087340.983 5                  25515972.958
        33.700
 124907260.624 7                  23769060.175
        46.000
 125625527.145 5  97890062.64442  23905740.861    23905740.8694   23905741.1494
        35.900          17.7004
 146576693.327 5                  27892599.368
        32.600
 138347617.334 6                  26326674.551
        41.400
 103096020.702 8  80185824.153 7  19299790.063    19299790.314    19299794.607
        52.400          46.000
 126634337.124 6                  24097702.011
        36.400
 106119765.840 7  82690728.91346  20193920.155    20193919.9364   20193922.1664
        45.700          37.3004




 198898104.683 7                  37849063.064
        42.700
 137744729.375 5                  26211961.825
        35.200
 117293296.726 6                  21965268.751    21965267.766
        39.700
 202056074.583 7                  38450001.674
        44.000
 112079919.335 7  87173257.306 7  20974237.967    20974238.437    20974245.401
        42.100          43.400
 115271731.921 7  89655423.329 7  21541190.714    21541188.072    21541195.841
        43.600          45.600
 113326581.779 7                  21185195.678    21185196.580
        46.200


 102018658.086 8  79347706.709 8  19111487.394    19111487.710    19111492.735
        52.600          50.400
 25  1  1 23  4 30.0000000  0 26E31G30G06G13G19E10G17E33E24G03E03E25
                                R12E12G14S35G24S31E05R13S33R11R21R23
                                E11R22
 130526832.878 7                  24838424.538
        42.000
 118678825.562 4  92477115.35341  22583825.571    22583825.3574   22583822.5734
        27.700           6.6004
 120266652.844 5  93714294.86343  22885978.594    22885978.0004   22885986.4454
        32.100          18.8004
 127978231.721 5  99723309.60641  24353440.670    24353440.4254   24353451.1674
        34.700           9.9004
 110541299.694 7  86136064.13445  21035284.478    21035283.1954   21035284.9444
        44.700          35.3004
 129357768.831 7                  24615938.755
        44.900
 107394386.099 8  83683960.13348  20436468.923    20436468.4544   20436469.6544
        50.900          50.5004
 134115309.837 5                  25521295.695
        35.800
 124897941.986 7                  23767287.057
        47.000
 125593643.882 4  97865218.69442  23899672.512    23899672.5884   23899675.4204
        27.800          14.5004
 146588942.757 5                  27894929.062
        31.800
 138314627.122 6                  26320396.116
        40.800
 103078013.985 8  80171818.956 7  19296417.958    19296418.179    19296424.014
        50.000          46.400
 126618282.886 5                  24094645.972
        34.300
 106128089.428 7  82697214.83546  20195504.880    20195504.6664   20195506.2074
        45.200          36.8004


 126193191.724 5  98332383.13744  24013764.678    24013764.3834   24013768.7504
        34.500          26.6004
 198898112.506 7                  37849065.881
        42.800
 137779403.643 5                  26218559.715
        35.500
 117238423.446 6                  21954991.981    21954991.968
        39.600
 202056076.100 7                  38450002.286
        44.300
 112122861.352 7  87206656.595 7  20982273.806    20982273.577    20982280.325
        44.800          42.400
 115325557.068 6  89697287.397 7  21551242.400    21551246.491    21551254.412
        41.200          44.500
 113276299.746 7                  21175796.597    21175797.260
        46.300
 138003566.079 5                  26261202.202
        34.400
 102017363.344 8  79346699.696 8  19111244.767    19111245.004    19111249.805
        52.400          50.100
 25  1  1 23  4 45.0000000  0 26E31G30G06G13G19E10G17E33E24G03E03E25
                                R12E12G14S35G24S31E05R13S33R11R21R23
                                E11R22
 130549094.621 6                  24842660.152
        41.800
 118729046.429 4  92516248.48241  22593384.356    22593384.3254   22593377.7024
        26.800           7.5004
 120213158.911 5  93672611.40842  22875800.072    22875799.2504   22875808.0044
        30.500          17.1004
 128018154.087 5  99754417.7734   24361039.480    24361039.5204   24361047.8594
        31.900           3.2004
 110516317.385 7  86116597.42745  21030529.776    21030528.4754   21030530.9694
        46.000          35.4004
 129323911.953 7                  24609496.244
        44.900
 107401131.570 8  83689216.35848  20437752.309    20437751.8494   20437753.2204
        49.500          50.1004
 134143354.850 5                  25526632.714
        35.100
 124888661.322 8                  23765521.223
        48.200
 125561839.111 4  97840435.85042  23893621.513    23893621.6824   23893623.6914
        29.600          13.4004
 146601278.446 5                  27897277.053
        32.100
 138281634.107 6                  26314117.984
        41.100
 103060141.291 8  80157917.983 7  19293072.668    19293072.372    19293078.324
        48.000          46.300
 126602328.702 6                  24091610.717
        37.500
 106136501.182 7  82703769.46946  20197105.440    20197105.2304   20197107.1334
        46.600          37.0004


 126153288.021 5  98301289.32644  24006169.342    24006168.7434   24006171.3434
        34.300          28.4004
 198898116.147 7                  37849065.688
        42.900
 137814098.699 5                  26225161.460
        34.000
 117183582.610 6                  21944721.932    21944720.472
        38.700
 202056074.175 7                  38450002.698
        44.500
 112165913.013 7  87240141.118 6  20990332.785    20990332.818    20990336.208
        47.700          41.500
 115379445.769 7  89739200.856 7  21561317.972    21561320.234    21561325.029
        42.500          44.000
 113226127.674 7                  21166412.487    21166414.406
        42.600
 137957580.572 5                  26252450.856
        34.200
 102016242.225 8  79345827.753 8  19111034.329    19111034.695    19111040.135
        52.600          49.800
 25  1  1 23  5  0.0000000  0 26E31G30G06G13G19E10G17E33E24G03E03E25
                                R12E12G14S35G24S31E05R13S33R11R21R23
                                E11R22
 130571404.811 6                  24846905.709
        40.200
 118779333.101 4  92555432.73941  22602951.068    22602951.2284   22602945.4634
        29.700          10.9004


 128058116.383 5                  24368658.302
        31.800
 110491413.073 7  86097191.50145  21025790.161    21025788.8924   21025791.7694
        45.600          35.4004
 129290138.013 7                  24603067.895
        43.200
 107407950.498 8  83694529.83048  20439050.235    20439049.7884   20439050.7244
        49.100          49.1004
 134171485.147 5                  25531985.392
        34.600
 124879428.104 7                  23763763.627
        47.700


 146613709.550 5                  27899641.859
        31.000
 138248647.777 6                  26307839.853
        41.500
 103042412.301 7  80144128.766 7  19289752.584    19289752.608    19289759.928
        46.300          46.400
 126586484.060 6                  24088595.713
        41.200
 106145010.594 8  82710400.20146  20198724.373    20198724.1634   20198726.8584
        48.100          37.5004


 126113491.203 5  98270278.82444  23998593.070    23998592.4274   23998595.9724
        34.700          24.9004
 198898125.526 7                  37849067.289
        42.600
 137848823.848 5                  26231770.981
        35.700
 117128784.139 6                  21934456.957    21934457.316
        37.300
 202056076.376 7                  38450003.328
        44.500
 112209083.592 7  87273718.228 7  20998407.957    20998408.479    20998416.430
        46.200          42.300
 115433406.898 6  89781170.664 7  21571399.734    21571401.771    21571408.350
        40.700          42.500
 113176075.238 6                  21157058.348    21157056.203
        41.700
 137911634.135 5                  26243708.062
        34.300
 102015304.209 8  79345098.209 8  19110858.583    19110858.741    19110863.519
        52.000          49.400
 25  1  1 23  5 15.0000000  0 26E31G30G06G13G19E10G17E33E24G03E03E25
                                R12E12G14S35G24S31E05R13S33R11R21R23
                                E11R22
 130593753.731 6                  24851157.940
        39.300
 118829675.021 5  92594660.11241  22612534.443    22612534.6394   22612523.8714
        33.600          10.2004


 128098108.149 5                  24376268.626
        32.000
 110466576.925 7  86077838.69345  21021064.391    21021063.1484   21021065.5734
        45.100          34.7004
 129256437.359 6                  24596655.557
        41.700
 107414833.006 8  83699892.84648  20440359.780    20440359.3244   20440360.3144
        49.000          48.7004
 134199690.889 6                  25537353.288
        37.700
 124870232.659 7                  23762013.632
        47.200


 146626226.137 5                  27902026.037
        33.400
 138215658.429 7                  26301562.057
        42.500
 103024817.523 7  80130443.916 7  19286459.446    19286460.135    19286466.627
        46.900          46.300
 126570739.209 7                  24085599.802
        44.700
 106153607.961 8  82717099.45546  20200360.180    20200359.9704   20200362.8014
        49.600          37.4004


 126073792.017 4  98239344.36043  23991036.940    23991035.8364   23991040.3164
        27.300          18.8004
 198898129.569 7                  37849068.403
        42.500
 137883568.884 6                  26238381.504
        36.400
 117074018.529 5                  21924203.437    21924198.533
        34.200
 202056073.899 7                  38450004.460
        45.200
 112252363.043 8  87307379.960 6  21006509.367    21006509.829    21006515.040
        48.800          41.900
 115487430.151 6  89823188.756 6  21581497.692    21581494.026    21581501.554
        39.200          39.300
 113126132.851 7                  21147723.950    21147722.165
        43.600
 137865717.109 5                  26234970.630
        34.800
 102014539.180 8  79344503.200 8  19110715.563    19110715.417    19110721.246
        52.000          50.200
 25  1  1 23  5 30.0000000  0 26E31G30G06G13G19E10G17E33E24G03E03E25
                                R12E12G14S35G24S31E05R13S33R11R21R23
                                E11R22
 130616150.148 6                  24855419.760
        38.400
 118880080.850 5  92633937.31841  22622126.582    22622126.4534   22622114.4144
        31.200           9.3004


 128138137.442 5                  24383881.910
        35.400
 110441817.761 7  86058545.88745  21016353.666    21016352.4064   21016353.8564
        43.200          34.1004
 129222818.925 7                  24590257.830
        43.900
 107421787.811 8  83705312.20048  20441682.885    20441682.4254   20441683.8484
        48.900          48.9004
 134227980.536 6                  25542735.483
        37.500
 124861083.870 7                  23760272.056
        45.800


 146638836.936 5                  27904425.188
        34.100
 138182674.873 7                  26295285.416
        43.100
 103007366.172 7  80116870.647 7  19283191.863    19283192.707    19283198.967
        47.200          45.600
 126555103.020 7                  24082624.377
        46.700
 106162302.117 8  82723874.11846  20202014.090    20202013.8714   20202016.5814
        49.200          36.6004




 198898137.405 7                  37849071.412
        42.900
 137918342.395 6                  26244999.802
        38.100
 117019295.192 6                  21913957.617    21913953.263
        37.400
 202056076.371 7                  38450005.220
        44.700
 112295760.127 8  87341133.179 7  21014631.147    21014632.692    21014635.412
        50.300          42.000
 115541523.961 6  89865261.665 6  21591605.881    21591605.040    21591608.592
        41.600          36.900
 113076309.734 7                  21138411.034    21138410.503
        46.500
 137819838.543 6                  26226240.481
        36.300
 102013955.861 8  79344049.522 8  19110605.664    19110606.041    19110611.803
        51.900          50.400
 25  1  1 23  5 45.0000000  0 26E31G30G06G13G19E10G17E33E24G03E03E25
                                R12E12G14S35G24S31E05R13S33R11R21R23
                                E11R22
 130638587.881 6                  24859688.910
        38.200
 118930543.915 5  92673259.14041  22631733.135    22631733.0374   22631715.9054
        35.800           9.7004


 128178198.129 4                  24391506.878
        26.200
 110417129.283 7  86039308.15045  21011655.765    21011654.5184   21011655.7414
        44.900          34.4004
 129189276.651 7                  24583874.698
        45.100
 107428808.655 8  83710783.00548  20443018.445    20443017.9804   20443020.0894
        48.600          48.6004
 134256347.674 6                  25548134.363
        37.000
 124851975.614 7                  23758539.071
        45.600


 146651535.486 5                  27906842.266
        34.500
 138149690.967 7                  26289009.263
        44.400
 102990052.218 8  80103404.197 7  19279950.595    19279951.581    19279958.105
        48.500          45.300
 126539569.366 7                  24079668.690
        46.900
 106171086.926 8  82730719.40945  20203686.156    20203685.9464   20203687.4664
        48.400          35.0004




 198898143.871 7                  37849073.080
        42.900
 137953137.866 6                  26251621.363
        39.500
 116964608.257 6                  21903717.065    21903714.571
        39.100
 202056075.311 7                  38450000.154
        44.300
 112339268.277 8  87374972.825 7  21022772.973    21022774.368    21022779.324
        49.200          44.300
 115595681.545 7  89907384.199 6  21601725.829    21601727.161    21601730.602
        44.000          36.900
 113026599.712 7                  21129116.982    21129117.318
        46.100
 137773992.410 6                  26217516.596
        36.900
 102013547.811 8  79343732.149 8  19110529.722    19110529.469    19110535.173
        51.500          50.100
 25  1  1 23  6  0.0000000  0 26E31G30G06G13G19E10G17E33E24G03E03E25
                                R12E12G14S35G24S31E05R13S33R11R21R23
                                E11R22
 130661069.864 6                  24863968.505
        38.400
 118981066.957 6  92712627.65941  22641344.580    22641344.4734   22641328.8874
        39.200          11.3004


 128218292.317 5                  24399135.553
        32.300
 110392514.475 7  86020127.81345  21006971.666    21006970.4194   21006971.9534
        45.700          35.7004
 129155813.637 7                  24577507.760
        46.000
 107435898.383 7  83716307.47948  20444367.540    20444367.0844   20444369.2404
        47.800          48.4004
 134284794.881 4                  25553543.129
        29.500
 124842910.908 7                  23756814.105
        46.700


 146664324.659 5                  27909275.698
        35.100
 138116709.715 7                  26282733.058
        44.800
 102972879.013 8  80090047.239 7  19276737.578    19276737.222    19276743.192
        50.200          44.800
 126524141.165 7                  24076732.766
        46.700
 106179965.400 8  82737637.70245  20205375.384    20205375.1564   20205376.0134
        48.000          33.8004


 125955364.255 6  98147044.90843  23968492.003    23968491.8204   23968503.9784
        39.200          20.4004
 198898150.927 7                  37849072.450
        43.100
 137987958.014 6                  26258248.274
        40.300
 116909960.740 6                  21893483.237    21893481.746
        40.500
 202056075.352 7                  38450006.351
        44.500
 112382890.220 7  87408901.002 7  21030936.827    21030934.771    21030943.541
        43.100          45.200
 115649905.378 6  89949558.317 6  21611858.860    21611857.774    21611865.744
        40.900          37.500
 112977006.268 7                  21119843.957    21119845.878
        45.200
 137728181.808 5                  26208798.167
        34.700
 102013317.829 8  79343553.297 8  19110485.567    19110486.273    19110491.508
        51.300          48.900
 25  1  1 23  6 15.0000000  0 27E31G02G30G06G13G19E10G17E33E24G03E03
                                E25R12E12G14S35G24S31E05R13S33R11R21
                                R23E11R22
 130683594.459 6                  24868258.123
        41.900
 124132545.319 6  96726646.52142  23621635.985    23621636.0784   23621634.1774
        37.400          14.0004
 119031647.819 6  92752041.23141  22650971.025    22650970.8564   22650953.1964
        40.000          10.4004


 128258417.808 4                  24406782.700
        27.400
 110367971.689 7  86001003.61246  21002301.664    21002300.4484   21002301.8494
        46.800          36.2004
 129122428.362 7                  24571154.545
        45.300
 107443054.900 8  83721884.00148  20445729.289    20445728.8474   20445730.9344
        48.000          48.1004
 134313320.476 4                  25558972.137
        25.700
 124833888.154 7                  23755097.060
        47.800


 146677202.573 5                  27911726.521
        35.500
 138083729.484 7                  26276457.355
        44.500
 102955845.133 8  80076798.671 7  19273550.282    19273550.198    19273554.612
        52.100          44.700
 126508816.816 7                  24073816.191
        46.300
 106188935.920 8  82744627.73245  20207082.259    20207082.0454   20207082.7104
        48.100          33.7004


 125916078.613 6  98116432.70143  23961016.061    23961015.8254   23961023.5524
        38.800          23.3004
 198898156.199 7                  37849072.619
        43.300
 138022800.802 6                  26264878.459
        40.100
 116855351.588 6                  21883256.535    21883255.615
        41.400
 202056075.660 7                  38450005.645
        45.000
 112426624.079 6  87442916.269 7  21039114.994    21039115.474    21039127.223
        39.700          44.400
 115704193.175 6  89991782.268 6  21622004.181    21622001.677    21622013.327
        36.900          39.200
 112927528.059 6                  21110592.387    21110592.874
        41.700
 137682405.282 5                  26200087.202
        34.100
 102013264.047 8  79343511.478 7  19110476.758    19110477.102    19110480.803
        51.700          47.900
 25  1  1 23  6 30.0000000  0 27E31G02G30G06G13G19E10G17E33E24G03E03
                                E25R12E12G14S35G24S31E05R13S33R11R21
                                R23E11R22
 130706162.614 7                  24872552.025
        45.000
 124178230.967 6  96762245.69642  23630330.700    23630330.5714   23630327.9454
        37.900          13.5004
 119082287.095 6  92791500.30041  22660605.568    22660605.3274   22660588.6264
        37.100           9.6004
 119840318.858 6  93382129.08845  22804856.498    22804855.8814   22804868.4934
        36.800          30.2004
 128298575.591 5                  24414418.177
        33.400
 110343501.929 7  85981936.30446  20997644.436    20997643.2024   20997644.6994
        47.200          36.2004
 129089121.929 7                  24564816.847
        45.100
 107450279.066 8  83727513.23748  20447104.011    20447103.5784   20447105.7304
        48.000          48.1004
 134341925.177 5                  25564419.791
        34.000
 124824908.428 8                  23753388.301
        49.100


 146690170.026 5                  27914192.052
        32.500
 138050751.313 7                  26270181.839
        44.000
 102938951.845 8  80063659.493 7  19270385.647    19270386.870    19270391.788
        52.000          43.800
 126493597.325 7                  24070919.936
        45.900
 106197999.498 7  82751690.26045  20208806.764    20208806.5544   20208807.3534
        47.000          33.9004


 125876896.757 6  98085901.35844  23953562.053    23953561.8884   23953565.1184
        39.500          24.7004
 198898162.248 7                  37849075.843
        42.800
 138057666.940 6                  26271510.592
        36.900
 116800781.893 6                  21873035.481    21873036.070
        40.100
 202056074.593 7                  38450003.525
        44.200
 112470470.855 7  87477019.202 7  21047334.303    21047329.483    21047331.398
        42.100          42.300
 115758545.601 6  90034056.416 6  21632158.580    21632156.893    21632169.455
        39.900          39.600
 112878165.948 6                  21101367.979    21101364.872
        38.600
 137636663.995 5                  26191384.089
        30.700
 102013387.265 8  79343607.326 7  19110499.145    19110499.567    19110503.425
        51.000          47.600
 25  1  1 23  6 45.0000000  0 27E31G02G30G06G13G19E10G17E33E24G03E03
                                E25R12E12G14S35G24S31E05R13S33R11R21
                                R23E11R22
 130728773.256 7                  24876853.206
        46.400
 124223972.480 5  96797888.45542  23639031.810    23639031.4484   23639031.8784
        35.100          12.1004
 119132983.350 4  92831003.8504   22670251.353    22670251.1934   22670234.6144
        27.100           1.8004
 119787297.683 6  93340814.10445  22794766.978    22794767.0894   22794777.5534
        38.900          34.4004
 128338764.108 6                  24422058.356
        36.100
 110319103.770 7  85962924.79846  20993002.053    20993000.8514   20993000.6014
        47.800          36.0004
 129055893.322 7                  24558493.876
        45.800
 107457569.399 7  83733194.03148  20448491.781    20448491.3574   20448493.1584
        47.900          48.4004
 134370607.538 5                  25569874.430
        35.800
 124815970.617 8                  23751687.611
        49.500


 146703225.719 5                  27916677.441
        31.900
 138017774.071 7                  26263906.688
        44.000
 102922198.345 8  80050629.009 7  19267248.787    19267249.454    19267254.892
        50.600          42.600
 126478481.534 7                  24068043.673
        45.400
 106207155.022 7  82758824.43645  20210548.822    20210548.5994   20210549.9664
        45.500          34.0004


 125837817.787 6  98055450.16744  23946126.363    23946126.3054   23946127.7644
        38.900          25.2004
 198898167.466 7                  37849077.274
        42.700
 138092554.990 5                  26278150.030
        31.600
 116746251.081 6                  21862821.102    21862821.158
        37.900
 202056072.816 7                  38450002.626
        44.500
 112514428.869 7  87511208.724 6  21055551.461    21055553.222    21055556.675
        42.300          39.900
 115812960.858 6  90076379.393 6  21642327.269    21642327.652    21642339.387
        41.400          40.900
 112828919.392 7                  21092163.332    21092161.530
        42.300
 137590956.959 4                  26182682.973
        24.000
 102013686.144 8  79343839.785 7  19110555.698    19110555.722    19110559.441
        51.200          47.500
 25  1  1 23  7  0.0000000  0 27E31G02G30G06G13G19E10G17E33E24G03E03
                                E25R12E12G14S35G24S31E05R13S33R11R21
                                R23E11R22
 130751429.051 7                  24881163.792
        45.100
 124269772.421 5  96833576.73741  23647747.904    23647747.7394   23647747.6834
        34.900          11.3004
 119183738.839 5  92870553.2814   22679914.457    22679914.4354   22679891.9054
        34.500           4.4004
 119734338.469 6  93299547.36945  22784688.707    22784689.2654   22784699.2494
        38.100          34.9004
 128378985.408 4                  24429711.547
        29.700
 110294780.061 7  85943971.30946  20988373.165    20988371.9724   20988371.0954
        47.100          36.1004
 129022745.418 7                  24552185.668
        46.100
 107464928.514 8  83738928.40748  20449892.238    20449891.8184   20449893.3764
        48.600          48.5004
 134399370.122 6                  25575348.648
        39.100
 124807077.544 8                  23749995.488
        49.600


 146716372.150 5                  27919179.822
        34.500
 137984800.519 7                  26257631.464
        42.100
 102905587.609 8  80037709.579 6  19264138.623    19264139.289    19264145.562
        48.900          41.700
 126463472.250 7                  24065187.207
        45.000
 106216405.268 7  82766032.42845  20212309.452    20212309.2164   20212310.9094
        44.900          34.1004


 125798844.644 6  98025081.46144  23938709.834    23938709.8264   23938711.6404
        37.400          25.6004
 198898173.638 7                  37849075.683
        42.400
 138127467.415 5                  26284796.684
        34.200
 116691762.227 6                  21852619.146    21852618.221
        38.400
 202056072.890 7                  38450003.346
        44.600
 112558500.843 7  87545486.870 5  21063801.297    21063801.523    21063803.013
        42.400          35.700
 115867441.283 7  90118753.039 6  21652509.543    21652510.780    21652520.445
        43.900          41.600
 112779791.335 7                  21082977.627    21082978.275
        45.400


 102014163.221 8  79344210.866 7  19110645.397    19110645.217    19110649.244
        51.100          47.500
 25  1  1 23  7 15.0000000  0 27E31G02G30G06G13G19E10G17E33E24G03E03
                                E25R12E12G14S35G24S31E05R13S33R11R21
                                R23E11R22
 130774126.967 7                  24885483.295
        44.800
 124315627.308 5  96869307.85542  23656473.751    23656473.5914   23656473.6924
        35.000          13.4004
 119234550.192 5  92910146.5344   22689582.931    22689582.7624   22689559.9654
        35.100           4.9004
 119681438.535 6  93258326.80645  22774623.170    22774623.5004   22774632.5314
        37.200          34.0004
 128419236.308 4                  24437361.724
        29.100
 110270527.812 7  85925073.48745  20983759.087    20983757.9074   20983755.9514
        46.800          35.9004
 128989675.332 7                  24545892.695
        45.000
 107472353.308 8  83744713.97348  20451305.055    20451304.6444   20451306.0154
        49.800          49.2004
 134428209.667 6                  25580836.578
        38.300
 124798226.270 8                  23748311.519
        49.700


 146729606.152 5                  27921699.623
        35.100
 137951827.697 6                  26251357.387
        41.400
 102889117.023 8  80024899.183 6  19261056.703    19261056.217    19261059.754
        49.100          40.000
 126448566.501 7                  24062350.729
        44.600
 106225747.274 7  82773311.90445  20214087.044    20214086.8124   20214088.8584
        45.000          33.6004


 125759974.674 6  97994793.14943  23931313.349    23931313.3454   23931316.2794
        36.600          23.7004
 198898178.552 7                  37849076.300
        42.600
 138162400.898 5                  26291443.304
        35.500
 116637312.709 6                  21842422.925    21842421.871
        38.700
 202056070.449 7                  38450003.624
        45.000
 112602683.386 7  87579850.935 5  21072069.534    21072068.189    21072069.796
        42.800          35.300
 115921983.252 7  90161174.610 6  21662700.985    21662703.110    21662710.968
        44.700          41.100
 112730778.923 7                  21073813.235    21073813.851
        45.000


 102014815.219 8  79344717.997 7  19110767.334    19110767.637    19110770.805
        51.400          47.800
 25  1  1 23  7 30.0000000  0 27E31G02G30G06G13G19E10G17E33E24G03E03
                                E25R12E12G14S35G24S31E05R13S33R11R21
                                R23E11R22
 130796868.797 7                  24889810.917
        43.500
 124361538.525 6  96905082.83642  23665211.436    23665211.3384   23665210.1654
        36.200          13.1004
 119285418.792 5  92949784.2614   22699264.659    22699264.3464   22699238.5284
        35.400           1.8004
 119628599.826 6  93217153.93046  22764568.493    22764568.6454   22764577.9944
        40.400          36.0004
 128459518.089 5                  24445028.880
        35.800
 110246348.772 7  85906232.70446  20979157.814    20979156.6614   20979155.3944
        46.000          36.5004
 128956684.959 7                  24539614.734
        45.800
 107479845.360 8  83750551.95448  20452730.672    20452730.2794   20452731.3894
        50.500          50.0004
 134457127.600 6                  25586338.909
        37.700
 124789418.627 8                  23746635.264
        50.100


 146742929.287 5                  27924235.339
        33.500
 137918857.408 6                  26245082.870
        40.300
 102872788.450 8  80012199.245 7  19258000.116    19257999.644    19258005.662
        48.500          42.200
 126433766.088 7                  24059534.186
        44.100
 106235182.899 7  82780664.31245  20215881.919    20215881.6604   20215883.8654
        45.900          34.1004


 125721209.918 5  97964586.81743  23923935.772    23923935.7504   23923940.9904
        34.500          23.8004
 198898183.552 7                  37849077.462
        42.400
 138197356.895 6                  26298093.777
        36.100
 116582904.508 6                  21832233.923    21832232.483
        39.200
 202056067.484 7                  38450000.462
        44.700
 112646978.157 6  87614302.350 6  21080357.404    21080356.006    21080360.806
        41.800          36.800
 115976588.249 7  90203645.106 6  21672906.956    21672908.359    21672914.142
        45.300          41.400
 112681884.151 7                  21064675.506    21064675.075
        45.600


 102015643.801 8  79345362.478 8  19110922.071    19110922.105    19110926.802
        50.500          48.400
 25  1  1 23  7 45.0000000  0 27E31G02G30G06G13G19E10G17E33E24G03E03
                                E25R12E12G14S35G24S31E05R13S33R11R21
                                R23E11R22
 130819657.019 7                  24894147.496
        42.500
 124407508.423 5  96940903.48641  23673958.336    23673958.2074   23673957.7504
        32.700          10.4004


 119575825.189 7  93176030.95646  22754525.466    22754525.5954   22754535.1904
        42.300          37.7004
 128499832.753 6 100129744.90341  24452700.264    24452700.0284   24452706.3654
        37.500           7.4004
 110222245.400 7  85887450.87046  20974570.202    20974569.0404   20974569.6824
        46.300          36.8004
 128923776.922 7                  24533352.274
        46.000
 107487406.913 8  83756444.09148  20454169.512    20454169.1194   20454169.8524
        50.500          50.0004
 134486126.232 6                  25591856.996
        36.900
 124780657.189 8                  23744968.288
        50.300


 146756343.931 5                  27926787.239
        30.000
 137885892.232 6                  26238809.971
        36.900
 102856604.797 8  79999611.972 7  19254970.199    19254970.983    19254976.223
        48.800          43.800
 126419073.486 7                  24056738.051
        43.400
 106244714.606 7  82788091.60345  20217697.287    20217697.0334   20217697.3904
        43.900          34.6004


 125682553.106 5  97934464.64143  23916579.309    23916579.2694   23916585.8464
        33.500          23.1004
 198898190.989 7                  37849077.118
        42.700
 138232337.654 5                  26304750.946
        35.100
 116528540.660 6                  21822053.792    21822052.517
        40.800
 202056069.074 7                  38450003.467
        44.400
 112691387.379 7  87648842.783 6  21088669.065    21088668.663    21088672.966
        42.300          38.700
 116031258.214 7  90246166.152 7  21683126.015    21683126.727    21683130.610
        47.400          42.000
 112633109.628 7                  21055556.417    21055557.325
        44.900


 102016651.287 8  79346146.100 8  19111111.326    19111111.205    19111115.836
        50.600          48.900
 25  1  1 23  8  0.0000000  0 27E31G02G30G06G13G19E10G17E33E24G03E03
                                E25R12E12G14S35G24S31E05R13S33R11R21
                                R23E11R22
 130842483.861 7                  24898491.144
        42.200
 124453528.571 5  96976763.39241  23682717.512    23682717.2934   23682714.9494
        32.800           9.0004
 119387326.309 5  93029152.09141  22718685.588    22718685.0434   22718666.5394
        32.100          11.3004
 119523107.135 7  93134952.05246  22744493.417    22744493.5244   22744502.8504
        42.900          38.1004
 128540172.020 6 100161177.95241  24460378.207    24460377.6044   24460386.6454
        38.000           9.6004
 110198209.866 7  85868721.89545  20969995.436    20969994.2474   20969996.5364
        44.300          35.5004
 128890943.572 7                  24527104.627
        46.000
 107495030.138 8  83762384.29348  20455620.501    20455620.0994   20455620.2454
        50.400          50.0004
 134515197.514 5                  25597387.576
        31.200
 124771934.241 8                  23743308.315
        50.000


 146769842.087 5                  27929358.864
        30.700
 137852924.352 5                  26232534.959
        32.800
 102840558.484 7  79987131.535 7  19251964.799    19251965.252    19251972.371
        47.700          44.600
 126404480.885 7                  24053961.515
        42.200
 106254334.690 7  82795587.76646  20219528.652    20219528.3894   20219528.8464
        45.500          36.4004


 125643996.716 5  97904420.74543  23909242.461    23909242.2424   23909249.3494
        34.400          23.0004
 198898193.686 7                  37849076.103
        42.200
 138267334.986 5                  26311409.275
        33.300
 116474213.544 6                  21811880.837    21811879.307
        41.500
 202056064.430 7                  38449999.599
        44.100
 112735903.006 7  87683465.928 6  21097004.364    21097005.503    21097004.623
        46.500          41.100
 116085984.637 7  90288731.122 7  21693353.330    21693353.096    21693358.056
        46.600          42.700
 112584447.948 7                  21046458.934    21046459.169
        43.100


 102017829.523 8  79347062.532 8  19111331.621    19111331.473    19111336.537
        50.100          48.900
 25  1  1 23  8 15.0000000  0 27E31G02G30G06G13G19E10G17E33E24G03E03
                                E25R12E12G14S35G24S31E05R13S33R11R21
                                R23E11R22
 130865357.324 6                  24902844.652
        41.300
 124499606.860 5  97012668.57242  23691485.172    23691484.8424   23691483.4614
        34.700          12.3004
 119438364.702 5  93068921.96841  22728393.785    22728392.5964   22728374.7404
        30.700          11.6004
 119470454.066 6  93093923.78846  22734474.831    22734474.9384   22734482.4894
        40.400          36.0004
 128580543.645 5 100192636.20341  24468060.212    24468059.4484   24468068.3254
        33.600           6.0004
 110174250.162 7  85850052.02045  20965436.385    20965435.1834   20965437.1534
        44.500          34.5004
 128858193.087 7                  24520871.876
        46.400
 107502722.772 8  83768378.56248  20457084.480    20457084.0654   20457084.0134
        50.700          50.3004
 134544349.345 4                  25602936.434
        29.000
 124763257.909 8                  23741657.254
        50.100


 146783431.677 5                  27931944.668
        31.400
 137819961.913 4                  26226260.954
        27.600
 102824657.893 8  79974764.432 7  19248989.327    19248989.892    19248996.300
        49.500          45.600
 126389996.456 6                  24051204.838
        41.100
 106264051.246 8  82803159.10446  20221377.186    20221376.9324   20221378.8464
        48.000          38.7004


 125605549.066 6  97874461.61844  23901927.610    23901927.2974   23901932.8804
        37.700          25.1004
 198898198.863 7                  37849081.156
        42.200
 138302356.755 5                  26318076.075
        30.700
 116419931.691 6                  21801714.837    21801714.066
        41.500
 202056063.258 7                  38450002.707
        44.400
 112780532.849 6  87718178.013 7  21105355.599    21105356.584    21105357.967
        39.700          43.000
 116140775.270 7  90331346.124 7  21703589.970    21703589.503    21703598.077
        44.900          42.600
 112535907.516 6                  21037382.967    21037382.732
        39.900


 102019186.510 8  79348118.025 8  19111586.020    19111585.622    19111590.713
        50.800          49.200
 25  1  1 23  8 30.0000000  0 27E31G02G30G06G13G19E10G17E33E24G03E03
                                E25R12E12G14S35G24S31E05R13S33R11R21
                                R23E11R22
 130888276.389 7                  24907204.929
        42.200
 124545741.975 6  97048617.93541  23700264.097    23700263.7224   23700262.7144
        39.000          11.5004


 119417865.225 6  93052945.55545  22724468.154    22724468.2434   22724474.4884
        38.400          33.9004
 128620946.106 5 100224118.4424   24475749.077    24475748.0894   24475754.9814
        34.200           1.8004
 110150365.279 7  85831440.45145  20960891.043    20960889.8274   20960891.8434
        46.000          35.9004
 128825524.575 7                  24514655.306
        46.300
 107510483.695 8  83774426.04748  20458561.220    20458560.8054   20458561.3074
        51.400          51.5004
 134573580.327 5                  25608497.679
        31.500
 124754627.210 8                  23740014.634
        49.800
 125094982.021 6  97476622.94743  23804785.097    23804785.5484   23804789.4054
        36.600          19.7004
 146797111.436 4                  27934544.598
        26.200
 137787003.950 4                  26219988.046
        25.500
 102808902.259 8  79962510.048 7  19246040.473    19246041.081    19246046.974
        50.700          46.300
 126375619.151 6                  24048468.189
        40.500
 106273863.293 8  82810804.85246  20223243.638    20223243.4104   20223246.3124
        48.600          39.1004


 125567209.468 6  97844586.65244  23894631.747    23894631.4214   23894636.0424
        38.000          27.1004
 198898205.742 7                  37849083.020
        42.700
 138337401.536 5                  26324744.969
        33.500
 116365694.507 6                  21791558.072    21791558.618
        41.700
 202056062.273 7                  38450001.437
        44.500
                  87752978.071 7                  21113748.595    21113730.048
                        43.900
 116195628.726 7  90374009.987 7  21713839.572    21713839.137    21713849.522
        45.300          42.600
 112487487.668 7                  21028333.182    21028332.267
        43.000


 102020720.991 8  79349311.532 8  19111874.504    19111874.377    19111878.766
        52.400          49.800
 25  1  1 23  8 45.0000000  0 27E31G02G30G06G13G19E10G17E33E24G03E03
                                E25R12E12G14S35G24S31E05R13S33R11R21
                                R23E11R22
 130911242.417 7                  24911574.615
        42.600
 124591934.790 6  97084612.26542  23709053.137    23709052.7174   23709052.8554
        40.300          12.4004
 119540614.339 6  93148596.67643  22747824.863    22747823.6344   22747834.5574
        37.300          20.7004
 119365342.236 6  93012018.64645  22714473.110    22714473.0794   22714479.4954
        38.100          31.3004
 128661380.257 6 100255625.3754   24483440.200    24483439.1364   24483448.2744
        36.300           3.8004
 110126556.525 8  85812888.22146  20956360.517    20956359.2924   20956361.0564
        48.100          37.6004
 128792939.497 7                  24508454.249
        46.000
 107518314.088 8  83780527.67048  20460051.201    20460050.7904   20460052.2274
        50.700          52.3004
 134602891.583 5                  25614074.174
        35.000
 124746043.562 8                  23738381.118
        49.300
 125064562.778 5  97452919.72443  23798994.540    23798994.3884   23799001.8154
        33.500          18.4004
 146810882.625 4                  27937168.059
        28.800


 102793293.213 8  79950369.682 7  19243117.785    19243117.235    19243124.201
        49.600          45.700
 126361350.333 6                  24045752.859
        39.600
 106283772.215 7  82818526.09446  20225128.691    20225128.4774   20225131.8164
        46.700          37.7004


 125528979.465 5  97814797.06044  23887355.853    23887355.5994   23887359.8724
        34.400          24.3004
 198898216.232 7                  37849084.523
        42.700
 138372470.468 5                  26331418.295
        34.100
 116311503.808 6                  21781407.765    21781406.000
        36.800
 202056066.547 7                  38449999.130
        43.800
 112870133.485 7  87787866.869 7  21122116.946    21122121.180    21122123.730
        43.600          42.700
 116250545.740 7  90416723.219 7  21724101.737    21724104.663    21724111.828
        46.800          42.100
 112439189.686 6                  21019302.264    21019302.384
        41.300


 102022434.115 8  79350643.989 8  19112195.165    19112195.730    19112198.751
        53.200          49.200
 25  1  1 23  9  0.0000000  0 27E31G02G30G06G13G19E10G17E33E24G03E03
                                E25R12E12G14S35G24S31E05R13S33R11R21
                                R23E11R22
 130934247.484 7                  24915952.040
        42.300
 124638177.047 6  97120645.12942  23717850.997    23717850.5194   23717851.8864
        40.200          14.7004
 119591818.479 6  93188495.93343  22757563.176    22757561.8134   22757579.0194
        36.200          22.9004


 128701837.778 6 100287150.6444   24491142.421    24491141.2724   24491146.8704
        36.100           3.0004
 110102815.890 8  85794389.06646  20951843.307    20951842.1144   20951843.0724
        49.400          38.7004
 128760430.119 7                  24502268.083
        46.400
 107526206.098 8  83786677.31148  20461553.053    20461552.6514   20461554.6034
        51.100          52.5004
 134632275.079 5                  25619667.783
        35.600
 124737499.173 8                  23736754.792
        48.400


 146824737.048 4                  27939804.866
        29.500


 102777823.086 8  79938337.351 7  19240222.150    19240221.068    19240227.283
        50.000          45.200
 126347182.168 6                  24043057.484
        40.800
 106293770.163 7  82826316.71646  20227031.562    20227031.3664   20227034.0224
        46.200          36.0004




 198898222.063 7                  37849085.453
        42.700
 138407555.342 5                  26338094.320
        34.700
 116257351.596 5                  21771266.985    21771263.425
        30.600
 202056064.531 7                  38450000.704
        43.400
 112915096.446 7  87822838.068 6  21130531.961    21130532.517    21130536.833
        42.900          39.900
 116305517.815 8  90459479.234 6  21734379.709    21734382.603    21734381.884
        49.400          40.400
 112391005.982 6                  21010297.895    21010294.166
        40.300


 102024317.725 8  79352109.050 8  19112546.966    19112547.473    19112550.722
        52.200          48.700
 25  1  1 23  9 15.0000000  0 27E31G02G30G06G13G19E10G17E33E24G03E03
                                E25R12E12G14S35G24S31E05R13S33R11R21
                                R23E11R22
 130957300.277 6                  24920339.003
        41.700
 124684477.135 6  97156723.09442  23726661.519    23726661.0284   23726661.3624
        40.300          16.6004
 119643081.070 5  93228440.71443  22767322.367    22767321.0394   22767333.5734
        33.100          22.2004


 128742327.009 5 100318700.3244   24498843.630    24498842.3924   24498851.9224
        33.400           5.0004
 110079152.094 8  85775949.77246  20947339.999    20947338.8154   20947339.9654
        49.700          39.1004
 128728005.219 7                  24496098.454
        47.600
 107534167.837 8  83792881.28648  20463067.960    20463067.5404   20463069.8344
        50.000          52.6004
 134661739.230 5                  25625276.020
        35.400
 124729002.788 7                  23735137.963
        47.100


 146838683.227 4                  27942459.198
        27.800
 137688121.879 6                  26201181.571
        36.700
 102762501.022 8  79926420.186 7  19237353.590    19237353.157    19237359.918
        50.400          46.100
 126333123.233 6                  24040382.000
        41.400
 106303865.857 7  82834183.50845  20228951.982    20228951.7864   20228954.4544
        46.500          35.4004




 198898231.059 7                  37849086.204
        42.700
 138442664.564 5                  26344774.954
        32.300
 116203247.519 6                  21761139.130    21761136.694
        36.500
 202056066.367 7                  38449999.854
        43.800
 112960173.948 7  87857898.411 6  21138966.969    21138966.480    21138972.120
        42.600          37.800
 116360553.260 8  90502284.519 6  21744663.013    21744665.385    21744665.029
        49.300          40.100
 112342945.512 7                  21001314.424    21001312.371
        43.200


 102026380.311 8  79353713.299 8  19112933.313    19112933.468    19112937.884
        51.900          49.300
 25  1  1 23  9 30.0000000  0 26E31G02G30G06G19E10G17E33E24G03E03E25
                                R12E12G14S35G24S31E05R13S33R11R21R23
                                E11R22
 130980394.258 7                  24924732.952
        42.200
 124730828.137 6  97192840.71142  23735483.615    23735483.1684   23735480.2794
        38.400          14.6004
 119694395.222 5  93268425.67543  22777088.604    22777087.2454   22777096.4664
        33.700          20.3004


 110055558.590 8  85757565.24946  20942850.217    20942849.0284   20942850.5504
        48.600          39.1004
 128695658.415 8                  24489943.072
        48.300
 107542192.519 8  83799134.29848  20464595.348    20464594.9424   20464597.1044
        49.600          52.8004
 134691277.235 6                  25630897.208
        36.600
 124720547.915 7                  23733529.150
        46.600


 146852714.473 4                  27945129.448
        25.100
 137655174.554 6                  26194912.844
        39.400
 102747320.581 8  79914613.157 7  19234511.914    19234511.932    19234518.027
        51.300          46.500
 126319167.131 7                  24037726.757
        42.600
 106314052.800 7  82842121.40946  20230890.296    20230890.1004   20230892.0934
        46.900          36.0004


 125414916.215 5  97725925.22242  23865659.736    23865659.2004   23865667.5254
        35.500          14.9004
 198898237.864 7                  37849088.682
        42.700
 138477791.268 4                  26351460.169
        29.900
 116149184.917 6                  21751013.407    21751013.714
        38.700
 202056065.411 7                  38450003.534
        43.900
 113005359.064 6  87893042.497 6  21147419.553    21147418.339    21147428.008
        40.500          36.300
 116415644.937 8  90545133.549 6  21754958.747    21754959.691    21754959.934
        48.100          39.400
 112295002.122 7                  20992354.138    20992352.917
        46.000


 102028615.085 8  79355451.485 8  19113351.535    19113351.582    19113357.148
        50.800          49.300
 25  1  1 23  9 45.0000000  0 26E31G02G30G06G19E10G17E33E24G03E03E25
                                R12E12G14S35G24S31E05R13S33R11R21R23
                                E11R22
 131003529.691 7                  24929135.503
        42.600
 124777229.953 5  97228997.99142  23744311.116    23744310.7324   23744309.6454
        34.300          12.9004
 119745760.862 5  93308450.74643  22786861.216    22786859.8444   22786866.8764
        34.300          18.1004
 119155874.688 6  92848774.89445  22674607.856    22674607.5174   22674619.5464
        37.900          30.3004
 110032035.560 7  85739235.63446  20938374.677    20938373.4704   20938374.8134
        46.400          38.9004
 128663390.084 7                  24483802.317
        47.700
 107550280.352 8  83805436.51148  20466134.216    20466133.8144   20466136.4024
        49.200          52.4004
 134720889.142 6                  25636532.312
        36.900
 124712134.924 7                  23731927.999
        46.400
 124943789.053 6                  23776010.654
        37.000


 137622227.742 6                  26188643.631
        40.300
 102732282.316 8  79902916.729 7  19231696.869    19231697.341    19231703.172
        50.900          47.700
 126305314.117 7                  24035090.437
        42.700
 106324331.294 7  82850130.65746  20232847.721    20232847.5434   20232848.0264
        46.900          37.6004


 125377108.904 6  97696465.05444  23858454.900    23858454.3064   23858462.3554
        38.200          26.7004
 198898242.092 7                  37849087.532
        42.500
 138512935.429 4                  26358147.692
        28.200
 116095164.555 6                  21740895.253    21740895.004
        37.000
 202056062.326 7                  38450000.601
        43.900
 113050651.972 7  87928270.211 5  21155899.978    21155901.374    21155903.865
        45.800          33.900
 116470792.581 7  90588026.178 6  21765263.873    21765263.570    21765265.951
        44.200          39.800
 112247176.107 7                  20983411.662    20983412.265
        45.000


 102031022.132 8  79357323.633 8  19113802.120    19113802.528    19113807.910
        50.000          49.100
 25  1  1 23 10  0.0000000  0 26E31G02G30G06G19E10G17E33E24G03E03E25
                                R12E12G14S35G24S31E05R13S33R11R21R23
                                E11R22
 131026709.433 7                  24933547.127
        42.000
 124823684.978 5  97265196.74541  23753154.761    23753154.4354   23753149.5204
        32.600          11.9004
 119797180.375 6  93348517.80943  22796648.515    22796647.1474   22796648.2204
        37.600          20.0004
 119103664.460 6  92808091.70045  22664673.760    22664673.3004   22664684.9374
        41.300          33.1004
 110008585.903 7  85720963.20446  20933913.149    20933911.9514   20933912.6214
        46.100          38.5004
 128631203.208 7                  24477677.508
        47.500
 107558434.011 8  83811790.01648  20467685.843    20467685.4544   20467687.8894
        48.700          51.6004
 134750577.529 6                  25642182.557
        38.200
 124703766.718 7                  23730335.675
        46.000
 124913814.710 5  97335459.09241  23770305.377    23770305.6584   23770313.5314
        35.300          11.5004


 137589284.400 6                  26182374.757
        37.700
 102717389.406 8  79891333.364 7  19228908.260    19228908.466    19228914.892
        50.000          47.700
 126291567.052 7                  24032474.762
        42.400
 106334704.239 7  82858213.49146  20234821.860    20234821.6824   20234822.4534
        47.500          39.1004


 125339410.014 6  97667089.28845  23851284.866    23851284.6924   23851283.0094
        39.500          30.0004
 198898246.475 7                  37849087.948
        42.400
 138548099.696 5                  26364840.439
        32.400
 116041189.698 6                  21730790.341    21730788.476
        38.000
 202056059.826 7                  38450000.212
        44.200
 113096055.076 8  87963583.733 5  21164397.806    21164398.740    21164401.321
        48.200          31.100
 116525998.744 6  90630964.378 6  21775579.243    21775577.363    21775583.679
        40.600          41.300
 112199470.684 6                  20974498.934    20974491.624
        40.800


 102033604.107 8  79359331.825 8  19114286.788    19114286.930    19114291.355
        50.000          48.800
 25  1  1 23 10 15.0000000  0 27E31G02G30G06G13G19E10G17E33E24G03E03
                                E25R12E12G14S35G24S31E05R13S33R11R21
                                R23E11R22
 131049935.244 7                  24937967.161
        42.300
 124870194.884 4  97301438.2524   23761994.930    23761994.3984   23761999.7734
        26.500           5.7004
 119848655.241 6  93388628.02643  22806447.316    22806446.0244   22806443.2384
        38.800          21.1004
 119051520.954 6  92767460.52845  22654749.132    22654748.8374   22654762.4074
        39.100          31.7004
 128904526.793 5                  24529716.126
        35.700
 109985211.224 7  85702749.20746  20929464.265    20929463.0494   20929463.9114
        47.900          38.7004
 128599099.693 7                  24471567.923
        47.400
 107566655.077 8  83818196.04748  20469250.128    20469249.7534   20469251.8124
        48.900          50.6004
 134780343.948 6                  25647845.856
        38.500
 124695445.138 7                  23728752.056
        45.300
 124883933.681 5  97312175.28642  23764618.214    23764618.5854   23764629.3564
        35.800          16.6004


 137556346.239 6                  26176107.652
        38.800
 102702643.967 8  79879864.720 7  19226148.276    19226148.670    19226154.170
        50.700          47.400
 126277927.744 6                  24029879.303
        41.000
 106345173.424 8  82866371.31246  20236814.007    20236813.8154   20236814.9944
        48.900          40.5004


 125301821.434 6  97637799.50944  23844128.804    23844128.7554   23844128.0374
        39.200          29.3004
 198898252.712 7                  37849091.673
        42.600
 138583285.447 5                  26371534.050
        30.900
 115987262.698 6                  21720692.474    21720692.008
        39.400
 202056059.031 7                  38449999.756
        44.500
 113141570.034 8  87998984.402 5  21172913.270    21172914.216    21172926.300
        48.800          32.400
 116581264.440 6  90673948.908 7  21785904.631    21785903.520    21785911.879
        39.700          43.000
 112151887.756 5                  20965595.121    20965593.269
        34.300


 102036362.538 8  79361477.313 8  19114804.062    19114804.440    19114808.422
        50.300          49.000
 25  1  1 23 10 30.0000000  0 27E31G02G30G06G13G19E10G17E33E24G03E03
                                E25R12E12G14S35G24S31E05R13S33R11R21
                                R23E11R22
 131073203.035 7                  24942395.397
        42.400
 124916755.016 5  97337719.04441  23770866.452    23770865.5184   23770859.7034
        33.000           8.1004
 119900180.902 6  93428777.81243  22816246.054    22816244.7584   22816249.3184
        37.500          21.2004
 118999440.460 6  92726878.45744  22644841.009    22644840.9964   22644849.0574
        39.900          29.5004
 128945144.388 4                  24537443.579
        29.900
 109961907.477 7  85684590.48946  20925029.603    20925028.3834   20925028.9204
        47.400          38.7004
 128567075.587 7                  24465473.769
        46.800
 107574939.586 8  83824651.51648  20470826.224    20470825.8494   20470827.6394
        49.000          49.4004
 134810184.101 6                  25653523.299
        37.900
 124687166.187 7                  23727176.862
        45.400
 124854142.220 6  97288961.33143  23758949.195    23758949.2624   23758959.3164
        36.200          18.9004


 137523409.328 5                  26169837.000
        35.100
 102688042.110 8  79868507.713 8  19223414.032    19223414.072    19223421.298
        48.700          48.200
 126264392.115 7                  24027303.429
        42.200
 106355734.824 8  82874600.98346  20238824.044    20238823.8344   20238824.9404
        48.700          41.2004


 125264339.418 6  97608592.78944  23836996.820    23836996.8694   23836994.9584
        39.500          28.8004
 198898257.611 7                  37849091.995
        43.000
 138618488.340 4                  26378232.446
        28.500
 115933379.673 6                  21710599.004    21710600.061
        39.500
 202056056.410 7                  38449998.025
        44.100
 113187192.535 8  88034468.593 5  21181451.639    21181451.608    21181471.973
        49.900          34.700
 116636585.358 7  90716976.288 7  21796244.925    21796242.788    21796250.852
        42.200          44.200
 112104423.537 6                  20956726.873    20956723.766
        40.500


 102039293.073 8  79363756.639 8  19115352.168    19115352.580    19115357.998
        49.600          49.500
 25  1  1 23 10 45.0000000  0 26E31G02G30G06G19E10G17E33E24G03E03E25
                                R12E12G14S35G24S31E05R13S33R11R21R23
                                E11R22
 131096515.069 7                  24946831.490
        42.100
 124963367.659 5  97374040.59041  23779735.047    23779734.0014   23779729.5644
        33.000           9.6004
 119951759.270 5  93468968.63543  22826062.875    22826061.6374   22826066.9084
        34.500          20.1004
 118947425.445 7  92686347.45544  22634943.160    22634943.2184   22634945.2364
        42.000          28.2004
 109938676.944 8  85666488.82746  20920608.400    20920607.1664   20920607.8494
        48.300          38.4004
 128535133.254 7                  24459395.256
        46.400
 107583289.347 8  83831157.82748  20472415.427    20472415.0564   20472416.1524
        48.500          48.8004
 134840099.933 6                  25659216.648
        37.800
 124678932.220 7                  23725609.748
        45.200
 124824442.936 5  97265819.23642  23753299.611    23753299.7004   23753307.0834
        30.000          16.1004


 137490475.952 5                  26163568.698
        33.800
 102673586.343 8  79857264.328 8  19220708.342    19220708.450    19220715.872
        48.400          49.100
 126250962.423 7                  24024747.387
        43.000
 106366390.740 8  82882904.30347  20240851.443    20240851.2384   20240852.9504
        49.100          42.0004


 125226966.442 6  97579471.05444  23829885.584    23829885.6284   23829883.8224
        39.300          29.4004
 198898262.199 7                  37849093.565
        43.000
 138653710.333 5                  26384939.745
        32.500
 115879543.157 6                  21700513.551    21700514.625
        36.400
 202056053.227 7                  38449998.526
        44.300
 113232924.620 8                  21190009.337    21190009.609
        50.300
 116691963.307 7  90760048.058 7  21806591.288    21806590.981    21806600.279
        42.900          44.300
 112057080.591 6                  20947874.442    20947873.996
        41.500


 102042397.822 8  79366171.436 8  19115933.710    19115934.428    19115939.398
        50.300          49.300
 25  1  1 23 11  0.0000000  0 26E31G02G30G06G19E10G17E33E24G03E03E25
                                R12E12G14S35G24S31E05R13S33R11R21R23
                                E11R22
 131119873.241 6                  24951276.437
        40.400
 125010034.363 4  97410404.20241  23788621.141    23788620.2524   23788609.7464
        26.700           7.1004
 120003391.922 4  93509201.78742  22835882.512    22835881.3144   22835895.7584
        28.000          17.7004
 118895478.160 7  92645869.25344  22625057.955    22625058.0444   22625056.7744
        43.600          28.0004
 109915521.511 7  85648445.67746  20916201.605    20916200.3674   20916201.3614
        47.100          37.8004
 128503274.786 7                  24453332.742
        45.100
 107591705.948 8  83837716.21748  20474017.083    20474016.6994   20474018.0344
        48.800          48.5004
 134870093.155 6                  25664923.436
        37.400
 124670745.215 7                  23724051.936
        45.000
 124794838.157 5  97242750.80941  23747667.598    23747667.9334   23747672.9904
        30.000           9.1004


 137457547.995 5                  26157301.181
        34.900
 102659278.888 8  79846136.332 8  19218028.591    19218029.210    19218036.901
        48.200          48.700
 126237640.664 7                  24022211.903
        42.400
 106377143.145 8  82891282.80147  20242896.805    20242896.5954   20242899.4114
        49.700          42.0004


 125189704.782 6  97550436.05044  23822795.209    23822795.2094   23822793.9484
        36.800          28.8004
 198898268.774 7                  37849094.463
        43.100
 138688953.132 5                  26391646.044
        35.000
 115825755.644 5                  21690442.801    21690437.918
        31.500
 202056052.324 7                  38449996.670
        44.200
 113278767.989 8                  21198588.360    21198588.337
        50.300
 116747399.652 7  90803165.247 7  21816950.789    21816950.765    21816960.747
        44.000          45.500
 112009860.944 7                  20939046.183    20939048.381
        42.900


 102045678.482 8  79368723.069 8  19116548.594    19116549.276    19116554.385
        50.700          49.400
 25  1  1 23 11 15.0000000  0 25E31G30G06G19E10G17E33E24G03E03E25R12
                                E12G14S35G24S31E05R13S33R11R21R23E11
                                R22
 131143272.928 6                  24955729.887
        39.500
 120055073.801 5  93549439.35342  22845721.566    22845721.2004   22845729.9304
        31.100          17.8004
 118843594.249 7  92605440.41445  22615184.799    22615184.8974   22615184.3574
        44.800          30.0004
 109892436.379 7  85630457.30346  20911809.112    20911807.8744   20911808.7204
        47.600          37.8004
 128471495.650 7                  24447285.711
        44.500
 107600184.861 7  83844323.16148  20475630.349    20475629.9384   20475632.0894
        47.700          48.3004
 134900158.947 5                  25670646.016
        33.000
 124662600.619 7                  23722502.494
        45.000




 137424620.973 6                  26151038.422
        36.200
 102645115.349 8  79835120.235 8  19215379.574    19215379.233    19215384.938
        50.000          48.100
 126224422.112 6                  24019695.959
        41.000
 106387987.432 8  82899732.88346  20244960.335    20244960.1304   20244962.8904
        48.500          41.4004


 125152549.964 6  97521484.33744  23815725.503    23815725.4594   23815725.2254
        37.900          29.0004
 198898273.129 7                  37849095.666
        43.300
 138724211.736 5                  26398354.733
        35.900
 115772012.798 5                  21680379.378    21680376.297
        33.500
 202056048.321 7                  38449994.940
        44.300
 113324717.783 8                  21207186.758    21207187.410
        51.000
 116802889.299 7  90846323.850 7  21827321.766    21827321.084    21827329.858
        45.600          44.800
 111962760.379 7                  20930242.648    20930243.694
        44.000


 102049130.128 8  79371407.712 8  19117195.867    19117196.306    19117200.575
        51.500          49.200
 25  1  1 23 11 30.0000000  0 25E31G30G06G19E10G17E33E24G03E03E25R12
                                E12G14S35G24S31E05R13S33R11R21R23E11
                                R22
 131166717.077 5                  24960190.950
        35.100
 120106807.466 5  93589751.28943  22855566.795    22855565.8564   22855577.8874
        35.000          23.2004
 118791776.954 7  92565063.46745  22605323.771    22605323.8734   22605326.9124
        43.800          32.5004
 109869424.529 7  85612526.03046  20907429.771    20907428.4974   20907430.2284
        47.500          38.1004
 128439798.882 7                  24441253.876
        44.600
 107608728.703 7  83850980.71247  20477256.573    20477256.1534   20477257.9444
        47.800          47.8004
 134930299.956 5                  25676380.447
        30.500
 124654501.412 7                  23720960.959
        44.300




 137391697.829 6                  26144773.756
        37.100
 102631099.042 8  79824218.668 7  19212754.840    19212754.422    19212760.700
        50.000          47.000
 126211309.756 6                  24017200.603
        40.400
 106398926.556 8  82908256.87246  20247042.992    20247042.7874   20247044.0774
        49.200          40.8004


 125115505.229 6  97492618.39245  23808675.112    23808675.0504   23808678.3914
        39.400          30.3004
 198898277.326 7                  37849095.939
        43.300
 138759488.841 5                  26405067.216
        35.700
 115718317.770 6                  21670327.138    21670323.482
        39.500
 202056044.865 7                  38449997.274
        43.900
 113370776.659 8  88177333.691 6  21215806.916    21215807.004    21215814.772
        51.100          36.200
 116858434.576 7  90889525.770 7  21837702.037    21837701.240    21837709.187
        45.900          43.600
 111915781.859 7                  20921456.294    20921457.371
        42.100


 102052755.486 8  79374227.487 8  19117873.314    19117874.008    19117879.157
        50.500          48.700
 25  1  1 23 11 45.0000000  0 25E31G30G06G19E10G17E33E24G03E03E25R12
                                E12G14S35G24S31E05R13S33R11R21R23E11
                                R22
 131190209.921 5                  24964662.532
        32.000
 120158596.895 6  93630106.63344  22865423.280    22865422.5204   22865436.1654
        38.000          27.4004
 118740030.851 6  92524741.97545  22595477.337    22595477.4304   22595483.0644
        41.600          34.0004
 109846490.142 8  85594655.11646  20903065.636    20903064.3494   20903066.4304
        48.100          39.0004
 128408188.873 7                  24435239.271
        43.900
 107617341.554 7  83857692.03747  20478895.519    20478895.1044   20478896.2044
        47.100          47.3004
 134960520.171 5                  25682132.863
        33.400
 124646451.927 7                  23719429.459
        44.200




 137358782.811 6                  26138510.001
        38.500
 102617234.503 8  79813435.115 7  19210159.687    19210159.776    19210164.046
        51.200          45.300
 126198307.912 6                  24014727.077
        39.000
 106409964.850 8  82916858.13746  20249143.556    20249143.3464   20249144.0904
        49.900          41.0004


 125078575.087 6  97463841.72145  23801647.137    23801647.0794   23801653.2084
        41.100          31.0004
 198898286.148 7                  37849096.999
        43.200
 138794788.370 5                  26411789.208
        34.300
 115664675.530 7                  21660281.311    21660280.137
        42.300
 202056046.474 7                  38449998.843
        44.500
 113416948.698 7  88213245.192 6  21224446.052    21224445.239    21224455.007
        47.500          38.500
 116914039.450 7  90932773.959 6  21848093.392    21848093.036    21848098.783
        47.100          41.800
 111868930.462 7                  20912701.928    20912700.928
        43.500


 102056558.696 8  79377185.576 8  19118586.654    19118587.169    19118591.670
        50.800          48.700
 25  1  1 23 12  0.0000000  0 25E31G30G06G19E10G17E33E24G03E03E25R12
                                E12G14S35G24S31E05R13S33R11R21R23E11
                                R22
 131213744.239 5                  24969141.473
        32.800
 120210434.422 6  93670499.48444  22875287.382    22875286.6804   22875303.0504
        38.900          28.0004
 118688348.957 6  92484470.49145  22585643.199    22585643.2574   22585649.8094
        39.500          33.6004
 109823626.018 8  85576838.95046  20898715.247    20898713.9604   20898715.5104
        49.000          40.3004
 128376658.571 7                  24429238.692
        44.800
 107626016.008 7  83864451.37647  20480546.320    20480545.9054   20480546.0984
        47.800          47.3004
 134990812.150 5                  25687894.463
        33.200
 124638445.077 7                  23717905.538
        44.200




 137325868.804 6                  26132246.157
        40.200
 102603514.677 8  79802764.132 7  19207590.939    19207590.959    19207595.511
        51.900          44.300
 126185409.348 6                  24012272.806
        39.700
 106421095.113 8  82925531.06146  20251261.750    20251261.5274   20251261.7474
        51.000          41.4004


 125041752.593 6  97435148.91945  23794639.521    23794639.4724   23794647.5974
        39.500          30.8004
 198898292.395 7                  37849097.853
        42.600
 138830102.764 4                  26418513.899
        28.700
 115611079.059 7                  21650245.191    21650244.470
        43.600
 202056045.544 7                  38449998.043
        44.200
 113463226.329 7  88249238.823 6  21233106.559    21233106.294    21233114.411
        47.900          38.600
 116969696.017 7  90976062.375 6  21858493.692    21858494.808    21858499.675
        47.800          41.700
 111822198.478 7                  20903964.222    20903966.208
        44.000


 102060532.179 8  79380276.090 8  19119331.548    19119331.734    19119336.132
        50.600          48.800
 25  1  1 23 12 15.0000000  0 25E31G30G06G19E10G17E33E24G03E03E25R12
                                E12G14S35G24S31E05R13S33R11R21R23E11
                                R22
 131237323.230 4                  24973625.278
        26.700
 120262322.854 6  93710931.99844  22885159.895    22885159.1804   22885179.3264
        37.100          27.9004
 118636734.713 6  92444251.72745  22575820.664    22575820.7134   22575829.2594
        41.500          34.7004
 109800835.304 8  85559079.98546  20894378.485    20894377.2164   20894378.0054
        50.100          41.6004
 128345211.180 7                  24423254.225
        45.100
 107634755.060 8  83871261.05447  20482209.185    20482208.7704   20482208.6304
        48.700          47.9004
 135021178.826 5                  25693672.853
        34.000
 124630484.010 7                  23716391.472
        44.300




 137292958.967 6                  26125983.896
        41.200
 102589942.990 8  79792208.392 7  19205051.165    19205051.305    19205054.601
        53.400          44.000
 126172617.265 6                  24009838.897
        40.800
 106432320.503 8  82934278.10546  20253397.834    20253397.6154   20253397.7614
        51.600          41.9004


 125005041.160 6  97406542.63744  23787654.628    23787654.6244   23787660.8264
        36.900          28.4004
 198898299.022 7                  37849100.026
        42.600
 138865434.856 4                  26425242.747
        24.500
 115557531.873 7                  21640217.158    21640216.780
        42.600
 202056043.783 7                  38449996.460
        43.900
 113509612.466 8  88285316.846 6  21241789.036    21241789.487    21241794.166
        48.200          37.600
 117025406.879 7  91019393.027 7  21868904.908    21868906.449    21868911.879
        47.500          42.600
 111775589.685 7                  20895249.709    20895250.055
        42.500


 102064678.836 8  79383501.306 8  19120107.990    19120107.659    19120113.274
        49.600          48.900
 25  1  1 23 12 30.0000000  0 26E31G02G30G06G19E10G17E33E24G03E03E25
                                R12E12G14S35G24S31E05R13S33R11R21R23
                                E11R22


 125291082.964 6  97629334.46841  23842101.491    23842101.4294   23842081.4044
        38.200           8.0004
 120314260.682 6  93751402.95344  22895043.976    22895043.2834   22895063.7364
        38.700          28.3004
 118585187.359 6  92404085.08345  22566010.274    22566010.3364   22566020.4914
        41.400          34.4004
 109778116.922 8  85541377.38347  20890055.427    20890054.1624   20890054.5054
        50.100          42.5004
 128313845.789 7                  24417285.359
        45.100
 107643557.523 8  83878120.14448  20483884.475    20483884.0604   20483883.6644
        48.100          48.5004
 135051618.848 5                  25699466.647
        34.000
 124622567.778 7                  23714885.148
        46.100
 124619188.585 6  97105881.99341  23714245.886    23714246.0914   23714246.8254
        36.900          11.6004


 137260052.317 7                  26119722.058
        42.200
 102576518.742 8  79781767.321 7  19202537.557    19202537.408    19202542.345
        52.800          44.300
 126159930.577 6                  24007424.464
        41.300
 106443640.025 8  82943098.49846  20255551.863    20255551.6354   20255552.2924
        50.100          41.6004


 124968440.015 5  97378022.26644  23780689.168    23780689.1684   23780692.2854
        34.900          24.9004
 198898305.130 7                  37849100.433
        42.400


 115504033.139 6                  21630200.061    21630199.398
        41.800
 202056042.817 7                  38449997.247
        43.700
 113556105.866 7  88321478.323 6  21250488.590    21250487.549    21250493.945
        42.500          38.100
 117081170.726 7  91062764.947 7  21879324.157    21879325.647    21879333.201
        45.600          43.200
 111729103.049 7                  20886561.118    20886559.309
        42.900


 102068997.444 8  79386860.225 8  19120917.327    19120917.023    19120921.595
        49.600          48.400
 25  1  1 23 12 45.0000000  0 26E31G02G30G06G19E10G17E33E24G03E03E25
                                R12E12G14S35G24S31E05R13S33R11R21R23
                                E11R22
 131284614.444 4                  24982625.461
        27.800
 125338104.599 6  97665974.75941  23851048.780    23851048.4414   23851037.8324
        38.600          11.8004
 120366250.201 6  93791914.20944  22904938.274    22904937.5814   22904956.3514
        39.300          28.3004
 118533709.852 6  92363972.86345  22556213.297    22556213.3554   22556222.7994
        40.300          31.8004
 109755473.437 8  85523733.14447  20885746.208    20885744.9524   20885745.6944
        50.100          42.9004
 128282565.182 7                  24411332.252
        44.200
 107652425.947 8  83885030.62848  20485571.960    20485571.5454   20485571.7014
        48.800          49.4004
 135082134.680 5                  25705273.866
        34.600
 124614699.110 7                  23713387.553
        47.900
 124590242.085 5  97083326.29641  23708740.952    23708740.7164   23708736.4404
        31.000           9.2004


 137227151.572 7                  26113461.846
        43.600
 102563244.738 8  79771443.103 7  19200053.013    19200053.078    19200057.406
        52.800          44.600
 126147351.889 7                  24005030.853
        42.400
 106455056.377 8  82951994.34146  20257724.417    20257724.1944   20257725.2994
        49.000          40.8004


 124931951.978 5  97349590.00543  23773745.279    23773745.1194   23773744.1264
        33.700          20.0004
 198898313.092 7                  37849102.047
        42.800
 138936233.715 5                  26438684.621
        35.900
 115450586.053 5                  21620187.501    21620187.328
        35.700
 202056041.849 7                  38449997.207
        44.200
 113602708.869 6  88357725.101 6  21259209.082    21259208.309    21259214.248
        40.600          39.700
 117136989.765 7  91106179.808 7  21889755.936    21889755.631    21889764.513
        43.700          43.900
 111682741.567 7                  20877897.952    20877897.029
        45.600


 102073490.453 8  79390354.816 7  19121758.374    19121758.623    19121762.703
        48.800          47.600
 25  1  1 23 13  0.0000000  0 26E31G02G30G06G19E10G17E33E24G03E03E25
                                R12E12G14S35G24S31E05R13S33R11R21R23
                                E11R22


 125385176.276 5  97702653.99241  23860003.839    23860003.5224   23859997.9174
        35.500          11.9004
 120418289.825 6  93832464.54444  22914841.988    22914841.2554   22914857.7404
        36.400          26.1004
 118482301.336 6  92323914.42144  22546430.956    22546431.0094   22546436.7434
        37.300          27.5004
 109732903.650 8  85506146.33847  20881451.008    20881449.7614   20881451.0454
        48.800          42.0004
 128251368.285 7                  24405396.283
        44.400
 107661358.893 8  83891991.38648  20487271.473    20487271.0444   20487272.2194
        48.500          50.0004
 135112724.901 4                  25711093.308
        29.800
 124606876.937 7                  23711898.815
        47.400




 137194255.584 7                  26107201.661
        42.300
 102550120.111 8  79761235.073 7  19197594.856    19197595.152    19197600.589
        50.800          45.300
 126134880.133 7                  24002657.220
        42.300
 106466568.385 8  82960964.74146  20259914.126    20259913.9124   20259916.1624
        49.200          39.8004


 124895576.169 5  97321245.20443  23766821.921    23766821.6714   23766819.1434
        32.600          18.4004
 198898321.482 7                  37849101.564
        42.200
 138971618.433 6                  26445419.724
        36.000
 115397190.039 4                  21610177.868    21610178.517
        27.500
 202056042.335 7                  38449997.180
        44.500
 113649420.064 5  88394056.027 6  21267948.116    21267946.592    21267957.200
        35.600          41.600
 117192862.107 7  91149636.101 7  21900197.114    21900196.221    21900204.343
        42.600          43.500
 111636504.206 7                  20869251.461    20869253.356
        45.200


 102078156.436 8  79393983.899 7  19122632.653    19122632.941    19122637.357
        48.900          47.700
 25  1  1 23 13 15.0000000  0 25E31G02G30G06G19E10G17E33E24G03E03E25
                                R12E12G14S35G24S31E05S33R11R21R23E11
                                R22


 125432296.126 5  97739370.78241  23868976.318    23868976.1354   23868965.6264
        33.800           9.2004
 120470377.664 5  93873052.40443  22924753.257    22924752.5694   22924768.1124
        32.600          23.0004
 118430960.505 6  92283908.71044  22536661.821    22536661.8174   22536663.7074
        36.700          26.3004
 109710405.878 7  85488615.64146  20877169.422    20877168.1794   20877169.7354
        46.500          40.1004
 128220253.730 7                  24399475.672
        44.800
 107670354.482 8  83899000.94548  20488983.377    20488982.9484   20488984.5784
        48.300          50.3004


 124599099.719 7                  23710418.899
        46.800




 137161362.882 6                  26100941.350
        40.000
 102537143.655 8  79751142.319 7  19195164.530    19195164.525    19195171.268
        48.600          44.900
 126122513.707 7                  24000304.570
        42.300
 106478174.563 8  82970008.51946  20262122.899    20262122.6674   20262124.7324
        48.500          39.1004


 124859311.349 6  97292986.89043  23759923.668    23759923.3514   23759918.6024
        37.400          20.8004
 198898329.165 7                  37849102.418
        42.100
 139007018.642 5                  26452154.879
        33.600
 202056042.312 7                  38449996.943
        44.700
 113696237.745 6  88430469.830 7  21276713.850    21276712.578    21276718.455
        37.000          42.100
 117248785.903 7  91193132.379 7  21910649.369    21910649.296    21910654.816
        44.800          43.400
 111590389.701 7                  20860629.252    20860629.662
        42.200


 102082993.542 8  79397746.081 7  19123538.602    19123538.879    19123543.876
        49.200          47.600
 25  1  1 23 13 30.0000000  0 26E31G02G30G06G19E10G17E33E24G03E03E25
                                R12E12G14S35G24S31E05R13S33R11R21R23
                                E11R22


 125479462.552 5  97776123.80541  23877942.588    23877942.6104   23877941.2284
        32.400           9.2004
 120522512.063 5  93913676.51243  22934673.233    22934672.7284   22934688.9304
        32.600          19.9004
 118379686.373 6  92243955.00644  22526905.831    22526905.8754   22526904.9014
        39.400          27.8004
 109687978.737 7  85471139.97946  20872902.508    20872901.2704   20872901.6654
        46.000          38.5004
 128189220.329 7                  24393570.351
        45.500
 107679411.376 8  83906058.27448  20490707.180    20490706.7514   20490708.3934
        48.400          50.4004


 124591366.335 7                  23708947.282
        46.600




 137128472.221 6                  26094682.146
        38.200
 102524314.149 8  79741163.822 7  19192763.308    19192764.127    19192768.621
        49.600          44.100
 126110251.398 7                  23997970.986
        43.400
 106489873.673 8  82979124.72246  20264349.747    20264349.5024   20264350.8404
        48.700          39.4004


 124823156.474 6  97264814.25643  23753043.810    23753043.3724   23753041.2564
        38.000          23.8004
 198898335.123 7                  37849107.485
        42.800
 139042432.797 5                  26458891.146
        30.700
 115290532.186 6                  21590215.675    21590215.920
        38.100
 202056040.260 7                  38449994.636
        44.400
 113743160.353 6  88466965.196 7  21285494.074    21285495.569    21285500.279
        41.000          43.200
 117304759.339 7  91236667.302 7  21921110.219    21921108.622    21921114.714
        43.900          42.100
 111544396.936 7                  20852031.935    20852031.255
        42.600
 136371070.476 5                  25950544.728
        33.700
 102088000.279 8  79401640.183 7  19124476.689    19124476.547    19124481.450
        49.900          47.200
 25  1  1 23 13 45.0000000  0 26E31G02G30G06G19E10G17E33E24G03E03E25
                                R12E12G14S35G24S31E05R13S33R11R21R23
                                E11R22
 131379715.442 5                  25000724.390
        34.000
 125526674.803 5  97812912.56841  23886929.620    23886929.6554   23886925.6704
        31.400           9.5004
 120574692.361 5  93954336.47942  22944601.238    22944600.7294   22944619.0364
        32.000          13.4004
 118328478.881 7  92204053.20244  22517161.251    22517161.3224   22517160.7264
        42.400          29.7004
 109665622.174 7  85453719.30746  20868647.766    20868646.5414   20868646.7734
        46.700          38.6004
 128158267.826 7                  24387679.633
        45.600
 107688529.040 7  83913162.93848  20492441.516    20492441.0834   20492443.5524
        47.400          50.4004


 124583676.462 7                  23707483.231
        46.900


 147104437.256 5                  27993044.195
        33.600
 137095583.290 5                  26088424.620
        34.700
 102511631.650 7  79731299.660 7  19190389.597    19190389.266    19190394.489
        47.900          44.500
 126098092.801 7                  23995657.234
        43.800
 106501665.391 8  82988313.09546  20266593.694    20266593.4534   20266594.1994
        49.500          40.3004


 124787111.421 6  97236727.24644  23746182.045    23746181.5984   23746184.9394
        38.700          26.8004
 198898337.771 7                  37849108.513
        42.900
 139077860.172 5                  26465636.141
        33.800
 115237283.269 6                  21580244.440    21580243.947
        40.800
 202056034.512 7                  38449994.108
        44.200
 113790187.164 5  88503541.584 7  21294290.849    21294289.404    21294300.991
        34.000          44.200
 117360781.505 7  91280240.151 6  21931578.339    21931576.919    21931583.995
        43.000          41.700
 111498525.810 7                  20843456.574    20843458.045
        44.300
 136326437.233 5                  25942045.898
        31.300
 102093175.986 8  79405665.726 7  19125447.155    19125447.032    19125451.005
        52.100          47.400
 25  1  1 23 14  0.0000000  0 26E31G02G30G06G19E10G17E33E24G03E03E25
                                R12E12G14S35G24S31E05R13S33R11R21R23
                                E11R22
 131403605.673 5                  25005270.929
        32.400
 125573939.756 5  97849742.37541  23895929.707    23895929.6634   23895919.8384
        34.000           7.5004
 120626925.190 4  93995037.39241  22954537.986    22954537.1994   22954558.4914
        28.300           9.0004
 118277345.521 7  92164209.17145  22507430.169    22507430.2184   22507431.0794
        42.300          30.7004
 109643343.405 8  85436359.25846  20864408.285    20864407.0694   20864406.6914
        48.500          39.0004
 128127403.540 7                  24381806.640
        46.000
 107697714.444 7  83920320.37748  20494189.278    20494188.8314   20494191.6704
        47.400          49.9004


 124576037.342 7                  23706029.106
        46.000


 147120023.841 5                  27996010.453
        32.700
 137062703.376 6                  26082168.391
        36.100
 102499103.664 7  79721555.684 7  19188044.586    19188044.017    19188050.026
        47.700          44.800
 126086045.122 7                  23993364.602
        43.200
 106513556.919 8  82997579.23646  20268856.278    20268856.0424   20268856.7334
        49.600          40.8004


 124751183.635 6  97208731.59044  23739344.852    23739344.4504   23739350.2124
        37.400          28.0004
 198898345.681 7                  37849107.847
        43.000
 139113307.748 5                  26472380.447
        32.600
 115184090.853 7                  21570283.244    21570282.763
        42.300
 202056034.159 7                  38449994.515
        44.300
 113837325.329 6  88540204.548 7  21303112.514    21303112.385    21303121.580
        37.300          44.000
 117416859.242 7  91323856.209 7  21942057.329    21942056.131    21942065.317
        43.200          42.800
 111452783.813 7                  20834906.977    20834908.527
        45.300
 136281849.963 4                  25933561.924
        28.000
 102098527.728 8  79409828.206 8  19126449.234    19126449.462    19126454.370
        52.600          48.100
 25  1  1 23 14 15.0000000  0 26E31G02G30G06G19E10G17E33E24G03E03E25
                                R12E12G14S35G24S31E05R13S33R11R21R23
                                E11R22
 131427538.731 5                  25009826.506
        33.300
 125621250.703 5  97886608.13341  23904942.691    23904942.4324   23904923.0164
        35.400           7.1004


 118226280.404 6  92124418.33344  22497713.261    22497713.2744   22497713.9664
        40.300          29.3004
 109621135.972 8  85419054.80446  20860182.049    20860180.7934   20860180.6814
        49.100          39.3004
 128096621.438 7                  24375949.036
        45.800
 107706961.353 7  83927525.75248  20495948.969    20495948.5224   20495951.3214
        46.100          49.3004


 124568442.929 7                  23704584.161
        45.300
 124418621.463 5  96949516.95741  23676064.082    23676063.7204   23676061.6594
        35.600          10.3004
 147135693.780 4                  27998991.913
        25.000
 137029826.306 6                  26075910.805
        37.200
 102486724.237 8  79711927.271 7  19185727.087    19185727.309    19185732.170
        49.200          45.000
 126074102.220 7                  23991092.574
        43.600
 106525542.141 8  83006918.37646  20271136.956    20271136.7374   20271137.3184
        48.700          41.2004


 124715367.262 6  97180822.77444  23732530.261    23732529.8814   23732535.3474
        37.400          27.3004
 198898351.943 7                  37849110.655
        42.800
 139148769.067 5                  26479129.642
        33.000
 115130949.015 6                  21560330.822    21560329.911
        41.500
 202056032.000 7                  38449994.783
        44.300
 113884568.399 6  88576949.078 7  21311952.713    21311952.783    21311961.888
        37.700          44.000
 117472986.091 7  91367510.481 7  21952545.808    21952545.386    21952555.453
        43.700          42.200
 111407165.070 7                  20826379.195    20826379.797
        45.600
 136237302.603 4                  25925086.448
        28.200
 102104048.989 8  79414122.550 7  19127483.586    19127484.258    19127488.115
        52.900          47.800
 25  1  1 23 14 30.0000000  0 26E31G02G30G06G19E10G17E33E24G03E03E25
                                R12E12G14S35G24S31E05R13S33R11R21R23
                                E11R22
 131451515.596 6                  25014389.889
        37.400
 125668608.759 6  97923510.46541  23913947.753    23913947.4184   23913934.8794
        36.100           7.4004


 118175284.818 6  92084681.65844  22488008.764    22488008.7684   22488009.6064
        37.500          27.0004
 109599000.861 8  85401806.70346  20855970.311    20855969.0334   20855969.1104
        49.000          39.6004
 128065922.628 7                  24370107.340
        46.400
 107716270.655 7  83934779.74748  20497721.254    20497720.7814   20497722.3614
        46.600          49.0004


 124560894.260 7                  23703147.646
        45.900
 124390347.327 5  96927485.4934   23670684.054    23670683.7594   23670680.6474
        32.600           5.1004
 147151447.686 4                  28001995.915
        28.000
 136996953.194 6                  26069654.885
        38.500
 102474494.572 8  79702415.337 7  19183438.073    19183437.383    19183443.048
        48.700          45.300
 126062265.056 7                  23988839.509
        43.200
 106537622.091 8  83016331.33246  20273435.296    20273435.0684   20273436.1174
        48.700          41.1004


 124679663.467 6  97153001.70244  23725736.254    23725735.8654   23725740.2974
        39.100          26.7004
 198898357.146 7                  37849110.561
        43.000
 139184244.772 5                  26485881.954
        33.600
 115077859.184 6                  21550388.078    21550386.789
        38.900
 202056029.547 7                  38449995.525
        44.600
 113931917.006 6  88613775.679 7  21320817.371    21320817.359    21320821.424
        41.100          44.000
 117529162.337 7  91411203.193 6  21963043.211    21963042.748    21963053.374
        42.600          39.900
 111361670.635 7                  20817876.081    20817876.403
        45.200
 136192796.331 5                  25916617.598
        32.700
 102109740.574 8  79418549.355 7  19128549.733    19128550.038    19128553.386
        52.500          47.100
 25  1  1 23 14 45.0000000  0 26E31G02G30G06G19E10G17E33E24G03E03E25
                                R12E12G14S35G24S31E05R13S33R11R21R23
                                E11R22
 131475536.671 6                  25018960.004
        40.600
 125716013.562 5  97960449.35241  23922970.315    23922969.8914   23922955.6804
        33.900           8.7004


 118124359.450 6  92044999.66244  22478316.695    22478316.5884   22478319.0674
        38.200          26.3004
 109576938.386 8  85384615.20046  20851772.008    20851770.7124   20851771.4864
        50.000          40.1004
 128035307.625 7                  24364281.369
        46.100
 107725642.310 7  83942082.33848  20499504.687    20499504.1734   20499505.2644
        46.800          49.1004


 124553391.837 7                  23701720.087
        46.000
 124362170.696 5                  23665324.061
        34.400
 147167285.892 4                  28005005.715
        26.400
 136964084.479 6                  26063400.487
        38.400
 102462415.320 8  79693020.373 7  19181176.733    19181176.481    19181182.120
        48.900          45.500
 126050534.070 7                  23986606.770
        42.700
 106549797.193 7  83025818.42146  20275752.061    20275751.8334   20275753.5094
        46.200          40.6004


 124644072.973 6  97125268.92544  23718963.904    23718963.5114   23718966.2984
        37.900          27.8004
 198898362.461 7                  37849112.082
        43.400
 139219735.035 4                  26492632.206
        29.500
 115024822.151 6                  21540455.680    21540453.191
        36.500
 202056026.597 7                  38449994.206
        44.600
 113979371.277 6  88650684.551 7  21329696.937    21329694.813    21329700.730
        40.800          43.000
 117585387.872 6  91454934.201 6  21973552.097    21973548.512    21973560.220
        40.400          36.100
 111316301.203 6                  20809389.763    20809391.038
        39.900
 136148331.821 5                  25908156.894
        34.400
 102115602.586 8  79423108.712 7  19129648.074    19129648.175    19129651.044
        52.300          46.200
 25  1  1 23 15  0.0000000  0 25E31G30G06G19E10G17E33E24G03E03E25R12
                                E12G14S35G24S31E05R13S33R11R21R23E11
                                R22
 131499604.398 6                  25023539.765
        41.800


 118073507.006 6  92005374.53044  22468640.170    22468640.0504   22468644.0194
        38.300          28.5004
 109554950.964 8  85367482.16746  20847588.034    20847586.7154   20847587.7874
        48.900          40.2004
 128004778.977 7                  24358472.029
        45.200
 107735078.858 7  83949435.49048  20501300.543    20501300.0434   20501300.7954
        47.600          49.7004


 124545938.146 7                  23700302.019
        46.600
 124334094.421 5                  23659977.327
        35.200
 147183210.595 4                  28008037.566
        29.900
 136931222.635 6                  26057147.178
        37.400
 102450489.375 8  79683744.651 7  19178944.149    19178943.876    19178949.206
        49.800          45.300
 126038911.692 6                  23984394.340
        39.600
 106562069.941 7  83035381.59546  20278087.616    20278087.3844   20278089.6234
        46.200          40.4004


 124608598.430 6  97097626.47044  23712213.573    23712213.2294   23712214.8684
        38.500          29.1004
 198898370.027 7                  37849110.937
        42.800
 139255242.127 4                  26499389.525
        24.400
 114971840.776 6                  21530535.606    21530533.589
        39.300
 202056025.775 7                  38449993.889
        45.200
 114026933.535 7  88687677.362 7  21338597.859    21338594.867    21338601.803
        42.300          44.200
 117641664.683 6  91498705.039 5  21984069.828    21984065.352    21984071.422
        39.800          30.800
 111271059.249 6                  20800934.537    20800932.772
        39.300
 136103911.605 5                  25899704.791
        35.200
 102121637.269 8  79427802.383 7  19130777.660    19130778.011    19130782.159
        51.000          46.000
 25  1  1 23 15 15.0000000  0 25E31G30G06G19E10G17E33E24G03E03E25R12
                                E12G14S35G24S31E05R13S33R11R21R23E11
                                R22
 131523717.373 7                  25028128.242
        42.500


 118022726.339 6  91965805.33145  22458977.032    22458976.9074   22458983.8524
        39.500          32.0004
 109533037.196 8  85350406.52946  20843417.945    20843416.6264   20843417.4004
        49.400          39.3004
 127974335.451 7                  24352678.742
        44.800
 107744578.703 8  83956837.95948  20503107.737    20503107.2374   20503108.4444
        49.000          50.2004


 124538531.908 7                  23698892.805
        47.700
 124306117.484 5                  23654652.530
        34.800
 147199220.225 5                  28011084.438
        32.900
 136898366.322 5                  26050895.830
        35.400
 102438715.387 8  79674587.118 7  19176740.237    19176739.965    19176745.005
        50.000          45.100
 126027396.523 6                  23982203.150
        36.700
 106574438.953 7  83045019.78846  20280441.455    20280441.2414   20280443.7714
        45.400          40.4004


 124573238.746 6  97070073.52844  23705485.668    23705485.3064   23705485.6984
        38.500          29.0004
 198898378.177 7                  37849114.644
        43.200
 139290764.022 4                  26506150.315
        25.600
 114918914.079 6                  21520624.171    21520623.539
        40.700
 202056025.116 7                  38449992.932
        44.600
 114074602.069 7  88724752.841 7  21347517.013    21347515.879    21347523.853
        44.000          46.300
 117697990.927 6  91542514.215 5  21994593.206    21994590.845    21994595.810
        40.100          32.100
 111225943.721 5                  20792501.496    20792496.278
        33.300
 136059534.477 5                  25891261.355
        33.100
 102127843.007 8  79432629.084 7  19131940.836    19131941.308    19131946.051
        51.100          46.800
 25  1  1 23 15 30.0000000  0 25E31G30G06G19E10G17E33E24G03E03E25R12
                                E12G14S35G24S31E05R13S33R11R21R23E11
                                R22
 131547874.318 7                  25032725.394
        42.300


 117972016.532 6  91926291.34245  22449327.566    22449327.4104   22449336.2864
        39.200          33.2004
 109511195.892 8  85333387.34746  20839260.985    20839259.6354   20839260.0524
        49.500          38.4004
 127943975.842 7                  24346901.054
        45.200
 107754140.071 8  83964288.38248  20504926.928    20504926.4374   20504927.7194
        48.200          50.0004


 124531171.890 8                  23697492.322
        48.000
 124278239.021 6  96840099.91142  23649346.136    23649345.8774   23649343.0304
        38.800          12.1004
 147215313.380 5                  28014144.309
        30.300
 136865514.350 6                  26044646.017
        36.900
 102427092.407 8  79665546.996 7  19174565.264    19174565.286    19174568.903
        50.900          44.800
 126015987.288 6                  23980032.352
        38.400
 106586902.958 7  83054732.00446  20282812.681    20282812.4854   20282815.3724
        46.200          39.9004


 124537992.885 6  97042609.28844  23698778.533    23698778.1184   23698778.9624
        38.400          29.3004
 198898385.557 7                  37849115.824
        42.900
 139326299.370 4                  26512912.115
        28.200
 114866041.133 6                  21510723.656    21510723.389
        41.300
 202056024.452 7                  38449993.375
        44.800
 114122375.450 7  88761909.802 7  21356458.635    21356457.581    21356464.853
        45.100          47.100
 117754365.078 7  91586360.705 5  22005127.450    22005126.185    22005132.219
        43.000          34.200
 111180953.881 7                  20784093.609    20784093.903
        42.300
 136015199.444 5                  25882827.114
        31.800
 102134218.177 8  79437587.571 7  19133135.357    19133136.018    19133139.187
        51.100          46.900
 25  1  1 23 15 45.0000000  0 26E31G02G30G06G19E10G17E33E24G03E03E25
                                R12E12G14S35G24S31E05R13S33R11R21R23
                                E11R22
 131572073.959 6                  25037330.235
        41.900
 125906081.484 6  98108567.10042  23959134.044    23959134.3574   23959121.3454
        38.100          12.6004
 120993919.411 6                  23024374.520
        36.400
 117921376.619 6  91886831.80445  22439692.725    22439692.5424   22439700.0384
        38.200          32.9004
 109489425.604 8  85316423.51146  20835118.266    20835116.9124   20835116.4954
        49.100          37.9004
 127913699.062 7                  24341139.439
        46.500
 107763761.601 8  83971785.68048  20506758.267    20506757.7764   20506758.3434
        48.100          49.5004


 124523856.971 8                  23696100.845
        48.900
 124250458.047 5  96818452.60642  23644057.633    23644056.9904   23644059.2994
        35.700          12.8004
 147231488.531 4                  28017223.693
        28.300
 136832665.508 6                  26038394.571
        37.300
 102415619.374 8  79656623.575 7  19172416.272    19172416.313    19172420.651
        48.600          44.300
 126004682.795 6                  23977881.917
        41.500
 106599460.816 7  83064517.35946  20285202.762    20285202.5574   20285204.7624
        44.900          38.2004


 124502859.833 5  97015232.93744  23692091.311    23692090.8874   23692094.0074
        35.400          28.8004
 198898391.461 7                  37849114.474
        42.600
 139361846.641 5                  26519678.275
        30.900
 114813220.854 7                  21500832.008    21500831.583
        42.200
 202056021.220 7                  38449993.290
        44.600
 114170251.897 7  88799147.014 7  21365419.791    21365418.896    21365424.017
        44.100          47.100
 117810785.135 7  91630242.985 6  22015671.592    22015671.268    22015677.002
        43.300          37.000
 111136088.463 6                  20775701.497    20775702.102
        40.800
 135970905.536 4                  25874393.818
        27.600
 102140761.274 8  79442676.677 7  19134361.337    19134362.196    19134365.002
        50.900          47.400
 25  1  1 23 16  0.0000000  0 26E31G02G30G06G19E10G17E33E24G03E03E25
                                R12E12G14S35G24S31E05R13S33R11R21R23
                                E11R22
 131596318.308 6                  25041943.472
        40.500
 125953718.059 6  98145686.51842  23968198.382    23968198.7574   23968189.6794
        39.200          12.5004
 121046522.253 6  94322048.92941  23034383.881    23034383.6624   23034405.0674
        39.100          10.1004
 117870808.910 5  91847428.55045  22430067.501    22430067.4484   22430075.3534
        34.400          32.1004
 109467728.252 8  85299516.52546  20830989.525    20830988.1664   20830987.8054
        49.300          38.5004
 127883507.173 7                  24335393.829
        47.500
 107773445.247 8  83979331.38648  20508600.765    20508600.2654   20508600.7684
        48.700          49.6004


 124516589.185 8                  23694717.791
        49.900
 124222776.873 5  96796882.92641  23638793.019    23638792.1034   23638793.3734
        31.200          10.7004
 147247747.573 4                  28020317.776
        29.000
 136799821.823 6                  26032142.348
        36.400
 102404298.550 8  79647818.539 7  19170298.181    19170298.074    19170302.282
        48.300          44.800
 125993484.992 7                  23975750.885
        42.200
 106612114.496 7  83074377.39246  20287610.321    20287610.1074   20287612.5424
        45.100          37.2004


 124467841.838 6  96987946.22144  23685428.879    23685428.5264   23685431.6604
        36.000          28.9004
 198898397.065 7                  37849116.696
        42.700
 139397407.544 5                  26526448.037
        32.000
 114760455.997 6                  21490950.581    21490949.508
        41.600
 202056018.411 7                  38449992.825
        44.700
 114218233.314 7  88836465.870 7  21374399.585    21374398.737    21374402.964
        44.500          47.000
 117867252.494 7  91674162.069 6  22026223.505    22026226.520    22026229.549
        43.300          38.300
 111091349.493 6                  20767340.249    20767337.472
        40.300


 102147474.087 8  79447897.785 8  19135617.910    19135618.601    19135623.012
        49.800          48.500
 25  1  1 23 16 15.0000000  0 26E31G02G30G06G19E10G17E33E24G03E03E25
                                R12E12G14S35G24S31E05R13S33R11R21R23
                                E11R22
 131620608.248 6                  25046564.837
        38.700
 126001401.094 6  98182842.17341  23977270.469    23977270.8844   23977263.9294
        39.400          11.2004
 121099170.948 6  94363073.68742  23044400.740    23044400.4144   23044415.6754
        38.900          14.6004
 117820314.499 6  91808082.41245  22420461.075    22420461.0174   22420464.0704
        39.200          31.7004
 109446104.947 8  85282667.23446  20826875.227    20826873.8554   20826873.5064
        48.000          39.0004
 127853401.247 8                  24329665.233
        48.600
 107783191.704 8  83986926.03848  20510455.349    20510454.8354   20510455.2884
        50.100          50.2004


 124509369.539 8                  23693343.566
        50.400
 124195196.645 5  96775392.12942  23633543.476    23633542.2744   23633545.4634
        33.700          12.2004
 147264091.109 4                  28023421.643
        25.400
 136766984.315 6                  26025893.544
        36.000
 102393131.133 7  79639132.765 7  19168206.288    19168208.154    19168211.982
        47.800          46.100
 125982394.740 6                  23973640.456
        41.500
 106624864.978 7  83084312.86046  20290036.548    20290036.3384   20290038.8944
        45.400          36.8004


 124432940.038 5  96960750.07444  23678787.107    23678786.8354   23678791.5474
        35.300          28.2004
 198898404.259 7                  37849120.555
        43.300
 139432982.789 5                  26533218.996
        32.400
 114707747.745 7                  21481081.747    21481080.257
        43.700
 202056016.683 7                  38449988.782
        44.200
 114266320.386 6  88873866.900 7  21383395.067    21383392.592    21383401.232
        40.800          46.400
 117923768.112 7  91718118.641 6  22036787.036    22036789.302    22036790.121
        45.700          38.300
 111046738.277 7                  20759002.174    20759000.458
        43.900


 102154357.280 8  79453251.407 8  19136905.686    19136906.473    19136912.950
        48.400          49.400
 25  1  1 23 16 30.0000000  0 26E31G02G30G06G19E10G17E33E24G03E03E25
                                R12E12G14S35G24S31E05R13S33R11R21R23
                                E11R22
 131644940.665 6                  25051196.879
        37.400
 126049126.991 6  98220031.1414   23986351.470    23986351.4574   23986345.7374
        37.900           5.9004
 121151862.097 5  94404131.76241  23054425.462    23054425.0384   23054440.3374
        34.400          11.9004
 117769890.695 6  91768791.29545  22410863.661    22410863.5854   22410867.4414
        38.400          31.3004
 109424552.439 8  85265873.10046  20822774.088    20822772.7114   20822772.4824
        49.700          39.4004
 127823378.279 8                  24323952.578
        49.200
 107792997.713 8  83994567.08948  20512321.519    20512321.0014   20512321.2164
        50.200          50.2004
 135548567.729 5                  25794032.540
        33.100
 124502195.017 8                  23691977.998
        49.600




 136734149.942 6                  26019644.660
        37.300
 102382114.345 7  79630564.140 7  19166143.078    19166143.472    19166150.725
        46.500          47.800
 125971409.023 6                  23971549.179
        39.800
 106637709.152 7  83094321.31846  20292480.864    20292480.6864   20292483.0524
        46.600          36.1004


 124398151.681 5  96933642.31044  23672166.223    23672166.0584   23672171.5384
        34.100          24.8004
 198898408.908 7                  37849118.852
        42.800
 139468568.818 5                  26539991.944
        31.800
 114655093.364 7                  21471221.215    21471221.380
        45.300
 202056012.560 7                  38449989.699
        44.700
 114314509.751 7  88911347.438 7  21392413.755    21392413.415    21392420.388
        44.800          47.100
 117980327.928 7  91762109.608 6  22047358.522    22047359.363    22047360.577
        47.000          38.900
 111002251.969 7                  20750685.990    20750684.385
        44.500
 135838232.508 5                  25849154.726
        35.700
 102161407.396 8  79458734.860 8  19138227.267    19138227.225    19138233.438
        48.700          49.500
 25  1  1 23 16 45.0000000  0 27E31G02G30G06G13G19E10G17E33E24G03E03
                                E25R12E12G14S35G24S31E05R13S33R11R21
                                R23E11R22
 131669318.269 6                  25055836.107
        38.500
 126096898.209 5                  23995444.790
        35.600
 121204597.978 5  94445224.63042  23064462.954    23064462.4674   23064474.8784
        31.600          13.9004
 117719540.377 6  91729557.40845  22401282.549    22401282.4914   22401286.0284
        36.900          31.5004
 129967917.637 5                  24732071.805
        33.800
 109403073.414 8  85249136.22546  20818686.177    20818684.8054   20818685.3884
        50.100          40.4004
 127793441.049 8                  24318255.719
        49.100
 107802865.819 8  84002256.52648  20514199.846    20514199.3504   20514198.7794
        50.500          50.3004
 135580233.737 5                  25800058.053
        31.300
 124495068.342 8                  23690622.149
        48.100




 136701321.346 6                  26013397.521
        38.300
 102371251.017 8  79622114.874 8  19164110.787    19164111.446    19164116.991
        48.000          48.300
 125960530.445 6                  23969479.177
        39.000
 106650649.732 7  83104404.88345  20294943.583    20294943.4004   20294944.6224
        46.100          35.0004


 124363479.548 6  96906625.15643  23665570.553    23665570.3884   23665572.2054
        37.200          22.5004
 198898414.328 7                  37849120.184
        42.700
 139504168.168 4                  26546760.133
        26.500
 114602496.052 7                  21461370.686    21461370.641
        43.300
 202056009.430 7                  38449988.881
        44.900
 114362803.808 7  88948909.416 7  21401452.118    21401453.807    21401459.049
        47.200          47.600
 118036934.324 7  91806136.804 6  22057937.629    22057937.617    22057938.499
        45.900          39.200
 110957893.294 7                  20742392.767    20742393.116
        46.100
 135794111.157 5                  25840758.593
        35.800
 102168626.934 8  79464350.083 8  19139580.984    19139580.995    19139585.532
        51.100          49.700
 25  1  1 23 17  0.0000000  0 27E31G02G30G06G13G19E10G17E33E24G03E03
                                E25R12E12G14S35G24S31E05R13S33R11R21
                                R23E11R22
 131693743.408 6                  25060482.884
        40.000
 126144716.824 5                  24004561.719
        32.200
 121257380.480 5  94486353.78342  23074512.693    23074512.0274   23074519.1034
        30.700          14.8004
 117669266.172 6  91690382.83845  22391714.147    22391714.0984   22391719.5644
        39.500          33.0004
 130009075.364 6                  24739904.646
        36.200
 109381670.111 8  85232458.35346  20814612.905    20814611.5374   20814612.5584
        49.800          40.3004
 127763592.046 8                  24312575.618
        49.000
 107812798.181 8  84009996.03248  20516090.100    20516089.6094   20516088.5674
        50.900          50.1004
 135611972.795 5                  25806098.507
        31.100
 124487991.971 7                  23689275.721
        47.900




 136668501.024 6                  26007152.325
        39.200
 102360543.720 7  79613786.974 8  19162105.452    19162106.254    19162113.006
        47.900          48.600
 125949761.389 6                  23967430.730
        39.800
 106663689.096 7  83114565.41445  20297425.219    20297425.0414   20297425.0624
        47.500          35.4004


 124328926.345 6  96879700.64343  23658998.098    23658997.9024   23658995.2854
        38.300          22.4004
 198898422.727 7                  37849119.388
        42.600


 114549958.425 6                  21451528.661    21451528.792
        38.700
 202056008.667 7                  38449988.505
        44.400
 114411204.724 7  88986554.483 7  21410511.165    21410512.156    21410516.709
        46.600          46.900
 118093589.384 7  91850201.928 6  22068524.161    22068522.520    22068526.430
        42.600          39.200
 110913664.938 6                  20734118.600    20734118.870
        40.700
 135750036.407 5                  25832372.202
        35.500
 102176018.002 8  79470098.713 8  19140965.792    19140966.197    19140969.861
        51.900          49.900
 25  1  1 23 17 15.0000000  0 27E31G02G30G06G13G19E10G17E33E24G03E03
                                E25R12E12G14S35G24S31E05R13S33R11R21
                                R23E11R22
 131718212.924 6                  25065139.607
        40.600
 126192579.337 4                  24013681.085
        28.400


 117619065.273 6  91651265.36745  22382161.035    22382160.9864   22382166.7164
        36.600          33.4004
 130050248.061 5 101337909.13641  24747738.486    24747738.6734   24747752.5314
        31.700          10.4004
 109360339.286 8  85215836.96346  20810553.687    20810552.3244   20810553.4834
        49.800          40.6004
 127733828.234 8                  24306911.379
        48.000
 107822791.535 8  84017783.05548  20517991.505    20517991.0234   20517990.1694
        50.300          50.1004
 135643781.513 4                  25812153.017
        29.500
 124480962.826 7                  23687937.967
        47.600




 136635685.897 6                  26000908.500
        39.500
 102349989.587 7  79605578.226 8  19160128.982    19160130.294    19160136.867
        47.100          48.000
 125939098.783 6                  23965401.637
        39.400
 106676824.152 7  83124800.51546  20299924.585    20299924.4114   20299924.9774
        47.900          36.4004


 124294489.245 5  96852866.58643  23652441.373    23652441.1904   23652441.2724
        32.200          21.2004
 198898430.259 7                  37849122.903
        42.600


 114497477.650 5                  21441701.008    21441695.811
        33.300
 202056007.406 7                  38449989.788
        44.300
 114459708.945 6  89024280.025 7  21419588.809    21419584.953    21419592.905
        40.600          45.100
 118150289.144 6  91894301.839 6  22079115.767    22079113.947    22079121.948
        36.700          38.800
 110869564.149 6                  20725879.355    20725876.784
        41.400
 135706005.344 6                  25823994.313
        36.100
 102183577.141 8  79475978.084 8  19142381.503    19142381.988    19142386.091
        52.100          50.600
 25  1  1 23 17 30.0000000  0 25E31G30G06G13G19E10G17E33E24E03E25R12
                                E12G14S35G24S31E05R13S33R11R21R23E11
                                R22
 131742724.551 6                  25069804.261
        40.500


 117568935.682 5  91612203.47045  22372621.877    22372621.8944   22372626.8094
        34.700          33.8004
 130091433.204 5 101370001.24041  24755577.144    24755577.1184   24755589.8104
        34.100           7.1004
 109339078.728 8  85199270.32746  20806508.030    20806506.6584   20806507.4474
        49.900          40.4004
 127704147.508 7                  24301263.374
        46.400
 107832843.452 8  84025615.71848  20519904.143    20519903.6874   20519903.3844
        51.200          50.2004
 135675657.454 5                  25818217.894
        31.100
 124473978.768 7                  23686608.730
        46.800


 136602873.756 6                  25994664.922
        40.600
 102339586.633 7  79597487.065 7  19158182.474    19158181.967    19158188.402
        45.900          47.000
 125928540.298 6                  23963392.623
        40.800
 106690052.696 7  83135108.47446  20302442.426    20302442.2484   20302442.9384
        46.400          36.3004


 124260166.023 4  96826121.37242  23645923.419    23645923.4814   23645908.2544
        27.800          17.5004
 198898435.941 7                  37849124.615
        43.100


 114445052.130 5                  21431885.517    21431881.426
        34.400
 202056003.934 7                  38449988.509
        44.300
 114508313.944 6  89062083.928 7  21428677.930    21428678.123    21428687.210
        41.400          43.100
 118207031.238 6  91938434.533 6  22089716.003    22089716.437    22089724.867
        39.300          37.700
 110825588.658 7                  20717660.314    20717659.735
        45.700
 135662015.897 6                  25815624.595
        37.300
 102191301.883 8  79481986.246 8  19143828.249    19143828.719    19143833.113
        51.800          50.600
 25  1  1 23 17 45.0000000  0 26E31G02G30G06G13G19E10G17E33E24E03E25
                                R12E12G14S35G24S31E05R13S33R11R21R23
                                E11R22
 131767283.744 6                  25074478.096
        40.900
 126288433.119 5                  24031891.699
        31.800


 117518883.156 6  91573201.59646  22363099.140    22363099.1574   22363101.8774
        39.600          36.4004
 130132635.780 5 101402106.8794   24763417.549    24763417.3664   24763429.5574
        33.400           5.6004
 109317893.913 8  85182762.70246  20802476.659    20802475.3004   20802475.6984
        48.700          40.7004
 127674555.352 7                  24295632.371
        46.900
 107842959.191 8  84033498.11148  20521828.739    20521828.2924   20521828.9284
        50.400          50.0004
 135707605.806 5                  25824299.596
        34.000
 124467045.284 7                  23685289.583
        46.300


 136570070.099 6                  25988422.634
        40.000
 102329340.587 7  79589517.943 7  19156264.799    19156264.594    19156270.130
        46.100          46.500
 125918091.411 6                  23961403.606
        40.400
 106703380.158 7  83145493.51546  20304978.935    20304978.7794   20304979.5604
        47.600          36.0004




 198898444.176 7                  37849126.359
        43.200


 114392687.481 6                  21422079.301    21422076.504
        38.000
 202056002.791 7                  38449987.678
        44.200
 114557025.152 7  89099970.388 7  21437794.545    21437794.178    21437803.507
        42.500          42.600
 118263820.244 6  91982603.849 6  22100347.221    22100345.376    22100337.101
        36.400          37.100
 110781743.937 7                  20709461.460    20709461.494
        45.100
 135618073.672 6                  25807261.980
        37.600
 102199197.352 8  79488127.178 8  19145307.774    19145307.624    19145312.187
        51.400          50.700
 25  1  1 23 18  0.0000000  0 26E31G02G30G06G13G19E10G17E33E24E03E25
                                R12E12G14S35G24S31E05R13S33R11R21R23
                                E11R22
 131791888.961 6                  25079159.453
        40.300
 126336427.390 5                  24041022.761
        31.800


 117468906.418 6  91534258.80046  22353587.335    22353587.2864   22353592.2564
        40.400          37.7004
 130173853.894 5 101434224.69041  24771262.214    24771262.0274   24771272.7254
        35.700           6.5004
 109296783.288 8  85166312.89646  20798459.839    20798458.5074   20798458.2674
        49.900          40.9004
 127645050.425 7                  24290017.754
        47.700
 107853137.122 8  84041428.97948  20523765.629    20523765.1964   20523766.0884
        50.200          49.0004
 135739624.790 6                  25830392.536
        36.100
 124460160.973 7                  23683979.442
        46.000


 136537273.458 6                  25982181.993
        40.100
 102319250.179 7  79581669.826 7  19154374.990    19154374.350    19154381.813
        44.800          47.000
 125907750.552 6                  23959435.793
        40.200
 106716805.069 7  83155954.47945  20307532.413    20307532.2444   20307534.3994
        47.000          35.0004




 198898453.332 7                  37849128.354
        43.300
 139682365.724 5                  26580673.729
        33.000
 114340382.836 6                  21412283.949    21412283.338
        41.800
 202056003.610 7                  38449986.131
        44.600
 114605840.585 7  89137937.921 7  21446931.724    21446931.447    21446939.072
        45.100          42.300
 118320654.785 6  92026808.465 6  22110949.687    22110953.044    22110957.929
        37.700          37.100
 110738028.941 6                  20701287.742    20701285.843
        40.800
 135574177.307 6                  25798908.565
        36.100
 102207261.737 8  79494399.472 8  19146818.574    19146818.509    19146822.616
        52.200          50.600
 25  1  1 23 18 15.0000000  0 27E31G02G30G06G13G19E10G17E33E24G03E03
                                E25R12E12G14S35G24S31E05R13S33R11R21
                                R23E11R22
 131816540.096 6                  25083850.407
        39.200
 126384465.761 4                  24050157.105
        26.500


 117419005.671 6  91495375.21446  22344091.468    22344091.4764   22344096.6994
        39.400          37.9004
 130215087.171 6 101466354.27541  24779109.007    24779108.8554   24779119.0684
        37.500           7.5004
 109275746.644 8  85149920.74046  20794456.559    20794455.2544   20794454.7704
        49.500          40.6004
 127615632.693 7                  24284419.325
        47.900
 107863376.843 8  84049408.00648  20525714.110    20525713.6774   20525714.4194
        50.500          48.5004
 135771714.114 6                  25836495.844
        36.200
 124453325.782 7                  23682678.071
        45.600




 136504483.802 6                  25975942.135
        40.100
 102309315.586 7  79573942.894 7  19152515.400    19152515.308    19152522.525
        45.300          47.700
 125897517.583 6                  23957488.434
        41.500
 106730327.342 7  83166491.31545  20310105.437    20310105.2724   20310107.3264
        46.200          33.2004




 198898463.779 7                  37849131.269
        42.900
 139718041.131 5                  26587462.426
        31.900
 114288138.385 7                  21402499.263    21402499.043
        42.400
 202056005.007 7                  38449988.451
        44.300
 114654759.968 7  89175986.259 6  21456087.012    21456086.745    21456093.999
        47.100          41.700
 118377533.895 7  92071047.798 6  22121585.698    22121584.725    22121588.273
        43.500          39.200
 110694443.595 6                  20693139.669    20693137.469
        36.100
 135530326.817 5                  25790564.200
        35.400
 102215494.710 8  79500802.896 8  19148361.028    19148360.749    19148365.201
        52.100          50.600
 25  1  1 23 18 30.0000000  0 26E31G30G06G13G19E10G17E33E24G03E03E25
                                R12E12G14S35G24S31E05R13S33R11R21R23
                                E11R22
 131841233.047 6                  25088549.107
        37.600


 117369177.116 6  91456547.86646  22334609.827    22334609.8624   22334615.1914
        37.700          36.3004
 130256330.914 5 101498492.0554   24786954.761    24786954.4934   24786968.0444
        34.000           5.4004
 109254779.860 8  85133583.01246  20790466.832    20790465.5454   20790464.4554
        48.200          39.5004
 127586298.190 8                  24278837.203
        48.500
 107873674.346 8  84057432.06948  20527673.851    20527673.4224   20527673.3524
        51.300          48.1004
 135803869.421 6                  25842614.091
        36.800
 124446535.702 7                  23681386.052
        45.700


 147414938.172 5                  28052125.746
        34.400
 136471697.113 6                  25969703.172
        38.400
 102299532.865 7  79566334.097 8  19150683.654    19150682.873    19150690.873
        44.200          48.000
 125887388.515 7                  23955561.157
        42.900
 106743942.923 7  83177100.88245  20312695.902    20312695.7334   20312698.0234
        45.100          31.5004


 124124020.903 6  96720016.35944  23620013.673    23620013.3474   23620015.1904
        37.000          27.6004
 198898471.495 7                  37849131.623
        43.000
 139753724.567 4                  26594250.246
        28.200
 114235950.040 7                  21392727.039    21392725.404
        42.500
 202056003.344 7                  38449988.487
        44.300
 114703778.867 7  89214112.002 6  21465260.754    21465258.405    21465268.083
        46.400          41.500
 118434453.188 7  92115318.360 6  22132220.996    22132221.749    22132225.811
        46.100          40.600
 110650984.250 6                  20685018.462    20685015.321
        41.500
 135486518.424 5                  25782226.840
        33.600
 102223891.903 8  79507334.068 8  19149932.965    19149933.334    19149938.175
        51.600          50.100
 25  1  1 23 18 45.0000000  0 26E31G30G06G13G19E10G17E33E24G03E03E25
                                R12E12G14S35G24S31E05R13S33R11R21R23
                                E11R22
 131865965.367 6                  25093256.627
        38.500


 117319418.604 5  91417775.09045  22325147.572    22325147.6164   22325146.9374
        31.700          32.7004
 130297582.305 6 101530635.7764   24794807.793    24794807.4634   24794818.4834
        36.100           4.1004
 109233880.442 7  85117297.77546  20786489.613    20786488.3124   20786487.5954
        47.300          38.9004
 127557044.636 8                  24273269.842
        48.100
 107884026.686 8  84065498.85947  20529643.735    20529643.2934   20529642.9854
        50.600          47.9004
 135836088.012 5                  25848744.341
        35.600
 124439788.401 7                  23680101.941
        45.900


 147432103.206 6                  28055391.617
        36.500
 136438911.053 6                  25963464.669
        36.600
 102289899.605 7  79558841.549 7  19148879.578    19148878.520    19148887.329
        44.700          47.900
 125877360.760 7                  23953652.604
        42.900
 106757649.431 7  83187781.29245  20315304.421    20315304.2614   20315306.3794
        44.400          30.7004


 124090281.665 6  96693726.09444  23613591.549    23613591.3214   23613594.0784
        36.700          29.7004
 198898473.365 7                  37849132.879
        43.100
 139789413.101 4                  26601037.323
        27.700
 114183816.193 7                  21382964.359    21382963.767
        43.000
 202055996.894 7                  38449987.150
        44.300
 114752894.613 8  89252313.046 7  21474451.345    21474450.581    21474461.645
        49.000          42.800
 118491409.640 7  92159617.836 6  22142865.452    22142866.433    22142870.616
        45.800          41.500
 110607648.463 6                  20676915.586    20676915.849
        41.800
 135442749.795 4                  25773895.989
        29.500
 102232450.524 8  79513990.771 8  19151536.319    19151536.607    19151540.970
        51.400          49.200
 25  1  1 23 19  0.0000000  0 26E31G30G06G13G19E10G17E33E24G03E03E25
                                R12E12G14S35G24S31E05R13S33R11R21R23
                                E11R22
 131890744.213 6                  25097970.748
        39.300
 121681199.342 5  94816573.85042  23155158.163    23155157.5554   23155175.6914
        35.400          13.3004


 130338848.127 5 101562790.6654   24802659.913    24802659.3464   24802671.3504
        35.900           4.6004
 109213055.564 7  85101070.60946  20782527.006    20782525.7054   20782525.1744
        47.200          39.2004
 127527879.217 7                  24267720.039
        46.300
 107894440.937 8  84073613.89247  20531625.859    20531625.4174   20531624.4914
        50.200          47.5004
 135868376.761 5                  25854888.942
        34.700
 124433091.079 7                  23678827.401
        46.100


 147449351.603 6                  28058674.350
        36.600
 136406132.809 5                  25957225.872
        32.600
 102280423.586 8  79551471.263 8  19147107.167    19147107.230    19147113.217
        48.700          48.000
 125867441.567 7                  23951764.914
        42.000
 106771453.963 7  83198538.08645  20317932.681    20317932.5254   20317932.9524
        44.200          30.1004


 124056662.349 6  96667529.26345  23607192.216    23607192.1234   23607196.5324
        38.600          30.4004
 198898477.006 7                  37849131.470
        43.200
 139825113.743 5                  26607841.990
        31.900
 114131744.608 7                  21373215.076    21373214.288
        44.100
 202055990.950 7                  38449987.544
        44.800
 114802114.040 8  89290594.744 7  21483663.390    21483663.345    21483670.782
        51.800          42.100
 118548409.933 7  92203951.397 6  22153519.225    22153520.937    22153523.344
        44.600          41.500
 110564443.585 7                  20668839.016    20668839.191
        43.100
 135399028.073 5                  25765575.645
        31.300
 102241177.501 8  79520778.428 8  19153171.335    19153171.540    19153175.692
        51.200          48.300
 25  1  1 23 19 15.0000000  0 25E31G30G06G13G19E10G17E33E24E03E25R12
                                E12G14S35G24S31E05R13S33R11R21R23E11
                                R22
 131915568.620 6                  25102694.369
        40.000
 121734357.065 5  94857995.46242  23165270.022    23165269.2184   23165285.4844
        30.900          13.9004


 130380126.953 5 101594955.8264   24810516.829    24810516.1324   24810526.5954
        32.000           3.4004
 109192304.226 8  85084900.75946  20778577.808    20778576.4944   20778576.5934
        49.100          40.1004
 127498801.184 7                  24262186.766
        46.400
 107904915.849 8  84081776.18447  20533619.663    20533619.2214   20533617.4224
        50.700          47.2004
 135900734.566 5                  25861048.019
        34.600
 124426442.925 7                  23677562.476
        46.800
 147466682.289 5                  28061971.349
        33.900
 136373361.470 4                  25950986.974
        28.000
 102271103.901 8  79544222.585 7  19145363.058    19145363.409    19145368.636
        50.800          47.800
 125857629.974 6                  23949898.720
        41.900
 106785355.710 7  83209370.61344  20320578.701    20320578.5184   20320577.8944
        45.400          29.8004


 124023162.348 6  96641425.38445  23600817.650    23600817.3874   23600821.2244
        40.400          30.7004
 198898482.028 7                  37849135.218
        43.500
 139860825.351 5                  26614628.860
        33.000
 114079734.187 7                  21363475.247    21363475.940
        43.100
 202055986.727 7                  38449987.011
        44.600
 114851436.041 8  89328956.291 7  21492891.809    21492892.622    21492899.755
        50.800          42.200
 118605452.720 6  92248318.006 6  22164182.928    22164182.551    22164184.059
        41.100          41.000
 110521368.972 7                  20660787.545    20660789.385
        45.000
 135355352.800 5                  25757265.879
        33.100
 102250071.704 8  79527696.141 7  19154837.491    19154837.184    19154841.296
        49.900          47.500
 25  1  1 23 19 30.0000000  0 25E31G30G06G13G19E10G17E33E24E03E25R12
                                E12G14S35G24S31E05R13S33R11R21R23E11
                                R22
 131940440.932 6                  25107427.277
        40.900
 121787558.352 4  94899450.87542  23175397.266    23175396.5384   23175409.1534
        28.600          12.8004


 130421420.801 5 101627132.5124   24818375.645    24818374.7744   24818384.2474
        32.600           2.0004
 109171628.751 8  85068790.01846  20774643.201    20774641.8914   20774642.3074
        49.100          40.9004
 127469812.912 8                  24256670.485
        48.100
 107915453.667 8  84089987.47947  20535624.550    20535624.1174   20535622.3324
        50.300          47.2004
 135933163.438 6                  25867220.101
        36.100
 124419846.289 7                  23676307.262
        47.500
 147484097.325 5                  28065285.766
        31.300
 136340599.619 4                  25944750.792
        24.200
 102261943.182 8  79537097.573 8  19143647.620    19143648.139    19143653.992
        51.100          48.100
 125847928.293 7                  23948052.019
        42.000
 106799356.964 7  83220280.66745  20323242.256    20323242.0204   20323242.3244
        45.600          30.7004


 123989784.127 6  96615416.41245  23594464.752    23594464.4044   23594468.3324
        41.100          31.1004
 198898489.277 7                  37849134.440
        43.100
 139896549.893 5                  26621426.440
        30.500
 114027788.004 6                  21353746.952    21353749.011
        40.100
 202055984.227 7                  38449984.619
        44.600
 114900862.694 8  89367399.216 7  21502141.937    21502142.280    21502149.405
        50.400          43.700
 118662540.081 5  92292719.131 6  22174869.370    22174870.395    22174852.828
        34.500          40.300
 110478427.375 7                  20652758.609    20652761.530
        43.200
 135311726.273 5                  25748961.688
        35.000
 102259135.115 8  79534745.462 7  19156535.596    19156535.323    19156539.716
        50.000          47.500
 25  1  1 23 19 45.0000000  0 26E31G30G06G13G19E10G17E33E24G03E03E25
                                R12E12G14S35G24S31E05R13S33R11R21R23
                                E11R22
 131965359.066 6                  25112168.965
        40.600
 121840800.493 5  94940938.10541  23185525.305    23185524.6754   23185541.7914
        30.300          10.5004


 130462727.190 5                  24826234.378
        35.100
 109151026.940 8  85052736.68146  20770722.907    20770721.5934   20770722.0224
        48.800          41.3004
 127440912.447 8                  24251171.053
        49.100
 107926052.123 8  84098246.02147  20537641.258    20537640.8344   20537639.1324
        50.200          47.2004
 135965661.065 6                  25873403.744
        39.300
 124413299.179 7                  23675061.563
        47.600


 147501594.415 5                  28068616.952
        32.800
 136307844.816 4                  25938521.662
        26.300
 102252939.568 8  79530094.757 8  19141962.503    19141963.125    19141968.437
        51.600          48.300
 125838334.400 6                  23946226.772
        41.700
 106813455.664 7  83231266.64645  20325925.206    20325924.9924   20325925.6514
        45.900          31.5004


 123956525.913 6  96589500.97545  23588136.086    23588135.7514   23588137.0554
        41.900          31.8004
 198898497.863 7                  37849139.166
        43.400
 139932284.931 4                  26628229.580
        28.200
 113975904.451 5                  21344021.225    21344023.443
        34.400
 202055983.842 7                  38449984.829
        44.600
 114950391.619 7  89405921.719 7  21511410.161    21511409.387    21511419.203
        46.600          45.700
 118719669.423 6  92337152.863 6  22185532.208    22185534.070    22185531.125
        37.300          37.200
 110435616.641 6                  20644754.722    20644753.217
        40.500
 135268146.557 5                  25740667.711
        34.600
 102268365.378 8  79541924.550 7  19158264.643    19158265.393    19158269.023
        50.600          47.900
 25  1  1 23 20  0.0000000  0 26E31G30G06G13G19E10G17E33E24G03E03E25
                                R12E12G14S35G24S31E05R13S33R11R21R23
                                E11R22
 131990319.515 6                  25116918.547
        39.600
 121894079.616 4  94982454.33041  23195664.093    23195663.0254   23195681.7234
        27.800          11.6004
 117071779.002 6  91224769.12745  22278016.744    22278017.1284   22278021.3614
        38.200          30.2004
 130504042.250 5                  24834103.306
        32.100
 109130495.194 8  85036737.94846  20766815.726    20766814.4034   20766815.0854
        49.200          41.1004
 127412096.458 8                  24245687.672
        49.400
 107936707.635 8  84106549.02347  20539669.073    20539668.6494   20539667.2094
        49.400          46.9004
 135998223.778 6                  25879600.530
        41.800
 124406798.229 7                  23673824.846
        47.900


 147519169.903 5                  28071960.175
        34.100
 136275093.995 4                  25932289.857
        27.900
 102244089.777 8  79523211.594 8  19140304.746    19140305.025    19140312.152
        50.300          48.100
 125828844.897 7                  23944421.188
        42.300
 106827648.377 7  83242325.90945  20328626.111    20328625.8974   20328627.1464
        45.000          31.3004


 123923384.434 7  96563676.49645  23581829.850    23581829.5204   23581829.4834
        42.500          32.2004
 198898503.641 7                  37849137.910
        43.100
 139968026.825 4                  26635032.130
        27.200
 113924080.404 6                  21334323.121    21334322.007
        37.500
 202055980.388 7                  38449986.564
        44.300
 115000019.043 7  89444520.789 7  21520698.229    21520696.625    21520706.884
        45.100          47.200
 118776836.482 6                  22196211.052    22196212.247
        40.700
 110392933.403 6                  20636775.500    20636772.461
        38.600
 135224610.410 5                  25732383.944
        31.800
 102277758.682 8  79549230.462 8  19160024.008    19160024.548    19160029.326
        50.200          48.900
 25  1  1 23 20 15.0000000  0 26E31G30G06G13G19E10G17E33E24G03E03E25
                                R12E12G14S35G24S31E05R13S33R11R21R23
                                E11R22
 132015327.463 6                  25121677.919
        37.000
 121947400.729 4  95024003.28942  23205815.113    23205814.0094   23205829.3244
        29.800          15.8004
 117022486.170 6  91186359.18145  22268636.380    22268636.5094   22268642.3074
        37.700          31.4004
 130545370.820 5                  24841963.475
        31.800
 109110038.865 8  85020797.98546  20762923.137    20762921.8094   20762922.3144
        49.400          41.2004
 127383370.198 8                  24240220.888
        48.200
 107947425.184 8  84114900.36447  20541708.531    20541708.1114   20541707.1014
        49.000          46.8004
 136030856.456 7                  25885810.166
        44.000
 124400348.718 7                  23672597.480
        47.300


 147536828.809 4                  28075319.041
        29.200
 136242352.422 5                  25926059.111
        30.400
 102235399.341 8  79516452.385 7  19138678.050    19138678.204    19138684.146
        50.100          47.300
 125819464.871 6                  23942635.845
        41.400
 106841940.323 7  83253462.49445  20331345.616    20331345.4024   20331347.2884
        45.600          31.9004


 123890365.112 6  96537947.17745  23575545.140    23575544.7784   23575547.2654
        39.900          31.4004
 198898512.361 7                  37849139.806
        42.800
 140003780.386 4                  26641838.519
        27.800
 113872321.223 7                  21324632.111    21324631.549
        43.500
 202055979.204 7                  38449983.635
        44.300
 115049749.958 6  89483200.366 7  21530005.186    21530002.336    21530012.765
        40.400          46.600
 118834046.174 6                  22206896.394    22206898.776
        40.000
 110350383.211 5                  20628822.019    20628818.491
        35.300
 135181123.250 4                  25724109.120
        29.000
 102287320.060 8  79556667.093 8  19161815.773    19161816.014    19161821.177
        51.300          50.000
 25  1  1 23 20 30.0000000  0 26E31G30G06G13G19E10G17E33E24G03E03E25
                                R12E12G14S35G24S31E05R13S33R11R21R23
                                E11R22
 132040379.471 5                  25126444.853
        35.100
 122000759.867 5  95065581.75643  23215965.963    23215964.7744   23215982.2014
        32.300          20.4004
 116973270.166 6  91148009.10445  22259271.064    22259271.3854   22259276.6864
        37.800          30.7004
 130586709.137 5                  24849834.268
        31.900
 109089654.569 8  85004914.15846  20759044.245    20759042.9224   20759042.6724
        49.800          41.2004
 127354730.409 7                  24234771.136
        47.500
 107958201.351 8  84123297.39347  20543759.185    20543758.7654   20543758.0154
        49.900          46.5004
 136063555.533 7                  25892032.532
        44.700
 124393947.305 7                  23671379.575
        46.700


 147554567.792 4                  28078723.036
        29.400


 102226865.031 8  79509814.614 7  19137080.587    19137081.222    19137086.288
        50.200          47.100
 125810190.971 6                  23940871.313
        39.400
 106856328.142 7  83264673.77645  20334082.830    20334082.6344   20334084.6454
        46.600          32.5004


 123857464.842 6  96512310.59845  23569285.482    23569285.0764   23569287.8964
        36.700          30.0004
 198898520.198 7                  37849140.284
        43.000
 140039541.971 4                  26648640.859
        28.000
 113820624.080 7                  21314950.106    21314950.504
        44.900
 202055977.278 7                  38449984.351
        44.600
 115099580.613 6  89521957.545 7  21539328.917    21539326.500    21539336.657
        37.300          45.000
 118891294.530 6                  22217594.738    22217596.243
        39.800
 110307963.050 7                  20620894.054    20620891.123
        42.600


 102297045.736 8  79564231.497 8  19163637.866    19163638.781    19163642.536
        52.300          50.400
 25  1  1 23 20 45.0000000  0 25E31G30G06G19E10G17E33E24G03E03E25R12
                                E12G14S35G24S31E05R13S33R11R21R23E11
                                R22
 132065473.013 5                  25131219.216
        34.200
 122054154.225 5  95107187.63843  23226123.359    23226122.0544   23226141.3704
        32.300          20.3004
 116924128.633 6  91109717.08144  22249920.859    22249920.9974   22249925.0524
        37.700          29.9004
 109069339.656 8  84989084.39646  20755178.181    20755176.8624   20755176.1544
        50.100          41.3004
 127326174.575 7                  24229336.910
        47.100
 107969033.451 8  84131737.99947  20545819.881    20545819.4574   20545819.4204
        48.300          45.4004
 136096318.122 7                  25898266.775
        45.100
 124387591.516 7                  23670169.730
        46.600


 147572383.776 4                  28082102.134
        28.600


 102218484.375 8  79503296.358 7  19135510.477    19135511.589    19135518.224
        49.800          47.900
 125801020.548 6                  23939126.279
        37.800
 106870809.228 7  83275957.72645  20336838.334    20336838.1514   20336840.0594
        46.900          32.9004


 123824681.203 6  96486764.88444  23563045.566    23563045.1374   23563050.4434
        36.900          28.3004
 198898524.255 7                  37849142.976
        43.200
 140075308.677 4                  26655447.966
        27.900
 113768986.869 7                  21305278.912    21305278.452
        43.100
 202055972.320 7                  38449983.948
        44.500
 115149508.164 6  89560790.063 7  21548671.353    21548671.427    21548679.705
        36.100          44.500
 118948578.759 6  92515206.966 5  22228304.502    22228302.698    22228301.573
        38.000          35.300
 110265670.001 7                  20612986.862    20612986.658
        43.000
 135094283.627 5                  25707584.354
        30.500
 102306932.735 8  79571921.411 8  19165490.498    19165490.713    19165495.366
        52.700          50.800
 25  1  1 23 21  0.0000000  0 26E31G02G30G06G19E10G17E33E24G03E03E25
                                R12E12G14S35G24S31E05R13S33R11R21R23
                                E11R22
 132090612.385 5                  25136002.331
        32.700
 126915632.120 6  98895266.16741  24151239.362    24151240.1044   24151233.9844
        36.700           9.8004
 122107587.693 5  95148823.97143  23236289.906    23236288.5434   23236308.0914
        35.000          20.0004
 116875066.243 6  91071486.73644  22240584.794    22240584.7814   22240587.6604
        36.400          28.6004
 109049098.356 8  84973311.98246  20751326.653    20751325.3344   20751324.4644
        49.400          41.5004
 127297707.154 7                  24223919.854
        46.700
 107979925.540 7  84140225.35947  20547892.690    20547892.2614   20547892.2054
        47.500          44.7004
 136129148.355 7                  25904514.045
        44.600
 124381285.735 7                  23668969.160
        46.900


 147590280.781 5                  28085503.593
        30.800


 102210262.099 8  79496901.290 8  19133972.341    19133972.841    19133979.047
        50.400          48.000
 125791957.989 6                  23937400.790
        38.400
 106885387.965 7  83287317.77245  20339613.049    20339612.8664   20339614.6874
        46.100          33.5004


 123792018.762 6  96461313.62244  23556829.065    23556828.5874   23556834.5664
        38.700          27.8004
 198898529.238 7                  37849144.206
        42.900
 140111084.523 4                  26662256.412
        28.200
 113717414.201 6                  21295620.154    21295618.240
        41.000
 202055968.438 7                  38449983.282
        44.300
 115199536.679 6  89599701.084 7  21558036.275    21558037.960    21558042.134
        41.700          44.500
 119005902.788 5  92559792.226 6  22239021.971    22239023.235    22239013.980
        32.300          36.900
 110223509.039 6                  20605105.257    20605104.444
        41.000
 135050933.288 5                  25699334.136
        34.200
 102316985.231 8  79579740.047 8  19167373.590    19167373.861    19167378.085
        52.500          50.800
 25  1  1 23 21 15.0000000  0 26E31G02G30G06G19E10G17E33E24G03E03E25
                                R12E12G14S35G24S31E05R13S33R11R21R23
                                E11R22
 132115796.993 5                  25140794.110
        30.200
 126964156.229 6  98933077.13741  24160478.219    24160478.7734   24160465.3944
        38.000          10.5004
 122161059.192 6  95190490.01343  23246465.895    23246464.4514   23246481.1314
        37.200          19.5004
 116826082.568 6  91033317.73644  22231263.032    22231262.9924   22231265.6424
        38.300          29.0004
 109028930.049 8  84957596.43946  20747488.971    20747487.6484   20747487.3244
        48.700          41.7004
 127269327.655 7                  24218519.059
        46.000
 107990876.665 7  84148758.72747  20549976.990    20549976.5434   20549976.4954
        46.000          44.0004
 136162045.350 7                  25910773.742
        43.200
 124375029.448 7                  23667778.813
        47.000


 147608258.081 5                  28088915.550
        31.600


 102202197.808 8  79490629.045 7  19132463.696    19132463.570    19132469.463
        50.800          47.700
 125783002.563 6                  23935696.381
        39.800
 106900063.744 7  83298753.44945  20342405.881    20342405.6854   20342407.5694
        45.900          33.8004


 123759477.195 6  96435956.54244  23550636.803    23550636.2714   23550640.7164
        38.800          29.0004
 198898534.643 7                  37849142.663
        42.900
 140146868.659 4                  26669070.856
        24.800
 113665906.035 6                  21285975.829    21285973.299
        40.000
 202055963.524 7                  38449980.926
        44.400
 115249665.317 7  89638689.935 7  21567417.988    21567420.158    21567421.196
        43.500          43.100
 119063265.676 5  92604407.548 6  22249760.921    22249759.761    22249734.319
        31.000          38.500
 110181479.531 6                  20597246.041    20597243.953
        36.800
 135007630.284 5                  25691092.047
        35.600
 102327202.293 8  79587686.662 8  19169287.017    19169287.170    19169291.608
        51.400          50.300
 25  1  1 23 21 30.0000000  0 26E31G02G30G06G19E10G17E33E24G03E03E25
                                R12E12G14S35G24S31E05R13S33R11R21R23
                                E11R22


 127012721.099 5  98970919.84741  24169720.624    24169720.7134   24169707.4284
        35.400           9.7004
 122214570.114 6  95232186.81543  23256650.728    23256649.2354   23256659.8634
        37.300          19.2004
 116777179.615 7  90995211.62445  22221957.027    22221956.9784   22221960.0844
        42.900          31.6004
 109008836.194 7  84941938.90846  20743664.803    20743663.4754   20743664.2254
        47.700          40.9004
 127241037.831 7                  24213135.607
        45.400
 108001888.399 7  84157339.32147  20552072.204    20552071.7574   20552072.3184
        47.000          43.7004
 136195010.502 6                  25917046.531
        41.900
 124368824.358 7                  23666598.302
        47.900


 147626317.039 5                  28092350.571
        32.000


 102194293.183 8  79484481.012 7  19130984.505    19130984.558    19130990.000
        52.100          47.800
 125774155.981 6                  23934013.055
        41.900
 106914838.241 7  83310266.04845  20345217.050    20345216.8634   20345218.7574
        46.700          34.4004


 123727058.349 6  96410695.10245  23544467.968    23544467.5034   23544471.2454
        39.200          31.4004
 198898542.176 7                  37849144.174
        43.100
 140182662.658 4                  26675888.803
        24.800
 113614464.508 6                  21276343.261    21276342.864
        41.900
 202055961.072 7                  38449980.867
        44.600
 115299895.339 6  89677757.739 6  21576814.355    21576817.398    21576820.614
        40.900          41.700
 119120668.196 5  92649053.796 6  22260476.237                    22260461.943
        34.200          38.100
 110139583.450 6                  20589414.710    20589415.215
        41.900
 134964376.376 5                  25682859.929
        32.800
 102337585.305 8  79595762.368 8  19171232.160    19171232.089    19171236.769
        50.600          50.200
 25  1  1 23 21 45.0000000  0 26E31G02G30G06G19E10G17E33E24G03E03E25
                                R12E12G14S35G24S31E05R13S33R11R21R23
                                E11R22


 127061324.910 4  99008792.8494   24178972.595    24178972.2154   24178956.7424
        28.000           5.4004
 122268118.418 4  95273912.78142  23266844.538    23266843.0054   23266846.6174
        28.800          13.0004
 116728356.108 7  90957167.39045  22212664.910    22212664.8664   22212670.1404
        42.900          33.8004
 108988815.309 7  84926338.24146  20739854.329    20739852.9884   20739854.6274
        47.500          39.6004
 127212836.223 7                  24207768.517
        46.000
 108012959.263 8  84165965.97747  20554178.636    20554178.1894   20554178.9134
        48.000          44.0004
 136228042.041 6                  25923331.747
        40.500
 124362669.038 8                  23665426.808
        49.400






 102186547.061 8  79478456.268 7  19129534.125    19129534.724    19129539.924
        52.300          47.400
 125765416.657 7                  23932350.336
        44.600
 106929709.950 7  83321854.39245  20348047.455    20348047.2544   20348048.4144
        46.500          35.4004


 123694760.925 6  96385528.30145  23538322.009    23538321.5624   23538325.5644
        39.500          33.0004
 198898549.030 7                  37849147.112
        42.900


 113563088.076 6                  21266720.496    21266720.853
        40.800
 202055958.752 7                  38449979.973
        44.200
 115350225.009 6  89716903.004 6  21586235.322    21586236.925    21586240.105
        38.300          40.700
                  92693729.489 6                  22271186.981    22271196.024
                        38.000
 110097819.419 7                  20581608.525    20581609.055
        44.600
 134921170.406 4                  25674639.979
        29.600
 102348132.422 8  79603965.698 8  19173208.052    19173207.173    19173212.005
        49.800          49.500
 25  1  1 23 22  0.0000000  0 25E31G30G06G19E10G17E33E24G03E03E25R12
                                E12G14S35G24S31E05R13S33R11R21R23E11
                                R22




 116679611.256 6  90919184.44745  22203389.514    22203389.4924   22203394.2334
        41.100          33.4004
 108968866.354 7  84910793.62846  20736057.731    20736056.3904   20736058.3004
        45.900          38.1004
 127184721.931 7                  24202418.768
        46.300
 108024087.970 7  84174637.70447  20556295.751    20556295.2864   20556296.5084
        47.700          44.2004
 136261138.683 6                  25929629.021
        38.900
 124356562.552 8                  23664264.973
        49.700




 136013352.874 5                  25882480.922
        33.900
 102178958.654 8  79472554.188 7  19128113.375    19128113.719    19128119.786
        52.100          47.200
 125756783.552 7                  23930707.550
        44.900
 106944677.848 7  83333517.69046  20350895.692    20350895.4734   20350896.7524
        47.200          36.5004


 123662584.142 6  96360455.51845  23532199.639    23532199.1664   23532202.5134
        39.600          33.4004
 198898555.739 7                  37849147.859
        43.300


 113511776.449 6                  21257111.521    21257110.268
        38.500
 202055955.257 7                  38449978.623
        44.200
 115400652.891 6  89756124.726 6  21595675.697    21595674.543    21595677.751
        38.200          39.600
 119235584.682 5  92738433.554 6  22281923.764    22281923.020    22281936.249
        32.700          37.000
 110056186.524 7                  20573824.033    20573824.237
        43.700
 134878011.277 5                  25666428.272
        31.200
 102358842.364 8  79612295.653 8  19175214.463    19175214.726    19175217.908
        51.000          49.000
 25  1  1 23 22 15.0000000  0 25E31G30G06G19E10G17E33E24G03E03E25R12
                                E12G14S35G24S31E05R13S33R11R21R23E11
                                R22




 116630946.830 6  90881264.15545  22194130.226    22194130.2264   22194133.6244
        39.700          33.6004
 108948990.720 7  84895306.13846  20732276.169    20732274.8324   20732275.8174
        45.400          37.3004
 127156696.457 7                  24197085.845
        47.200
 108035275.485 7  84183355.25447  20558425.489    20558425.0474   20558425.8054
        46.500          44.1004
 136294301.600 6                  25935938.619
        36.000
 124350506.355 8                  23663112.424
        49.900




 135980665.879 5                  25876260.647
        34.900
 102171529.642 8  79466776.075 7  19126722.885    19126722.704    19126728.522
        50.900          46.300
 125748258.049 7                  23929085.802
        46.300
 106959743.374 7  83345257.07146  20353762.221    20353761.9804   20353764.0554
        46.300          37.1004


 123630529.655 6  96335478.02945  23526099.557    23526099.0664   23526102.0444
        38.400          33.3004
 198898563.335 7                  37849150.131
        43.600


 113460531.366 6                  21247512.091    21247511.559
        36.700
 202055953.311 7                  38449977.201
        44.300
 115451180.336 6  89795423.840 6  21605123.804    21605121.901    21605133.488
        36.700          39.300
 119293098.577 6  92783166.480 5  22292668.888    22292671.289    22292682.063
        36.000          35.800
 110014686.388 6                  20566065.215    20566063.660
        40.600
 134834900.639 5                  25658222.494
        31.300
 102369716.102 8  79620753.009 8  19177251.275    19177251.711    19177255.134
        51.000          49.100
 25  1  1 23 22 30.0000000  0 26E31G30G06G13G19E10G17E33E24G03E03E25
                                R12E12G14S35G24S31E05R13S33R11R21R23
                                E11R22




 116582365.840 6  90843408.89045  22184884.623    22184884.5794   22184890.1054
        38.200          33.4004
 130917767.099 5                  24912821.576
        35.300
 108929191.081 7  84879877.87146  20728509.115    20728507.7744   20728507.9474
        46.200          37.8004
 127128762.645 7                  24191770.070
        47.600
 108046524.503 7  84192120.73147  20560565.532    20560565.0944   20560566.7784
        47.400          44.3004
 136327533.294 4                  25942260.941
        28.600
 124344503.313 8                  23661970.036
        49.100




 135947989.626 5                  25870041.076
        31.400
 102164262.825 8  79461124.115 7  19125361.442    19125362.115    19125367.288
        50.100          44.700
 125739842.875 7                  23927484.604
        47.300
 106974909.307 7  83357074.70846  20356647.972    20356647.7184   20356650.4704
        44.800          37.0004


 123598600.454 6  96310598.15645  23520023.965    23520023.4744   23520025.5964
        36.000          31.1004
 198898573.460 7                  37849152.706
        42.900


 113409356.162 6                  21237930.684    21237929.610
        38.400
 202055953.946 7                  38449978.833
        44.300
 115501809.845 6  89834802.289 6  21614594.940    21614599.206    21614607.430
        37.500          39.500
 119350651.998 6  92827930.228 5  22303429.508    22303447.014    22303435.278
        37.600          33.000
 109973322.114 6                  20558331.865    20558331.876
        41.500
 134791841.534 5                  25650030.558
        30.400
 102380756.277 8  79629339.851 8  19179319.979    19179320.239    19179323.855
        50.500          49.300
 25  1  1 23 22 45.0000000  0 26E31G30G06G13G19E10G17E33E24G03E03E25
                                R12E12G14S35G24S31E05R13S33R11R21R23
                                E11R22




 116533861.126 7  90805613.06545  22175654.869    22175654.8474   22175660.2294
        42.200          33.4004
 130959180.730 5 102046153.40241  24920701.470    24920701.3414   24920713.3984
        33.200           6.4004
 108909460.052 8  84864503.07546  20724753.745    20724752.4004   20724753.3584
        48.600          39.4004
 127100913.229 7                  24186470.482
        47.600
 108057827.587 7  84200928.34747  20562716.942    20562716.4864   20562717.6234
        46.700          44.6004
 136360826.449 4                  25948618.758
        26.000
 124338546.103 8                  23660836.890
        48.400




 135915316.890 4                  25863821.829
        25.700
 102157151.127 8  79455592.797 7  19124028.963    19124029.459    19124035.353
        48.800          43.800
 125731530.668 7                  23925902.836
        47.800
 106990168.290 7  83368964.86146  20359550.984    20359550.7344   20359554.5964
        44.500          36.4004


 123566789.466 5  96285810.35844  23513971.833    23513971.3014   23513971.9404
        31.200          26.5004
 198898580.063 7                  37849151.892
        43.200


 113358243.530 6                  21228359.910    21228359.219
        41.500
 202055949.859 7                  38449978.256
        44.600
 115552533.627 7  89874253.988 7  21624092.998    21624092.098    21624102.089
        42.100          42.200
 119408237.153 6  92872718.645 5  22314203.359    22314203.699    22314197.297
        39.600          32.100
 109932086.233 6                  20550621.701    20550622.481
        40.400
 134748826.588 5                  25641849.014
        30.000
 102391955.053 8  79638050.043 8  19181416.692    19181416.795    19181422.177
        49.200          50.000
 25  1  1 23 23  0.0000000  0 25E31G30G06G19E10G17E33E24G03E03E25R12
                                E12G14S35G24S31E05R13S33R11R21R23E11
                                R22




 116485440.451 7  90767882.73845  22166439.536    22166439.5194   22166445.6234
        45.000          34.5004
 108889805.043 8  84849187.51046  20721013.683    20721012.3464   20721013.1054
        49.400          40.6004
 127073155.777 7                  24181188.468
        46.100
 108069191.894 7  84209783.66247  20564879.995    20564879.5304   20564880.4044
        47.700          44.9004
 136394187.743 4                  25954964.725
        26.600
 124332642.278 8                  23659713.195
        48.300






 102150202.334 8  79450188.178 7  19122729.671    19122729.098    19122734.026
        49.300          43.100
 125723328.803 7                  23924341.631
        46.900
 107005527.767 7  83380933.31946  20362473.815    20362473.5874   20362477.7184
        44.800          36.3004


 123535104.211 4  96261120.63644  23507938.099    23507937.5364   23507942.9724
        29.200          24.2004
 198898590.331 7                  37849155.747
        43.500


 113307201.565 6                  21218800.918    21218800.026
        41.900
 202055950.251 7                  38449978.810
        44.800
 115603358.796 7  89913784.645 7  21633604.781    21633603.816    21633613.481
        43.200          42.600
 119465861.212 6  92917537.268 5  22324967.667    22324969.122    22324967.473
        38.100          33.700
 109890986.490 5                  20542942.076    20542936.460
        34.300
 134705863.446 5                  25633678.922
        30.000
 102403319.684 8  79646889.239 8  19183546.095    19183546.191    19183551.389
        49.500          49.900
 25  1  1 23 23 15.0000000  0 25E31G30G06G19E10G17E33E24G03E03E25R12
                                E12G14S35G24S31E05R13S33R11R21R23E11
                                R22




 116437094.638 7  90730210.78045  22157240.083    22157240.1004   22157245.5414
        45.700          34.7004
 108870216.467 8  84833923.71146  20717286.073    20717284.7594   20717285.4364
        49.500          41.4004
 127045480.888 7                  24175922.145
        45.600
 108080607.905 7  84218679.25747  20567052.384    20567051.9064   20567052.8974
        47.300          45.3004
 136427607.564 4                  25961329.976
        24.200
 124326782.424 8                  23658598.177
        48.300






 102143406.988 8  79444902.928 7  19121457.645    19121456.890    19121461.670
        49.400          43.500
 125715227.882 7                  23922800.327
        45.100
 107020978.278 7  83392972.71146  20365414.317    20365414.0894   20365417.4264
        44.300          36.0004


 123503535.477 5  96236521.63244  23501930.948    23501930.3274   23501936.4344
        31.000          26.5004
 198898594.033 7                  37849155.282
        42.900


 113256221.090 7                  21209255.371    21209254.673
        42.600
 202055944.394 7                  38449977.554
        44.500
 115654275.594 7  89953386.560 7  21643134.029    21643132.446    21643141.033
        44.000          42.300
 119523514.064 6  92962378.335 5  22335742.904    22335747.033    22335741.977
        41.800          35.700
 109850013.825 6                  20535283.135    20535279.861
        39.700
 134662942.813 4                  25625512.557
        28.400
 102414840.241 8  79655849.694 8  19185704.365    19185705.475    19185709.090
        50.700          49.000
 25  1  1 23 23 30.0000000  0 25E31G30G06G19E10G17E33E24G03E03E25R12
                                E12G14S35G24S31E05R13S33R11R21R23E11
                                R22




 116388833.464 7  90692604.78845  22148056.091    22148056.1134   22148060.6594
        44.900          34.6004
 108850703.895 8  84818719.12746  20713573.083    20713571.7734   20713572.4284
        50.000          41.8004
 127017898.170 7                  24170673.261
        45.700
 108092084.901 8  84227622.37747  20569236.380    20569235.9024   20569236.2924
        48.500          45.0004


 124320976.129 8                  23657493.226
        48.500




 135817387.721 5                  25845187.876
        34.900
 102136774.938 8  79439744.682 7  19120216.821    19120216.972    19120221.099
        52.400          45.600
 125707237.292 7                  23921279.299
        42.400
 107036529.361 7  83405090.46045  20368373.768    20368373.5404   20368375.7754
        44.400          34.9004


 123472092.975 6  96212020.99844  23495949.559    23495948.9074   23495954.5664
        36.800          29.8004
 198898600.904 7                  37849157.786
        43.100


 113205312.145 7                  21199721.113    21199719.823
        42.100
 202055940.308 7                  38449977.773
        44.700
 115705293.329 7  89993066.998 6  21652680.418    21652678.672    21652685.671
        42.800          39.400
 119581204.797 6  93007248.927 6  22346522.469    22346523.867    22346521.548
        40.600          36.600
 109809177.501 6                  20527646.512    20527645.286
        40.000


 102426526.067 8  79664938.709 8  19187894.683    19187895.251    19187898.173
        51.500          48.100
 25  1  1 23 23 45.0000000  0 25E31G30G06G19E10G17E33E24G03E03E25R12
                                E12G14S35G24S31E05R13S33R11R21R23E11
                                R22




 116340650.885 6  90655060.03445  22138887.457    22138887.4134   22138890.7704
        41.100          34.0004
 108831260.886 8  84803568.74047  20709873.308    20709872.0124   20709872.8054
        50.200          42.2004
 126990401.423 7                  24165440.298
        45.900
 108103616.362 8  84236607.94347  20571430.357    20571429.8614   20571429.8294
        48.500          44.8004


 124315217.184 8                  23656397.623
        49.000




 135784743.352 5                  25838974.446
        35.500
 102130299.975 8  79434708.621 7  19119004.714    19119005.274    19119010.224
        52.700          47.900
 125699350.692 6                  23919778.382
        39.900
 107052174.731 7  83417281.65045  20371350.980    20371350.7264   20371352.3964
        42.900          34.1004


 123440770.650 6  96187614.03545  23489989.083    23489988.4444   23489996.0804
        39.100          32.7004
 198898605.237 7                  37849156.373
        42.600


 113154468.849 6                  21190199.480    21190199.041
        41.100
 202055935.162 7                  38449976.007
        44.300
 115756405.426 7  90032820.767 6  21662245.917    21662245.458    21662249.439
        45.100          37.800
 119638926.772 6  93052143.798 6  22357305.010    22357305.982    22357308.922
        37.500          36.600
 109768471.473 6                  20520039.717    20520037.057
        39.200


 102438370.491 8  79674151.068 7  19190113.049    19190113.676    19190117.162
        50.700          47.100
 25  1  1 23 24  0.0000000  0 25E31G30G06G19E10G17E33E24G03E03E25R12
                                E12G14S35G24S31E05R13S33R11R21R23E11
                                R22




 116292554.863 6  90617582.70045  22129734.662    22129734.5514   22129738.3114
        38.900          34.4004
 108811895.025 8  84788478.46547  20706188.117    20706186.8214   20706187.7274
        50.100          42.0004
 126962998.423 7                  24160225.690
        46.600
 108115209.833 8  84245641.83447  20573636.330    20573635.8344   20573635.4664
        48.400          44.9004


 124309513.351 8                  23655312.102
        48.900




 135752111.668 5                  25832763.787
        32.500
 102123990.140 8  79429800.961 8  19117822.555    19117823.299    19117829.036
        52.300          48.500
 125691575.800 6                  23918297.644
        37.600
 107067922.093 6  83429552.31345  20374348.730    20374348.4944   20374348.8214
        41.600          33.2004


 123409576.486 6  96163306.91145  23484054.395    23484053.8104   23484060.8014
        40.700          33.9004
 198898613.695 7                  37849156.306
        42.100


 113103699.236 6                  21180693.119    21180692.385
        41.400
 202055933.777 7                  38449973.400
        44.500
 115807619.311 7  90072653.708 6  21671829.159    21671830.349    21671836.477
        44.200          38.900
 119696687.363 6  93097068.747 6  22368098.650    22368098.748    22368104.885
        36.400          37.500
 109727903.913 7                  20512459.075    20512458.636
        43.800
 134534470.199 6                  25601058.272
        37.400
 102450380.969 8  79683492.563 7  19192363.634    19192363.989    19192366.791
        50.800          46.300
 25  1  1 23 24 15.0000000  0 25E31G30G06G19E10G17E33E24G03E03E25R12
                                E12G14S35G24S31E05R13S33R11R21R23E11
                                R22




 116244539.585 6  90580168.27546  22120599.056    22120598.8464   22120601.6814
        41.100          36.4004
 108792600.290 8  84773443.61946  20702516.578    20702515.2824   20702516.0374
        49.500          41.4004
 126935683.229 8                  24155028.538
        48.000
 108126859.237 8  84254719.31047  20575852.877    20575852.3864   20575852.3224
        48.900          45.4004


 124303858.647 8                  23654235.839
        48.400
 123367442.687 5                  23476031.963
        32.600
 147830210.316 5                  28131153.442
        33.700
 135719486.665 5                  25826561.957
        32.400
 102117839.445 8  79425017.062 8  19116670.845    19116670.850    19116677.777
        50.700          49.100
 125683906.558 5                  23916837.785
        32.900
 107083765.391 7  83441897.74445  20377363.113    20377362.8724   20377363.8394
        43.900          33.8004


 123378504.591 6  96139095.07145  23478140.650    23478140.1054   23478146.6384
        41.800          31.8004
 198898621.361 6                  37849158.756
        41.900


 113052997.706 7                  21171198.567    21171198.133
        42.600
 202055930.491 7                  38449977.134
        44.700
 115858928.586 6  90112560.935 6  21681431.295    21681430.834    21681439.863
        40.900          40.400
 119754479.821 5  93142018.487 6  22378896.046    22378899.188    22378906.554
        34.700          37.300
 109687468.675 7                  20504901.041    20504902.779
        47.500
 134491749.849 6                  25592927.266
        37.700
 102462551.067 8  79692958.193 7  19194642.897    19194642.938    19194645.543
        50.200          45.200
 25  1  1 23 24 30.0000000  0 26E31G02G30G06G19E10G17E33E24G03E03E25
                                R12E12G14S35G24S31E05R13S33R11R21R23
                                E11R22


 127598388.139 5                  24281162.113
        33.200


 116196608.125 7  90542819.14246  22111476.787    22111476.5914   22111480.6494
        42.700          38.8004
 108773379.440 7  84758466.35746  20698858.523    20698857.2494   20698858.0714
        47.800          39.4004
 126908458.661 8                  24149848.001
        48.700
 108138567.259 8  84263842.45347  20578080.618    20578080.1224   20578080.7284
        48.500          45.7004


 124298255.919 7                  23653169.880
        47.800
 123343358.555 5  96111732.78842  23471452.337    23471452.3414   23471465.9644
        31.500          17.5004
 147849215.564 5                  28134761.251
        33.900
 135686871.028 4                  25820354.371
        29.900
 102111850.936 8  79420359.304 8  19115550.945    19115551.523    19115557.260
        52.200          49.500
 125676345.593 4                  23915399.678
        29.500
 107099707.363 7  83454320.06745  20380396.342    20380396.1284   20380397.8714
        45.100          34.7004


 123347557.909 7  96114980.81545  23472251.974    23472251.4744   23472255.3294
        43.000          30.4004
 198898630.015 7                  37849163.116
        42.300


 113002367.424 6                  21161715.659    21161715.311
        41.100
 202055929.907 7                  38449976.101
        44.500
 115910335.712 6  90152544.263 7  21691050.352    21691053.488    21691061.766
        41.300          42.500
                  93186995.054 5                                  22389712.110
                        35.100
 109647168.652 7                  20497365.096    20497366.208
        45.600
 134449080.407 6                  25584807.117
        36.500
 102474883.245 8  79702549.896 7  19196953.203    19196953.810    19196955.673
        50.600          44.500
 25  1  1 23 24 45.0000000  0 27E31G02G30G06G13G19E10G17E33E24G03E03
                                E25R12E12G14S35G24S31E05R13S33R11R21
                                R23E11R22
 132473123.865 5                  25208797.868
        34.500
 127647431.178 5                  24290495.900
        32.400


 116148756.775 7  90505532.42946  22102371.023    22102370.8544   22102375.5674
        45.000          41.0004
 131290921.073 5                  24983828.437
        34.400
 108754228.512 7  84743543.57946  20695213.985    20695212.7164   20695212.9254
        47.400          37.5004
 126881320.887 8                  24144684.401
        49.400
 108150329.395 8  84273007.76747  20580319.330    20580318.8304   20580319.4244
        48.600          46.1004


 124292701.327 7                  23652112.624
        47.000
 123319383.325 5  96093050.93242  23466890.541    23466890.1884   23466901.3234
        33.900          15.3004
 147868295.778 5                  28138394.707
        35.300


 102106020.881 8  79415824.829 8  19114459.141    19114459.718    19114465.643
        51.500          48.800
 125668888.943 5                  23913979.526
        32.600
 107115744.103 7  83466816.23246  20383447.859    20383447.6584   20383450.2234
        46.400          36.2004


 123316732.780 7  96090961.26144  23466385.292    23466384.7924   23466387.7864
        42.200          29.1004
 198898635.860 7                  37849162.155
        42.200


 112951804.736 6                  21152245.837    21152245.675
        40.700
 202055924.692 7                  38449973.064
        44.200
 115961836.547 7  90192600.442 7  21700691.596    21700692.419    21700698.180
        42.400          43.200


 109607000.306 7                  20489852.610    20489853.140
        43.500
 134406458.143 5                  25576694.790
        33.300
 102487373.158 8  79712264.264 7  19199291.703    19199291.740    19199295.499
        49.300          45.200
 25  1  1 23 25  0.0000000  0 26E31G02G30G06G19E10G17E33E24G03E03E25
                                R12E12G14S35G24S31E05R13S33R11R21R23
                                E11R22
 132498987.600 5                  25213717.611
        34.800
 127696510.893 5                  24299835.266
        32.700


 116100990.333 7  90468311.88647  22093281.701    22093281.5724   22093286.8694
        47.000          43.0004
 108735151.951 7  84728678.75546  20691584.059    20691582.7814   20691581.9594
        47.000          36.8004
 126854274.509 8                  24139537.544
        49.000
 108162150.023 8  84282218.65947  20582568.638    20582568.1294   20582568.8554
        48.300          46.2004


 124287199.411 7                  23651065.582
        46.600
 123295521.886 5  96074457.79742  23462347.840    23462347.6574   23462357.4534
        34.100          15.3004
 147887455.142 5                  28142038.248
        32.400


 102100353.775 8  79411417.104 7  19113397.648    19113398.285    19113403.691
        50.300          47.100
 125661541.148 6                  23912582.251
        36.700
 107131880.134 7  83479389.77046  20386519.176    20386518.9894   20386521.2174
        46.800          36.5004


 123286033.933 6  96067040.05744  23460543.441    23460542.9634   23460544.2074
        39.000          26.7004
 198898643.508 7                  37849163.514
        42.400


 112901314.888 6                  21142791.727    21142790.385
        37.900
 202055922.663 7                  38449971.651
        44.300
 116013435.227 7  90232732.690 7  21710348.733    21710349.416    21710352.377
        46.300          43.300


 109566968.122 7                  20482369.175    20482369.021
        42.300
 134363887.767 4                  25568593.964
        28.200
 102500025.115 8  79722104.690 7  19201661.599    19201661.146    19201666.308
        48.400          46.100
 25  1  1 23 25 15.0000000  0 28E31G11G02G30G06G13G19E10G17E33E24G03
                                E03E25R12E12G14S35G24S31E05R13S33R11
                                R21R23E11R22
 132524895.658 5                  25218647.145
        35.500
 133973432.341 4                  25494297.585
        29.300
 127745624.133 4                  24309179.711
        29.600


 116053306.228 7  90431155.52547  22084207.503    22084207.4014   22084213.4554
        46.700          42.8004
 131373845.076 4                  24999572.046
        27.600
 108716146.836 8  84713869.60746  20687967.599    20687966.3164   20687964.8904
        48.500          37.8004
 126827316.827 7                  24134407.037
        47.900
 108174026.227 8  84291472.85147  20584828.477    20584827.9724   20584828.8184
        48.500          46.1004


 124281747.464 7                  23650028.004
        45.900
 123271771.664 5  96055951.20642  23457830.687    23457830.6654   23457836.3114
        32.500          14.5004
 147906690.621 5                  28145701.890
        32.600


 102094847.280 8  79407134.291 7  19112366.965    19112367.102    19112371.832
        49.000          45.100
 125654299.350 6                  23911204.411
        37.000
 107148112.632 7  83492038.48346  20389607.593    20389607.4064   20389610.1474
        46.800          36.2004


 123255458.789 6  96043215.25544  23454725.607    23454725.1474   23454725.0844
        37.700          26.7004
 198898650.509 7                  37849165.361
        42.500


 112850895.012 6                  21133351.299    21133350.199
        40.800
 202055919.637 7                  38449972.649
        44.000
 116065128.576 7  90272938.576 7  21720019.706    21720020.427    21720026.214
        43.900          42.600
                                                  22422171.746

 109527069.709 7                  20474910.428    20474911.361
        42.100
 134321366.486 4                  25560502.894
        28.400
 102512835.922 8  79732068.671 7  19204062.548    19204061.709    19204066.510
        48.800          46.900
 25  1  1 23 25 30.0000000  0 28E31G11G02G30G06G13G19E10G17E33E24G03
                                E03E25R12E12G14S35G24S31E05R13S33R11
                                R21R23E11R22
 132550847.209 5                  25223587.543
        35.700
 133916836.501 4                  25483528.313
        27.300
 127794769.793 4                  24318539.304
        29.500


 116005704.113 7  90394063.06646  22075149.209    22075149.0984   22075154.4804
        45.900          41.9004
 131415309.102 4                  25007463.118
        26.000
 108697212.557 8  84699115.65446  20684363.885    20684362.6294   20684362.1444
        48.200          38.5004
 126800447.254 7                  24129293.434
        47.600
 108185957.305 8  84300769.81547  20587098.655    20587098.1504   20587099.3384
        48.400          46.5004


 124276344.899 7                  23649000.501
        45.700
 123248132.295 5  96037530.89342  23453336.836    23453336.8804   23453337.0234
        34.600          14.7004
 147926001.406 4                  28149370.441
        28.900


 102089500.766 8  79402975.949 7  19111365.584    19111365.914    19111370.305
        48.600          43.700
 125647162.868 6                  23909848.017
        38.000
 107164440.986 7  83504761.89346  20392714.828    20392714.6364   20392717.5494
        46.800          36.9004


 123225006.843 6  96019486.44544  23448930.799    23448930.3264   23448931.5964
        39.700          28.4004
 198898655.173 7                  37849165.871
        42.200


 112800545.215 6                  21123921.613    21123921.282
        41.300
 202055914.101 7                  38449972.501
        44.200
 116116915.677 6  90313217.430 6  21729710.419    21729708.179    21729716.632
        37.200          40.600
 120043927.680 6  93367212.769 5  22433002.690    22433001.864    22433004.164
        37.000          34.400
 109487304.248 7                  20467477.409    20467477.762
        42.100
 134278893.935 5                  25552420.902
        33.300
 102525804.621 8  79742155.462 7  19206491.416    19206491.137    19206496.180
        48.900          47.700
 25  1  1 23 25 45.0000000  0 27E31G11G02G30G06G19E10G17E33E24G03E03
                                E25R12E12G14S35G24S31E05R13S33R11R21
                                R23E11R22
 132576847.175 5                  25228534.639
        30.100
 133860246.038 4                  25472762.302
        26.500
 127843952.717 5                  24327896.161
        30.600
 123129614.682 5                  23430784.506
        33.800
 115958189.112 7  90357038.49946  22066107.856    22066107.7634   22066111.3394
        44.100          41.3004
 108678354.000 7  84684420.69646  20680775.419    20680774.1764   20680774.4544
        46.000          38.4004
 126773670.726 7                  24124197.554
        47.800
 108197947.857 7  84310113.12247  20589380.344    20589379.8624   20589381.6414
        47.800          46.4004


 124270996.675 7                  23647982.713
        46.000
 123224608.812 5  96019201.00342  23448851.029    23448851.1184   23448861.7384
        30.000          12.2004




 102084319.441 8  79398946.050 7  19110396.663    19110397.459    19110400.960
        48.900          44.300
 125640136.465 6                  23908510.382
        39.000
 107180870.039 7  83517563.77246  20395841.801    20395841.6094   20395844.4794
        47.800          37.8004


 123194683.218 6  95995857.63944  23443159.987    23443159.5224   23443161.4864
        40.400          28.9004
 198898663.209 7                  37849170.333
        42.900


 112750270.710 6                  21114508.200    21114506.719
        40.700
 202055912.212 7                  38449970.650
        44.200
 116168801.226 6  90353572.851 6  21739417.592    21739417.682    21739427.024
        38.800          40.200
 120101912.948 7  93412312.436 5  22443836.882    22443836.757    22443829.175
        42.000          34.600
 109447676.990 6                  20460065.613    20460066.397
        39.300
 134236475.101 6                  25544347.848
        36.900
 102538935.813 8  79752368.640 7  19208951.963    19208951.871    19208955.568
        50.100          47.800
 25  1  1 23 26  0.0000000  0 27E31G11G02G30G06G19E10G17E33E24G03E03
                                E25R12E12G14S35G24S31E05R13S33R11R21
                                R23E11R22


 133803656.683 4                  25461992.557
        28.300
 127893167.745 5                  24337269.100
        30.300
 123183741.430 5                  23441090.290
        31.600
 115910757.023 7  90320078.52046  22057081.056    22057080.9584   22057084.0904
        44.300          40.3004
 108659566.441 7  84669781.05946  20677200.957    20677199.7104   20677200.2824
        45.400          38.0004
 126746982.905 8                  24119119.325
        48.300
 108209993.185 8  84319499.11747  20591672.682    20591672.2134   20591674.0004
        48.000          45.1004
 136799481.685 5                  26032075.101
        33.600
 124265698.394 7                  23646974.321
        46.300




 135491304.156 5                  25783134.193
        35.100
 102079299.023 7  79395041.315 7  19109455.821    19109456.845    19109462.327
        47.800          45.400
 125633215.747 6                  23907193.395
        40.500
 107197395.372 7  83530440.66646  20398986.846    20398986.6594   20398989.5814
        47.500          37.6004


 123164483.621 6  95972325.53044  23437413.081    23437412.6524   23437412.2404
        41.000          28.3004
 198898670.240 7                  37849168.786
        43.000


 112700067.558 6                  21105103.704    21105104.851
        38.500
 202055908.735 7                  38449970.457
        44.300
 116220780.442 6  90394001.036 6  21749156.377    21749150.454    21749155.692
        40.800          40.200
 120159927.455 7  93457434.860 5  22454674.980    22454676.100    22454672.337
        43.700          34.500
 109408183.419 4                  20452683.131    20452680.309
        29.900
 134194105.662 6                  25536285.641
        37.600
 102552224.618 8  79762704.409 8  19211441.610    19211441.971    19211444.942
        50.500          48.200
 25  1  1 23 26 15.0000000  0 27E31G11G02G30G06G19E10G17E33E24G03E03
                                E25R12E12G14S35G24S31E05R13S33R11R21
                                R23E11R22


 133747073.579 5                  25451221.437
        30.700
 127942419.634 4                  24346640.593
        29.400
 123237902.690 4                  23451405.387
        25.800
 115863413.006 7  90283187.17246  22048070.439    22048070.3324   22048074.9644
        43.300          39.9004
 108640854.920 7  84655200.65946  20673639.926    20673638.6664   20673640.2584
        45.800          37.8004
 126720388.728 8                  24114058.769
        49.700
 108222098.074 7  84328931.53847  20593975.653    20593975.1844   20593976.3944
        47.800          43.5004
 136833668.272 5                  26038578.547
        35.300
 124260455.008 7                  23645976.348
        45.800




 135458750.288 6                  25776940.346
        38.400
 102074444.597 7  79391265.669 7  19108546.967    19108547.419    19108554.279
        46.500          45.900
 125626405.515 6                  23905897.457
        40.700
 107214021.861 7  83543396.36446  20402151.102    20402150.9244   20402153.1244
        47.000          36.0004


 123134413.207 6  95948894.11044  23431690.567    23431690.1384   23431687.0344
        41.200          27.2004
 198898680.394 7                  37849169.332
        43.000


                                                  21095709.744

 202055908.759 7                  38449970.001
        44.600
 116272857.788 7  90434505.673 6  21758895.738    21758896.664    21758903.731
        42.700          39.300
 120217975.652 7  93502583.493 5  22465517.650    22465519.499    22465520.229
        42.600          33.800
 109368829.019 7                  20445337.694    20445335.777
        42.000
 134151790.691 6                  25528234.591
        38.500
 102565675.702 8  79773166.372 8  19213959.722    19213960.160    19213965.207
        48.500          48.400
 25  1  1 23 26 30.0000000  0 26E31G11G02G30G06G19E10G17E33E24G03E03
                                E25R12E12G14S35G24S31E05S33R11R21R23
                                E11R22


 133690491.680 5                  25440447.498
        32.200
 127991702.754 5                  24356012.523
        31.700
 123292092.845 5                  23461733.125
        32.000
 115816152.034 6  90246360.51446  22039077.068    22039076.9924   22039082.3254
        41.500          38.9004
 108622213.932 7  84640675.21746  20670092.466    20670091.2194   20670093.3984
        46.600          38.7004
 126693883.001 8                  24109014.997
        49.700
 108234257.068 8  84338406.14247  20596289.344    20596288.8714   20596288.8624
        48.300          42.3004
 136867915.040 5                  26045095.617
        35.900
 124255261.345 7                  23644987.438
        44.900




 135426203.565 6                  25770746.515
        38.600
 102069750.974 8  79387615.063 7  19107668.891    19107669.314    19107674.800
        48.200          45.400
 125619700.420 6                  23904621.388
        40.500
 107230744.220 7  83556426.75345  20405332.833    20405332.6504   20405334.1614
        47.800          33.7004


 123104466.830 7  95925559.33444  23425992.271    23425991.8474   23425987.5494
        42.000          27.0004
 198898688.988 7                  37849171.424
        42.700


 202055907.356 7                  38449971.808
        44.400
 116325027.844 6  90475082.302 5  21768658.320    21768658.127    21768661.361
        40.300          35.700
 120276051.642 6  93547753.772 5  22476366.715    22476368.205    22476374.364
        39.300          32.800
 109329607.888 6                  20437997.507    20437997.442
        41.900
 134109525.057 6                  25520192.801
        37.800
 102579283.378 8  79783750.123 8  19216510.223    19216509.947    19216513.835
        48.800          48.300
 25  1  1 23 26 45.0000000  0 27E31G11G02G30G06G19E10G17E33E24G03E03
                                E25R12E12G14S35G24S31E05R13S33R11R21
                                R23E11R22


 133633908.995 5                  25429680.491
        31.600
 128041014.536 5                  24365398.664
        31.900
 123346309.096 5                  23472014.011
        33.100
 115768972.144 6  90209597.03746  22030099.342    22030099.3024   22030104.6894
        41.700          38.9004
 108603641.284 7  84626203.03846  20666558.167    20666556.9384   20666559.4174
        46.700          39.3004
 126667463.611 8                  24103988.071
        50.100
 108246468.105 8  84347921.29747  20598612.930    20598612.4794   20598612.3354
        48.300          42.3004
 136902219.441 6                  26051622.819
        36.200
 124250115.247 7                  23644008.067
        44.900




 135393661.844 6                  25764555.192
        38.300
 102065216.132 8  79384087.930 7  19106819.605    19106820.242    19106824.865
        49.000          45.200
 125613098.256 6                  23903364.867
        41.500
 107247560.223 7  83569530.10045  20408532.423    20408532.2314   20408532.8824
        47.500          32.5004


 123074642.573 6  95902319.69644  23420316.172    23420315.7664   23420313.4934
        40.900          27.1004
 198898693.593 7                  37849171.527
        42.600


 112549933.172 6                  21076983.766    21076985.075
        37.400
 202055901.643 7                  38449970.493
        44.600
 116377287.925 6  90515728.957 5  21778437.761    21778436.287    21778439.655
        37.000          33.200
 120334152.728 5  93592943.579 4  22487225.428    22487224.057    22487233.901
        33.100          29.400
 109290518.577 7                  20430691.504    20430692.536
        42.500
 134067306.727 6                  25512159.126
        37.500
 102593045.043 8  79794453.664 7  19219088.861    19219088.642    19219091.815
        48.800          47.700
 25  1  1 23 27  0.0000000  0 27E31G11G02G30G06G19E10G17E33E24G03E03
                                E25R12E12G14S35G24S31E05R13S33R11R21
                                R23E11R22


 133577330.873 5                  25418915.383
        30.200
 128090359.831 5                  24374793.394
        30.900
 123400556.021 4                  23482342.316
        26.900
 115721878.727 7  90172900.93146  22021138.242    22021138.1844   22021142.4444
        43.800          39.4004
 108585142.168 7  84611788.16746  20663038.202    20663036.9734   20663039.1504
        45.900          38.7004
 126641135.774 8                  24098977.798
        49.300
 108258735.656 8  84357480.49247  20600947.935    20600947.4624   20600947.8194
        48.300          43.4004
 136936586.342 5                  26058161.482
        35.100
 124245021.897 7                  23643038.717
        44.300




 135361130.329 6                  25758365.354
        39.800
 102060845.380 8  79380688.453 7  19106002.718    19106001.568    19106007.292
        48.900          46.400
 125606604.110 7                  23902129.038
        42.500
 107264474.991 7  83582710.40245  20411750.808    20411750.6124   20411751.3374
        47.600          32.6004


 123044945.684 7  95879179.28644  23414665.992    23414665.6214   23414664.8194
        42.100          28.7004
 198898698.859 7                  37849173.544
        42.900


 112500023.380 6                  21067638.081    21067635.042
        37.100
 202055896.837 7                  38449969.335
        44.500
 116429642.859 5  90556449.491 5  21788231.233    21788228.661    21788236.944
        32.000          33.500


 109251566.166 7                  20423407.000    20423409.493
        44.300
 134025140.955 6                  25504134.644
        36.400
 102606965.557 8  79805280.756 7  19221697.082    19221696.752    19221699.397
        48.300          47.500
 25  1  1 23 27 15.0000000  0 26E31G11G02G06G19E10G17E33E24G03E03E25
                                R12E12G14S35G24S31E05R13S33R11R21R23
                                E11R22


 133520758.485 5                  25408147.470
        30.400
 128139739.340 4                  24384199.028
        26.800
 115674872.927 7  90136273.11646  22012192.898    22012192.8274   22012196.6954
        44.000          40.4004
 108566717.272 7  84597431.12946  20659532.581    20659531.3564   20659532.1684
        46.300          38.1004
 126614900.461 8                  24093985.339
        49.400
 108271060.619 8  84367084.41147  20603293.797    20603293.3324   20603294.4644
        48.600          44.3004
 136971016.382 5                  26064714.501
        34.000
 124239982.300 7                  23642080.566
        44.300




 135328609.981 6                  25752176.938
        40.900
 102056639.873 8  79377417.519 7  19105214.513    19105214.594    19105220.742
        50.000          47.800
 125600218.786 7                  23900913.833
        43.100
 107281489.430 8  83595968.38045  20414988.756    20414988.5464   20414989.7894
        48.100          34.2004


 123015377.341 6  95856139.01545  23409041.411    23409041.0494   23409040.5024
        41.500          30.7004
 198898706.632 7                  37849177.479
        43.100


 112450190.511 6                  21058306.720    21058305.422
        40.900
 202055893.932 7                  38449966.357
        44.500
 116482093.583 6  90597244.385 5  21798053.145    21798051.207    21798051.042
        39.700          32.300


 109212751.685 7                  20416150.359    20416151.272
        42.300
 133983028.790 6                  25496120.513
        36.200
 102621045.572 7  79816231.893 7  19224332.874    19224333.699    19224337.109
        45.400          47.300
 25  1  1 23 27 30.0000000  0 25E31G11G06G19E10G17E33E24G03E03E25R12
                                E12G14S35G24S31E05R13S33R11R21R23E11
                                R22
 132760134.256 5                  25263413.050
        35.700
 133464192.890 4                  25397381.507
        28.500
 115627955.902 7  90099714.51646  22003265.619    22003265.5394   22003268.7344
        43.000          40.4004
 108548367.494 7  84583132.61746  20656040.367    20656039.1424   20656038.9864
        47.500          37.9004
 126588758.646 8                  24089010.235
        48.900
 108283443.776 8  84376733.66847  20605650.058    20605649.5854   20605651.3984
        48.600          45.0004
 137005510.162 5                  26071278.916
        34.600
 124234997.374 7                  23641132.280
        45.300
 123063073.571 5  95893368.08941  23418123.618    23418123.7964   23418145.9304
        32.000           9.0004


 135296101.761 7                  25745990.063
        43.000
 102052600.664 8  79374275.928 8  19104457.103    19104457.437    19104464.278
        48.900          48.100
 125593943.130 7                  23899719.423
        43.500
 107298604.435 8  83609304.74045  20418245.387    20418245.1684   20418247.3884
        48.500          35.2004


 122985938.660 6  95833199.75445  23403438.269    23403437.9434   23403440.1484
        38.500          31.2004
 198898716.285 7                  37849180.627
        43.100


 112400435.587 7                  21048990.270    21048989.391
        42.600
 202055893.390 7                  38449968.973
        44.400
 116534640.262 6  90638114.178 5  21807880.889    21807883.357    21807883.899
        39.100          30.000


 109174076.493 6                  20408922.469    20408920.533
        41.300
 133940971.327 5                  25488116.029
        32.700
 102635285.567 7  79827307.444 7  19227001.416    19226999.770    19227004.642
        42.400          47.900
 25  1  1 23 27 45.0000000  0 26E31G11G30G06G19E10G17E33E24G03E03E25
                                R12E12G14S35G24S31E05R13S33R11R21R23
                                E11R22
 132786496.620 6                  25268427.711
        36.600
 133407629.885 4                  25386619.227
        25.600


 115581123.282 7  90063221.68246  21994353.491    21994353.4334   21994356.9024
        42.400          39.8004
 108530088.115 8  84568888.95846  20652561.899    20652560.6744   20652559.4154
        48.500          37.4004
 126562705.792 8                  24084052.392
        48.500
 108295880.204 8  84386424.42647  20608017.450    20608016.9814   20608017.7054
        49.100          45.4004
 137040062.849 5                  26077853.424
        35.400
 124230062.596 7                  23640193.182
        46.400
 123040464.641 4  95875751.0744   23413819.323    23413819.5514   23413846.3134
        27.300           5.1004


 135263601.093 7                  25739805.040
        43.600
 102048723.299 8  79371260.201 7  19103732.024    19103731.853    19103738.668
        49.600          47.700
 125587772.516 7                  23898545.621
        44.300
 107315815.375 8  83622715.87345  20421519.996    20421519.7644   20421522.7634
        48.200          35.4004


 122956625.129 5  95810358.05645  23397858.052    23397857.7714   23397862.8234
        34.500          31.7004
 198898724.396 7                  37849178.566
        42.900


 112350754.519 6                  21039685.278    21039684.709
        40.500
 202055890.948 7                  38449968.494
        44.800
 116587278.290 5                  21817734.657    21817734.887
        33.300
                  93773871.047 6                                  22530717.787
                        37.500
 109135535.568 7                  20401716.712    20401716.266
        42.500
 133898964.078 4                  25480121.548
        29.200
 102649680.523 6  79838503.567 8  19229699.411    19229696.699    19229701.983
        41.800          49.000
 25  1  1 23 28  0.0000000  0 26E31G11G30G06G19E10G17E33E24G03E03E25
                                R12E12G14S35G24S31E05R13S33R11R21R23
                                E11R22
 132812903.583 5                  25273447.241
        34.400
 133351070.669 4                  25375852.532
        27.100


 115534376.499 6  90026795.70646  21985457.792    21985457.7124   21985461.9104
        38.000          38.3004
 108511880.269 8  84554701.04846  20649097.148    20649095.9464   20649094.0594
        49.100          37.9004
 126536743.104 8                  24079112.187
        49.400
 108308371.109 8  84396157.61547  20610394.152    20610393.6744   20610393.9344
        49.600          45.7004
 137074675.360 6                  26084440.678
        36.500
 124225179.165 7                  23639263.688
        46.200
 123017970.846 5  95858223.66141  23409542.297    23409542.4224   23409561.9004
        32.000           8.0004


 135231109.215 7                  25733622.181
        42.600
 102045008.942 8  79368371.273 7  19103037.174    19103037.625    19103042.776
        50.600          47.300
 125581707.963 7                  23897391.342
        44.800
 107333123.380 7  83636202.64545  20424812.893    20424812.6524   20424816.2744
        46.600          35.0004


 122927438.085 5  95787614.90145  23392304.619    23392304.4674   23392308.5534
        35.900          32.5004
 198898731.583 7                  37849180.104
        42.900


 112301148.829 6                  21030394.682    21030393.858
        37.500
 202055888.431 7                  38449967.216
        44.600


 120624613.116 6  93819172.663 6  22541592.123    22541596.161    22541604.252
        38.300          39.200
 109097130.615 7                  20394537.261    20394537.469
        44.300
 133857008.270 4                  25472139.021
        29.500
 102664231.296 7  79849820.862 8  19232422.202    19232422.690    19232428.546
        43.900          49.300
 25  1  1 23 28 15.0000000  0 27E31G11G02G30G06G19E10G17E33E24G03E03
                                E25R12E12G14S35G24S31E05R13S33R11R21
                                R23E11R22
 132839357.664 5                  25278484.966
        31.200
 133294518.202 4                  25365089.827
        27.700
 128337617.314 5                  24421837.792
        33.100


 115487718.405 6  89990438.83546  21976578.179    21976578.0594   21976584.3844
        40.200          37.7004
 108493746.493 8  84540570.87046  20645646.011    20645644.8134   20645643.2144
        50.000          38.4004
 126510873.290 8                  24074189.235
        50.100
 108320918.594 8  84405934.89147  20612782.291    20612781.8094   20612780.8914
        50.500          46.6004
 137109349.990 6                  26091040.625
        36.400
 124220349.804 7                  23638344.322
        46.100
 122995594.736 5  95840787.96942  23405284.154    23405284.1944   23405300.6984
        31.300          12.6004
 148143439.353 5                  28190759.209
        33.800
 135198628.787 6                  25727441.422
        41.600
 102041460.602 8  79365611.470 7  19102373.631    19102374.032    19102378.673
        51.900          46.700
 125575752.075 7                  23896257.871
        45.200
 107350531.070 7  83649767.09045  20428125.704    20428125.4634   20428128.1184
        43.800          34.5004


 122898380.395 6  95764972.56545  23386775.759    23386775.6214   23386778.5924
        39.800          33.5004
 198898740.705 7                  37849182.045
        42.700


 112251621.498 5                  21021118.872    21021120.088
        34.300
 202055887.656 7                  38449966.715
        43.800
                  90761160.313 6                                  21837495.194
                        38.300
 120682886.762 6  93864496.605 6  22552499.789    22552498.049    22552493.999
        39.000          38.700
 109058864.325 6                  20387384.443    20387383.325
        41.400
 133815106.662 5                  25464163.202
        31.300
 102678940.120 7  79861261.102 8  19235177.548    19235179.392    19235183.691
        45.200          49.300
 25  1  1 23 28 30.0000000  0 27E31G11G02G30G06G19E10G17E33E24G03E03
                                E25R12E12G14S35G24S31E05R13S33R11R21
                                R23E11R22
 132865853.753 5                  25283526.962
        33.200
 133237967.722 4                  25354329.304
        27.800
 128387151.692 4                  24431254.054
        26.400


 115441144.150 6  89954147.28546  21967714.009    21967713.8574   21967722.8094
        40.400          38.3004
 108475681.667 8  84526494.42946  20642208.421    20642207.2194   20642205.6414
        50.200          38.8004
 126485091.328 8                  24069283.199
        49.700
 108333517.544 8  84415752.25447  20615179.803    20615179.3254   20615178.1054
        50.700          47.4004
 137144081.416 5                  26097654.078
        34.000
 124215569.451 7                  23637434.437
        46.000
 122973331.696 5  95823440.35342  23401048.589    23401048.5934   23401063.2414
        32.700          13.4004
 148163659.982 5                  28194607.443
        34.200
 135166154.814 6                  25721262.653
        41.600
 102038073.173 8  79362976.807 7  19101738.743    19101739.303    19101744.101
        51.800          46.000
 125569899.759 7                  23895144.318
        45.400
 107368033.349 7  83663405.24745  20431456.224    20431455.9924   20431458.1804
        44.400          33.9004


 122869447.195 6  95742427.22245  23381269.399    23381269.1944   23381273.0904
        39.800          34.5004
 198898746.563 7                  37849183.404
        42.300


 112202168.131 4                  21011870.835
        27.100
 202055882.733 7                  38449965.498
        44.100
                  90802315.041 6                  21847395.047    21847396.005
                        38.100
 120741183.527 6  93909838.555 6  22563385.087    22563392.102    22563387.439
        37.300          36.000
 109020731.462 7                  20380256.101    20380255.559
        44.100
 133773254.358 5                  25456200.364
        30.500
 102693801.587 7  79872820.060 8  19237960.947    19237960.656    19237967.603
        43.800          49.000
 25  1  1 23 28 45.0000000  0 25E31G11G30G06G19E10G17E33E24G03E03E25
                                R12E12G14S35G24S31E05S33R11R21R23E11
                                R22
 132892395.714 5                  25288579.391
        34.000
 133181423.054 4                  25343567.658
        26.000


 115394657.851 7  89917924.27846  21958868.839    21958868.6704   21958876.1734
        42.200          38.1004
 108457689.566 8  84512474.64646  20638784.652    20638783.4504   20638782.0154
        49.200          38.8004
 126459401.130 8                  24064394.669
        49.600
 108346171.657 8  84425612.59147  20617587.465    20617586.9744   20617586.1994
        50.600          47.8004
 137178873.185 4                  26104268.244
        28.100
 124210842.048 7                  23636534.267
        45.300
 122951185.760 5  95806183.93042  23396832.295    23396832.2734   23396847.4004
        31.400          13.8004
 148183955.554 5                  28198468.252
        30.700
 135133691.180 7                  25715085.396
        42.500
 102034850.791 8  79360470.540 7  19101135.499    19101135.889    19101139.600
        52.000          44.700
 125564154.736 7                  23894050.818
        45.000
 107385634.033 7  83677120.09645  20434805.253    20434804.9724   20434807.2424
        43.600          34.5004


 122840642.469 6  95719981.97645  23375787.749    23375787.4954   23375792.3344
        39.500          34.8004
 198898752.636 7                  37849183.936
        42.400


 202055878.710 7                  38449963.473
        44.200
 116799488.366 6  90843541.584 6  21857283.880    21857312.932    21857317.096
        36.800          39.200
 120799506.771 4  93955201.351 5  22574274.461    22574269.704    22574288.048
        28.500          34.400
 108982736.162 7                  20373152.712    20373152.820
        44.900
 133731455.365 5                  25448247.395
        34.700
 102708819.184 7  79884500.433 8  19240775.012    19240775.426    19240781.470
        45.300          49.400
 25  1  1 23 29  0.0000000  0 26E31G11G30G06G19E10G17E33E24G03E03E25
                                R12E12G14S35G24S31E05R13S33R11R21R23
                                E11R22
 132918983.647 6                  25293638.431
        36.000




 115348259.903 6  89881770.12346  21950039.717    21950039.5654   21950044.8844
        40.100          36.6004
 108439770.341 7  84498511.63746  20635375.422    20635374.2244   20635372.2874
        47.300          38.9004
 126433802.942 8                  24059523.832
        49.400
 108358880.963 8  84435515.93547  20620005.939    20620005.4574   20620005.1374
        49.900          47.8004
 137213725.236 4                  26110900.920
        24.800
 124206167.821 7                  23635645.314
        44.100
 122929157.435 5  95789019.18042  23392642.821    23392642.7814   23392652.8174
        34.600          17.4004


 135101238.116 7                  25708908.303
        42.300
 102031793.772 8  79358092.854 7  19100563.895    19100564.250    19100567.519
        51.700          44.300
 125558517.171 7                  23892978.318
        44.600
 107403333.299 7  83690911.76845  20438174.976    20438174.7224   20438175.2554
        45.000          35.9004


 122811966.590 6  95697637.12945  23370330.356    23370330.1064   23370335.0674
        40.100          35.5004
 198898759.294 7                  37849185.161
        42.800


 112103495.766 5                  20993380.812    20993384.970
        35.700
 202055875.161 7                  38449964.859
        44.000
 116852586.402 6  90884839.964 6  21867252.473    21867245.103    21867252.085
        39.200          38.400
 120857856.535 6  94000584.442 4  22585179.139    22585181.746    22585189.958
        37.500          29.400
 108944878.984 7                  20366076.213    20366077.506
        45.300
 133689709.998 6                  25440303.032
        36.400
 102723992.726 7  79896302.098 8  19243619.996    19243620.067    19243623.396
        47.400          49.200
 25  1  1 23 29 15.0000000  0 26E31G11G30G06G19E10G17E33E24G03E03E25
                                R12E12G14S35G24S31E05R13S33R11R21R23
                                E11R22
 132945616.425 6                  25298705.308
        36.900




 115301949.424 6  89845684.12845  21941227.182    21941227.0574   21941230.8694
        38.500          35.2004
 108421922.751 8  84484604.45046  20631978.999    20631977.8064   20631976.5274
        48.300          39.4004
 126408295.689 8                  24054669.384
        49.300
 108371644.086 8  84445461.21947  20622434.394    20622433.9164   20622434.2074
        48.100          47.2004
 137248636.066 4                  26117590.237
        29.200
 124201545.710 7                  23634765.917
        45.200
 122907245.798 5  95771945.19742  23388470.775    23388470.7354   23388480.6234
        32.700          17.0004


 135068794.540 6                  25702733.660
        41.500
 102028901.050 8  79355843.001 7  19100021.490    19100021.637    19100026.766
        50.400          44.500
 125552985.861 7                  23891925.708
        44.500
 107421129.988 7  83704779.34946  20441560.754    20441560.4954   20441562.1874
        46.800          38.0004


 122783418.578 6  95675391.92345  23364898.175    23364897.9614   23364901.5674
        40.000          35.7004
 198898765.777 7                  37849190.550
        42.900


 112054276.678 5                  20984166.858    20984163.760
        30.200
 202055870.652 7                  38449962.368
        44.000
 116905775.327 6  90926209.023 6  21877196.738    21877201.663    21877205.563
        39.000          38.600
 120916231.197 7                  22596103.394    22596101.283
        43.100
 108907158.706 7                  20359023.731    20359025.695
        43.500
 133648017.241 6                  25432369.262
        37.300
 102739320.769 7  79908223.939 8  19246489.839    19246489.663    19246494.285
        45.800          48.800
 25  1  1 23 29 30.0000000  0 25E31G11G30G06G19E10G17E33E24G03E03E25
                                R12E12G14S35G24S31E05S33R11R21R23E11
                                R22
 132972293.880 6                  25303781.570
        39.000


 123944601.736 5                  23585872.957
        35.000
 115255726.585 6  89809666.43645  21932431.642    21932431.5084   21932435.6754
        36.700          34.6004
 108404146.582 8  84470752.91846  20628595.927    20628594.7294   20628594.3584
        49.100          39.8004
 126382879.362 8                  24049832.474
        48.900
 108384460.806 7  84455448.28247  20624874.110    20624873.6504   20624873.1954
        47.400          46.3004
 137283605.605 5                  26124223.657
        30.300
 124196975.716 7                  23633896.470
        46.000




 135036360.472 6                  25696561.678
        40.000
 102026172.927 8  79353721.161 7  19099509.814    19099509.609    19099517.528
        48.900          45.800
 125547560.631 7                  23890893.352
        44.300
 107439024.027 7  83718722.77046  20444966.222    20444965.9904   20444967.9544
        45.000          38.2004


 122754998.630 6  95653246.53046  23359492.275    23359492.1374   23359492.4834
        39.900          36.1004
 198898771.033 7                  37849189.069
        42.500


 202055866.057 7                  38449962.341
        44.300
 116959054.850 6  90967648.572 6  21887168.110    21887167.662    21887178.873
        38.400          40.900
 120974629.999 6                  22607011.313    22607012.395
        41.200
 108869575.476 6                  20351994.590    20351994.023
        38.900
 133606377.210 6                  25424446.333
        38.000
 102754802.893 7  79920265.582 8  19249391.486    19249391.241    19249394.432
        46.900          48.400
 25  1  1 23 29 45.0000000  0 26E31G11G30G06G13G19E10G17E33E24G03E03
                                E25R12E12G14S35G24S31E05S33R11R21R23
                                E11R22
 132999020.282 6                  25308866.493
        40.500


 123999157.909 6  96622803.90443  23596256.872    23596256.0854   23596274.8844
        36.500          19.4004
 115209595.906 6  89773720.53345  21923653.257    21923653.0124   21923658.7034
        36.200          35.2004
 132120144.925 5                  25141628.308
        34.500
 108386446.142 8  84456960.39646  20625227.319    20625226.1084   20625226.0864
        49.600          40.4004
 126357558.292 8                  24045013.727
        48.500
 108397335.313 7  84465480.36947  20627323.424    20627322.9554   20627322.9874
        46.300          45.9004
 137318637.875 4                  26130890.111
        26.000
 124192462.151 7                  23633037.448
        47.300




 135003940.220 6                  25690393.304
        37.200
 102023613.635 8  79351730.592 7  19099032.340    19099031.736    19099037.862
        49.000          45.400
 125542245.698 7                  23889881.932
        44.800
 107457019.686 7  83732745.37046  20448391.999    20448391.7454   20448392.6314
        44.100          36.8004


 122726711.137 6  95631204.35946  23354109.622    23354109.5464   23354109.0604
        40.300          36.2004
 198898779.825 7                  37849187.880
        42.900


 202055864.499 7                  38449962.087
        44.300
 117012428.812 6  91009161.587 6  21897156.375    21897155.147    21897165.938
        36.600          41.600
 121033056.935 5                  22617921.261    22617920.105
        34.800
 108832133.651 7                  20344997.781    20345000.817
        42.000
 133564794.219 6                  25416533.356
        38.900
 102770442.972 7  79932430.136 7  19252320.115    19252318.848    19252323.729
        44.800          47.800
 25  1  1 23 30  0.0000000  0 26E31G11G30G06G13G19E10G17E33E24G03E03
                                E25R12E12G14S35G24S31E05S33R11R21R23
                                E11R22
 133025789.003 6                  25313961.688
        41.100


 124053736.659 5  96665332.61942  23606644.043    23606643.7534   23606657.4104
        33.900          14.3004
 115163551.012 6  89737841.48846  21914892.270    21914892.0164   21914897.6054
        39.100          37.0004
 132161597.839 5                  25149509.579
        33.000
 108368814.895 8  84443221.79546  20621872.250    20621871.0394   20621870.5894
        49.800          41.1004
 126332325.963 8                  24040212.138
        48.600
 108410260.583 7  84475552.02447  20629782.654    20629782.1894   20629782.6264
        45.900          46.0004
 137353725.515 4                  26137563.706
        25.700
 124187998.518 7                  23632188.058
        47.000




 134971527.224 6                  25684225.190
        37.300
 102021216.651 7  79349866.305 7  19098582.158    19098581.591    19098589.099
        47.600          45.500
 125537034.475 7                  23888889.800
        43.600
 107475110.323 7  83746841.98045  20451834.211    20451833.9394   20451834.6184
        44.700          35.9004


 122698549.686 6  95609260.38846  23348750.304    23348750.2024   23348749.9284
        39.300          36.2004
 198898785.530 7                  37849189.517
        42.500


 202055860.120 7                  38449959.824
        44.100
 117065890.222 6  91050742.606 6  21907159.891    21907160.599    21907168.954
        38.500          40.800
 121091504.820 5                  22628843.219    22628840.625
        34.700
 108794826.683 6                  20338022.862    20338023.861
        41.900
 133523261.920 6                  25408629.608
        38.100
 102786234.019 7  79944712.107 7  19255277.966    19255277.180    19255281.609
        45.000          47.000
 25  1  1 23 30 15.0000000  0 26E31G11G02G30G06G19E10G17E33E24G03E03
                                E25R12E12G14S35G24S31E05S33R11R21R23
                                E11R22
 133052604.668 6                  25319064.957
        39.800


 128734776.229 5                  24497406.769
        35.300
 124108342.214 4  96707882.18942  23617045.961    23617045.6534   23617042.2704
        25.300          13.5004
 115117596.857 7  89702033.12746  21906146.798    21906146.5574   21906151.8174
        43.700          38.5004
 108351257.503 8  84429540.75246  20618531.200    20618529.9934   20618529.4244
        49.400          41.2004
 126307187.117 8                  24035428.353
        49.500
 108423241.488 7  84485667.01847  20632252.640    20632252.1674   20632253.0684
        45.600          45.3004


 124183589.517 7                  23631349.194
        47.100
 122820811.358 6                  23372019.647
        36.000


 134939126.291 6                  25678059.841
        40.800
 102018987.082 8  79348132.136 7  19098166.088    19098166.191    19098170.734
        49.500          45.300
 125531931.541 7                  23887918.901
        42.800
 107493300.666 7  83761016.26645  20455295.343    20455295.0934   20455295.8774
        45.300          35.3004


 122670519.206 6  95587418.45945  23343415.161    23343415.0094   23343415.9714
        38.100          35.1004
 198898793.194 7                  37849192.852
        42.800


 202055856.569 7                  38449959.439
        44.400
 117119443.595 6  91092395.124 7  21917187.860    21917187.641    21917192.042
        40.300          42.900
 121149978.345 6                  22639773.039    22639769.271
        39.700
 108757659.342 7                  20331077.113    20331076.050
        44.800
 133481785.110 5                  25400734.595
        35.400
 102802180.484 7  79957114.907 7  19258265.243    19258266.876    19258268.855
        47.000          47.100
 25  1  1 23 30 30.0000000  0 26E31G11G02G06G19E10G17E33E24G03E03E25
                                R12E12G14S35G24S31E05R13S33R11R21R23
                                E11R22
 133079461.283 5                  25324174.685
        35.100


 128784543.157 6                  24506870.797
        38.600
 115071727.697 7  89666291.00546  21897417.171    21897416.9174   21897421.2524
        44.000          37.6004
 108333767.800 8  84415912.44046  20615203.220    20615202.0134   20615201.1014
        49.400          40.7004
 126282135.842 8                  24030661.496
        50.000
 108436271.442 7  84495820.23747  20634732.242    20634731.7334   20634732.6184
        44.300          44.5004


 124179229.297 8                  23630520.037
        48.300
 122799487.539 5  95687944.74541  23367960.216    23367959.9084   23367969.0584
        33.100          10.8004


 134906731.494 7                  25671894.830
        42.600
 102016918.904 8  79346523.562 7  19097779.360    19097779.467    19097784.024
        49.800          45.900
 125526930.853 6                  23886966.696
        41.200
 107511584.661 7  83775263.51645  20458773.935    20458773.6944   20458775.4704
        45.100          34.6004


 122642613.795 5  95565674.00545  23338103.899    23338103.7564   23338106.3674
        35.200          34.3004
 198898795.973 7                  37849192.092
        42.200


 111809342.452 5                  20938302.090    20938300.492
        35.300
 202055849.563 7                  38449959.100
        44.800
 117173082.314 6  91134114.192 7  21927222.356    21927225.132    21927230.101
        39.400          44.100
 121208470.389 6  94273294.832 5  22650703.112    22650700.304    22650709.562
        37.400          32.400
 108720625.987 7                  20324153.002    20324153.974
        47.100
 133440357.975 5                  25392850.807
        33.600
 102818275.820 7  79969633.517 7  19261281.625    19261283.204    19261283.529
        47.900          46.500
 25  1  1 23 30 45.0000000  0 26E31G11G02G06G19E10G17E33E24G03E03E25
                                R12E12G14S35G24S31E05R13S33R11R21R23
                                E11R22
 133106369.935 5                  25329297.531
        34.500


 128834344.734 6                  24516352.842
        40.200
 115025954.848 6  89630623.93545  21888707.163    21888706.9444   21888709.4984
        40.900          34.8004
 108316356.727 8  84402345.39846  20611889.631    20611888.4064   20611887.4104
        49.500          40.6004
 126257183.307 8                  24025913.460
        49.600
 108449361.543 7  84506020.31447  20637223.467    20637222.9174   20637223.4244
        45.000          43.6004


 124174928.981 8                  23629701.522
        49.300
 122778289.211 4  95671426.62141  23363925.253    23363924.8064   23363931.7244
        26.400          10.7004


 134874353.970 7                  25665733.288
        43.700
 102015023.540 8  79345049.414 7  19097422.460    19097422.927    19097429.504
        48.600          47.000
 125522043.401 6                  23886036.866
        39.500
 107529973.375 7  83789592.34745  20462272.704    20462272.4684   20462274.8914
        45.000          33.5004


 122614844.807 5  95544035.84245  23332820.489    23332820.3154   23332822.5194
        34.900          32.3004
 198898805.340 7                  37849192.414
        42.500


 111760607.101 5                  20929174.857    20929172.421
        31.600
 202055848.510 7                  38449959.059
        44.500
 117226817.460 6  91175908.287 7  21937278.799    21937279.996    21937285.739
        40.100          44.700
 121266992.298 5  94318811.917 5  22661635.948    22661634.799    22661646.480
        34.000          33.300
 108683737.613 7                  20317257.813    20317257.538
        44.700
 133398991.659 5                  25384977.655
        33.100
 102834531.051 7  79982276.505 7  19264326.389    19264326.528    19264329.531
        46.100          47.000
 25  1  1 23 31  0.0000000  0 27E31G11G02G30G06G19E10G17E33E24G03E03
                                E25R12E12G14S35G24S31E05R13S33R11R21
                                R23E11R22
 133133323.097 5                  25334424.894
        35.200


 128884173.191 6                  24525834.291
        39.100


 114980271.185 6  89595026.35945  21880013.643    21880013.4074   21880015.7434
        41.700          32.8004
 108299016.811 8  84388833.78646  20608590.025    20608588.8004   20608587.6524
        50.100          41.3004
 126232322.121 8                  24021182.706
        50.000
 108462504.130 7  84516261.29447  20639724.103    20639723.5364   20639723.8614
        45.800          43.5004
 137494765.017 5                  26164380.801
        32.200
 124170681.200 8                  23628892.960
        49.800
 122757209.369 5  95655000.92642  23359920.632    23359919.9484   23359918.5064
        35.400          16.2004


 134841986.377 7                  25659573.938
        43.700
 102013293.568 8  79343703.850 7  19097100.374    19097100.545    19097106.032
        50.300          47.900
 125517261.765 6                  23885126.559
        37.500
 107548459.363 7  83803996.99845  20465790.721    20465790.4984   20465793.1864
        45.000          33.4004


 122587204.960 5  95522498.33045  23327561.476    23327561.2174   23327563.0684
        35.800          31.4004
 198898814.084 7                  37849194.874
        42.600


 111711952.476 5                  20920061.052    20920056.862
        32.600
 202055846.677 7                  38449957.092
        44.200
 117280641.303 6  91217771.335 7  21947348.057    21947349.043    21947357.921
        40.800          44.600
 121325536.020 4  94364345.926 5  22672581.098    22672574.136    22672583.590
        28.500          32.000
 108646986.990 7                  20310388.737    20310387.566
        43.500
 133357678.968 5                  25377117.856
        35.100
 102850938.203 8  79995037.632 7  19267401.806    19267401.904    19267403.467
        48.100          47.200
 25  1  1 23 31 15.0000000  0 27E31G11G02G30G06G19E10G17E33E24G03E03
                                E25R12E12G14S35G24S31E05R13S33R11R21
                                R23E11R22
 133160321.944 5                  25339562.514
        32.700


 128934029.163 6                  24535316.107
        37.800


 114934678.062 6  89559499.34145  21871337.098    21871336.7414   21871340.6564
        37.800          32.4004
 108281749.154 8  84375378.47647  20605303.819    20605302.6084   20605302.2974
        50.100          42.3004
 126207553.505 8                  24016469.312
        49.600
 108475700.260 7  84526543.99747  20642235.434    20642234.8674   20642234.2844
        45.800          43.2004
 137530146.476 4                  26171121.956
        28.700
 124166487.161 8                  23628094.813
        49.700
 122736249.478 6  95638668.63943  23355930.259    23355929.9154   23355925.4234
        39.100          20.6004


 134809629.937 7                  25653416.889
        42.700
 102011730.244 8  79342487.920 8  19096808.296    19096808.437    19096813.632
        51.200          48.400
 125512586.966 6                  23884237.329
        36.700
 107567043.774 7  83818478.34645  20469327.048    20469326.8294   20469330.6644
        45.700          33.8004


 122559695.613 5  95501062.51645  23322325.372    23322325.1134   23322328.3184
        34.000          32.1004
 198898822.515 7                  37849196.783
        42.600


 111663380.177 6                  20910968.100    20910965.401
        39.000
 202055845.111 7                  38449958.326
        44.400
 117334554.609 6  91259703.920 7  21957438.380    21957439.448    21957446.518
        40.700          42.800


 108610375.498 7                  20303540.274    20303540.237
        42.000
 133316421.081 5                  25369267.778
        35.400
 102867498.082 8  80007917.546 7  19270503.410    19270504.392    19270506.335
        48.100          47.400
 25  1  1 23 31 30.0000000  0 27E31G11G02G30G06G19E10G17E33E24G03E03
                                E25R12E12G14S35G24S31E05R13S33R11R21
                                R23E11R22




 128983911.329 5                  24544808.181
        34.900
 124381743.322 5  96920815.58642  23669061.099    23669060.8984   23669055.6304
        35.500          12.7004
 114889174.379 6  89524042.02445  21862679.195    21862678.8514   21862682.7504
        38.700          33.3004
 108264552.359 8  84361978.38947  20602031.406    20602030.1904   20602030.3314
        49.700          42.4004
 126182876.158 8                  24011772.936
        48.900
 108488948.703 7  84536867.45647  20644757.115    20644756.5254   20644754.9334
        45.200          42.7004


 124162345.595 8                  23627306.464
        49.500
 122715408.536 5  95622428.97542  23351963.005    23351962.7244   23351957.0594
        33.900          16.4004


 134777283.311 7                  25647261.248
        43.300
 102010332.395 8  79341400.707 8  19096545.971    19096546.444    19096551.314
        51.500          48.000
 125508017.597 6                  23883367.473
        39.400
 107585725.186 7  83833035.28445  20472881.719    20472881.4914   20472885.5374
        45.500          33.0004


 122532315.534 6  95479727.42445  23317114.454    23317114.2854   23317117.9214
        39.300          32.3004
 198898830.043 7                  37849199.001
        43.300


 111614889.255 6                  20901885.734    20901885.771
        41.600
 202055841.618 7                  38449957.924
        44.900
 117388555.660 6  91301704.752 6  21967541.162    21967542.104    21967551.169
        37.900          40.100
 121442677.000 6                  22694468.532    22694472.002
        38.100
 108573901.840 6                  20296725.337    20296721.871
        39.300
 133275216.876 6                  25361427.708
        37.500
 102884208.898 7  80020914.880 7  19273631.460    19273631.049    19273636.614
        45.500          47.100
 25  1  1 23 31 45.0000000  0 27E31G11G02G30G06G19E10G17E33E24G03E03
                                E25R12E12G14S35G24S31E05R13S33R11R21
                                R23E11R22




 129033821.169 5 100545763.45341  24554307.097    24554307.1324   24554303.3194
        31.200           8.6004
 124436494.435 6  96963478.68441  23679479.147    23679479.0544   23679475.2304
        36.900           9.0004
 114843762.112 7  89488655.96646  21854036.564    21854036.2834   21854041.5274
        43.900          36.4004
 108247428.208 8  84348634.90847  20598772.797    20598771.5814   20598771.8014
        49.900          42.3004
 126158291.968 7                  24007094.274
        47.700
 108502250.791 7  84547232.72047  20647289.135    20647288.5544   20647286.4844
        46.100          43.0004


 124158258.365 8                  23626529.085
        49.900
 122694688.438 5  95606283.54741  23348017.592    23348017.1864   23348013.9914
        34.800          11.6004


 134744948.394 7                  25641108.415
        43.400
 102009102.035 8  79340443.754 7  19096315.696    19096316.142    19096320.533
        52.200          47.900
 125503555.393 6                  23882518.005
        39.400
 107604505.424 7  83847669.24845  20476456.186    20476455.9454   20476457.9924
        44.200          32.0004


 122505066.761 6  95458494.67145  23311928.486    23311928.2994   23311932.3774
        39.500          33.1004
 198898838.027 7                  37849200.172
        42.500


 111566481.935 6                  20892820.716    20892818.953
        41.400
 202055839.630 7                  38449956.171
        44.700
 117442645.964 6  91343774.933 6  21977665.008    21977667.794    21977673.711
        40.000          38.200
 121501285.878 6  94501049.553 5  22705425.050    22705424.929    22705435.403
        39.600          33.200
 108537568.082 7                  20289937.497    20289935.782
        45.400
 133234068.255 6                  25353597.456
        38.500
 102901072.218 7  80034030.791 7  19276790.963    19276790.899    19276795.480
        46.700          46.600
 25  1  1 23 32  0.0000000  0 27E31G11G02G30G06G19E10G17E33E24G03E03
                                E25R12E12G14S35G24S31E05R13S33R11R21
                                R23E11R22
 133241555.685 6                  25355026.199
        38.500


 129083758.115 4 100584675.38641  24563809.188    24563809.1924   24563806.2144
        28.400           6.9004
 124491268.819 6  97006159.79741  23689901.659    23689901.5794   23689898.2564
        37.200           6.4004
 114798441.369 7  89453341.20146  21845411.662    21845411.3944   21845417.4624
        43.000          37.7004
 108230376.406 8  84335347.81146  20595528.264    20595527.0484   20595526.7674
        50.000          41.9004
 126133800.754 7                  24002433.687
        47.300
 108515606.088 7  84557639.43447  20649830.096    20649829.5114   20649828.6464
        45.300          42.9004


 124154225.322 8                  23625761.256
        50.200
 122674089.189 6  95590232.32443  23344095.315    23344094.8644   23344096.4344
        36.800          18.3004


 134712625.034 7                  25634956.915
        43.500
 102008039.109 8  79339617.032 8  19096115.677    19096116.364    19096122.360
        51.400          48.200
 125499200.081 6                  23881690.011
        40.300
 107623384.239 7  83862380.01945  20480049.381    20480049.1534   20480050.1544
        45.700          32.2004


 122477949.249 6  95437364.16745  23306769.224    23306769.0774   23306772.1924
        40.800          34.3004
 198898846.045 7                  37849202.015
        42.200


 111518158.247 7                  20883771.435    20883770.535
        42.500
 202055837.132 7                  38449956.676
        44.200
 117496824.947 6  91385914.050 5  21987805.127    21987804.220    21987810.736
        37.400          34.900
 121559916.237 6  94546651.017 5  22716377.648    22716380.422    22716395.927
        39.000          33.700
 108501373.741 7                  20283168.705    20283169.166
        45.400
 133192975.183 6                  25345777.806
        38.200
 102918087.351 7  80047264.799 7  19279977.307    19279979.358    19279981.632
        47.200          45.200
 25  1  1 23 32 15.0000000  0 27E31G11G02G30G06G19E10G17E33E24G03E03
                                E25R12E12G14S35G24S31E05R13S33R11R21
                                R23E11R22
 133268733.562 6                  25360199.124
        41.300


 129133718.924 4 100623605.8014   24573316.559    24573316.5244   24573313.7204
        29.200           3.6004
 124546063.233 6  97048856.53341  23700329.179    23700328.8534   23700327.4084
        38.500           9.2004
 114753209.623 6  89418095.74846  21836803.759    21836803.5144   21836811.1224
        40.900          38.6004
 108213394.072 8  84322114.84846  20592296.267    20592295.0244   20592294.9204
        49.600          41.4004
 126109399.842 7                  23997790.236
        46.800
 108529011.459 7  84568085.15247  20652380.728    20652380.1614   20652380.3464
        43.900          42.4004
 137672141.704 5                  26198137.472
        34.200
 124150243.748 8                  23625003.571
        50.600
 122653608.310 6  95574273.23943  23340197.793    23340197.4094   23340205.2594
        37.400          21.8004


 134680310.552 7                  25628807.625
        42.900
 102007140.909 8  79338918.459 8  19095948.024    19095948.499    19095954.276
        50.800          48.200
 125494948.857 6                  23880880.687
        40.900
 107642358.876 8  83877165.43945  20483659.856    20483659.6284   20483660.9364
        48.200          33.2004


 122450960.429 6  95416333.92745  23301633.793    23301633.6734   23301637.1154
        41.500          35.8004
 198898852.091 7                  37849202.954
        42.500


 111469916.103 7                  20874737.215    20874737.482
        42.900
 202055832.358 7                  38449955.549
        44.300
 117551089.507 5  91428119.841 4  21997960.667    21997958.774    21997963.278
        35.000          28.700
 121618564.706 6  94592266.532 5  22727340.623    22727342.251    22727352.998
        38.700          34.300
 108465316.178 7                  20276426.377    20276428.195
        44.900
 133151935.009 6                  25337967.736
        37.200
 102935251.223 8  80060614.480 7  19283194.363    19283195.371    19283197.069
        49.100          44.800
 25  1  1 23 32 30.0000000  0 28E31G11G02G30G06G13G19E10G17E33E24G03
                                E03E25R12E12G14S35G24S31E05R13S33R11
                                R21R23E11R22
 133295959.935 6                  25365379.496
        40.500


 129183708.781 4 100662558.8354   24582830.168    24582829.9454   24582826.1354
        29.300           4.6004
 124600882.894 6  97091573.09441  23710759.358    23710759.1134   23710760.9644
        37.400          10.7004
 114708072.640 6  89382924.11846  21828215.594    21828215.3264   21828222.7814
        40.700          38.3004
 132575883.703 4                  25228342.069
        29.900
 108196486.724 8  84308940.31646  20589078.966    20589077.7014   20589077.6234
        49.000          40.7004
 126085094.779 7                  23993165.562
        46.600
 108542472.459 7  84578574.22847  20654941.520    20654940.9664   20654942.4344
        44.600          42.5004
 137707808.437 5                  26204925.514
        34.300
 124146319.297 8                  23624256.730
        50.400
 122633251.627 5  95558410.93743  23336324.209    23336323.9644   23336333.6304
        35.500          19.6004


 134648010.555 7                  25622661.373
        42.000
 102006413.146 8  79338352.450 7  19095811.475    19095811.314    19095816.850
        49.100          46.700
 125490807.143 6                  23880093.008
        41.200
 107661434.815 8  83892029.80145  20487289.810    20487289.5964   20487290.2254
        49.500          33.4004


 122424105.951 6  95395408.33246  23296523.751    23296523.6624   23296528.2374
        41.000          36.2004
 198898860.989 7                  37849204.939
        42.200


 111421761.299 6                  20865717.257    20865717.432
        41.800
 202055830.152 7                  38449955.889
        43.700


 121677236.643 6  94637900.366 5  22738306.225    22738308.664    22738326.624
        37.700          34.800
 108429401.205 7                  20269709.767    20269710.834
        43.800
 133110953.361 5                  25330169.937
        35.800
 102952569.030 8  80074083.920 7  19286438.274    19286438.684    19286441.969
        49.400          46.000
 25  1  1 23 32 45.0000000  0 26E31G11G30G06G19E10G17E33E24G03E03E25
                                R12E12G14S35G24S31E05R13S33R11R21R23
                                E11R22
 133323231.519 6                  25370568.149
        38.600


 124655724.163 5  97134306.46741  23721195.622    23721195.3724   23721197.7454
        35.500           8.8004
 114663027.371 6  89347823.94446  21819642.738    21819642.4344   21819651.2444
        41.000          37.7004
 108179651.177 8  84295821.73146  20585875.165    20585873.8964   20585873.8134
        48.900          40.1004
 126060882.421 7                  23988558.208
        47.500
 108555985.585 7  84589103.93247  20657512.594    20657512.0624   20657514.1714
        45.800          43.0004
 137743531.233 5                  26211722.822
        35.000
 124142448.741 8                  23623520.216
        49.900
 122613016.082 6  95542643.00342  23332474.144    23332473.9344   23332482.3334
        37.000          17.1004


 134615721.856 6                  25616517.377
        41.800
 102005852.683 8  79337916.555 7  19095706.561    19095706.808    19095712.089
        48.700          46.200
 125486771.636 7                  23879325.241
        42.100
 107680608.822 8  83906970.59945  20490938.481    20490938.2624   20490938.4704
        49.700          33.8004


 122397382.742 6  95374585.01745  23291438.262    23291438.1464   23291444.1634
        40.500          35.4004
 198898869.449 7                  37849207.260
        42.200


 111373691.030 6                  20856714.603    20856713.480
        37.600
 202055828.706 7                  38449953.421
        44.000


 121735928.241 6  94683549.369 5  22749276.824    22749276.620    22749279.908
        36.900          34.800
 108393625.848 7                  20263022.228    20263023.013
        43.800
 133070027.243 6                  25322382.016
        37.900
 102970037.118 8  80087670.239 7  19289711.153    19289711.321    19289715.201
        50.800          46.500
 25  1  1 23 33  0.0000000  0 26E31G11G30G06G19E10G17E33E24G03E03E25
                                R12E12G14S35G24S31E05R13S33R11R21R23
                                E11R22
 133350549.132 6                  25375767.738
        37.600


 124710587.443 5  97177056.9444   23731635.576    23731635.5594   23731638.0714
        31.600           4.7004
 114618074.940 6  89312796.10946  21811087.801    21811087.5024   21811096.2214
        41.500          37.1004
 108162888.142 8  84282759.64646  20582685.072    20582683.8074   20582683.4444
        49.800          40.4004
 126036763.668 7                  23983968.454
        47.600
 108569551.812 7  84599675.02647  20660094.068    20660093.5364   20660095.6484
        44.400          42.7004
 137779310.714 5                  26218532.263
        34.500
 124138633.018 8                  23622794.174
        49.500
 122592902.876 5  95526970.40542  23328647.093    23328646.9194   23328654.7414
        32.600          16.5004


 134583445.392 6                  25610375.538
        41.100
 102005460.544 8  79337611.576 7  19095633.820    19095634.216    19095638.352
        49.500          45.500
 125482843.119 7                  23878577.779
        42.400
 107699881.709 8  83921988.43845  20494606.685    20494606.4844   20494606.6994
        50.400          35.4004


 122370791.870 6  95353864.80145  23286378.745    23286378.5894   23286385.1484
        37.600          34.8004
 198898878.257 7                  37849207.989
        42.100


 111325706.927 6                  20847733.603    20847731.041
        41.600
 202055827.033 7                  38449954.060
        43.900
                  91555157.911 6                  22028567.782    22028533.628
                        36.500
 121794639.752 4  94729213.904 5  22760249.262    22760242.952    22760246.285
        24.200          31.700
 108357991.053 7                  20256363.516    20256363.443
        46.500
 133029157.536 6                  25314603.855
        39.700
 102987656.008 8  80101373.823 7  19293012.405    19293013.051    19293016.631
        52.100          47.200
 25  1  1 23 33 15.0000000  0 26E31G11G30G06G19E10G17E33E24G03E03E25
                                R12E12G14S35G24S31E05R13S33R11R21R23
                                E11R22
 133377908.396 6                  25380973.031
        40.400


 124765468.156 5  97219820.7554   23742079.601    23742079.5794   23742081.2154
        30.500           2.0004
 114573211.282 7  89277837.45646  21802551.596    21802551.3554   21802558.4044
        42.200          37.2004
 108146193.064 8  84269750.51846  20579507.889    20579506.6294   20579505.9324
        50.300          40.8004
 126012734.270 7                  23979395.269
        46.300
 108583166.607 7  84610283.98347  20662685.424    20662684.8794   20662686.2204
        43.300          42.2004
 137815142.342 5                  26225349.270
        30.300
 124134867.855 8                  23622077.838
        49.600
 122572907.886 5  95511389.95042  23324840.397    23324840.1294   23324850.5304
        31.200          12.7004


 134551176.903 6                  25604234.976
        40.900
 102005232.472 8  79337434.205 7  19095591.465    19095591.700    19095596.108
        49.600          45.400
 125479017.206 7                  23877849.704
        43.300
 107719249.134 8  83937079.95246  20498291.468    20498291.2544   20498293.2974
        51.000          36.4004


 122344329.142 6  95333244.45745  23281343.050    23281342.8854   23281350.4724
        38.500          34.4004
 198898883.273 7                  37849209.764
        42.300


 111277804.452 7                  20838762.295    20838761.315
        43.900
 202055822.028 7                  38449954.230
        44.400
 117768500.272 6  91597634.994 6  22038747.131                    22038755.892
        40.500          38.300
                  94774890.489 5                                  22771220.264
                        32.200
 108322492.335 7                  20249725.978    20249727.699
        44.000
 132988340.113 6                  25306837.300
        41.200
 103005420.901 8  80115190.979 8  19296339.499    19296339.965    19296345.222
        51.900          48.100
 25  1  1 23 33 30.0000000  0 26E31G11G30G06G19E10G17E33E24G03E03E25
                                R12E12G14S35G24S31E05R13S33R11R21R23
                                E11R22
 133405315.290 6                  25386188.572
        41.700
 132108431.022 5                  25139394.695
        34.200
 124820371.810 5  97262602.7754   23752527.481    23752527.0434   23752528.8974
        34.800           4.1004
 114528442.578 6  89242952.83645  21794032.518    21794032.3084   21794037.5934
        40.800          34.9004
 108129572.035 8  84256799.09046  20576345.396    20576344.1444   20576342.9164
        49.600          41.2004
 125988800.262 7                  23974841.335
        45.000
 108596835.462 7  84620935.06447  20665286.268    20665285.7234   20665287.2874
        45.000          42.2004
 137851031.712 5                  26232179.425
        30.200
 124131159.372 8                  23621371.982
        49.100
 122553037.387 5  95495906.5964   23321061.315    23321061.0164   23321069.9174
        31.400           5.3004


 134518922.430 6                  25598096.586
        40.700
 102005174.613 8  79337389.206 7  19095581.187    19095581.097    19095585.824
        50.300          45.700
 125475299.806 7                  23877142.859
        45.300
 107738717.043 8  83952249.75045  20501995.587    20501995.3914   20501998.7384
        50.500          35.8004


 122318000.783 6  95312728.85345  23276333.947    23276333.7424   23276340.3684
        40.400          33.6004
 198898890.600 7                  37849210.363
        42.300


 111229990.291 7                  20829807.386    20829807.719
        45.000
 202055818.294 7                  38449953.130
        44.600
 117823202.562 7  91640181.204 6  22048982.917    22048981.226    22048992.339
        42.700          38.700


 108287135.870 7                  20243119.823    20243120.742
        44.600
 132947581.134 6                  25299079.702
        39.700
 103023337.543 8  80129126.148 7  19299696.693    19299697.188    19299700.227
        52.000          47.400
 25  1  1 23 33 45.0000000  0 26E31G11G30G06G19E10G17E33E24G03E03E25
                                R12E12G14S35G24S31E05R13S33R11R21R23
                                E11R22
 133432768.294 6                  25391413.187
        41.500
 132052053.282 5 102897734.2064   25128669.196    25128669.2364   25128677.0294
        35.800           4.9004
 124875296.598 5  97305401.27741  23762987.879    23762987.1194   23762981.4854
        33.000           6.9004
 114483767.670 6  89208141.33045  21785531.580    21785531.3574   21785533.8104
        39.800          33.2004
 108113023.454 8  84243904.12046  20573196.258    20573195.0024   20573194.2464
        48.600          41.2004
 125964960.252 7                  23970304.772
        43.500
 108610556.931 7  84631627.13647  20667897.017    20667896.4414   20667898.1644
        44.600          42.3004
 137886977.248 5                  26239019.740
        32.600
 124127506.120 8                  23620676.730
        49.300
 122533290.176 5  95480519.30341  23317303.301    23317303.1144   23317313.6244
        30.900           8.7004
 148605246.207 5                  28278640.867
        33.700
 134486680.607 6                  25591961.120
        41.800
 102005285.782 8  79337475.703 7  19095601.764    19095602.387    19095606.483
        50.300          45.300
 125471689.419 7                  23876455.320
        46.200
 107758283.962 8  83967496.69445  20505718.966    20505718.7744   20505721.6144
        48.700          33.8004


 122291805.426 6  95292316.94645  23271348.544    23271348.3124   23271353.2844
        39.500          31.1004
 198898898.404 7                  37849212.116
        42.700


 111182263.458 7                  20820868.276    20820868.985
        44.000
 202055815.793 7                  38449953.805
        44.400
 117877991.853 7  91682795.062 6  22059233.798    22059235.672    22059244.531
        44.100          37.500


 108251920.402 6                  20236534.833    20236534.963
        39.600
 132906879.199 5                  25291333.295
        35.800
 103041404.021 8  80143177.866 7  19303080.845    19303080.319    19303084.910
        50.700          47.300
 25  1  1 23 34  0.0000000  0 26E31G11G30G06G19E10G17E33E24G03E03E25
                                R12E12G14S35G24S31E05R13S33R11R21R23
                                E11R22
 133460268.365 6                  25396647.511
        40.700
 131995688.166 5 102853813.4614   25117946.710    25117946.5054   25117948.6504
        33.700           1.6004


 114439187.686 5  89173403.78845  21777047.588    21777047.3164   21777050.7804
        34.900          32.0004
 108096548.148 7  84231066.24346  20570061.957    20570060.7014   20570059.9334
        47.700          41.4004
 125941215.254 7                  23965786.133
        43.000
 108624331.755 7  84642360.77747  20670518.230    20670517.6404   20670519.0094
        46.000          42.7004
 137922979.557 5                  26245869.696
        34.100
 124123909.140 8                  23619992.070
        50.100
 122513667.362 5  95465228.71241  23313571.399    23313571.2834   23313581.0134
        35.000          10.1004
 148627063.723 5                  28282790.219
        30.500
 134454452.444 6                  25585826.966
        39.700
 102005566.902 8  79337694.339 7  19095653.218    19095653.784    19095658.935
        49.600          45.300
 125468186.922 7                  23875789.084
        46.500
 107777950.837 7  83982821.53645  20509462.149    20509461.9754   20509463.0074
        47.000          31.4004


 122265744.282 6  95272009.66045  23266389.338    23266389.0704   23266389.1124
        41.400          30.4004
 198898907.826 7                  37849214.088
        43.000


 111134625.375 6                  20811946.186    20811946.117
        41.800
 202055814.993 7                  38449952.902
        45.000
 117932868.865 7  91725477.075 5  22069507.343    22069510.807    22069512.660
        45.900          34.300


 108216847.057 5                  20229976.625    20229975.008
        33.900
 132866235.456 5                  25283600.301
        34.500
 103059620.980 8  80157346.591 7  19306493.870    19306493.862    19306496.999
        51.700          47.100
 25  1  1 23 34 15.0000000  0 26E31G11G30G06G19E10G17E33E24G03E03E25
                                R12E12G14S35G24S31E05R13S33R11R21R23
                                E11R22
 133487812.041 6                  25401888.878
        40.000
 131939332.506 4                  25107220.016
        29.700


 114394699.549 6  89138737.77145  21768582.265    21768581.9614   21768586.9744
        38.200          35.0004
 108080142.674 8  84218282.78347  20566940.374    20566939.1184   20566938.9734
        48.100          42.1004
 125917561.885 7                  23961285.052
        45.300
 108638156.465 7  84653133.28347  20673149.093    20673148.4994   20673149.6694
        46.600          43.4004
 137959034.993 5                  26252730.838
        35.000
 124120365.061 8                  23619317.344
        50.200
 122494165.812 5  95450032.59341  23309859.335    23309859.0054   23309870.3854
        34.000           8.9004


 134422234.603 6                  25579695.530
        36.500
 102006014.790 7  79338042.685 7  19095736.618    19095736.384    19095742.858
        47.600          44.900
 125464788.814 7                  23875142.063
        46.400
 107797714.207 7  83998221.56145  20513222.745    20513222.5584   20513223.2804
        47.600          30.3004


 122239814.024 7  95251804.31945  23261454.448    23261454.1534   23261453.9924
        43.800          32.3004
 198898915.206 7                  37849217.630
        43.100


 111087072.966 6                  20803040.405    20803039.915
        40.600
 202055811.345 7                  38449952.978
        44.700
 117987829.661 7  91768224.124 5  22079795.820    22079795.262    22079795.174
        44.900          30.100
                  94957749.717 5                                  22815157.242
                        34.600
 108181912.461 4                  20223442.294    20223443.801
        28.500
 132825646.644 6                  25275875.802
        36.500
 103077984.575 8  80171629.385 7  19309933.820    19309934.248    19309938.427
        52.100          47.300
 25  1  1 23 34 30.0000000  0 25E31G11G30G06G19E10G17E33E24G03E03E25
                                R12E12G14S35G24S31E05R13S33R11R21E11
                                R22
 133515399.717 6                  25407137.726
        39.000
 131882986.962 4                  25096507.547
        26.700


 114350303.794 6  89104143.74346  21760133.460    21760133.1164   21760141.0094
        41.800          37.3004
 108063807.570 8  84205554.15247  20563831.388    20563830.1194   20563831.1154
        49.500          42.9004
 125894000.666 7                  23956801.192
        46.500
 108652031.392 7  84663944.92147  20675789.713    20675789.1234   20675790.1764
        46.300          42.8004
 137995143.723 5                  26259602.226
        34.700
 124116874.473 8                  23618653.183
        50.100
 122474786.193 5  95434931.61642  23306178.730    23306178.3864   23306182.3074
        32.000          14.2004


 134390027.601 5                  25573567.430
        32.300
 102006629.976 8  79338521.149 7  19095853.763    19095852.498    19095857.672
        48.800          44.500
 125461495.413 7                  23874515.570
        45.900
 107817574.523 7  84013697.10945  20517002.616    20517002.3934   20517002.6244
        45.700          30.1004


 122214015.316 7  95231701.44845  23256544.659    23256544.3334   23256546.1904
        44.300          34.7004
 198898921.313 7                  37849215.045
        42.600


 111039607.170 6                  20794151.873    20794152.319
        40.700
 202055806.597 7                  38449953.108
        44.600
 118042874.339 6  91811036.589 5  22090092.315    22090091.804    22090097.439
        39.600          31.300
 122147508.336 6  95003497.326 5  22826173.224    22826175.440    22826151.066
        37.600          34.600
 132785113.301 6                  25268161.721
        38.300
 103096494.861 8  80186026.293 7  19313401.444    19313402.090    19313405.330
        51.900          47.000
 25  1  1 23 34 45.0000000  0 26E31G11G30G06G19E10G17E33E24G03E03E25
                                R12E12G14S35G24S31E05R13S33R11R21R23
                                E11R22
 133543036.440 5                  25412395.269
        35.100




 114306005.812 6  89069625.88746  21751703.447    21751703.0634   21751712.2594
        41.000          38.1004
 108047547.904 8  84192884.30847  20560737.230    20560735.9564   20560737.1194
        51.200          43.6004
 125870536.699 7                  23952336.403
        46.900
 108665961.139 7  84674799.29246  20678440.305    20678439.7204   20678440.9944
        44.900          41.8004
 138031310.532 6                  26266484.591
        36.100
 124113442.418 8                  23618000.324
        49.600
 122455533.997 4  95419929.91941  23302518.153    23302517.8274   23302517.8974
        25.200           8.8004


 134357836.588 5                  25567442.587
        31.500
 102007417.545 8  79339133.691 7  19095999.501    19096000.004    19096004.958
        49.800          44.500
 125458311.757 7                  23873909.962
        46.100
 107837536.804 7  84029252.13145  20520801.904    20520801.6814   20520801.9204
        46.200          30.8004


 122188353.344 7  95211705.13046  23251662.096    23251661.7794   23251664.4974
        45.200          36.5004
 198898930.778 7                  37849216.771
        42.300


 110992233.665 7                  20785281.702    20785280.585
        42.500
 202055806.218 7                  38449954.717
        45.100
 118098007.739 6  91853917.988 5  22100405.535    22100405.123    22100410.186
        37.400          30.500
 122206347.306 6  95049260.903 5  22837165.734    22837168.065    22837152.572
        39.700          34.900
 108112339.482 6                  20210463.056    20210470.135
        40.100
 132744640.656 6                  25260460.055
        39.600
 103115156.599 8  80200540.972 7  19316897.310    19316897.477    19316901.732
        51.800          47.900
 25  1  1 23 35  0.0000000  0 26E31G11G30G06G19E10G17E33E24G03E03E25
                                R12E12G14S35G24S31E05R13S33R11R21R23
                                E11R22
 133570715.349 5                  25417663.472
        31.800




 114261799.005 7  89035179.06246  21743292.088    21743291.7314   21743299.5324
        42.100          37.4004
 108031356.596 8  84180267.74247  20557655.575    20557654.2974   20557655.6664
        50.800          43.0004
 125847163.215 7                  23947888.370
        46.100
 108679938.790 7  84685691.00546  20681100.788    20681100.1984   20681099.9684
        44.800          39.3004
 138067528.315 6                  26273374.778
        36.400
 124110062.154 8                  23617357.251
        49.000




 134325654.818 5                  25561317.880
        35.700
 102008370.887 8  79339875.211 7  19096177.668    19096178.583    19096183.103
        50.400          43.500
 125455230.928 7                  23873323.420
        45.700
 107857594.216 7  84044881.26645  20524617.993    20524617.7834   20524618.7144
        47.000          31.4004


 122162821.455 7  95191810.14846  23246803.191    23246802.8654   23246806.1784
        44.500          36.7004
 198898936.664 7                  37849218.627
        42.300


 110944945.297 6                  20776424.626    20776423.445
        39.800
 202055801.574 7                  38449950.058
        44.500
 118153222.709 7                  22110747.236    22110748.849
        43.900
 122265199.279 4  95095034.853 6  22848152.490                    22848154.830
        27.900          36.400
 108077826.289 6                  20204013.777    20204012.195
        40.500
 132704221.962 6                  25252769.016
        40.800
 103133962.478 8  80215167.783 7  19320419.707    19320420.047    19320424.347
        50.400          47.500
 25  1  1 23 35 15.0000000  0 26E31G11G30G06G19E10G17E33E24G03E03E25
                                R12E12G14S35G24S31E05R13S33R11R21R23
                                E11R22
 133598441.061 4                  25422938.292
        28.100




 114217688.266 6  89000807.09046  21734898.444    21734898.0604   21734905.0314
        38.600          36.3004
 108015238.484 8  84167708.21147  20554588.418    20554587.1354   20554587.9184
        50.500          42.1004
 125823884.935 7                  23943458.902
        46.100
 108693968.959 7  84696623.65546  20683770.181    20683769.5734   20683768.3154
        44.000          37.8004
 138103801.526 6                  26280276.024
        36.400
 124106738.451 8                  23616724.754
        49.500




 134293486.984 6                  25555196.625
        39.400
 102009494.821 8  79340749.417 7  19096388.692    19096388.838    19096394.633
        50.000          44.600
 125452257.540 7                  23872757.691
        45.100
 107877751.383 7  84060588.15245  20528453.718    20528453.4954   20528453.7074
        46.400          31.4004


 122137424.482 7  95172020.32345  23241970.048    23241969.7224   23241972.8414
        42.800          35.1004
 198898943.823 7                  37849219.664
        42.300


 110897747.872 7                  20767589.533    20767586.718
        43.200
 202055797.639 7                  38449949.047
        44.200
 118208523.581 7  91939874.491 5  22121093.650    22121095.875    22121095.044
        43.100          35.600
                  95140822.427 6                                  22859156.005
                        36.600
 108043455.518 7                  20197584.989    20197585.919
        43.200
 132663862.160 6                  25245089.240
        41.800
 103152916.960 8  80229910.150 7  19323970.147    19323970.609    19323974.524
        49.800          46.900
