     2.11           OBSERVATION DATA    M (MIXED)           RINEX VERSION / TYPE
teqc  2019Feb25                         20260317 16:18:01UTCPGM / RUN BY / DATE
Linux 2.4.21-27.ELsmp|Opteron|gcc -static|Linux 64|=+       COMMENT
BIT 2 OF LLI FLAGS DATA COLLECTED UNDER A/S CONDITION       COMMENT
-Unknown-                                                   MARKER NAME
-Unknown-           -Unknown-                               OBSERVER / AGENCY
-Unknown-           -Unknown-           -Unknown-           REC # / TYPE / VERS
-Unknown-           -Unknown-                               ANT # / TYPE
        0.0000        0.0000        0.0000                  APPROX POSITION XYZ
        0.0000        0.0000        0.0000                  ANTENNA: DELTA H/E/N
     1     1                                                WAVELENGTH FACT L1/2
     7    L1    L2    C1    P1    P2    S1    S2            # / TYPES OF OBSERV
 SNR is mapped to RINEX snr flag value [0-9]                COMMENT
  L1 & L2: min(max(int(snr_dBHz/6), 0), 9)                  COMMENT
  2025     1     1     5     0    0.0000000     GPS         TIME OF FIRST OBS
    18                                                      LEAP SECONDS
                                                            END OF HEADER
 25  1  1  5  0  0.0000000  0 28G18R01G15G12G11G20E27E03G25G05E34G29
                                E05E15E26S35R23R17S31R15G13S33E08E21
                                E13R14R24R08
 128205374.187 6  99900286.68942  24396675.489    24396675.4934   24396672.1094
        36.800          12.1004
 106098327.597 7  82520959.917 6  19847886.560    19847887.846    19847893.299
        46.300          36.900
 124667193.781 5  97143277.51144  23723378.058    23723377.9474   23723378.5794
        35.600          24.6004
 126105102.347 7  98263700.73945  23997007.631    23997007.1624   23997008.0764
        45.800          33.8004
 118296468.608 7  92179063.64844  22511070.601    22511070.4544   22511070.5334
        42.500          29.1004
 111614145.422 6  86972057.69042  21239464.085    21239463.4284   21239462.8004
        38.200          16.8004
 135634109.884 7                  25810304.322
        43.300
 133903972.242 6                  25481051.984
        41.400
 118672881.706 7  92472368.24146  22582703.020    22582702.2074   22582707.1904
        43.200          36.0004
 105416176.382 8  82142466.86548  20060026.596    20060026.2614   20060024.5424
        52.800          51.4004


 111314755.409 7  86738734.01846  21182494.426    21182493.9264   21182493.7074
        46.700          40.5004


 126624275.799 6                  24095795.789
        40.400




 113631723.201 7                  21242257.265    21242257.470
        42.100
 124026632.888 6  96465125.539 7  23177326.980    23177325.311    23177339.054
        38.300          42.500
 198904432.535 7                  37850257.760
        44.200
 121893948.158 7  94806442.948 5  22810793.222    22810795.859    22810797.125
        43.600          32.100
 120034734.450 7  93533548.27043  22841848.685    22841848.5744   22841847.8174
        42.700          19.3004
 202046935.861 7                  38448250.739
        45.600
 138677411.389 5                  26389442.536
        33.500
 134449687.082 6                  25584894.475
        36.700
 127996241.082 7                  24356860.095
        47.000
 122352476.668 6  95163084.282 5  22953013.562    22953013.745    22953019.478
        38.700          33.800
 106886048.141 6  83133573.372 7  19988220.870    19988221.339    19988226.837
        41.500          44.000
 111271311.281 4  86544311.355 6  20779128.218                    20779120.661
        29.700          36.200
 25  1  1  5  0 15.0000000  0 28G18R01G15G12G11G20E27E03G25G05E34G29
                                E05E15E26S35R23R17S31R15G13S33E08E21
                                E13R14R24R08


 106062807.056 6  82493332.925 6  19841240.932    19841239.429    19841248.745
        41.900          39.500
 124609673.269 5  97098456.40343  23712435.612    23712435.5814   23712434.3954
        34.200          19.3004
 126158434.689 7  98305258.38545  24007157.043    24007156.5874   24007158.1954
        45.100          34.0004
 118327883.629 6  92203542.88444  22517048.469    22517048.2244   22517048.9324
        41.600          27.9004
 111646136.735 6  86996986.10743  21245552.099    21245551.5324   21245551.6564
        40.100          18.9004
 135672643.711 6                  25817635.110
        40.900
 133889587.631 6                  25478315.267
        41.400
 118709784.986 7  92501124.05046  22589725.541    22589724.7234   22589729.5114
        42.100          37.7004
 105417611.160 8  82143584.89048  20060299.345    20060299.0104   20060297.8744
        52.900          51.7004


 111283482.641 7  86714365.68646  21176544.305    21176543.7824   21176541.0304
        43.800          39.2004


 126637298.059 7                  24098274.134
        44.200


 200870274.322 6                  38224349.031
        36.800
 113659673.824 6                  21247483.655    21247483.750
        41.900
 123980821.428 6  96429494.490 6  23168770.537    23168768.235    23168776.701
        40.800          41.500
 198904420.448 6                  37850253.638
        41.200
 121899563.207 7  94810810.195 6  22811845.994    22811846.699    22811852.156
        45.200          36.000
 119988258.358 6  93497333.24343  22833003.106    22833003.0754   22833004.3384
        41.100          21.9004
 202046913.842 7                  38448250.841
        45.900
 138635228.857 4                  26381407.539
        29.500
 134454191.070 7                  25585751.294
        43.600
 127980623.816 8                  24353887.979
        48.400
 122398620.850 6                  22961670.187    22961671.701
        41.700
 106866605.176 8  83118451.069 7  19984586.042    19984586.321    19984591.408
        48.700          43.800
                  86569135.361 5                                  20785082.796
                        34.600
 25  1  1  5  0 30.0000000  0 29G18R01G15G12G11G20E27E03G25G05E34G29
                                E05E15E26S35R23R17R02S31R15G13S33E08
                                E21E13R14R24R08


 106027462.109 7  82465842.379 6  19834631.152    19834629.177    19834637.026
        46.600          41.400


 126211780.077 7  98346826.19545  24017308.375    24017307.9374   24017309.7444
        45.000          32.7004
 118359333.424 6  92228049.20644  22523033.172    22523032.8644   22523033.7114
        41.300          28.4004
 111678194.848 6  87021966.52743  21251653.824    21251653.0964   21251652.8054
        39.600          21.9004
 135711226.300 6                  25824978.471
        41.300
 133875303.284 6                  25475596.645
        39.600
 118746774.290 6  92529946.83345  22596763.332    22596762.5054   22596767.3894
        39.300          33.8004
 105419174.130 8  82144802.79648  20060596.907    20060596.5814   20060595.4794
        52.500          51.7004


 111252304.392 7  86690070.94146  21170610.536    21170610.0184   21170608.3814
        45.700          40.6004


 126650342.580 7                  24100756.130
        42.100


 200870338.748 6                  38224343.173
        36.600
 113687693.642 7                  21252719.028    21252721.027
        43.400
 123935000.051 6  96393855.587 6  23160206.549    23160205.632    23160215.731
        41.200          40.400
 123601348.033 4  96134368.885 6  23162841.812                    23162835.056
        26.800          36.000
 198904409.296 6                  37850242.069
        40.400
 121905359.327 7  94815318.394 5  22812929.332    22812930.687    22812932.433
        45.200          35.600
 119941840.752 6  93461163.70543  22824170.631    22824170.6484   22824171.4304
        38.800          21.7004
 202046893.249 7                  38448248.167
        43.900
 138593074.637 6                  26373384.532
        37.600
 134458803.224 7                  25586629.216
        42.600
 127965028.904 8                  24350920.249
        48.000
 122444846.299 7  95234910.239 5  22970344.621    22970343.966    22970346.792
        43.700          35.300
 106847225.738 8  83103378.313 7  19980961.448    19980962.701    19980966.300
        49.400          44.100
 111335350.929 5  86594094.062 5  20791069.289    20791067.687    20791071.998
        30.800          33.900
 25  1  1  5  0 45.0000000  0 28G18R01G15G12G11G20E27E03G25G05E34G29
                                E05E15E26S35R23R17S31R15G13S33E08E21
                                E13R14R24R08


 105992290.971 8  82438487.093 7  19828052.037    19828051.532    19828057.579
        49.600          43.500


 126265136.099 7  98388402.30845  24027461.936    24027461.5074   24027462.0354
        44.800          32.1004
 118390815.793 7  92252580.91644  22529022.562    22529022.2184   22529024.1704
        44.600          29.4004
 111710317.687 7  87046997.34143  21257764.481    21257763.7484   21257765.7194
        43.200          22.1004
 135749855.441 6                  25832329.487
        39.200
 133861117.206 6                  25472897.317
        39.500
 118783847.700 4  92558835.25945  22603816.811    22603815.9804   22603822.4784
        28.700          32.2004
 105420863.454 8  82146119.16948  20060918.280    20060917.9504   20060917.4444
        52.000          51.8004


 111221218.827 7  86665848.44446  21164694.530    21164694.0034   21164693.0414
        46.600          40.3004


 126663407.506 7                  24103242.561
        43.100




 113715781.286 6                  21257969.441    21257969.683
        40.200
 123889166.847 6  96358207.647 6  23151640.585    23151639.510    23151650.579
        38.700          36.400
 198904398.073 7                  37850252.546
        43.100
 121911334.619 7  94819965.755 5  22814049.068    22814047.936    22814051.031
        46.200          33.800
 119895479.979 6  93425038.43043  22815348.591    22815348.6134   22815349.5274
        38.700          20.5004
 202046871.616 7                  38448241.724
        44.900
 138550946.788 6                  26365370.877
        36.800
 134463521.471 6                  25587527.380
        39.300
 127949454.407 8                  24347956.385
        48.800
 122491150.059 6  95270924.307 5  22979028.146    22979027.754    22979033.286
        38.900          35.000
 106827908.239 8  83088353.647 7  19977349.258    19977350.279    19977353.023
        49.800          42.100
 111367611.954 7  86619185.950 6  20797097.455    20797098.618    20797098.958
        44.000          38.600
 25  1  1  5  1  0.0000000  0 28G18R01G15G12G11G20E27E03G25G05E34G29
                                E05E15E26S35R23R17S31R15G13S33E08E21
                                E13R14R24R08
 128048596.093 4  99778125.47541  24366822.855    24366822.6544   24366834.8774
        26.400           9.5004
 105957297.932 8  82411270.325 7  19821505.585    19821505.403    19821511.763
        49.300          43.000
 124437246.873 5                  23679621.128
        34.200
 126318506.098 7  98429989.33245  24037617.211    24037616.7874   24037618.1684
        45.400          31.1004
 118422334.617 7  92277141.04944  22535020.418    22535020.0924   22535020.8524
        44.400          29.6004
 111742508.640 7  87072081.20344  21263891.611    21263890.8474   21263891.2564
        42.700          25.0004
 135788534.645 7                  25839690.209
        44.100
 133847033.505 6                  25470216.578
        41.500
 118821007.928 4  92587791.34844  22610890.445    22610889.4484   22610893.4724
        26.700          25.0004
 105422682.652 8  82147536.74748  20061264.726    20061264.4004   20061264.0224
        52.900          51.7004


 111190230.005 7  86641701.34046  21158797.767    21158797.2714   21158797.0374
        43.400          41.1004


 126676496.462 7                  24105733.760
        42.000


 200870390.355 6                  38224376.621
        38.100
 113743940.028 6                  21263236.724    21263237.268
        41.300
 123843325.983 6  96322553.376 5  23143076.008    23143074.797    23143097.595
        40.600          35.400
 198904389.868 6                  37850247.140
        41.900
 121917492.555 7  94824755.262 5  22815201.349    22815201.288    22815204.701
        47.400          33.900
 119849180.094 6  93388960.61243  22806537.833    22806537.8294   22806538.4104
        36.600          18.8004
 202046853.473 7                  38448241.446
        43.200
 138508849.428 6                  26357358.881
        37.400
 134468349.560 6                  25588445.628
        41.400
 127933904.044 8                  24344997.844
        50.000
 122537535.763 7  95307002.069 6  22987731.423    22987732.447    22987736.919
        43.900          39.000
 106808656.674 8  83073380.209 7  19973749.303    19973750.399    19973753.814
        51.300          44.700
 111400047.361 6  86644413.566 6  20803154.091    20803152.184    20803156.495
        40.900          41.600
 25  1  1  5  1 15.0000000  0 29G18R01G15G12G11G20E27E03G25G05E34G29
                                E05E15E26S35R23R17R02S31R15G13S33E08
                                E21E13R14R24R08


 105922478.210 8  82384188.321 7  19814992.132    19814992.154    19814997.732
        50.100          43.000
 124379757.702 5                  23668678.339
        33.000
 126371884.545 7  98471582.94945  24047775.273    24047774.8354   24047774.8774
        44.100          30.4004
 118453884.607 7  92301725.47045  22541024.478    22541024.1744   22541023.8224
        45.300          30.1004
 111774762.274 6  87097213.92744  21270027.664    21270026.8604   21270028.7594
        41.800          25.3004
 135827258.542 6                  25847058.128
        39.300
 133833046.996 7                  25467554.200
        42.200
 118858249.581 6  92616810.90845  22617978.735    22617977.7794   22617980.6684
        39.100          32.6004
 105424626.420 8  82149051.37648  20061634.282    20061633.9524   20061633.9824
        52.100          52.2004


 111159332.970 7  86617625.74547  21152919.486    21152919.0084   21152918.9414
        43.900          44.1004


 126689604.281 7                  24108227.768
        44.600


 200870408.933 6                  38224361.194
        40.900
 113772164.728 6                  21268510.879    21268511.131
        41.800
 123797472.074 6                  23134511.657    23134510.312
        36.300
 123399329.250 5                  23124986.607    23124986.847
        34.300
 198904379.871 7                  37850241.850
        42.500
 121923827.598 7  94829682.469 6  22816386.125    22816388.146    22816391.957
        47.300          39.200
 119802936.417 6  93352926.61443  22797739.118    22797739.0604   22797737.8414
        41.500          18.7004
 202046834.338 7                  38448241.630
        44.400
 138466777.617 6                  26349352.563
        39.600
 134473282.298 6                  25589384.099
        40.300
 127918372.620 8                  24342041.816
        48.900
 122583997.562 7  95343138.980 5  22996446.031    22996445.542    22996449.133
        43.300          34.100
 106789465.953 8  83058454.079 7  19970160.015    19970160.728    19970165.149
        50.900          45.800
 111432651.714 6  86669772.463 7  20809243.799    20809243.236    20809246.465
        41.100          42.700
 25  1  1  5  1 30.0000000  0 28G18R01G12G11G20E27E03G25G05E34G29E05
                                E15E26S35R23R17R02S31R15G13S33E08E21
                                E13R14R24R08
 127970135.851 4                  24351909.055
        27.400
 105887835.385 8  82357243.935 7  19808510.411    19808511.440    19808516.549
        49.800          43.400
 126425274.383 6  98513185.40144  24057934.686    24057934.2084   24057932.8124
        40.700          29.3004
 118485469.125 7  92326336.78145  22547036.055    22547035.7424   22547034.7474
        42.800          30.6004
 111807081.737 6  87122397.90943  21276177.370    21276176.4854   21276178.6584
        39.800          22.9004
 135866030.098 6                  25854437.758
        37.400
 133819161.202 7                  25464912.269
        43.000
 118895576.065 6  92645896.47645  22625080.866    22625079.9274   22625082.8214
        40.400          33.8004
 105426698.080 8  82150665.67648  20062028.251    20062027.9254   20062028.0934
        51.000          51.9004


 111128531.556 7  86593624.67147  21147056.729    21147056.2474   21147058.5854
        45.300          44.0004


 126702734.437 7                  24110726.468
        43.600


 200870430.028 6                  38224371.125
        36.700
 113800458.956 5                  21273801.943    21273799.003
        35.300
                  96251294.937 5                                  23125954.168
                        35.800
 123332043.077 6  95924916.743 5  23112364.378    23112369.771    23112370.265
        36.000          33.400
 198904371.147 7                  37850247.963
        45.000
 121930343.186 7  94834750.103 6  22817604.224    22817605.559    22817609.643
        47.100          38.000
 119756752.706 6  93316939.38842  22788949.718    22788949.6694   22788948.2814
        40.700          17.2004
 202046815.558 7                  38448233.679
        45.700
 138424734.920 6                  26341352.386
        41.100
 134478322.898 6                  25590343.076
        38.800
 127902863.451 7                  24339090.418
        47.500
 122630538.050 7  95379337.099 6  23005180.063    23005180.423    23005182.825
        44.500          36.900
 106770339.542 8  83043577.962 7  19966583.042    19966583.833    19966587.529
        51.200          44.800
 111465427.910 7  86695265.067 7  20815363.230    20815365.138    20815367.821
        42.600          42.800
 25  1  1  5  1 45.0000000  0 29G18R01G15G12G11G20E27E03G25G05E34G29
                                E05E15E26S35R23R17R02S31R15G13S33E08
                                E21E13R14R24R08
 127930961.220 6  99686498.50041  24344457.215    24344457.6444   24344459.0164
        36.400          10.4004
 105853368.727 8  82330436.569 7  19802061.704    19802062.412    19802068.232
        49.000          42.900
 124264845.672 5  96829765.83342  23646814.508    23646814.5254   23646816.9254
        30.600          13.9004
 126478674.082 6  98554795.55344  24068097.338    24068096.8424   24068095.6784
        40.600          27.9004
 118517086.982 7  92350974.09445  22553053.160    22553052.8304   22553053.0824
        43.600          32.8004
 111839465.565 5  87147632.02943  21282341.059    21282340.1614   21282341.3234
        35.300          21.1004
 135904848.024 6                  25861824.157
        41.200
 133805375.025 7                  25462289.325
        43.000
 118932985.635 7  92675046.78946  22632200.982    22632200.0174   22632201.3624
        43.800          37.0004
 105428896.147 8  82152378.45448  20062446.348    20062446.0224   20062446.3774
        51.300          51.7004


 111097824.640 8  86569697.20247  21141213.329    21141212.8644   21141215.8334
        48.200          46.8004


 126715885.537 7                  24113229.817
        44.100


 200870450.015 5                  38224381.092
        34.200
 113828821.743 6                  21279102.906    21279099.844
        37.300
                  96215614.682 5                                  23117383.471
                        30.600
 123264785.048 5  95872604.873 5  23099768.926    23099767.057    23099761.921
        35.100          33.600
 198904362.284 7                  37850238.103
        43.800
 121937037.848 7  94839957.130 6  22818856.212    22818857.117    22818864.635
        46.100          39.700
 119710628.172 7  93280998.24742  22780172.658    22780172.5384   22780170.0974
        43.600          14.2004
 202046797.367 7                  38448231.998
        44.600
 138382720.339 6                  26333356.556
        40.300
 134483470.187 6                  25591323.771
        41.900
 127887375.357 7                  24336142.806
        46.800
 122677155.625 7  95415595.262 6  23013924.274    23013924.100    23013928.192
        45.600          38.800
 106751276.542 8  83028751.141 7  19963019.306    19963020.124    19963023.512
        50.700          45.200
 111498374.384 6  86720890.036 6  20821518.453    20821520.725    20821519.468
        41.200          40.900
 25  1  1  5  2  0.0000000  0 29G18R01G15G12G11G20E27E03G25G05E34G29
                                E05E15E26S35R23R17R02S31R15G13S33E08
                                E21E13R14R24R08
 127891786.887 5  99655973.04842  24337000.824    24337001.0524   24337002.6574
        31.600          13.0004
 105819070.731 7  82303760.374 7  19795645.504    19795644.816    19795653.059
        46.600          43.600
 124207400.572 5                  23635890.256
        30.100
 126532075.326 6  98596406.92444  24078259.408    24078258.8814   24078257.0204
        41.200          28.0004
 118548730.198 6  92375631.15645  22559075.034    22559074.6774   22559075.6024
        41.500          32.8004
 111871905.619 6  87172909.96143  21288514.730    21288513.7914   21288514.5054
        38.100          19.6004
 135943704.159 7                  25869217.852
        42.400
 133791680.712 7                  25459683.189
        42.900
 118970469.948 7  92704255.30246  22639332.867    22639331.9064   22639335.2904
        46.600          39.8004
 105431212.642 8  82154183.52048  20062887.836    20062887.5194   20062887.5214
        50.500          51.9004


 111067204.895 7  86545837.65647  21135386.651    21135386.1824   21135389.3364
        47.500          46.4004


 126729049.833 7                  24115735.206
        42.100


 200870462.398 5                  38224384.817
        32.800
 113857245.081 6                  21284414.243    21284414.971
        39.900
 123659841.405 5  96179920.151 5  23108786.929    23108785.282    23108798.591
        34.500          32.700
                  95820308.831 5                                  23087161.340
                        33.700
 198904345.775 7                  37850231.709
        42.300
 121943903.361 7  94845297.013 6  22820139.332    22820140.531    22820147.709
        46.200          39.300
 119664555.433 7  93245097.57842  22771405.174    22771405.0454   22771401.9254
        42.300          12.7004
 202046771.332 7                  38448222.630
        45.500
 138340726.458 6                  26325367.135
        41.600
 134488716.199 6                  25592322.600
        40.700
 127871900.398 7                  24333197.527
        47.300
 122723841.808 7  95451906.745 6  23022679.940    23022680.601    23022688.123
        43.900          40.600
 106732269.212 8  83013967.623 7  19959464.205    19959464.719    19959469.341
        51.100          45.800
                  86746640.958 7                                  20827702.824
                        42.300
 25  1  1  5  2 15.0000000  0 27G18R01G12G11G20E27E03G25G05E34G29E05
                                E15E26S35R23R17S31R15G13S33E08E21E13
                                R14R24R08
 127852609.631 6  99625429.83941  24329550.015    24329550.1314   24329547.6574
        38.400           8.3004
 105784954.598 7  82277225.644 7  19789265.166    19789264.195    19789271.468
        43.600          43.500
 126585490.675 6  98638029.25644  24088422.928    24088422.3964   24088421.8464
        41.000          29.3004
 118580411.620 7  92400317.99845  22565103.130    22565102.7734   22565104.1854
        45.900          32.5004
 111904414.511 6  87198241.51943  21294699.165    21294698.1774   21294699.5324
        40.000          18.3004
 135982611.116 7                  25876620.327
        42.700
 133778091.233 7                  25457097.578
        45.200
 119008041.517 7  92733531.79046  22646482.069    22646481.0994   22646484.6994
        43.600          38.3004
 105433660.090 8  82156090.60948  20063353.127    20063352.8104   20063353.4374
        50.100          51.4004


 111036685.448 7  86522056.29847  21129578.992    21129578.5324   21129581.4544
        45.600          45.0004


 126742240.225 6                  24118243.038
        39.800


 200870480.612 6                  38224371.724
        39.200
 113885741.792 6                  21289743.995    21289743.929
        39.600
 123613943.234 6  96144221.573 5  23100210.867    23100212.707    23100222.292
        39.300          32.500
 198904335.164 7                  37850235.174
        42.400
 121950952.792 7  94850779.822 6  22821461.788    22821461.462    22821466.480
        47.100          40.800
 119618547.645 6  93209247.38943  22762650.853    22762650.7374   22762647.6284
        41.400          18.6004
 202046749.819 7                  38448220.734
        44.500
 138298766.352 6                  26317379.767
        37.600
 134494073.666 4                  25593339.371
        28.200
 127856451.434 7                  24330257.401
        43.800
 122770608.778 6  95488281.180 7  23031452.375    23031450.835    23031461.661
        38.000          43.700
 106713330.749 8  82999237.719 7  19955922.714    19955923.113    19955927.391
        52.300          44.800
 111564761.092 6  86772527.515 7  20833926.281                    20833917.534
        40.200          42.000
 25  1  1  5  2 30.0000000  0 27G18R01G12G11G20E27E03G25G05E34G29E15
                                E26S35R23R17R02S31R15G13S33E08E21E13
                                R14R24R08
 127813454.035 5  99594918.97041  24322099.997    24322100.2924   24322093.5884
        35.100           6.4004
 105751013.174 7  82250826.768 7  19782914.331    19782915.725    19782921.299
        46.700          43.100
 126638912.375 6  98679656.57444  24098588.043    24098587.4714   24098587.6594
        41.800          28.7004
 118612123.781 7  92425028.80345  22571137.236    22571136.8834   22571138.4614
        44.400          32.6004
 111936984.543 6  87223620.82043  21300898.263    21300897.2534   21300897.2374
        39.700          18.6004
 136021561.028 7                  25884033.064
        42.900
 133764599.286 7                  25454529.502
        46.200
 119045692.444 7  92762870.10846  22653647.600    22653646.6484   22653649.9424
        46.800          38.7004
 105436231.224 8  82158094.10948  20063842.373    20063842.0654   20063842.8744
        50.200          52.2004
 145389489.703 5                  27666700.996
        33.900
 111006258.855 7  86498347.26047  21123789.229    21123788.7644   21123790.9444
        47.200          46.2004
 126755449.072 7                  24120758.301
        43.600




 113914304.428 4                  21295081.197    21295081.306
        29.700
 123568032.051 5  96108512.689 5  23091630.926    23091628.046    23091641.981
        33.100          34.500
 123063125.508 5                  23061976.645    23061974.638
        33.900
 198904321.408 7                  37850233.703
        44.200
 121958178.064 7  94856399.512 6  22822813.388    22822814.154    22822819.141
        44.900          40.200
 119572597.920 7  93173442.48843  22753906.350    22753906.2074   22753905.2354
        42.900          20.2004
 202046726.742 7                  38448215.860
        44.000
 138256832.525 5                  26309403.994
        34.700
 134499535.164 6                  25594379.058
        36.000
 127841021.022 7                  24327320.917
        43.300
 122817448.716 7  95524712.145 6  23040242.979    23040242.465    23040247.836
        43.700          41.800
 106694453.777 8  82984555.605 7  19952392.670    19952392.535    19952397.242
        49.500          44.500
 111598210.352 6  86798543.684 6  20840161.481    20840164.551    20840162.584
        40.300          41.900
 25  1  1  5  2 45.0000000  0 29G18R01G15G12G11G20E27E03G25G05E34G29
                                E05E15E26S35R23R17R02S31R15G13S33E08
                                E21E13R14R24R08
 127774310.712 6  99564417.71341  24314653.957    24314654.3284   24314648.6044
        37.300           6.8004
 105717253.327 7  82224569.109 7  19776598.998    19776600.193    19776606.071
        45.000          42.500
 124035122.460 5  96650781.81042  23603116.224    23603116.0644   23603105.1864
        34.200          15.0004
 126692346.486 6  98721293.53745  24108757.252    24108756.7024   24108756.1824
        41.300          30.9004
 118643873.189 7  92449768.62445  22577178.872    22577178.5244   22577180.0254
        45.600          31.6004
 111969622.091 6  87249052.60142  21307107.359    21307106.3494   21307107.2164
        41.600          17.6004
 136060560.428 7                  25891454.266
        43.300
 133751211.514 7                  25451982.102
        46.200
 119083428.957 7  92792275.14546  22660828.863    22660827.9384   22660829.6114
        45.900          37.5004
 105438932.557 8  82160199.03448  20064356.649    20064356.3324   20064356.7224
        50.900          52.2004
 145418971.017 5                  27672311.047
        33.100
 110975932.056 8  86474715.98347  21118018.281    21118017.8124   21118018.5224
        48.600          45.8004


 126768683.171 6                  24123275.056
        39.200




 113942943.802 6                  21300432.810    21300438.865
        37.500
 123522114.688 6  96072799.231 5  23083059.564    23083057.354    23083054.937
        37.400          31.500
 122995983.407 5                  23049401.075    23049411.507
        30.000
 198904312.197 7                  37850232.017
        44.100
 121965586.195 6  94862161.387 6  22824195.325    22824194.982    22824204.209
        39.200          38.600
 119526713.151 6  93137688.15242  22745174.253    22745174.1424   22745172.5494
        39.700          17.2004
 202046707.946 7                  38448216.383
        45.500
 138214932.117 6                  26301430.537
        39.600
 134505107.255 6                  25595440.157
        38.800
 127825615.667 7                  24324390.252
        45.000
 122864367.779 7  95561204.792 7  23049044.208    23049042.327    23049050.994
        42.900          42.300
 106675645.209 8  82969926.669 7  19948873.384    19948874.696    19948879.148
        50.400          42.300
 111631832.487 6  86824694.169 6  20846441.912    20846440.876    20846440.988
        38.800          39.100
 25  1  1  5  3  0.0000000  0 28G18R01G15G12G11G20E27E03G25G05E34G29
                                E05E15E26S35R23R17S31R15G13S33E08E21
                                E13R14R24R08
 127735172.375 5  99533920.1484   24307219.097    24307219.6334   24307202.9594
        30.000           3.2004
 105683667.828 7  82198447.043 6  19770314.132    19770313.977    19770322.382
        44.000          40.800
 123977736.585 5  96606065.57741  23592183.119    23592182.8834   23592182.5284
        34.800          11.4004
 126745785.148 7  98762934.04544  24118925.724    24118925.2374   24118925.6094
        42.200          29.9004
 118675652.415 7  92474531.65645  22583227.663    22583227.3154   22583227.0864
        42.100          31.0004
 112002319.468 6  87274531.06342  21313330.128    21313329.0964   21313329.0454
        40.400          17.2004
 136099601.517 7                  25898883.767
        42.100
 133737920.654 7                  25449452.261
        45.300
 119121243.209 7  92821740.75646  22668024.217    22668023.2964   22668025.4944
        46.400          37.4004
 105441756.383 8  82162399.42048  20064893.836    20064893.5104   20064893.9924
        51.100          52.5004
 145448450.984 5                  27677917.653
        32.200
 110945697.939 8  86451156.93347  21112264.608    21112264.1524   21112263.9694
        48.700          44.9004


 126781934.940 6                  24125798.793
        38.100




 113971644.387 5                  21305809.853    21305812.999
        35.300
                  96037075.201 6                                  23074471.241
                        36.500
 198904299.882 6                  37850218.893
        41.100
 121973169.103 7  94868059.108 6  22825619.305    22825620.970    22825624.137
        44.400          39.700
 119480886.259 6  93101978.90342  22736455.273    22736455.1174   22736451.9824
        41.600          17.7004
 202046685.563 7                  38448210.498
        43.200
 138173058.053 5                  26293458.679
        35.600
 134510782.383 6                  25596519.791
        36.900
 127810227.909 7                  24321462.233
        44.700
 122911357.562 7  95597752.371 7  23057859.206    23057857.711    23057865.908
        43.200          42.100
 106656897.560 7  82955345.171 7  19945368.548    19945367.365    19945373.866
        47.500          43.000
 111665619.317 6  86850972.788 6  20852749.271    20852750.166    20852751.789
        40.200          40.100
 25  1  1  5  3 15.0000000  0 27G18R01G15G12G11G20E27E03G25G05E34G29
                                E15E26S35R17R02S31R15G13S33E08E21E13
                                R14R24R08
 127696042.675 5  99503429.5584   24299751.350    24299752.1864   24299756.8544
        34.600           4.4004
 105650261.291 7  82172464.197 6  19764067.754    19764066.611    19764073.830
        47.400          41.400
 123920365.758 4                  23581269.397
        27.500
 126799231.746 6  98804580.73244  24129095.808    24129095.3754   24129095.4074
        40.000          28.7004
 118707465.405 7  92499321.00145  22589280.749    22589280.4014   22589280.8714
        44.300          31.6004
 112035080.331 7  87300059.06943  21319564.669    21319563.6104   21319564.5004
        45.300          23.0004
 136138687.926 6                  25906321.059
        40.200
 133724730.607 7                  25446943.736
        44.100
 119159138.693 7  92851269.67046  22675235.148    22675234.2364   22675237.1394
        47.200          37.8004
 105444706.330 8  82164698.03348  20065455.462    20065455.1274   20065455.0104
        51.900          51.5004
 145477933.520 5                  27683527.852
        30.600
 110915560.706 8  86427673.40347  21106529.923    21106529.4634   21106528.4384
        48.500          45.4004
 126795208.177 6                  24128320.413
        38.500




 123430261.066 5  96001343.731 6  23065895.155                    23065882.140
        30.100          38.600
 122861921.493 6  95559177.816 6  23024235.203    23024239.331    23024247.565
        40.500          37.500
 198904288.187 6                  37850225.922
        39.800
 121980931.746 6  94874095.850 6  22827066.319    22827063.940    22827074.780
        41.500          40.100
 119435121.837 6  93066318.25842  22727744.511    22727744.3774   22727743.7484
        36.600          15.3004
 202046663.991 7                  38448199.646
        44.100
 138131214.101 6                  26285500.076
        38.300
 134516564.354 7                  25597621.672
        42.500
 127794861.570 7                  24318538.118
        43.900
 122958421.848 7  95634357.897 6  23066690.622    23066690.114    23066692.842
        46.600          39.700
 106638215.223 8  82940814.476 7  19941874.122    19941873.423    19941880.867
        48.200          44.200
 111699574.581 6  86877382.449 7  20859086.416    20859087.309    20859095.439
        37.700          45.600
 25  1  1  5  3 30.0000000  0 24G18R01G12G11G20E27E03G25G05E34G29E15
                                E26S35R17S31R15S33E08E21E13R14R24R08


 105617033.620 8  82146620.465 6  19757851.027    19757850.872    19757856.290
        48.600          39.400
 126852686.168 6  98846233.55644  24139268.494    24139268.1284   24139269.1624
        38.700          28.2004
 118739311.740 7  92524136.34745  22595341.190    22595340.8464   22595340.9394
        45.400          31.4004
 112067904.239 6  87325636.04343  21325810.714    21325809.6414   21325812.1304
        41.400          23.6004
 136177819.194 7                  25913768.272
        42.000
 133711641.458 7                  25444452.041
        45.300
 119197114.968 7  92880861.47946  22682461.294    22682460.3914   22682464.5154
        43.300          36.7004
 105447782.098 8  82167094.78748  20066040.879    20066040.5494   20066040.2074
        49.500          52.2004
 145507418.742 4                  27689137.855
        26.900
 110885520.527 7  86404265.43647  21100814.099    21100813.6394   21100812.2024
        47.400          44.9004
 126808502.916 6                  24130852.933
        40.400




                  95965605.016 6                  23057291.069    23057300.389
                        40.400
 198904276.624 6                  37850218.128
        40.900
 121988871.436 6  94880271.164 6  22828555.687    22828556.809    22828561.277
        40.500          40.800
 202046643.401 6                  38448197.973
        36.000
 138089400.518 5                  26277540.609
        34.200
 134522453.045 6                  25598740.834
        39.200
 127779516.582 7                  24315616.916
        44.900
 123005559.563 7  95671020.551 7  23075531.345    23075532.403    23075536.446
        46.900          42.100
 106619597.960 8  82926334.360 7  19938393.594    19938394.165    19938398.246
        50.100          42.200
 111733697.673 6  86903922.667 6  20865456.853    20865456.089    20865464.290
        37.600          41.600
 25  1  1  5  3 45.0000000  0 26G18R01G12G11G20E27E03G25G05E34G29E15
                                E26S35R23R17S31R15G13S33E08E21E13R14
                                R24R08
 127617824.322 5                  24284866.195
        32.900
 105583986.337 7  82120917.076 7  19751669.599    19751668.787    19751675.331
        47.900          43.300
 126906148.986 6  98887892.84744  24149443.300    24149442.9204   24149442.9574
        41.300          27.7004
 118771192.655 7  92548978.62945  22601408.261    22601407.9174   22601407.6704
        45.100          31.4004
 112100791.870 7  87351262.80743  21332069.339    21332068.2574   21332070.9534
        45.100          23.9004
 136216996.323 6                  25921222.685
        40.800
 133698654.261 7                  25441981.083
        44.700
 119235172.524 7  92910516.78345  22689703.683    22689702.7894   22689707.6004
        42.700          34.8004
 105450984.673 8  82169590.26548  20066650.850    20066650.5154   20066649.6674
        51.000          52.4004


 110855578.949 7  86380934.37846  21095115.166    21095114.6934   21095114.3714
        43.900          40.5004
 126821820.040 6                  24133386.472
        39.200




 114058352.441 6                  21321974.108    21321973.904
        38.800
 123338351.849 6  95929859.673 6  23048707.885    23048705.831    23048709.535
        37.400          40.900
 198904267.448 7                  37850222.721
        45.200
 121996990.145 6  94886585.796 6  22830075.793    22830073.704    22830078.208
        40.400          40.500
 119343747.108 6  92995139.39542  22710363.195    22710362.3954   22710363.2214
        38.400          12.8004
 202046624.271 6                  38448194.883
        41.800
 138047618.549 6                  26269595.135
        37.800
 134528449.198 6                  25599881.864
        37.500
 127764194.002 6                  24312702.082
        41.600
 123052771.247 7  95707740.712 6  23084390.507    23084390.473    23084392.481
        45.800          39.800
 106601047.318 8  82911906.095 6  19934925.233    19934926.525    19934927.820
        50.900          39.000
 111767989.239 6  86930593.829 6  20871863.282    20871865.078    20871866.183
        36.600          36.800
 25  1  1  5  4  0.0000000  0 27G18R01G12G11G20E27E03G25G05E34G29E15
                                E26S35R23R17R02S31R15G13S33E08E21E13
                                R14R24R08
 127578742.205 6                  24277424.042
        37.400
 105551118.025 8  82095352.852 7  19745521.021    19745521.120    19745526.555
        48.800          42.400
 126959618.198 6  98929557.18644  24159615.819    24159615.4174   24159618.4074
        40.300          26.8004
 118803106.403 7  92573846.47944  22607480.503    22607480.1414   22607480.2274
        42.400          29.5004
 112133741.554 6  87376937.86044  21338339.635    21338338.5534   21338341.3034
        39.800          24.4004
 136256217.216 7                  25928686.301
        42.300
 133685767.605 7                  25439528.502
        45.100
 119273309.600 7  92940233.92745  22696961.139    22696960.2414   22696964.7354
        43.600          35.6004
 105454312.247 8  82172183.18848  20067283.859    20067283.5204   20067282.3174
        53.500          51.4004


 110825734.374 7  86357678.87347  21089436.621    21089436.1704   21089435.3974
        46.400          44.5004
 126835158.070 6                  24135925.061
        38.100


 200870466.902 5                  38224404.314
        34.200
 114087330.379 6                  21327390.213    21327394.508
        41.400
 123292383.553 6  95894106.546 6  23040116.897    23040118.563    23040118.770
        40.100          39.700
 122660692.884 6                  22986562.407    22986560.460
        39.200
 198904258.197 6                  37850212.597
        39.300
 122005286.124 6  94893038.152 7  22831626.801    22831626.614    22831634.190
        41.900          42.400
 119298171.941 5  92959624.21441  22701689.248    22701689.1554   22701689.8794
        34.200          11.1004
 202046604.999 6                  38448189.491
        39.500
 138005865.206 5                  26261645.382
        32.100
 134534551.295 5                  25601043.449
        35.600
 127748892.004 7                  24309790.759
        44.400
 123100054.738 6  95744516.683 6  23093256.661    23093254.203    23093264.113
        39.100          40.100
 106582561.754 8  82897528.489 6  19931467.244    19931467.810    19931472.105
        51.100          41.800
                  86957394.401 5                                  20878304.090
                        35.300
 25  1  1  5  4 15.0000000  0 28G18R01G15G12G11G20E27E03G25G05E34G29
                                E15E26S35R23R17R02S31R15G13S33E08E21
                                E13R14R24R08
 127539646.485 6                  24269985.126
        36.100
 105518428.709 8  82069927.836 6  19739405.551    19739406.360    19739412.313
        50.200          41.500
 123691054.474 6  96382667.34942  23537622.731    23537622.8784   23537628.7474
        36.200          17.4004
 127013092.865 5  98971225.79244  24169793.477    24169793.0304   24169794.9934
        35.100          25.1004
 118835052.634 7  92598739.66145  22613559.569    22613559.1944   22613559.8414
        44.400          31.9004
 112166752.581 7  87402660.77943  21344621.374    21344620.2574   21344622.2834
        42.700          18.5004
 136295481.372 6                  25936158.034
        39.600
 133672981.103 7                  25437095.500
        44.800
 119311525.197 7  92970012.27346  22704233.072    22704232.2054   22704237.0154
        45.200          36.7004
 105457763.970 8  82174872.83648  20067940.377    20067940.0334   20067939.3414
        52.500          52.1004


 110795986.709 6  86334498.84346  21083776.182    21083775.6954   21083775.1954
        38.700          41.1004
 126848516.597 6                  24138467.076
        38.200




 114116376.367 7                  21332823.104    21332823.590
        42.400
 123246404.597 6  95858345.313 6  23031518.205    23031519.302    23031526.887
        38.900          39.400
 122593736.258 6  95350714.484 5  22974014.261    22974014.111    22974021.590
        40.300          31.400
 198904247.911 7                  37850219.430
        43.000
 122013758.822 7  94899628.028 7  22833211.563    22833211.862    22833220.923
        42.600          43.700
 119252659.875 5  92924160.30442  22693028.950    22693028.5124   22693029.9834
        32.000          12.7004
 202046584.823 7                  38448188.525
        44.300


 134540758.874 7                  25602224.724
        42.800
 127733610.365 7                  24306882.191
        46.000
 123147409.083 6  95781347.785 6  23102141.572    23102142.157    23102149.473
        41.700          39.400
 106564140.995 8  82883201.200 7  19928023.886    19928024.902    19928028.348
        51.200          45.100
 111836955.521 6  86984323.904 6  20884763.523    20884766.563    20884768.987
        40.900          39.700
 25  1  1  5  4 30.0000000  0 28G18R01G15G12G11G20E27E03G25G05E34G29
                                E15E26S35R23R17R02S31R15G13S33E08E21
                                E13R14R24R08
 127500560.967 6  99351025.22741  24262546.785    24262547.3394   24262540.0044
        36.200           9.1004
 105485920.980 7  82044644.118 6  19733322.960    19733322.816    19733330.728
        47.800          41.700
 123633765.321 5  96338026.41243  23526722.731    23526722.6114   23526725.7504
        35.300          22.5004


 118867033.546 7  92623659.83445  22619645.393    22619645.0364   22619646.0684
        44.700          31.6004
 112199826.933 6  87428432.96643  21350914.498    21350913.3544   21350915.2964
        39.900          18.8004
 136334790.936 6                  25943638.212
        41.200
 133660297.287 7                  25434682.234
        46.400
 119349821.310 6  92999853.37046  22711520.134    22711519.2634   22711524.7764
        39.700          36.1004
 105461342.639 8  82177661.39548  20068621.392    20068621.0484   20068620.4994
        50.300          51.6004


 110766338.539 7  86311396.33947  21078134.983    21078134.5014   21078133.3444
        45.600          42.9004
 126861897.902 6                  24141013.648
        41.600
 148377146.427 5                  28235230.288
        32.100
 200870529.389 6                  38224407.077
        38.400
 114145492.953 7                  21338264.905    21338265.402
        42.600
                  95822578.068 6                  23022924.154    23022932.250
                        39.600
 122526814.800 5  95298664.290 5  22961472.346    22961469.470    22961480.061
        34.100          33.600
 198904239.808 6                  37850212.154
        41.500
 122022410.179 6  94906357.006 7  22834833.809    22834831.368    22834838.971
        40.200          43.700
 119207201.269 6  92888748.32342  22684380.738    22684380.3144   22684381.2524
        36.100          16.6004
 202046566.937 7                  38448183.709
        43.000
 137922511.667 6                  26245783.031
        37.100
 134547074.208 7                  25603427.483
        44.800
 127718351.243 7                  24303978.120
        45.700
 123194836.178 6  95818235.529 6  23111039.130    23111038.530    23111044.174
        40.500          37.800
 106545787.695 8  82868926.426 7  19924590.694    19924590.986    19924596.373
        52.000          45.500
 111871746.651 6  87011383.595 6  20891267.628    20891267.511    20891265.141
        41.000          39.200
 25  1  1  5  4 45.0000000  0 27G18R01G12G11G20E27E03G25G05E34G29E05
                                E15E26S35R23R17S31R15G13S33E08E21E13
                                R14R24R08


 105453587.930 8  82019496.269 7  19727275.355    19727274.669    19727281.204
        48.400          42.200
 127120125.269 5  99054652.56643  24190148.697    24190148.2244   24190154.2594
        35.300          21.4004
 118899042.085 7  92648601.54445  22625736.042    22625735.6944   22625737.3084
        45.100          30.0004
 112232957.591 7  87454248.99443  21357219.152    21357218.0214   21357219.9934
        42.600          20.1004
 136374138.303 7                  25951126.511
        44.600
 133647709.188 7                  25432286.126
        44.100
 119388190.425 7  93029751.43145  22718821.955    22718821.0664   22718824.8304
        42.200          34.5004
 105465040.805 8  82180543.06848  20069325.179    20069324.8404   20069324.3374
        49.200          50.5004


 110736783.057 7  86288366.10846  21072509.440    21072508.9534   21072508.6874
        47.200          41.3004


 126875294.862 6                  24143562.209
        38.400


 200870544.715 6                  38224401.832
        37.000
 114174673.339 6                  21343719.678    21343718.600
        41.300
 123154415.737 5  95786799.069 7  23014338.124                    23014337.670
        31.200          42.700
 198904226.511 6                  37850208.568
        41.800
 122031234.191 6  94913219.345 6  22836484.149    22836480.958    22836489.120
        40.500          41.900
 119161813.529 5  92853381.21142  22675745.628    22675745.0524   22675744.7654
        33.700          12.6004
 202046544.328 7                  38448172.932
        43.400
 137880847.881 6                  26237854.153
        37.000
 134553490.071 6                  25604647.843
        40.700
 127703107.663 7                  24301076.962
        43.000
 123242328.221 7  95855173.810 6  23119947.822    23119946.624    23119954.861
        44.400          38.700
 106527494.927 8  82854698.700 7  19921170.833    19921171.286    19921175.059
        52.800          44.500
 111906697.587 6  87038567.705 6  20897790.228    20897789.484    20897792.020
        37.600          39.600
 25  1  1  5  5  0.0000000  0 29G18R01G15G12G11G20E27E03G25G05E34G29
                                E05E15E26S35R23R17R02S31R15G13S33E08
                                E21E13R14R24R08
 127422447.310 6  99290157.13641  24247674.170    24247674.7244   24247673.1564
        38.700          10.6004
 105421439.987 8  81994492.299 6  19721261.533    19721261.754    19721267.337
        49.600          40.100


 127173616.591 5  99096334.20143  24200325.998    24200325.6454   24200329.7144
        35.900          22.1004
 118931087.862 7  92673572.23445  22631834.457    22631834.1134   22631835.1754
        43.800          30.0004
 112266153.775 5  87480116.13343  21363536.808    21363535.7004   21363537.3994
        34.300          21.9004
 136413533.042 7                  25958622.587
        42.600
 133635226.381 7                  25429910.728
        46.500
 119426641.913 6  93059713.57845  22726138.707    22726137.8364   22726141.4194
        41.200          35.3004
 105468867.469 8  82183524.89048  20070053.286    20070052.9474   20070052.7064
        50.900          49.4004


 110707330.282 8  86265415.94947  21066903.504    21066903.0174   21066903.6514
        49.100          42.7004
 137484168.669 5                  26162368.930
        31.500
 126888717.125 6                  24146116.410
        38.100
 148317261.845 5                  28223834.251
        31.800
 200870564.640 6                  38224394.293
        37.900
 114203926.812 6                  21349189.899    21349186.947
        37.700
                  95751016.027 7                                  23005741.472
                        43.200
 122393093.576 6                  22936419.447
        40.900
 198904217.874 7                  37850216.608
        42.100
 122040238.002 6  94920222.316 6  22838167.135    22838165.901    22838173.911
        39.200          41.500
 119116494.949 5  92818067.98142  22667122.491    22667122.2234   22667120.7854
        35.400          13.4004
 202046525.765 6                  38448170.768
        40.200
 137839219.827 5                  26229923.168
        30.500
 134560016.160 6                  25605890.114
        40.200
 127687889.194 7                  24298182.953
        42.600
 123289894.210 7  95892169.629 6  23128872.698    23128873.360    23128879.393
        45.300          41.400
 106509272.602 8  82840525.812 7  19917762.887    19917763.695    19917767.271
        53.900          45.500
 111941817.732 4  87065883.518 4  20904347.669                    20904350.781
        28.800          28.100
 25  1  1  5  5 15.0000000  0 29G18R01G15G12G11G20E27E03G25G05E34G29
                                E05E15E26S35R23R17R02S31R15G13S33E08
                                E21E13R14R24R08
 127383344.339 6                  24240240.922
        36.900
 105389467.361 8  81969624.710 6  19715280.197    19715279.680    19715286.828
        48.500          40.000
 123461965.150 6  96204137.05643  23494029.868    23494029.7614   23494033.1324
        37.800          18.9004
 127227107.021 5  99138015.05143  24210504.528    24210504.3504   24210505.4364
        33.200          23.1004
 118963161.087 7  92698564.36245  22637937.153    22637936.8144   22637938.0724
        45.000          30.0004
 112299405.325 6  87506026.42243  21369863.737    21369862.6644   21369865.8944
        38.700          22.1004
 136452965.040 7                  25966126.725
        43.700
 133622839.445 7                  25427553.428
        46.100
 119465165.671 6  93089732.12845  22733468.827    22733467.9734   22733473.2664
        37.500          34.2004
 105472813.093 8  82186599.40148  20070804.308    20070803.9604   20070803.5414
        50.900          49.9004


 110677970.739 7  86242538.42347  21061316.887    21061316.4274   21061317.5084
        46.400          43.9004
 137507150.653 5                  26166741.758
        30.600
 126902154.907 5                  24148674.197
        35.400
 148287329.123 5                  28218139.234
        30.700
 200870578.740 5                  38224409.626
        35.800
 114233243.783 6                  21354666.802    21354666.531
        39.000
 123062386.970 7  95715221.822 6  22997140.484    22997137.599    22997142.305
        42.100          41.400
 122326268.541 6                  22923896.810    22923899.264
        36.100
 198904203.231 7                  37850210.214
        43.300
 122049412.711 7  94927358.252 6  22839885.718    22839884.744    22839888.685
        44.700          41.000
 119071236.177 4                  22658511.579
        28.100
 202046501.343 7                  38448174.497
        45.300
 137797620.348 5                  26222007.468
        33.900
 134566642.564 6                  25607149.487
        39.600
 127672686.099 7                  24295287.909
        42.200
 123337524.031 7  95929215.115 6  23137808.656    23137808.847    23137810.444
        43.000          36.000
 106491110.895 9  82826400.046 7  19914366.781    19914366.747    19914371.127
        54.100          46.400
 111977101.873 5  87093322.775 5  20910936.255    20910941.993    20910939.073
        35.800          33.200
 25  1  1  5  5 30.0000000  0 27G18R01G15G12G11G20E27E03G25G05E34G29
                                E05E15E26S35R23R17R02S31R15S33E08E21
                                E13R14R24
 127344286.211 4  99229275.71841  24232808.855    24232808.9714   24232804.7524
        28.700          10.5004
 105357676.779 7  81944898.781 6  19709332.680    19709332.234    19709339.409
        47.400          39.400
 123404739.710 6  96159545.79743  23483143.930    23483143.8054   23483142.2404
        40.100          20.5004
 127280583.156 6  99179678.37343  24220686.189    24220686.1634   24220687.7554
        38.100          22.8004
 118995268.093 7  92723582.85545  22644047.540    22644047.1924   22644048.2094
        43.800          30.7004
 112332718.438 7  87531984.69743  21376203.401    21376202.3864   21376205.6984
        44.200          22.3004
 136492440.484 7                  25973639.805
        44.600
 133610554.751 7                  25425216.577
        45.100
 119503767.335 6  93119811.31345  22740815.991    22740815.1464   22740820.8624
        37.100          33.2004
 105476884.161 8  82189771.68248  20071579.477    20071579.1334   20071578.3884
        49.500          50.2004


 110648711.112 7  86219738.69247  21055749.839    21055749.3744   21055750.2894
        45.800          44.9004
 137530222.673 5                  26171130.473
        30.400
 126915614.723 6                  24151235.350
        41.100
 148257398.950 4                  28212443.721
        27.800
 200870644.553 6                  38224419.182
        40.700
 114262630.928 6                  21360160.204    21360159.401
        41.700
 123016357.445 6  95679421.067 6  22988537.016    22988537.927    22988538.903
        37.800          40.800
 122259478.292 4                  22911368.126
        27.800
 198904190.762 7                  37850211.788
        44.300
 122058764.716 7  94934632.038 6  22841634.781    22841635.192    22841640.108
        45.800          40.700
 202046478.603 7                  38448166.918
        44.000


 134573375.482 6                  25608431.671
        40.100
 127657504.666 7                  24292400.233
        42.900
 123385223.123 6  95966314.421 6  23146753.157    23146752.347    23146759.998
        37.700          37.700
 106473016.619 8  82812326.724 7  19910983.597    19910984.657    19910987.755
        53.700          46.300
 25  1  1  5  5 45.0000000  0 27G18R01G15G12G11G20E27E03G25G05E34G29
                                E05E15E26S35R23R17S31R15G13S33E08E21
                                E13R14R24
 127305238.174 6  99198848.68742  24225380.728    24225381.0144   24225377.2524
        41.100          17.8004
 105326069.013 7  81920315.041 6  19703420.081    19703419.377    19703426.453
        47.200          39.500
 123347534.013 7  96114969.85842  23472255.561    23472255.5394   23472255.9414
        42.700          17.1004
 127334084.156 6  99221367.51143  24230867.024    24230867.2474   24230866.0844
        37.700          23.5004
 119027409.253 7  92748627.89245  22650164.357    22650164.0224   22650164.1014
        47.600          32.4004
 112366093.317 6  87557991.02643  21382554.781    21382553.8204   21382556.2834
        38.000          19.5004
 136531959.551 7                  25981158.658
        43.800
 133598372.789 7                  25422897.798
        43.900
 119542447.430 6  93149951.65445  22748174.598    22748173.8384   22748181.1754
        39.000          30.2004
 105481080.714 8  82193041.71548  20072377.488    20072377.1444   20072376.9534
        52.000          49.1004


 110619552.279 7  86197017.53147  21050201.410    21050200.9374   21050201.1394
        47.100          44.0004
 137553384.389 5                  26175539.309
        32.700
 126929096.792 6                  24153799.444
        41.100
 148227485.059 5                  28206748.418
        30.300
 200870661.265 6                  38224404.403
        38.500
 114292088.488 7                  21365669.974    21365670.323
        45.000
 122970320.119 6  95643614.222 5  22979928.027    22979928.015    22979934.281
        40.700          32.500
 198904179.152 6                  37850201.646
        39.900
 122068294.201 7  94942043.818 6  22843419.169    22843418.632    22843422.832
        46.400          38.600
 118980984.701 5                  22641320.457
        33.400
 202046456.648 6                  38448153.601
        40.100
 137714519.246 5                  26206193.009
        33.000
 134580215.396 6                  25609732.060
        38.700
 127642345.244 7                  24289515.306
        42.900
 123432991.863 6  96003467.762 6  23155712.124    23155711.891    23155721.895
        40.500          36.800
 106454990.384 8  82798306.319 7  19907611.352    19907611.775    19907616.728
        52.200          45.700
 25  1  1  5  6  0.0000000  0 28G18R01G15G12G11G20E27E03G25G05E34G29
                                E05E15E26S35R23R17S31R15G13S33E08E21
                                E13R14R24R08
 127266197.050 6  99168427.06543  24217952.548    24217952.6824   24217949.5344
        41.000          22.0004
 105294641.686 7  81895871.564 6  19697540.718    19697540.280    19697547.083
        47.500          39.100
 123290345.385 6  96070407.41442  23461373.443    23461373.4964   23461371.6234
        38.800          15.1004
 127387587.274 6  99263058.23943  24241046.908    24241047.1494   24241045.2464
        37.500          21.5004
 119059581.840 7  92773697.42045  22656286.149    22656285.8104   22656286.5794
        46.400          32.8004
 112399527.116 6  87584043.35142  21388916.817    21388915.8434   21388918.6554
        39.300          17.1004
 136571519.275 7                  25988686.045
        44.400
 133586291.003 7                  25420598.891
        43.000
 119581202.462 6  93180150.32144  22755550.858    22755550.1074   22755554.2284
        36.100          28.5004
 105485400.061 8  82196407.46648  20073199.082    20073198.7474   20073198.4354
        52.400          49.5004


 110590491.345 7  86174372.66747  21044671.334    21044670.8744   21044671.5354
        46.200          43.6004


 126942598.618 6                  24156369.471
        40.400


 200870676.628 5                  38224426.971
        32.600
 114321613.880 7                  21371189.439    21371190.299
        44.100
 122924272.401 6                  22971325.348    22971325.664
        41.600
 198904165.822 7                  37850203.153
        42.400
 122077998.028 7  94949591.265 6  22845235.379    22845236.261    22845239.612
        47.300          40.200
 118935924.290 6                  22632748.906
        37.100
 202046434.377 6                  38448166.417
        41.300


 134587159.605 7                  25611054.861
        43.300
 127627205.207 7                  24286635.012
        47.100
 123480826.779 7  96040672.798 6  23164691.211    23164690.574    23164694.017
        43.400          37.100
 106437029.493 8  82784336.731 7  19904252.285    19904252.021    19904258.361
        50.600          47.300
 112083926.755 5                  20930888.021    20930888.542
        32.200
 25  1  1  5  6 15.0000000  0 28G18R01G15G12G11G20E27E03G25G05E34G29
                                E05E15E26S35R23R17S31R15G13S33E08E21
                                E13R14R24R08
 127227167.287 6  99138014.32043  24210524.817    24210524.9824   24210524.0344
        40.500          21.6004
 105263399.432 8  81871572.103 6  19691696.134    19691696.428    19691701.608
        49.500          36.800
 123233178.921 4  96025861.95141  23450498.900    23450499.1544   23450492.8904
        29.900          11.7004
 127441069.497 6  99304719.72443  24251230.786    24251230.4564   24251227.2874
        36.600          19.2004
 119091790.217 7  92798794.86745  22662415.011    22662414.6724   22662415.5514
        45.200          31.1004
 112433023.861 6  87610144.76242  21395291.335    21395290.3564   21395292.1794
        37.700          15.4004
 136611123.665 6                  25996222.220
        40.600
 133574313.816 7                  25418319.907
        45.100
 119620036.478 5  93210410.59944  22762941.680    22762940.8804   22762942.9544
        33.600          27.5004
 105489846.107 8  82199871.91448  20074044.823    20074044.4884   20074043.8444
        50.200          48.8004


 110561532.976 7  86151807.70947  21039160.694    21039160.2524   21039161.1414
        46.300          42.5004


 126956124.348 6                  24158942.952
        41.400


 200870695.409 5                  38224431.506
        35.900
 114351211.384 7                  21376721.280    21376721.133
        43.500
 122878218.791 7  95571923.121 4  22962720.946    22962720.026    22962722.147
        42.300          28.800
 198904156.255 6                  37850200.041
        41.500
 122087880.436 7  94957277.507 6  22847083.941    22847083.408    22847091.400
        42.000          40.300
 118890933.962 5                  22624184.545
        33.600
 202046413.722 7                  38448154.151
        44.200
 137631459.376 6                  26190397.331
        36.000
 134594212.159 6                  25612396.199
        40.700
 127612088.922 7                  24283757.048
        45.300
 123528731.678 7  96077932.158 6  23173676.599    23173674.220    23173681.250
        42.000          36.600
 106419138.944 8  82770421.876 7  19900906.017    19900906.054    19900912.192
        51.100          47.300
 112119907.692 5  87204402.795 5  20937596.150                    20937605.720
        32.800          35.300
 25  1  1  5  6 30.0000000  0 28G18R01G15G12G11G20E27E03G25G05E34G29
                                E05E15E26S35R23R17R02S31R15S33E08E21
                                E13R14R24R08
 127188144.852 5  99107607.56941  24203112.579    24203112.7754   24203098.5964
        32.000          10.4004
 105232337.694 8  81847412.966 6  19685885.613    19685885.765    19685890.368
        48.900          37.400
 123176029.587 5  95981330.17342  23439617.206    23439617.4114   23439617.9754
        34.800          13.5004
 127494579.488 6  99346415.83943  24261412.946    24261412.7634   24261408.0494
        40.500          18.2004
 119124029.268 6  92823916.17544  22668550.031    22668549.7014   22668550.6124
        41.200          29.1004
 112466578.433 5  87636291.15442  21401676.306    21401675.3504   21401676.0244
        32.700          17.3004
 136650767.627 7                  26003766.755
        42.600
 133562436.316 7                  25416059.198
        43.600
 119658944.238 6  93240738.36444  22770346.309    22770346.0644   22770345.2114
        38.300          29.6004
 105494413.680 8  82203431.07048  20074914.325    20074913.9954   20074913.0024
        50.500          49.2004


 110532672.712 7  86129319.17446  21033667.938    21033667.5054   21033668.9344
        44.100          39.1004


 126969669.089 6                  24161521.397
        40.300
 148137684.544 5                  28189662.293
        32.300
 200870712.439 6                  38224429.274
        38.500
 114380875.979 7                  21382265.607    21382266.155
        43.300
 122832154.372 6                  22954108.035    22954106.465
        38.300
 121992747.903 5  94883207.166 6  22861377.610    22861373.711    22861377.818
        31.500          36.000
 198904144.383 7                  37850195.462
        42.900
 122097936.247 6  94965098.677 6  22848966.623    22848966.811    22848972.800
        39.100          39.700
 202046393.019 7                  38448151.697
        43.800
 137590023.102 6                  26182518.943
        41.200
 134601368.044 6                  25613758.834
        40.800
 127596991.259 7                  24280885.510
        47.100
 123576700.844 7  96115241.654 6  23182674.870    23182674.461    23182685.568
        42.000          39.900
 106401313.405 8  82756557.570 8  19897573.475    19897573.076    19897578.570
        49.800          48.400
 112155985.009 6                  20944342.301
        38.000
 25  1  1  5  6 45.0000000  0 28G18R01G15G12G11G20E27E03G25G05E34G29
                                E05E15E26S35R23R17S31R15G13S33E08E21
                                E13R14R24R08
 127149238.667 6  99077280.27542  24195684.382    24195684.5924   24195683.1074
        36.400          16.6004
 105201458.594 8  81823395.940 6  19680109.625    19680108.902    19680115.330
        48.700          38.500
 123118899.961 6  95936813.68242  23428747.454    23428747.7174   23428746.5844
        37.800          16.6004
 127548091.904 5  99388113.73243  24271595.231    24271594.9414   24271591.6464
        35.400          20.0004
 119156301.089 6  92849063.04444  22674690.686    22674690.3824   22674691.4604
        41.400          27.6004
 112500192.482 7  87662483.97043  21408074.641    21408073.7474   21408071.9424
        43.500          20.9004
 136690452.791 6                  26011317.999
        37.500
 133550660.752 7                  25413818.235
        45.400
 119697927.317 6  93271114.74745  22777764.357    22777764.0494   22777766.2624
        40.100          30.6004
 105499104.705 8  82207086.41048  20075807.000    20075806.6834   20075805.8164
        48.600          49.1004


 110503912.753 6  86106908.80546  21028198.316    21028197.8874   21028194.6664
        40.500          37.0004


 126983234.867 6                  24164102.527
        41.600
 148107765.119 4                  28183973.518
        28.000
 200870729.076 6                  38224428.487
        37.300
 114410610.009 7                  21387825.028    21387825.276
        43.400
 122786081.023 6                  22945497.836    22945497.674
        37.000
 198904132.991 7                  37850196.548
        44.400
 122108187.042 7  94973055.968 6  22850884.019    22850882.293    22850887.937
        42.200          38.700
 118801140.791 5  92572297.35141  22607102.261    22607102.1364   22607100.4494
        30.400           6.3004
 202046371.932 7                  38448148.419
        44.500
 137548620.119 7                  26174640.320
        42.900
 134608629.321 6                  25615141.789
        38.900
 127581914.301 7                  24278016.045
        45.100
 123624735.676 7  96152602.121 5  23191684.607    23191682.133    23191691.492
        42.000          35.200
 106383555.616 8  82742745.959 8  19894252.305    19894252.011    19894258.046
        51.600          49.300
 112192225.047 5                  20951107.279    20951108.231
        33.400
 25  1  1  5  7  0.0000000  0 27G18R01G15G12G11G20E27E03G25G05G29E05
                                E15E26S35R23R17S31R15G13S33E08E21E13
                                R14R24R08
 127110230.457 5  99046884.43442  24188261.703    24188261.8144   24188255.2194
        32.600          14.2004
 105170760.830 8  81799519.884 6  19674366.346    19674366.172    19674373.405
        49.100          37.100




 119188603.834 7  92874233.97744  22680837.374    22680837.0704   22680838.1214
        45.200          27.2004
 112533863.923 6  87688721.47843  21414480.447    21414479.6114   21414478.5664
        41.200          20.4004
 136730177.184 6                  26018877.533
        37.800
 133538985.323 7                  25411597.316
        43.200
 119736983.507 6  93301548.15845  22785196.117    22785195.8314   22785199.5254
        39.200          30.4004
 105503917.586 8  82210836.71348  20076722.731    20076722.4054   20076721.9574
        48.900          48.9004
 110475251.617 7  86084575.45245  21022742.887    21022742.4404   21022740.6244
        42.000          35.3004


 126996819.953 7                  24166687.822
        43.700


 200870744.210 5                  38224447.098
        32.900
 114440411.460 7                  21393396.323    21393396.422
        43.100
 122739997.615 5  95464413.588 5  22936885.185    22936884.355    22936894.596
        33.600          33.400
 198904119.606 7                  37850192.287
        42.500
 122118628.680 4  94981148.045 5  22852834.147                    22852833.590
        28.500          34.000
 118756349.558 6  92537394.98541  22598577.166    22598576.7334   22598579.9464
        36.400           8.0004
 202046348.262 7                  38448146.120
        43.300
 137507248.838 7                  26166766.927
        42.000
 134615994.085 6                  25616542.479
        36.200
 127566856.245 7                  24275150.108
        42.900
 123672834.089 6  96190011.816 6  23200709.155    23200708.255    23200715.294
        38.400          36.800
 106365863.876 9  82728985.700 8  19890944.954    19890945.233    19890949.784
        54.000          49.600
 112228643.990 5  87288971.840 5  20957905.609    20957908.143    20957914.005
        32.500          33.900
 25  1  1  5  7 15.0000000  0 28G18R01G15G12G11G20E27E03G25G05G29E05
                                E15E26S35R23R17R02S31R15G13S33E08E21
                                E13R14R24R08
 127071235.981 5  99016494.30742  24180837.567    24180837.9154   24180835.0044
        30.400          17.3004
 105140251.754 7  81775790.706 6  19668658.569    19668658.030    19668664.086
        47.300          37.900




 119220944.507 7  92899434.49844  22686992.508    22686992.2224   22686990.9674
        44.400          25.5004
 112567599.429 7  87715008.79643  21420899.673    21420898.8424   21420898.6084
        42.200          22.8004
 136769947.625 6                  26026447.047
        38.000
 133527417.235 6                  25409395.284
        41.300
 119776119.453 6  93332043.64745  22792643.522    22792643.1964   22792647.5274
        40.900          31.5004
 105508858.796 8  82214687.01748  20077663.157    20077662.8224   20077662.3714
        48.600          49.3004
 110446696.973 7  86062325.10846  21017309.731    21017309.2174   21017306.3864
        43.300          37.4004
 137694217.246 5                  26202339.277
        35.800
 127010431.272 7                  24169277.773
        43.000




 114470287.674 7                  21398982.033    21398982.042
        45.700
 122693910.872 6  95428568.434 6  22928277.621    22928274.210    22928281.424
        41.100          41.700
 121793031.268 5  94727879.857 6  22823959.686                    22823950.167
        31.100          38.900
 198904111.911 6                  37850197.103
        41.900
 122129213.490 6  94989380.115 5  22854813.908    22854811.597    22854815.797
        36.400          33.600
 118711632.121 7  92502550.21542  22590069.612    22590069.4384   22590071.7904
        43.200          16.5004
 202046330.288 7                  38448140.947
        42.100
 137465916.586 6                  26158901.126
        37.600
 134623469.289 5                  25617962.563
        34.700
 127551824.075 7                  24272290.615
        47.400
 123721002.360 7  96227476.121 6  23209747.683    23209747.211    23209755.171
        45.600          39.600
 106348245.205 8  82715282.321 8  19887649.488    19887650.121    19887655.289
        53.100          50.200
 112265253.495 6  87317427.457 4  20964745.227                    20964744.391
        36.000          29.800
 25  1  1  5  7 30.0000000  0 28G18R01G15G12G11G20E27E03G25G05G29E05
                                E15E26S35R23R17R02S31R15G13S33E08E21
                                E13R14R24R08


 105109923.419 7  81752201.986 6  19662985.271    19662984.967    19662991.815
        47.500          38.800
 122947635.795 4  95803330.13942  23396152.378    23396152.1914   23396158.4634
        29.300          16.2004
 127708714.474 5  99513246.02944  24302146.449    24302146.1054   24302150.9204
        34.800          24.4004
 119253314.789 7  92924658.11344  22693152.479    22693152.1624   22693151.8344
        42.900          26.1004
 112601390.842 7  87741339.77744  21427330.340    21427329.4374   21427329.9424
        42.300          24.3004
 136809755.472 6                  26034021.075
        41.600
 133515948.406 6                  25407211.249
        41.500
 119815326.462 7  93362594.57044  22800103.235    22800102.9454   22800106.2914
        45.400          29.7004
 105513919.922 8  82218630.74948  20078625.876    20078625.5054   20078625.4694
        49.400          48.9004
 110418240.528 6  86040151.31646  21011893.568    21011893.0414   21011891.6134
        41.500          37.7004
 137717987.692 4                  26206860.910
        29.400
 127024060.703 7                  24171871.755
        43.200


 200870741.524 6                  38224444.102
        39.600
 114500230.079 7                  21404577.240    21404577.182
        43.500
 122647812.902 7  95392714.481 6  22919663.763    22919662.397    22919665.707
        43.700          38.300
 121726531.744 6  94676163.764 6  22811493.632    22811492.810    22811489.526
        37.900          36.300
 198904100.847 7                  37850190.610
        42.800
 122139970.365 5  94997789.603 5  22856832.469    22856832.185    22856835.155
        33.900          34.200
 118666980.631 5  92467756.81442  22581571.867    22581571.7784   22581575.4354
        35.700          15.2004
 202046310.957 7                  38448130.461
        44.200
 137424615.176 6                  26151042.427
        36.400
 134631046.580 6                  25619407.214
        40.600
 127536809.568 7                  24269433.497
        47.100
 123769231.816 7  96264987.954 6  23218795.008    23218795.807    23218801.455
        43.100          38.700
 106330691.690 8  82701629.547 8  19884367.187    19884367.566    19884372.738
        52.400          50.900
 112302075.921 4                  20971615.438
        29.700
 25  1  1  5  7 45.0000000  0 28G18R01G15G12G11G20E27E03G25G05G29E05
                                E15E26S35R23R17R02S31R15G13S33E08E21
                                E13R14R24R08


 105079776.846 7  81728754.691 6  19657346.112    19657345.178    19657352.451
        45.700          40.600




 119285715.696 7  92949905.56744  22699317.492    22699317.1714   22699318.6844
        44.400          27.7004
 112635238.860 7  87767714.78843  21433772.361    21433771.4144   21433770.4064
        43.900          21.7004
 136849601.571 7                  26041604.632
        42.300
 133504579.707 6                  25405048.345
        38.800
 119854605.164 7  93393201.37445  22807577.924    22807577.6074   22807578.9634
        42.200          30.1004
 105519102.055 8  82222668.73848  20079612.717    20079612.3464   20079611.6494
        50.400          52.1004
 110389883.592 6  86018054.97346  21006497.688    21006497.1564   21006495.4924
        40.400          39.6004
 137741851.561 4                  26211401.356
        26.300
 127037709.026 6                  24174469.144
        41.000




 114530240.166 7                  21410188.272    21410189.171
        45.100
 122601704.326 7  95356852.399 6  22911044.874    22911044.323    22911050.219
        45.800          39.000
 121660035.598 6  94624476.603 6  22799037.799                    22799036.486
        40.700          39.800
 198904088.513 7                  37850184.690
        42.900


 118622398.227 5                  22573087.034
        34.300
 202046287.024 5                  38448123.467
        31.700
 137383346.288 6                  26143188.481
        37.400
 134638593.000 5                  25620866.793
        34.100
 127521813.618 8                  24266579.026
        48.200
 123817522.750 7  96302547.640 6  23227854.409    23227854.210    23227858.696
        43.600          36.800
 106313204.355 8  82688028.306 8  19881097.023    19881097.419    19881102.958
        52.500          52.200
 112338986.314 5  87374727.244 5  20978500.145                    20978499.522
        34.200          35.300
 25  1  1  5  8  0.0000000  0 26G18R01G15G12G11G20E27E03G25G05G29E05
                                E15E26S35R23R17R02S31S33E08E21E13R14
                                R24R08


 105049815.380 7  81705451.310 6  19651741.101    19651739.941    19651746.020
        45.800          39.600


 127815748.252 5  99596650.71643  24322514.211    24322513.4514   24322519.0404
        35.500          21.8004
 119318149.931 7  92975179.00244  22705489.234    22705488.9084   22705491.6394
        42.700          27.0004
 112669145.912 6  87794135.91944  21440224.510    21440223.5184   21440223.1954
        40.200          24.7004
 136889488.339 7                  26049194.792
        46.200
 133493314.096 5                  25402903.394
        30.800
 119893957.954 6  93423865.78144  22815067.551    22815067.2344   22815066.5524
        39.800          28.1004
 105524407.610 8  82226802.95748  20080621.924    20080621.5584   20080621.3464
        52.400          52.2004
 110361629.088 7  85996038.55446  21001119.962    21001119.4394   21001120.0964
        43.000          39.2004
 137765803.555 5                  26215960.853
        30.200
 127051379.243 6                  24177071.173
        40.900




 114560320.285 7                  21415813.268    21415811.762
        44.000
                  95320984.594 6                  22902421.913    22902432.145
                        40.100
 121593621.215 6  94572820.950 6  22786591.272    22786592.477    22786588.951
        39.300          36.500
 198904076.305 6                  37850187.838
        41.500
 202046265.014 7                  38448125.457
        42.800
 137342111.619 5                  26135341.523
        32.400
 134646378.915 7                  25622349.708
        42.500
 127506839.040 7                  24263730.544
        46.900
 123865877.613 6  96340156.886 5  23236921.949    23236920.725    23236931.815
        36.200          31.600
 106295786.375 8  82674480.996 8  19877839.637    19877839.913    19877844.652
        53.100          51.000
 112376047.689 5                  20985412.256    20985413.581
        34.700
 25  1  1  5  8 15.0000000  0 26G18R01G12G11G20E27E03G25G05G29E05E15
                                E26S35R23R17R02S31G13S33E08E21E13R14
                                R24R08
 126915204.225 5  98894961.15641  24151162.283    24151161.8544   24151159.5424
        35.100          10.7004
 105020043.370 7  81682295.429 6  19646171.517    19646170.150    19646177.513
        45.400          40.200
 127869271.466 5  99638357.15043  24332699.815    24332699.2524   24332704.0734
        30.200          21.9004
 119350621.652 7  93000481.64244  22711669.180    22711668.8594   22711670.5764
        42.500          26.7004
 112703115.803 5  87820605.96543  21446691.409    21446690.4484   21446687.0374
        33.700          19.8004
 136929419.870 7                  26056793.602
        44.200
 133482155.934 6                  25400782.033
        38.600
 119933388.631 7  93454591.01445  22822571.104    22822570.7874   22822572.0454
        44.400          33.2004
 105529840.910 8  82231036.67248  20081655.796    20081655.4304   20081655.5574
        52.000          52.9004
 110333481.719 6  85974105.56046  20995763.359    20995762.8544   20995764.4294
        41.400          38.3004


 127065075.358 7                  24179677.583
        44.700




 114590474.831 7                  21421450.007    21421449.517
        46.200
 122509469.614 7  95285114.259 6  22893808.439    22893806.755    22893816.031
        43.600          37.800
 121527253.069 5  94521200.463 6  22774148.158    22774148.515    22774152.980
        35.200          38.200
 198904069.650 7                  37850179.462
        44.200
 118533445.329 5  92363717.14342  22556160.170    22556160.1354   22556160.7894
        34.700          13.2004
 202046249.061 6                  38448118.128
        40.500
 137300917.453 5                  26127503.551
        31.800
 134654274.829 6                  25623852.122
        40.100
 127491889.996 7                  24260885.326
        45.400
 123914299.947 6  96377820.564 6  23246011.285    23246010.420    23246016.068
        41.100          37.100
 106278442.313 8  82660991.105 8  19874595.584    19874596.373    19874601.719
        52.900          50.800
 112413274.016 5                  20992367.659    20992367.678
        34.400
 25  1  1  5  8 30.0000000  0 26G18R01G12G11G20E27E03G25G05G29E05E15
                                E26S35R23R17R02S31R15S33E08E21E13R14
                                R24R08
 126876248.981 6  98864606.52242  24143750.704    24143750.4594   24143748.3194
        38.300          16.9004
 104990452.430 7  81659280.185 6  19640636.433    19640636.705    19640642.986
        44.800          40.800


 119383121.849 7  93025806.47944  22717853.501    22717853.1884   22717853.3364
        45.600          25.1004
 112737139.707 5  87847118.07943  21453165.335    21453164.4374   21453162.6984
        32.200          21.3004
 136969386.598 7                  26064398.864
        42.800
 133471096.183 6                  25398677.603
        41.100
 119972887.899 6  93485369.59445  22830086.704    22830086.3474   22830089.8494
        41.300          30.7004
 105535392.601 8  82235362.66348  20082711.919    20082711.5534   20082712.1974
        49.900          52.0004
 110305432.742 7  85952249.15146  20990425.685    20990425.1944   20990427.2394
        43.800          38.9004


 127078788.434 7                  24182286.779
        44.500


 200870818.346 6                  38224453.224
        37.300
 114620694.910 7                  21427099.019    21427098.419
        44.400
 122463338.619 7                  22885185.613    22885184.613
        42.800
 121460919.189 6  94469608.351 5  22761723.224    22761725.444    22761719.915
        40.500          32.600
 198904058.976 7                  37850185.830
        45.800
 122184851.640 6  95032547.393 5  22865198.405    22865198.967    22865204.025
        40.900          30.100
 202046227.859 6                  38448121.634
        38.000
 137259754.006 6                  26119671.605
        38.400
 134662271.327 6                  25625374.212
        40.400
 127476957.409 7                  24258042.778
        45.200
 123962779.738 7  96415532.186 5  23255104.273    23255105.749    23255108.285
        43.800          34.200
 106261163.104 8  82647551.736 8  19871365.178    19871365.268    19871370.529
        53.200          51.700
 112450655.146 6                  20999346.519
        36.100
 25  1  1  5  8 45.0000000  0 29G18R01G15G12G11G20E27E03G25G05E34G29
                                E05E15E26S35R23R17R02S31R15G13S33E08
                                E21E13R14R24R08
 126837301.066 6  98834257.45343  24136338.091    24136337.8814   24136337.7094
        37.600          19.4004
 104961045.575 6  81636408.113 6  19635134.946    19635135.684    19635142.242
        38.900          40.400
 122662661.037 4  95581275.86541  23341923.305    23341923.2294   23341923.7364
        29.000          11.9004
 127976236.548 6  99721755.89243  24353067.938    24353068.3494   24353072.7034
        39.600          23.9004
 119415653.534 7  93051155.84843  22724044.063    22724043.7464   22724042.4384
        43.700          22.9004
 112771221.086 5  87873695.15042  21459650.673    21459650.4904   21459651.5904
        31.600          16.5004
 137009391.685 7                  26072011.497
        44.900
 133460138.089 6                  25396593.827
        41.100
 120012458.138 6  93516203.48344  22837615.817    22837615.4064   22837621.3544
        40.600          28.6004
 105541065.392 8  82239783.01248  20083791.990    20083791.6194   20083791.6824
        49.300          52.1004


 110277485.027 7  85930471.75146  20985108.566    20985108.0844   20985108.9464
        44.200          39.5004


 127092521.599 7                  24184899.067
        42.900


 200870834.426 6                  38224456.430
        39.000
 114650983.505 7                  21432761.761    21432760.070
        42.300
 122417198.664 7  95213344.166 5  22876566.215    22876565.529    22876573.123
        44.800          35.100
                  94418047.306 5                                  22749294.492
                        35.600
 198904047.122 6                  37850185.378
        41.400
 122196474.826 6  95041593.581 5  22867376.312    22867377.394    22867377.873
        40.600          33.500
 118444768.109 5  92294643.3744   22539285.689    22539285.6274   22539293.2164
        33.200           5.7004
 202046206.202 6                  38448124.214
        38.700
 137218625.042 6                  26111844.578
        38.100
 134670371.617 6                  25626914.743
        41.700
 127462044.472 7                  24255204.573
        42.800
 124011320.095 7  96453285.675 6  23264209.790    23264210.183    23264216.891
        42.000          38.300
 106243952.037 9  82634165.327 8  19868146.957    19868146.643    19868151.748
        54.200          51.800
 112488193.180 6  87490750.481 6  21006351.901    21006355.330    21006356.984
        38.000          36.600
 25  1  1  5  9  0.0000000  0 28G18R01G12G11G20E27E03G25G05E34G29E05
                                E15E26S35R23R17R02S31R15G13S33E08E21
                                E13R14R24R08
 126798365.707 5  98803918.29143  24128928.806    24128928.4984   24128928.0614
        35.400          20.0004
 104931827.782 7  81613683.300 6  19629666.466    19629669.908    19629676.068
        44.100          41.000
 128029756.858 5  99763459.95043  24363254.195    24363254.6774   24363255.8174
        32.200          23.1004
 119448221.598 7  93076533.58244  22730241.506    22730241.1714   22730239.3554
        45.200          25.7004
 112805362.046 6  87900298.50643  21466149.098    21466148.8354   21466146.3714
        39.900          19.8004
 137049439.542 7                  26079632.439
        44.500
 133449286.643 6                  25394527.001
        40.300
 120052104.081 5  93547096.36244  22845160.496    22845160.0494   22845164.1494
        31.700          26.3004
 105546864.175 8  82244301.54048  20084895.252    20084894.8904   20084895.2254
        50.400          52.4004


 110249644.178 7  85908777.54746  20979810.586    20979810.1264   20979809.4884
        45.700          40.3004


 127106279.605 7                  24187516.389
        42.300
 147838552.642 5                  28132740.546
        31.300
 200870854.262 5                  38224461.179
        31.900
 114681345.754 7                  21438436.985    21438436.406
        43.200
 122371054.830 7  95177454.304 5  22867940.952    22867942.295    22867945.669
        46.400          35.300
 121328379.315 6  94366521.822 5  22736882.159    22736883.891    22736881.094
        37.800          35.700
 198904039.244 6                  37850180.714
        41.400
 122208274.811 6  95050771.305 5  22869584.185    22869583.344    22869587.790
        41.800          34.500
 118400522.499 5  92260168.05341  22530867.397    22530866.9774   22530874.6444
        33.000           8.8004
 202046188.383 6                  38448119.832
        40.800
 137177535.683 6                  26104023.754
        41.500
 134678580.343 6                  25628476.436
        40.600
 127447155.905 7                  24252372.530
        44.600
 124059924.769 7  96491081.182 6  23273329.603    23273329.257    23273333.800
        42.300          36.100
 106226814.172 8  82620835.863 8  19864942.132    19864941.764    19864946.342
        52.700          49.900
                  87520073.118 6                                  21013401.865
                        40.000
 25  1  1  5  9 15.0000000  0 28G18R01G15G12G11G20E27E03G25G05G29E05
                                E15E26S35R23R17R02S31R15G13S33E08E21
                                E13R14R24R08
 126759432.689 6  98773580.81743  24121520.661    24121520.2954   24121519.2534
        38.900          21.9004
 104902789.218 5  81591097.740 6  19624230.349    19624228.341    19624243.216
        35.700          40.100
 122548824.723 5                  23320264.352    23320264.2504
        34.300
 128083269.341 6  99805157.99443  24373437.695    24373438.0974   24373435.4704
        38.000          20.7004
 119480815.589 7  93101931.45444  22736444.944    22736444.6314   22736443.1554
        44.400          27.0004
 112839553.875 6  87926941.47443  21472657.278    21472656.8314   21472651.3394
        37.200          19.6004
 137089519.586 7                  26087259.378
        46.300
 133438531.478 7                  25392481.860
        43.300


 105552778.294 8  82248909.94048  20086020.466    20086020.1184   20086020.6034
        50.900          52.1004
 110221899.972 7  85887158.75846  20974531.144    20974530.6884   20974528.5734
        47.300          40.6004


 127120052.181 6                  24190138.926
        39.700
 147808646.031 5                  28127050.153
        31.000
 200870868.261 6                  38224461.398
        39.400
 114711771.030 7                  21444124.899    21444125.871
        44.200
 122324897.017 7  95141553.693 6  22859315.388    22859315.431    22859321.402
        45.600          39.600
 121262167.626 6  94315023.916 5  22724466.001    22724471.928    22724475.136
        36.300          35.600
 198904025.227 7                  37850171.901
        42.500
 122220240.134 5  95060078.495 5  22871821.358    22871818.498    22871830.425
        32.100          31.500
 118356361.058 6  92225756.50442  22522462.727    22522462.8654   22522467.4714
        36.900          16.1004
 202046164.118 6                  38448104.271
        41.900
 137136475.386 6                  26096210.486
        38.100
 134686887.142 7                  25630058.310
        43.100
 127432281.325 7                  24249541.777
        45.700
 124108583.138 6  96528926.574 5  23282453.955    23282453.487    23282461.625
        37.800          32.800
 106209739.511 8  82607555.583 8  19861748.183    19861748.248    19861752.973
        51.500          48.600
 112563618.098 6  87549513.116 6  21020462.189    21020460.634    21020470.306
        37.700          40.400
 25  1  1  5  9 30.0000000  0 27G18R01G12G11G20E27E03G25G05G29E05E15
                                E26S35R23R17R02S31R15G13S33E08E21E13
                                R14R24R08
 126720511.196 7  98743252.38444  24114113.104    24114112.7474   24114112.7574
        42.100          25.1004
 104873939.876 7  81568659.260 6  19618845.066    19618841.982    19618845.767
        42.000          39.800
 128136783.296 6  99846857.08443  24383620.403    24383620.6984   24383617.2394
        37.400          23.4004
 119513445.125 7  93127357.04344  22742653.345    22742653.0374   22742652.0434
        45.300          27.7004
 112873805.788 6  87953631.17443  21479175.571    21479174.8874   21479168.5774
        39.300          21.2004
 137129641.141 7                  26094893.993
        43.700
 133427882.385 7                  25390455.960
        43.300
 120131620.765 5  93609077.94644  22860288.755    22860288.1924   22860292.6724
        33.000          24.1004
 105558816.842 8  82253615.28948  20087169.480    20087169.1234   20087169.6044
        49.800          51.8004
 110194262.301 7  85865622.92846  20969271.710    20969271.2634   20969269.2654
        44.700          40.7004


 127133848.890 6                  24192766.823
        40.200
 147778744.181 5                  28121360.427
        32.500
 200870884.957 6                  38224468.727
        40.800
 114742269.140 7                  21449828.069    21449827.995
        44.000
 122278734.878 7  95105649.774 6  22850689.981    22850689.430    22850694.247
        44.600          39.500
 121196001.713 5  94263561.458 6  22712072.570    22712070.325    22712075.523
        34.400          38.600
 198904013.909 6                  37850173.439
        41.300
 122232382.098 6  95069522.469 5  22874089.178    22874092.085    22874100.730
        36.300          33.700
 118312275.039 6  92191403.72242  22514075.020    22514075.3334   22514077.2224
        39.100          17.5004
 202046142.700 7                  38448104.034
        44.800
 137095454.337 6                  26088404.525
        38.500
 134695301.454 7                  25631659.051
        43.500
 127417430.355 7                  24246715.515
        46.700
 124157304.105 7  96566820.637 5  23291597.602    23291599.198    23291604.488
        43.400          35.500
 106192737.818 8  82594332.011 7  19858569.282    19858569.952    19858572.956
        51.700          46.900
 112601629.900 6  87579077.776 6  21027568.556    21027569.700    21027567.532
        41.200          38.900
 25  1  1  5  9 45.0000000  0 27G18R01G12G11G20E27E03G25G05G29E05E15
                                E26S35R23R17R02S31R15G13S33E08E21E13
                                R14R24R08
 126681596.612 6  98712929.35544  24106707.740    24106707.4054   24106707.1284
        41.600          25.4004
 104845274.854 7  81546364.316 6  19613477.114    19613475.905    19613484.063
        45.700          39.800
 128190293.557 6  99888553.36444  24393802.935    24393803.1674   24393802.0614
        38.300          26.4004
 119546105.286 7  93152806.51044  22748869.044    22748868.7404   22748867.1964
        44.800          29.1004
 112908112.571 6  87980363.74443  21485703.134    21485702.4014   21485696.8424
        38.100          18.0004
 137169799.128 6                  26102536.043
        41.900
 133417334.533 7                  25388447.547
        42.200
 120171474.352 5  93640132.70844  22867873.607    22867873.0844   22867876.6874
        35.300          24.4004
 105564975.310 8  82258414.09548  20088342.266    20088341.9184   20088341.1784
        50.300          51.5004
 110166726.679 7  85844166.60646  20964032.207    20964031.7514   20964029.7044
        44.600          40.9004


 127147664.951 6                  24195394.259
        40.000
 147748841.905 5                  28115668.601
        33.000
 200870899.953 6                  38224461.081
        40.500
 114772835.068 7                  21455542.073    21455541.440
        42.600
 122232563.725 7  95069738.932 6  22842059.612    22842057.535    22842064.968
        42.200          38.100
 121129877.034 6  94212131.176 6  22699682.618    22699682.477    22699682.538
        37.700          37.600
 198904001.070 6                  37850165.426
        41.600
 122244694.728 6  95079098.913 6  22876396.710    22876397.851    22876406.974
        40.200          36.100
 118268260.020 6  92157106.27743  22505700.456    22505700.4964   22505701.2074
        40.300          18.5004
 202046120.243 7                  38448102.129
        43.300
 137054467.788 5                  26080604.737
        35.300
 134703818.367 7                  25633280.304
        43.600
 127402598.177 7                  24243892.615
        44.000
 124206082.643 7  96604759.525 5  23300749.494    23300750.244    23300754.318
        45.300          31.800
 106175804.365 8  82581161.595 7  19855401.876    19855401.969    19855406.618
        51.400          47.900
 112639796.516 6  87608762.922 5  21034688.036    21034689.404    21034694.761
        38.500          35.800
 25  1  1  5 10  0.0000000  0 28G18R01G12G11G20E27E03G25G05E34G29E05
                                E15E26S35R23R17R02S31R15G13S33E08E21
                                E13R14R24R08
 126642693.342 7  98682615.10844  24099304.939    24099304.6404   24099303.8254
        42.800          26.5004
 104816799.201 7  81524216.676 6  19608151.445    19608149.822    19608156.921
        45.400          38.700
 128243804.149 6  99930249.93644  24403986.570    24403986.7754   24403987.2814
        37.400          28.9004
 119578800.327 7  93178283.19944  22755089.751    22755089.4564   22755090.0004
        45.700          29.8004
 112942476.379 5  88007098.21142  21492239.480    21492238.8904   21492233.9474
        35.500          15.5004
 137209997.569 6                  26110184.189
        40.500
 133406892.406 6                  25386459.920
        41.600
 120211400.783 5  93671244.26643  22875464.155    22875463.5294   22875473.1424
        33.200          21.3004
 105571257.850 8  82263309.59148  20089537.775    20089537.4314   20089536.5774
        51.300          51.4004


 110139297.681 7  85822793.33346  20958812.206    20958811.7154   20958811.0034
        42.300          40.7004


 127161504.588 6                  24198026.959
        39.900
 147718943.499 4                  28109977.303
        27.000
 200870918.003 5                  38224495.678
        35.500
 114803473.432 7                  21461267.863    21461267.456
        42.800
 122186387.874 6  95033824.532 6  22833430.342    22833429.320    22833435.667
        40.200          36.200
 121063798.387 4  94160736.726 6  22687297.975                    22687300.937
        29.800          36.700
 198903990.858 6                  37850168.476
        40.900
 122257182.097 7  95088811.325 6  22878738.248    22878740.404    22878744.984
        44.200          37.000
 118224320.784 6  92122867.94543  22497339.340    22497339.1624   22497338.4414
        41.600          19.3004
 202046100.127 7                  38448092.327
        44.600
 137013520.178 5                  26072811.203
        35.900
 134712442.098 7                  25634921.110
        44.900
 127387788.946 7                  24241074.135
        44.900
 124254922.121 6  96642745.714 5  23309909.765    23309909.844    23309911.754
        38.800          30.900
 106158943.779 8  82568047.801 7  19852249.312    19852249.511    19852254.513
        52.000          47.000
 112678122.086 6  87638571.732 5  21041849.034    21041848.583    21041847.591
        37.200          33.300
 25  1  1  5 10 15.0000000  0 29G18R01G15G12G11G20E27E03G25G05E34G29
                                E05E15E26S35R23R17R02S31R15G13S33E08
                                E21E13R14R24R08
 126603797.835 7  98652306.91244  24091902.691    24091902.4414   24091902.6864
        44.500          27.6004
 104788509.612 7  81502213.669 6  19602859.165    19602858.068    19602863.919
        47.600          40.100
 122321477.716 5                  23276983.166    23276983.1584
        35.800
 128297311.079 6  99971943.65244  24414166.371    24414166.5274   24414169.6444
        40.200          27.5004
 119611526.903 7  93203784.45745  22761316.820    22761316.5254   22761318.4474
        43.700          30.5004
 112976897.272 5  88033919.68843  21498790.633    21498789.9364   21498786.2294
        35.000          19.0004
 137250232.840 6                  26117841.504
        41.400
 133396552.579 6                  25384492.343
        40.400
 120251396.100 6  93702409.43844  22883081.451    22883080.9644   22883082.4674
        39.700          28.3004
 105577660.770 8  82268298.87548  20090756.208    20090755.8604   20090755.3184
        51.700          52.1004


 110111972.078 7  85801500.66347  20953611.706    20953611.1884   20953612.1074
        44.600          43.0004


 127175364.499 6                  24200663.046
        39.000




 114834180.597 7                  21467007.827    21467009.091
        43.600
 122140204.105 7  94997903.800 6  22824802.710    22824802.250    22824805.945
        44.100          38.800
 120997762.822 6  94109375.736 6  22674943.045    22674932.646    22674925.413
        36.800          36.900
 198903980.038 7                  37850165.573
        43.800
 122269840.372 7  95098656.641 5  22881112.266    22881113.821    22881114.394
        46.000          35.100
 118180454.196 7  92088686.23043  22488992.418    22488992.1594   22488990.5614
        42.200          20.2004
 202046078.760 7                  38448087.153
        43.500
 136972608.604 5                  26065025.911
        33.100
 134721169.149 7                  25636580.906
        44.100
 127372999.391 7                  24238260.268
        44.100
 124303818.727 5                  23319082.820    23319078.508
        34.900
 106142152.706 8  82554988.085 7  19849108.775    19849108.929    19849114.428
        52.500          46.800
 112716602.676 6  87668501.026 5  21049035.625    21049033.153    21049033.399
        37.900          31.800
 25  1  1  5 10 30.0000000  0 29G18R01G15G12G11G20E27E03G25G05E34G29
                                E05E15E26S35R23R17R02S31R15G13S33E08
                                E21E13R14R24R08
 126564909.370 7  98622004.23244  24084502.258    24084502.0574   24084503.8464
        42.200          28.2004
 104760405.326 8  81480354.774 6  19597600.675    19597601.234    19597606.968
        48.100          39.500
 122264686.017 6  95271098.15242  23266174.716    23266174.8144   23266175.4074
        37.500          16.4004
 128350813.312 6 100013633.66244  24424347.277    24424347.4154   24424351.5874
        36.000          27.0004
 119644284.104 7  93229309.54945  22767551.818    22767551.5284   22767552.0684
        43.200          30.2004
 113011372.340 5  88060783.33542  21505344.579    21505343.8514   21505347.2894
        32.800          14.7004
 137290503.798 6                  26125504.738
        41.200
 133386314.406 6                  25382543.327
        39.700
 120291459.150 7  93733627.44145  22890708.694    22890708.1984   22890706.2304
        42.900          31.4004
 105584183.090 8  82273381.20348  20091997.372    20091997.0154   20091996.3544
        51.800          51.7004


 110084749.238 7  85780288.08547  20948430.954    20948430.4364   20948431.6794
        45.400          43.3004


 127189243.707 6                  24203304.977
        41.500


 200871015.015 6                  38224479.772
        39.000
 114864956.153 7                  21472761.563    21472762.048
        42.900
 122094011.346 5  94961976.181 6  22816166.085    22816163.790    22816175.740
        35.900          41.700
 120931799.774 6  94058048.016 6  22662565.546    22662555.521    22662560.397
        39.200          36.900
 198903967.116 7                  37850161.585
        42.600
 122282668.611 7  95108634.185 6  22883502.192    22883504.632    22883520.816
        43.800          37.900
 118136659.817 7  92054560.79144  22480658.473    22480658.1924   22480656.2574
        46.400          25.3004
 202046055.859 6                  38448088.003
        41.100
 136931732.294 5                  26057248.113
        33.200
 134729998.584 6                  25638261.412
        41.000
 127358228.624 7                  24235449.703
        44.800
 124352770.828 5  96718848.252 6  23328265.077    23328261.982    23328272.017
        35.500          36.600
 106125430.683 8  82541982.073 7  19845982.271    19845981.991    19845987.749
        53.100          47.300
 112755236.697 6                  21056245.810    21056246.587
        38.500
 25  1  1  5 10 45.0000000  0 28G18R01G15G12G11E27E03G25G05E34G29E05
                                E15E26S35R23R17R02S31R15G13S33E08E21
                                E13R14R24R08
 126526031.805 7  98591710.06744  24077105.994    24077105.8514   24077106.1814
        42.900          26.2004
 104732490.736 7  81458643.468 6  19592377.975    19592378.414    19592384.538
        47.800          41.000
 122207922.072 5  95226866.43842  23255374.004    23255374.4694   23255373.8584
        30.400          16.9004
 128404313.983 6 100055322.45544  24434527.764    24434527.9074   24434532.9044
        39.200          26.3004
 119677075.801 7  93254861.51845  22773792.310    22773792.0244   22773791.1264
        44.600          30.2004
 137330814.134 6                  26133174.834
        41.700
 133376181.789 6                  25380615.239
        36.100
 120331593.537 6  93764900.92945  22898339.024    22898338.4884   22898344.3784
        40.900          31.4004
 105590828.332 8  82278559.30948  20093261.870    20093261.5134   20093260.4374
        52.100          51.0004


 110057633.592 7  85759158.98447  20943271.362    20943270.8214   20943271.7934
        45.000          44.3004


 127203146.178 6                  24205949.670
        41.900




 114895803.611 7                  21478527.682    21478527.861
        43.300
                  94926044.784 6                                  22807541.985
                        41.100
                  94006757.025 5                                  22650201.494
                        35.300
 198903956.858 7                  37850161.858
        43.400
 122295670.487 7                  22885934.455    22885934.637
        42.400
 118092941.822 8  92020494.82644  22472339.595    22472339.3094   22472337.6314
        48.200          28.1004
 202046035.998 7                  38448085.740
        42.500
 136890895.455 5                  26049476.550
        35.500
 134738934.280 6                  25639961.022
        40.100
 127343480.493 7                  24232643.394
        45.200
 124401782.226 6  96756968.100 6  23337461.422    23337461.245    23337466.679
        39.800          38.100
 106108781.644 8  82529032.816 7  19842869.444    19842869.165    19842874.171
        53.600          47.000
 112794028.006 6  87728708.657 5  21063494.250    21063496.106    21063500.006
        37.300          33.600
 25  1  1  5 11  0.0000000  0 28G18R01G15G12G11E27E03G25G05E34G29E05
                                E15E26S35R23R17R02S31R15G13S33E08E21
                                E13R14R24R08
 126487162.755 6  98561422.43544  24069710.355    24069710.2354   24069709.2774
        41.500          26.5004
 104704763.639 7  81437077.961 6  19587190.207    19587189.119    19587198.198
        43.200          41.900
 122151099.615 5  95182662.63242  23244577.448    23244577.5644   23244577.3764
        32.700          16.8004
 128457810.575 6 100097008.13044  24444710.460    24444710.6704   24444713.8994
        38.300          28.6004
 119709899.473 7  93280438.41145  22780037.690    22780037.4134   22780036.5924
        44.600          31.1004
 137371161.064 6                  26140853.797
        39.400
 133366152.331 6                  25378707.153
        38.900
 120371796.077 7  93796227.58345  22905992.840    22905992.3354   22905995.7234
        42.200          33.3004
 105597593.916 8  82283831.19148  20094548.911    20094548.5584   20094547.8714
        50.900          50.4004


 110030622.822 7  85738111.67547  20938131.284    20938130.7084   20938132.3164
        45.700          45.2004


 127217069.495 7                  24208600.134
        43.400


 200871050.972 6                  38224490.200
        40.000
 114926720.677 6                  21484305.544    21484305.322
        41.100
                  94890107.983 6                                  22798907.322
                        41.400
 120799991.826 4  93955500.954 5  22637868.037    22637868.350    22637851.610
        27.700          32.100
 198903946.367 7                  37850157.972
        42.100
 122308843.066 6                  22888400.418    22888401.926
        41.300
 118049298.253 7  91986486.82844  22464034.772    22464034.4864   22464034.0604
        47.900          29.1004
 202046015.426 7                  38448082.176
        43.300
 136850095.932 6                  26041713.801
        39.700
 134747973.494 6                  25641681.152
        40.900
 127328752.490 7                  24229840.187
        43.900
 124450849.296 6  96795131.480 6  23346663.840    23346664.211    23346669.345
        38.400          38.900
 106092203.543 9  82516138.693 7  19839768.965    19839769.208    19839774.040
        54.200          46.600
 112832973.709 7                  21070766.218    21070766.804
        43.600
 25  1  1  5 11 15.0000000  0 25G18R01G12G11E27E03G25G05G29E05E15E26
                                S35R23R17S31R15G13S33E08E21E13R14R24
                                R08
 126448301.667 7  98531141.06444  24062316.188    24062316.0954   24062314.4254
        42.500          25.8004
 104677223.776 7  81415658.002 6  19582040.608    19582039.875    19582046.737
        47.500          41.400
 128511302.402 6 100138690.02944  24454888.643    24454888.9154   24454892.2954
        36.200          26.7004
 119742754.691 7  93306039.88145  22786288.997    22786288.7434   22786289.0834
        46.600          32.0004
 137411543.935 6                  26148537.996
        39.300
 133356225.713 6                  25376818.264
        38.400
 120412066.116 7  93827606.82845  22913653.538    22913652.8954   22913659.8114
        42.000          33.6004
 105604478.968 8  82289196.15748  20095859.013    20095858.6604   20095858.4374
        49.500          49.8004
 110003716.704 7  85717145.87147  20933011.154    20933010.5694   20933012.5234
        43.700          45.4004


 127231013.072 6                  24211253.131
        40.500


 200871067.051 6                  38224486.270
        40.300
 114957707.045 6                  21490099.329    21490098.010
        41.600
 121955454.506 6  94854165.391 6  22790268.821    22790265.418    22790270.535
        41.100          39.700
 198903935.007 6                  37850146.086
        40.800
 122322185.755 6                  22890896.966    22890894.780
        41.300
 118005729.233 7  91952536.92044  22455743.146    22455742.8474   22455743.1674
        44.200          26.6004
 202045993.566 6                  38448074.279
        41.900
 136809333.375 7                  26033958.010
        42.300
 134757115.817 6                  25643422.288
        37.800
 127314044.149 8                  24227042.544
        48.600
 124499971.507 6  96833337.590 6  23355881.206    23355880.163    23355885.538
        41.000          38.000
 106075696.043 8  82503299.532 7  19836681.927    19836682.442    19836686.228
        53.800          44.800
 112872072.332 6  87789429.985 5  21078063.753    21078063.083    21078072.219
        38.500          35.100
 25  1  1  5 11 30.0000000  0 28G18R01G15G12G11E27E03G25G05E34G29E05
                                E15E26S35R23R17R02S31R15G13S33E08E21
                                E13R14R24R08
 126409451.527 6  98500868.23843  24054921.695    24054921.5844   24054920.0294
        40.000          21.3004
 104649874.210 7  81394386.166 7  19576923.431    19576921.884    19576930.892
        44.600          42.700
 122037737.875 6  95094284.71741  23222998.377    23222998.9224   23222992.4474
        38.600          10.4004
 128564791.827 6 100180370.06244  24465068.837    24465069.1094   24465068.8544
        40.600          27.2004
 119775644.284 7  93331668.13345  22792547.611    22792547.3524   22792548.8044
        45.500          31.5004
 137451965.213 6                  26156230.753
        40.200
 133346404.857 6                  25374949.957
        40.600
 120452406.188 6  93859040.61045  22921330.663    22921330.0464   22921336.7464
        41.100          35.5004
 105611486.929 8  82294656.90248  20097192.461    20097192.1084   20097192.3804
        48.300          48.7004


 109976918.396 7  85696264.05147  20927911.919    20927911.3614   20927913.2684
        43.100          44.5004


 127244979.922 7                  24213911.565
        43.400


 200871085.689 6                  38224491.917
        38.700
 114988765.366 7                  21495909.082    21495911.016
        42.900
 121909238.274 7  94818219.507 6  22781632.316    22781629.257    22781633.171
        42.200          38.600
                  93853081.195 5                  22613170.935    22613177.211
                        31.000
 198903925.374 7                  37850151.631
        42.900
 122335701.099 7                  22893427.494    22893426.653
        42.400
 117962238.040 7  91918647.68044  22447467.135    22447466.8584   22447467.2174
        47.100          26.6004
 202045974.867 7                  38448073.618
        43.200
 136768611.001 6                  26026207.725
        40.800
 134766364.102 6                  25645182.824
        38.100
 127299358.339 7                  24224247.044
        45.100
 124549150.801 7  96871588.089 6  23365108.871    23365109.780    23365112.718
        44.600          38.800
 106059262.254 9  82490517.740 7  19833608.016    19833608.917    19833613.088
        54.100          46.300
 112911327.177 7  87819961.460 6  21085396.511    21085396.433    21085402.863
        44.600          39.900
 25  1  1  5 11 45.0000000  0 27G18R01G12G11E27E03G25G05E34G29E05E15
                                E26S35R23R17R02S31R15G13S33E08E21E13
                                R14R24R08
 126370607.334 6  98470600.04242  24047528.573    24047528.5064   24047526.6624
        41.500          17.9004
 104622710.179 7  81373258.601 6  19571841.926    19571841.379    19571849.188
        46.300          41.300
 128618273.447 6 100222044.06044  24475245.098    24475245.3484   24475244.6754
        38.700          26.4004
 119808563.183 7  93357319.22945  22798811.729    22798811.4794   22798813.5524
        42.900          30.9004
 137492419.765 7                  26163927.749
        42.000
 133336684.849 6                  25373100.144
        39.500
 120492810.643 6  93890524.59345  22929020.899    22929020.2514   22929025.8314
        36.000          35.5004
 105618612.207 7  82300209.05848  20098548.483    20098548.1444   20098548.2164
        47.000          48.0004


 109950223.185 7  85675462.57547  20922831.684    20922831.1174   20922833.5054
        46.000          44.3004


 127258964.979 7                  24216573.014
        45.600
 147509688.842 5                  28070162.100
        33.300
 200871101.022 6                  38224500.409
        39.900
 115019890.840 7                  21501721.572    21501723.732
        42.800
 121863012.674 7  94782266.344 5  22772992.036    22772990.789    22772996.407
        42.600          35.800
 120602561.441 6                  22600849.342    22600847.832
        39.100
 198903913.261 6                  37850145.724
        40.400
 122349383.943 6                  22895987.747    22895985.400
        41.800
 117918819.922 6  91884815.34342  22439204.713    22439204.4454   22439204.6704
        41.200          17.5004
 202045952.296 7                  38448066.651
        42.100
 136727923.923 6                  26018466.099
        41.900
 134775713.080 6                  25646960.833
        39.100
 127284690.045 7                  24221456.718
        47.800
 124598381.643 6  96909878.862 6  23374341.628    23374342.079    23374346.690
        39.700          39.100
 106042897.212 8  82477789.369 7  19830547.495    19830548.651    19830551.869
        53.100          44.700
 112950731.991 6  87850609.653 6  21092753.928    21092752.842    21092763.248
        40.300          41.900
 25  1  1  5 12  0.0000000  0 30G18R01G15G26G12G11G20E27E03G25G05E34
                                G29E05E15E26S35R23R17R02S31R15G13S33
                                E08E21E13R14R24R08
 126331776.218 5  98440342.04642  24040139.398    24040139.3494   24040135.5794
        35.000          12.2004
 104595739.230 7  81352281.232 6  19566796.516    19566796.553    19566802.408
        46.500          39.500
 121924376.429 6  95006004.06241  23201440.927    23201440.8744   23201435.9624
        39.200          11.3004
 131965681.100 5                  25112231.433
        31.800
 128671753.862 6 100263717.03944  24485421.763    24485421.9644   24485421.5924
        36.300          25.5004
 119841518.319 7  93382998.56545  22805083.232    22805082.9554   22805085.1504
        43.800          30.3004
 113219372.030 6  88222908.73742  21544932.284    21544932.6414   21544934.7964
        38.500          13.6004
 137532914.255 7                  26171632.841
        43.500
 133327072.725 6                  25371272.082
        41.300
 120533286.426 7  93922064.18846  22936724.999    22936724.3294   22936728.3124
        43.100          36.2004
 105625861.698 7  82305858.00548  20099927.695    20099927.3604   20099928.0024
        46.500          48.0004


 109923638.440 7  85654747.17647  20917772.704    20917772.1284   20917774.0344
        44.300          43.1004


 127272975.216 7                  24219239.032
        44.200
 147479802.174 6                  28064474.179
        37.000
 200871120.859 6                  38224500.319
        38.900
 115051090.573 7                  21507559.508    21507559.687
        43.200
 121816784.847 6  94746311.406 6  22764351.510    22764349.910    22764357.469
        38.300          38.900
 120536850.158 7  93750824.600 5  22588538.093    22588538.354    22588537.658
        42.100          30.900
 198903905.460 6                  37850146.184
        41.800
 122363240.998 7                  22898581.032    22898582.452
        45.300
 117875482.483 6  91851045.93842  22430958.184    22430957.8674   22430957.5444
        37.000          15.3004
 202045934.287 7                  38448064.200
        42.800
 136687279.542 6                  26010731.216
        41.600
 134785169.748 6                  25648761.410
        39.700
 127270046.258 7                  24218669.171
        44.600
 124647673.839 5  96948214.802 6  23383587.378    23383583.926    23383596.787
        33.500          41.500
 106026608.368 8  82465120.264 7  19827501.687    19827502.326    19827506.899
        52.800          46.000
 112990293.565 7  87881379.798 6  21100142.710    21100143.128    21100147.739
        44.300          37.000
 25  1  1  5 12 15.0000000  0 30G18R01G15G26G12G11G20E27E03G25G05E34
                                G29E05E15E26S35R23R17R02S31R15G13S33
                                E08E21E13R14R24R08
 126292951.654 5  98410089.09741  24032750.338    24032750.1734   24032746.3534
        35.600           8.4004
 104568954.936 7  81331449.054 6  19561785.117    19561785.599    19561791.248
        46.300          40.100
 121867773.790 6  94961898.20142  23190669.759    23190669.6344   23190665.8274
        37.400          13.0004
 131944383.337 5                  25108193.755
        32.100
 128725226.363 5 100305383.87844  24495596.571    24495596.6784   24495598.0254
        35.300          25.0004
 119874503.379 7  93408701.21044  22811360.046    22811359.7564   22811361.8734
        45.200          29.8004
 113254233.797 5  88250073.77841  21551567.781    21551567.8924   21551566.2304
        35.500          11.0004
 137573442.179 6                  26179344.240
        39.300
 133317562.339 6                  25369461.196
        40.100
 120573826.542 7  93953653.88146  22944438.551    22944437.8544   22944443.4404
        44.500          39.9004
 105633228.836 7  82311598.63147  20101329.919    20101329.5934   20101329.8474
        47.500          47.2004


 109897157.918 7  85634112.99746  20912734.003    20912733.3864   20912733.9204
        43.700          40.6004


 127287004.381 7                  24221908.717
        43.300
 147449914.504 5                  28058785.062
        34.300
 200871138.250 4                  38224509.043
        29.300
 115082358.058 6                  21513403.688    21513403.973
        40.200
 121770548.725 6  94710349.940 6  22755709.461    22755708.531    22755718.388
        37.300          41.200
 120471184.464 6  93699751.267 5  22576228.829    22576226.465    22576234.163
        40.700          34.700
 198903895.096 7                  37850144.078
        43.700
 122377265.386 7  95182214.068 6  22901208.008    22901208.922    22901211.977
        44.300          40.700
 117832219.729 6  91817334.76142  22422726.301    22422725.9664   22422724.5054
        38.200          12.8004
 202045914.664 7                  38448058.933
        45.300
 136646671.669 6                  26003003.511
        41.000
 134794727.612 6                  25650579.997
        40.100
 127255420.660 7                  24215886.471
        45.200
 124697014.030 4  96986590.512 6  23392841.728    23392841.441    23392853.019
        27.000          41.200
 106010389.456 8  82452505.605 7  19824468.941    19824469.140    19824472.971
        51.800          45.100
 113030005.256 7  87912266.636 6  21107558.702    21107558.912    21107563.022
        44.900          38.700
 25  1  1  5 12 30.0000000  0 29G18R01G15G26G12G11G20E27E03G25G05E34
                                G29E05E15E26S35R23R17R02S31R15G13S33
                                E08E21E13R24R08
 126254134.640 6  98379842.04041  24025362.772    24025362.5804   24025359.0364
        38.300          10.7004
 104542358.702 7  81310763.127 6  19556810.217    19556809.984    19556815.808
        46.100          39.700
 121811198.262 5  94917813.90041  23179903.469    23179903.3264   23179903.7454
        33.100           8.0004
 131923203.282 5                  25104161.331
        31.800
 128778691.495 6 100347045.01244  24505771.621    24505771.6474   24505773.6944
        37.000          27.2004
 119907519.271 7  93434427.88744  22817641.832    22817641.5514   22817643.8634
        45.000          28.8004
 113289148.343 5  88277279.89441  21558215.454    21558215.4014   21558208.4994
        35.800          10.0004
 137614004.066 6                  26187064.741
        40.700
 133308154.635 6                  25367670.353
        39.300
 120614431.562 7  93985294.11246  22952166.219    22952165.5354   22952171.0164
        42.000          39.4004
 105640713.968 8  82317431.19447  20102753.537    20102753.1934   20102754.3404
        48.200          47.6004


 109870782.943 7  85613561.08746  20907715.155    20907714.5294   20907713.8314
        43.300          40.4004


 127301053.370 7                  24224582.306
        44.900
 147420026.591 4                  28053097.205
        27.800
 200871154.073 6                  38224512.786
        38.900
 115113694.135 6                  21519259.640    21519258.556
        37.100
                  94674382.739 6                  22747064.178    22747076.794
                        41.000
 120405565.470 6  93648714.353 5  22563930.723    22563930.192    22563943.721
        39.200          34.100
 198903883.630 7                  37850150.504
        42.600
 122391458.019 5  95193252.777 6  22903868.492    22903868.133    22903867.307
        34.500          41.100
 117789032.888 5  91783682.70041  22414506.956    22414506.5094   22414505.9444
        33.400           7.9004
 202045891.583 7                  38448061.012
        42.800
 136606101.431 6                  25995283.654
        38.800
 134804387.554 6                  25652418.976
        39.800
 127240814.076 7                  24213106.110
        45.000
 105994241.689 8  82439946.236 7  19821449.265    19821449.127    19821453.964
        52.000          45.600
 113069867.328 7  87943270.400 6  21115003.132    21115003.927    21115004.468
        45.100          37.700
 25  1  1  5 12 45.0000000  0 30G18R01G23G15G12G11G20E27E03G25G05E34
                                G29E05E15E26S35R23R17R02S31R15G13S33
                                E08E21E13R14R24R08
 126215328.617 6  98349603.60841  24017980.295    24017980.0814   24017973.8204
        39.900          11.3004
 104515953.923 7  81290226.115 6  19551869.409    19551868.940    19551876.633
        45.800          41.800


 121754653.515 6  94873753.01242  23169143.571    23169143.7364   23169143.3664
        37.400          16.0004
 128832152.193 5 100388702.70544  24515945.896    24515945.9544   24515947.5124
        34.300          27.3004
 119940569.410 7  93460181.23944  22823931.464    22823931.1834   22823932.4134
        43.800          28.5004
 113324156.635 5                  21564866.146
        32.500
 137654603.168 6                  26194791.108
        40.900
 133298853.172 7                  25365900.270
        42.600
 120655104.558 7  94016987.38146  22959905.848    22959905.1784   22959910.5144
        44.700          38.7004
 105648320.955 8  82323358.73248  20104201.926    20104201.5874   20104202.4804
        50.700          51.4004


 109844517.052 7  85593094.20247  20902716.111    20902715.4994   20902715.7734
        47.500          43.1004


 127315125.570 7                  24227259.118
        42.500
 147390141.755 5                  28047409.565
        32.900
 200871172.436 6                  38224512.661
        38.500
 115145102.795 6                  21525131.150    21525129.180
        38.600
 121678057.846 6  94638412.389 6  22738429.309    22738429.323    22738435.603
        41.300          40.600
 120339997.179 6                  22551640.630
        40.100
 198903874.147 6                  37850139.692
        41.100
                  95204424.734 7                                  22906556.541
                        42.600
 117745925.731 7  91750092.87842  22406302.095    22406301.5724   22406302.6414
        42.200          16.2004
 202045873.190 7                  38448056.232
        43.800
 136565572.455 6                  25987571.053
        40.800
 134814152.816 6                  25654278.285
        39.800
 127226229.988 7                  24210331.266
        46.100
 124795936.636 6  97063464.431 6  23411390.809    23411389.383    23411394.713
        40.600          38.700
 105978168.670 8  82427445.002 7  19818442.884    19818442.631    19818448.197
        51.100          45.700
 113109882.770 6  87974393.431 6  21122473.024    21122471.246    21122474.014
        36.900          37.500
 25  1  1  5 13  0.0000000  0 28G18R01G15G26G12G11E27E03G25G05E34G29
                                E15E26S35R23R17R02S31R15G13S33E08E21
                                E13R14R24R08
 126176530.834 6  98319371.51741  24010592.247    24010592.1764   24010590.7024
        36.000          11.9004
 104489738.058 8  81269836.000 7  19546966.974    19546966.503    19546972.980
        48.100          42.400
 121698136.438 6  94829735.93842  23158384.830    23158385.2544   23158389.5664
        39.100          14.5004


 128885605.318 4 100430354.42144  24526117.273    24526117.3494   24526119.3944
        25.600          24.2004
 119973650.727 7  93485958.86844  22830226.301    22830226.0514   22830227.3674
        44.000          27.9004
 137695236.269 6                  26202523.680
        40.200
 133289654.878 6                  25364150.215
        38.900
 120695842.058 7  94048730.85245  22967657.262    22967656.6234   22967661.5894
        45.400          35.0004
 105656046.341 8  82329378.49948  20105671.446    20105671.1074   20105672.8174
        50.000          50.9004


 109818357.589 7  85572710.17747  20897738.122    20897737.5234   20897737.8654
        46.600          42.9004
 127329217.897 6                  24229940.689
        41.900
 147360257.023 5                  28041721.525
        35.100
 200871189.774 6                  38224500.762
        37.300
 115176580.640 7                  21531017.201    21531018.427
        44.800
 121631803.686 7  94602436.926 6  22729785.118    22729785.426    22729788.629
        43.900          38.600
 120274476.590 7  93546827.863 4  22539365.915    22539362.901    22539379.421
        42.800          29.100
 198903863.702 7                  37850149.614
        45.500
                  95215727.394 6                                  22909274.259
                        38.200
 117702896.025 6  91716563.22943  22398115.104    22398114.5904   22398115.9764
        37.400          20.1004
 202045853.040 7                  38448045.911
        43.300
 136525082.163 7                  25979866.343
        43.800


 127211665.269 7                  24207560.001
        46.800
 124845433.575 7  97101962.174 5  23420671.202    23420675.646    23420676.013
        44.700          34.800
 105962167.419 8  82414999.546 7  19815451.136    19815451.429    19815454.826
        51.700          43.100
 113150048.125 6  88005633.181 6  21129975.330    21129974.065    21129978.296
        39.900          40.200
 25  1  1  5 13 15.0000000  0 28G18R01G15G26G12G11G20E27E03G25G05E34
                                G29E15E26S35R23R17S31R15G13S33E08E21
                                E13R14R24R08


 104463712.261 8  81249593.714 7  19542098.364    19542098.261    19542104.470
        48.800          44.400
 121641647.964 4  94785745.97641  23147638.530    23147639.1694   23147646.5864
        28.200           8.5004


 128939052.464 6 100471999.80744  24536285.671    24536285.6934   24536289.5274
        37.300          26.4004
 120006764.108 7  93511761.52944  22836528.537    22836528.2784   22836528.4824
        45.000          28.7004
 113394405.811 6                  21578203.685
        36.100
 137735903.909 6                  26210261.596
        40.700
 133280560.848 6                  25362419.629
        39.700
 120736644.715 6  94080525.06945  22975420.217    22975419.5654   22975425.2424
        41.800          32.8004
 105663890.697 8  82335490.99448  20107165.250    20107164.9114   20107165.2924
        49.900          51.5004
 146659199.985 5                  27908317.301
        30.800
 109792305.794 8  85552410.08747  20892781.193    20892780.5904   20892779.9494
        48.200          42.7004
 127343331.480 7                  24232627.074
        44.200
 147330374.147 4                  28036042.949
        27.700
 200871206.130 6                  38224508.708
        37.800
 115208128.714 7                  21536914.066    21536915.147
        42.700
 121585544.003 6  94566457.260 6  22721136.334    22721137.630    22721146.150
        39.100          40.700
 198903853.253 7                  37850142.415
        44.900
 122435022.201 5  95227160.980 6  22912014.155    22912015.456    22912026.453
        35.600          36.100
 117659944.871 7  91683094.82044  22389942.784    22389942.3374   22389943.0224
        45.000          24.7004
 202045832.177 7                  38448042.155
        45.000
 136484631.663 7                  25972168.784
        42.300
 134833991.026 6                  25658049.834
        36.400
 127197120.956 7                  24204791.316
        46.600
 124894981.566 6                  23429965.616    23429964.427
        39.500
 105946239.339 9  82402611.095 7  19812472.595    19812473.311    19812477.530
        54.000          44.200
 113190364.206 7  88036990.217 7  21137503.968    21137504.886    21137509.085
        43.200          42.200
 25  1  1  5 13 30.0000000  0 28G18R01G26G12G11G20E27E03G25G05E34G29
                                E15E26S35R23R17R02S31R15G13S33E08E21
                                E13R14R24R08
 126098943.443 5  98258924.05342  23995836.997    23995836.9844   23995834.3874
        35.700          17.2004
 104437875.325 8  81229498.250 7  19537265.071    19537265.153    19537271.008
        48.500          43.500


 128992489.881 5 100513639.36244  24546455.094    24546455.1024   24546458.8734
        35.700          28.9004
 120039908.220 6  93537588.09844  22842835.031    22842834.7504   22842835.9654
        39.800          25.9004
 113429533.064 4                  21584890.649
        29.400
 137776604.489 7                  26218005.668
        42.400
 133271569.843 6                  25360708.376
        41.000
 120777510.634 7  94112368.58644  22983194.423    22983193.7354   22983202.7534
        44.100          28.4004
 105671852.741 8  82341695.17148  20108680.004    20108679.6694   20108680.2734
        51.900          51.7004
 146688787.329 4                  27913948.574
        28.000
 109766360.704 8  85532193.15147  20887844.372    20887843.7734   20887843.6844
        48.200          46.7004
 127357464.945 7                  24235316.707
        44.300
 147300489.911 6                  28030353.243
        36.400


 115239745.654 6                  21542825.906    21542824.696
        40.800
 121539102.366 5  94530472.131 6  22712484.419    22712486.306    22712499.713
        34.000          36.300
 120143585.366 7                  22514837.362    22514836.963
        43.400
 198903841.942 7                  37850148.487
        42.200
                  95238724.788 6                                  22914806.908
                        36.000
 117617071.319 7  91649686.87244  22381783.036    22381782.5714   22381784.0904
        43.900          26.0004
 202045811.398 7                  38448050.955
        43.400
 136444219.837 7                  25964477.827
        43.600
 134844063.425 6                  25659966.078
        37.600
 127182595.617 8                  24202028.239
        48.200
 124944579.019 6                  23439269.655    23439268.555
        39.500
 105930383.287 8  82390278.610 7  19809507.254    19809507.480    19809511.490
        52.900          44.100
 113230828.665 7  88068462.604 7  21145060.236    21145062.142    21145067.567
        42.500          44.400
 25  1  1  5 13 45.0000000  0 26G18R01G26G12G11E27E03G25G05G29E15E26
                                S35R23R17R02S31R15G13S33E08E21E13R14
                                R24R08
 126060170.012 6  98228710.96742  23988455.327    23988455.2834   23988457.7444
        36.900          16.9004
 104412227.772 8  81209550.178 7  19532467.157    19532466.936    19532473.865
        49.600          44.800


 129045918.443 5 100555272.01945  24556622.632    24556622.7574   24556626.3234
        35.800          30.0004
 120073083.063 7  93563438.61844  22849148.690    22849148.4494   22849149.0154
        44.300          28.2004
 137817337.962 6                  26225757.838
        40.500
 133262681.935 7                  25359018.509
        42.000
 120818439.558 6  94144261.20245  22990985.996    22990985.3264   22990991.6044
        41.700          30.4004
 105679932.455 8  82347991.06048  20110217.547    20110217.2174   20110217.1704
        51.800          51.8004
 109740522.571 8  85512059.53847  20882928.222    20882927.6324   20882927.6324
        50.900          47.8004
 127371618.269 7                  24238010.411
        44.100
 147270605.292 4                  28024661.925
        29.400


 115271431.658 6                  21548747.870    21548747.105
        39.800
                  94494481.826 6                  22703839.444    22703853.531
                        39.300
                                                  22502586.743

 198903828.975 7                  37850142.272
        43.200
 122464924.635 6  95250418.214 5  22917618.859    22917622.666    22917620.203
        41.700          30.700
 117574275.937 7  91616339.79944  22373639.820    22373639.3824   22373639.6744
        43.800          25.4004
 202045787.958 7                  38448043.126
        42.700
 136403847.077 7                  25956796.890
        44.200
 134854237.316 6                  25661902.763
        36.900
 127168089.394 7                  24199267.586
        47.200
 124994154.207 6  97217714.822 5  23448583.064    23448583.168    23448592.975
        39.800          34.400
 105914599.365 8  82378002.277 7  19806555.626    19806556.039    19806560.232
        52.100          45.200
 113271441.335 6  88100050.267 7  21152644.581    21152644.284    21152650.625
        41.900          45.100
 25  1  1  5 14  0.0000000  0 25G18R01G12G11E27E03G25G05G29E15E26S35
                                R23R17R02S31R15G13S33E08E21E13R14R24
                                R08
 126021408.680 6  98198507.29443  23981081.950    23981082.0434   23981081.4404
        37.500          19.3004
 104386774.334 7  81189753.046 6  19527704.495    19527704.600    19527709.946
        46.800          39.000


 120106293.152 7  93589316.61044  22855468.023    22855467.8004   22855469.0234
        42.500          27.4004
 137858108.429 6                  26233518.004
        41.700
 133253901.676 7                  25357346.928
        42.300
 120859435.559 6  94176206.05245  22998788.536    22998787.8974   22998791.6034
        37.400          30.5004
 105688134.014 8  82354381.83148  20111778.244    20111777.9144   20111777.7134
        50.800          51.7004
 109714795.964 8  85492012.85347  20878031.438    20878030.8394   20878032.0414
        49.000          46.1004
 127385795.875 6                  24240708.136
        41.800




 115303191.014 6                  21554683.934    21554683.537
        41.500
 121446634.566 5  94458489.636 5  22695198.433    22695194.170    22695199.770
        31.000          34.800
 120012895.844 5  93343302.573 5  22490345.173    22490343.879    22490351.331
        35.000          32.000
 198903818.861 7                  37850136.414
        44.300
 122480130.254 7                  22920457.306    22920458.224
        42.900
 117531563.467 7  91583057.34144  22365511.324    22365510.8774   22365511.8564
        44.600          28.2004
 202045768.081 7                  38448036.722
        42.400
 136363517.948 6                  25949121.001
        39.500
 134864517.180 6                  25663860.356
        40.400
 127153606.628 8                  24196511.244
        49.500
 125043853.033 5                  23457908.177    23457907.838
        34.800
 105898892.374 8  82365785.769 7  19803618.712    19803618.939    19803624.013
        53.500          44.400
 113312206.178 6  88131756.296 7  21160258.093    21160255.875    21160261.228
        36.500          45.500
 25  1  1  5 14 15.0000000  0 26G18R01G12G11G20E27E03G25G05G29E15E26
                                S35R23R17R02S31R15G13S33E08E21E13R14
                                R24R08


 104361509.670 8  81170102.745 6  19522979.074    19522979.472    19522985.180
        48.400          41.000
 129152747.893 6 100638520.18844  24576953.140    24576953.4034   24576954.8164
        36.300          28.5004
 120139533.165 7  93615217.95945  22861793.719    22861793.4874   22861795.6494
        46.800          30.6004
 113535124.270 5  88468903.47541  21605008.559    21605008.5944   21605008.2104
        34.800           6.6004
 137898910.467 6                  26241280.358
        37.700
 133245224.061 6                  25355694.781
        41.000
 120900493.025 6  94208198.88944  23006599.104    23006598.5144   23006602.9384
        40.700          29.2004
 105696451.954 8  82360863.36248  20113360.898    20113360.5594   20113360.2074
        49.500          49.6004
 109689176.224 8  85472049.40647  20873157.210    20873156.6254   20873156.7254
        49.600          47.9004
 127399992.696 7                  24243408.960
        42.500


 200871281.778 5                  38224526.648
        34.600
 115335018.915 7                  21560636.622    21560636.363
        42.100
 121400351.984 6  94422492.215 6  22686549.113    22686550.600    22686555.453
        39.300          40.200
 119947501.987 5  93292538.533 6  22478110.503    22478111.246    22478122.485
        34.300          39.500
 198903807.447 7                  37850135.220
        42.400
 122495501.552 7                  22923338.755    22923339.640
        43.300
 117488929.160 7  91549835.80644  22357397.844    22357397.4024   22357398.3794
        46.600          28.2004
 202045746.211 7                  38448034.129
        44.100
 136323227.682 6                  25941456.316
        38.500
 134874897.757 6                  25665836.311
        39.300
 127139142.234 7                  24193758.991
        46.300
 125093598.684 7                  23467238.826    23467236.711
        42.000
 105883257.379 8  82353625.204 7  19800694.986    19800694.909    19800698.861
        51.400          44.400
 113353117.840 7  88163576.441 7  21167898.266    21167898.138    21167900.571
        43.200          44.000
 25  1  1  5 14 30.0000000  0 28G18R01G15G26G12G11E27E03G25G05G29E05
                                E15E26S35R23R17R02S31R15G13S33E08E21
                                E13R14R24R08
 125943897.725 6  98138122.65943  23966334.758    23966334.3474   23966332.8134
        39.100          18.4004
 104336435.843 7  81150600.910 6  19518287.137    19518286.621    19518292.986
        45.600          39.300
 121359687.070 6  94565986.43542  23093976.265    23093976.6804   23093982.0184
        37.100          13.6004
 131758019.994 5                  25072717.266
        31.600


 120172804.533 7  93641143.66745  22868125.540    22868125.3214   22868126.9714
        46.800          30.6004
 137939745.123 6                  26249051.598
        36.200
 133236650.367 6                  25354063.607
        40.700
 120941612.943 6  94240240.32744  23014424.049    23014423.4464   23014425.6754
        40.600          27.5004
 105704887.465 8  82367436.47348  20114965.843    20114965.4904   20114965.5284
        50.300          49.0004
 109663664.869 7  85452170.42947  20868302.618    20868302.0284   20868302.1664
        47.900          47.6004


 127414210.070 6                  24246114.408
        40.100
 147181005.508 5                  28007613.856
        30.000
 200871296.735 5                  38224549.243
        35.300
 115366916.305 7                  21566596.368    21566597.447
        42.800
 121354063.900 7  94386490.236 6  22677903.785    22677904.275    22677907.348
        42.800          40.500
                  93241814.696 6                                  22465899.184
                        36.100
 198903795.221 6                  37850129.233
        41.600
 122511039.466 6                  22926245.028    22926244.875
        41.700
 117446374.825 8  91516676.56045  22349300.985    22349300.5564   22349299.8414
        48.000          30.6004
 202045724.316 7                  38448021.559
        45.200
 136282977.611 6                  25933798.353
        37.300
 134885380.236 6                  25667830.996
        39.800
 127124697.502 7                  24191009.815
        45.200
 125143392.069 7                  23476580.302    23476579.237
        44.000
 105867695.746 8  82341521.758 7  19797784.678    19797784.254    19797789.104
        50.100          44.400
 113394176.838 7  88195511.118 7  21175565.798    21175567.006    21175569.005
        43.800          45.500
 25  1  1  5 14 45.0000000  0 26G18R01G15G26G12G11E27E03G25G05G29E15
                                E26S35R23R17R02S31G13S33E08E21E13R14
                                R24R08
 125905161.579 6  98107938.56543  23958962.865    23958962.5704   23958962.3044
        41.900          20.8004
 104311553.963 7  81131248.357 6  19513632.998    19513632.865    19513639.364
        46.600          41.000
 121303381.882 6  94522112.24243  23083264.721    23083265.3244   23083268.6994
        37.800          19.6004


 129259564.296 5 100721762.64143  24597282.607    24597283.0544   24597281.1304
        30.400          20.5004
 120206108.300 7  93667094.64944  22874463.535    22874463.3164   22874463.8374
        47.300          29.6004
 137980613.299 6                  26256829.283
        37.500
 133228181.906 6                  25352451.869
        38.300
 120982796.049 7  94272331.05045  23022263.064    23022262.4564   23022264.0044
        43.200          32.7004
 105713441.327 8  82374101.80448  20116593.718    20116593.3524   20116593.1854
        51.000          50.0004
 109638263.142 7  85432376.94847  20863468.239    20863467.6674   20863468.7364
        47.800          45.8004
 127428449.103 6                  24248823.464
        41.000


 200871324.212 6                  38224537.496
        36.800
 115398884.612 6                  21572572.707    21572573.301
        40.900
 121307771.278 5  94350484.880 6  22669249.870    22669247.227    22669255.300
        34.100          41.900
 119817190.982 5  93191132.013 6  22453678.630    22453677.133    22453688.564
        34.600          37.700
 198903782.706 6                  37850127.153
        41.500
 117403902.105 7  91483580.93944  22341217.823    22341217.3904   22341217.2854
        43.900          28.9004
 202045702.174 7                  38448014.990
        42.700
 136242769.477 6                  25926146.813
        39.100
 134895965.738 7                  25669845.259
        43.400
 127110273.523 7                  24188265.162
        44.700
 125193233.924 7                  23485931.929    23485932.306
        44.100
 105852209.016 8  82329476.530 7  19794887.810    19794888.078    19794893.344
        48.500          46.700
 113435383.989 7  88227561.154 7  21183259.556    21183260.245    21183264.641
        42.200          46.100
 25  1  1  5 15  0.0000000  0 27G18R01G15G12G11G20E27E03G25G05G29E05
                                E15E26S35R23R17S31R15G13S33E08E21E13
                                R14R24R08
 125866436.558 6  98077763.23442  23951592.959    23951592.8214   23951592.3244
        39.100          17.7004
 104286865.751 7  81112046.396 6  19509015.134    19509014.832    19509021.604
        47.200          40.600
 121247110.550 4  94478264.38142  23072549.947    23072550.4474   23072562.0164
        28.200          15.6004
 129312951.519 6 100763363.10043  24607434.473    24607434.6334   24607438.5734
        36.300          22.7004
 120239445.980 7  93693072.09044  22880806.873    22880806.6454   22880805.7064
        46.400          27.8004
 113641275.416 5                  21625213.814
        33.800
 138021516.201 6                  26264613.910
        40.000
 133219820.186 6                  25350860.625
        39.400
 121024043.420 7  94304471.82545  23030111.569    23030110.9394   23030113.4414
        43.300          32.9004
 105722115.161 8  82380860.62148  20118244.215    20118243.8534   20118243.4294
        50.800          49.5004
 109612972.924 7  85412670.30847  20858655.156    20858654.5664   20858656.4834
        47.700          45.0004


 127442711.390 6                  24251539.157
        40.600


 200871341.785 5                  38224547.871
        32.600
 115430925.367 6                  21578564.416    21578565.901
        38.200
 121261476.030 6  94314477.397 7  22660606.872    22660601.439    22660604.655
        37.200          42.800
 198903773.191 6                  37850126.956
        40.800
 122542619.237 6                  22932153.927    22932154.290
        38.600
 117361512.629 7  91450550.22844  22333152.089    22333151.6784   22333150.4874
        46.000          29.9004
 202045682.303 7                  38448017.347
        45.000
 136202604.624 5                  25918508.311
        35.100
 134906655.611 7                  25671878.916
        45.000
 127095871.813 7                  24185524.323
        44.300
 125243124.970 6                  23495289.348    23495288.747
        41.800
 105836799.003 8  82317490.937 7  19792005.921    19792006.672    19792012.117
        48.700          47.500
 113476740.218 7  88259727.169 7  21190982.794    21190983.171    21190988.157
        43.500          47.400
 25  1  1  5 15 15.0000000  0 27G18R01G26G12G11G20E27E03G25G05G29E15
                                E26S35R23R17R02S31R15G13S33E08E21E13
                                R14R24R08
 125827718.882 6  98047593.59143  23944226.552    23944226.3744   23944224.5124
        41.600          20.7004
 104262367.711 7  81092992.363 7  19504432.956    19504432.448    19504438.898
        47.900          42.200


 129366327.052 5 100804954.46343  24617590.271    24617590.3734   24617595.0414
        31.200          22.3004
 120272813.759 7  93719072.94744  22887156.555    22887156.3414   22887154.5304
        47.300          29.1004
 113676768.008 5  88579310.49941  21631964.369    21631964.2444   21631968.7054
        34.500           9.7004
 138062449.898 6                  26272402.874
        39.000
 133211561.586 6                  25349289.895
        40.100
 121065350.843 6  94336659.42545  23037972.012    23037971.4044   23037971.9964
        41.900          30.9004
 105730904.935 8  82387709.76648  20119917.422    20119917.0694   20119915.5564
        50.700          50.1004
 109587790.638 7  85393047.75347  20853863.558    20853862.9554   20853864.2674
        46.500          44.6004
 127456993.063 6                  24254257.014
        40.400


 200871357.216 6                  38224547.093
        39.700
 115463034.842 6                  21584570.342    21584567.901
        36.300
 121215174.264 6  94278464.884 7  22651950.295    22651948.889    22651950.841
        39.000          42.200
 119687034.302 4  93089892.744 6  22429299.474                    22429295.304
        29.800          36.300
 198903761.463 6                  37850119.672
        41.900
 122558657.650 6  95323370.712 5  22935153.793    22935154.002    22935178.414
        40.600          33.200
 117319202.708 8  91417581.48645  22325101.041    22325100.6394   22325098.5754
        48.500          30.8004
 202045659.850 7                  38448012.705
        45.300
 136162479.736 4                  25910874.506
        28.000
 134917445.902 7                  25673932.020
        43.800
 127081488.569 7                  24182787.395
        43.600
 125293060.790 7                  23504660.257    23504659.108
        43.500
 105821461.942 8  82305562.101 8  19789139.562    19789139.704    19789143.902
        49.400          48.200
 113518241.464 7  88292005.900 7  21198733.096    21198731.451    21198737.944
        42.400          46.800
 25  1  1  5 15 30.0000000  0 27G18R01G15G26G12G11E27E03G25G05G29E15
                                E26S35R23R17R02S31R15G13S33E08E21E13
                                R14R24R08
 125789011.583 6  98017432.00243  23936860.203    23936860.0924   23936860.4564
        40.600          22.3004
 104238063.113 8  81074088.783 6  19499885.659    19499885.760    19499891.562
        49.500          41.700
 121134638.119 5  94390691.02542  23051158.283    23051158.5694   23051168.6694
        34.800          13.8004


 129419685.511 5 100846517.74343  24627748.652    24627748.6744   24627749.6444
        35.000          22.4004
 120306214.529 7  93745099.49645  22893512.637    22893512.4274   22893511.2454
        47.600          31.1004
 138103416.979 6                  26280197.973
        40.700
 133203409.021 6                  25347738.582
        38.800
 121106720.982 7  94368895.79245  23045844.112    23045843.5364   23045845.1154
        43.700          31.1004
 105739813.411 8  82394651.41148  20121612.708    20121612.3514   20121610.8514
        50.400          49.3004
 109562719.559 7  85373511.86847  20849092.462    20849091.8594   20849093.0734
        45.500          44.4004
 127471297.134 6                  24256978.425
        39.000
 147061451.000 5                  27984863.727
        30.600


 115495065.067 4                  21590581.379    21590578.495
        28.200
 121168869.113 7  94242449.933 7  22643293.726    22643296.805    22643298.448
        42.600          43.700
 119622032.766 6  93039336.036 6  22417119.132    22417118.945    22417112.056
        38.900          38.200
 198903749.998 6                  37850119.824
        41.900
 122574863.682 6  95335975.239 4  22938195.144    22938195.068    22938209.141
        41.700          29.500
 117276976.669 7  91384678.13145  22317065.341    22317064.9354   22317063.2794
        47.600          30.1004
 202045640.341 7                  38448006.624
        43.400
 136122506.896 4                  25903246.362
        28.400
 134928339.490 7                  25676005.722
        43.900
 127067126.724 7                  24180054.703
        47.000
 125343043.974 6                  23514033.781    23514034.325
        39.900
 105806201.031 8  82293692.515 8  19786284.548    19786285.146    19786290.162
        48.800          48.300
 113559890.006 7  88324399.239 7  21206511.579    21206509.329    21206515.147
        44.200          46.700
 25  1  1  5 15 45.0000000  0 27G18R01G15G12G11G20E27E03G25G05G29E05
                                E15E26S35R23R17S31R15G13S33E08E21E13
                                R14R24R08
 125750312.512 6  97987276.87943  23929495.940    23929495.8384   23929497.3354
        41.200          19.4004
 104213950.002 8  81055334.113 6  19495375.445    19495375.252    19495380.683
        50.400          40.100


 129473041.165 5 100888094.77943  24637903.439    24637903.5234   24637903.3404
        32.600          21.1004
 120339646.205 8  93771150.12345  22899873.955    22899873.7324   22899874.6234
        48.000          31.0004
 113747875.283 5                  21645507.598
        32.600
 138144415.060 6                  26288000.669
        40.200
 133195360.461 6                  25346207.273
        40.400
 121148151.150 6  94401178.99445  23053727.321    23053726.8034   23053729.6544
        39.600          30.1004
 105748838.133 8  82401683.64448  20123329.566    20123329.2004   20123328.9344
        48.400          48.5004
 109537757.935 8  85354061.22947  20844342.600    20844342.0064   20844342.4484
        48.000          45.1004


 127485621.521 6                  24259703.744
        37.300
 147031573.639 4                  27979174.035
        28.800
 200871384.541 6                  38224543.864
        36.300
 115527290.389 6                  21596607.643    21596605.464
        37.600
 121122558.546 7  94206430.677 7  22634635.800    22634635.916    22634643.788
        42.400          42.300
 198903738.832 6                  37850118.308
        41.100
 122591234.689 6                  22941256.922    22941258.326
        40.000
 117234832.594 7  91351838.62144  22309045.737    22309045.3354   22309044.6274
        45.400          29.3004
 202045617.624 7                  38447996.688
        44.000


 134939334.173 7                  25678097.366
        43.300
 127052784.156 7                  24177324.867
        45.400
 125393071.730 6                  23523418.847    23523415.329
        36.300
 105791014.508 7  82281880.744 7  19783443.518    19783443.278    19783448.893
        47.100          47.300
 113601683.261 7  88356905.070 7  21214315.223    21214314.756    21214319.103
        45.600          44.400
 25  1  1  5 16  0.0000000  0 29G18R01G23G15G26G12G11G20E27E03G25G05
                                G29E05E15E26S35R23R17R02S31G13S33E08
                                E21E13R14R24R08
 125711621.757 6  97957128.26343  23922133.025    23922132.9234   23922136.0874
        41.700          20.1004
 104190028.366 8  81036728.379 6  19490899.565    19490899.529    19490907.424
        50.200          41.100
 132697066.689 4                  25251406.665
        29.400
 121022364.257 4  94303186.64442  23029789.764    23029790.3314   23029795.5974
        29.200          15.1004


 129526406.220 5 100929676.81243  24648055.797    24648055.7534   24648057.6974
        34.500          22.1004
 120373108.670 7  93797224.76744  22906241.169    22906240.9414   22906243.2964
        44.900          29.4004
 113783520.074 6                  21652287.226
        38.000
 138185443.932 6                  26295808.311
        40.800
 133187416.061 6                  25344694.749
        41.400
 121189641.155 6  94433508.84244  23061622.323    23061621.9084   23061626.3074
        37.800          26.5004
 105757978.849 8  82408806.27848  20125069.698    20125069.3324   20125068.5474
        50.200          48.3004
 109512905.993 7  85334696.07747  20839612.625    20839612.0494   20839612.6124
        47.600          43.6004


 127499966.120 6                  24262433.966
        41.100


 200871398.966 6                  38224558.723
        39.400
 115559610.502 5                  21602653.944    21602651.053
        34.600
 121076242.688 7  94170407.314 7  22625985.393    22625985.911    22625988.184
        47.900          43.700
 119492297.165 6  92938347.852 5  22392804.832                    22392778.027
        36.600          33.200
 198903726.669 7                  37850116.649
        42.100
 117192770.924 7  91319063.35744  22301040.749    22301040.3474   22301041.9384
        44.400          29.5004
 202045594.650 6                  38447994.881
        41.900
 136042385.646 4                  25888006.883
        28.200
 134950429.822 6                  25680207.479
        40.900
 127038460.874 8                  24174599.657
        48.000
 125443138.548 5                  23532812.681    23532811.380
        35.200
 105775902.502 8  82270126.969 7  19780618.553    19780618.670    19780623.176
        48.400          47.000
 113643620.916 7  88389523.299 7  21222145.910    21222145.788    21222150.730
        44.900          45.700
 25  1  1  5 16 15.0000000  0 29G18R01G15G26G12G11G20E27E03G25G05G29
                                E05E15E26S35R23R17R02S31R15G13S33E08
                                E21E13R14R24R08
 125672943.884 7  97926989.66543  23914772.405    23914772.3074   23914778.5194
        44.000          19.7004
 104166303.288 8  81018275.596 6  19486461.960    19486462.182    19486467.693
        50.700          40.000
 120966258.586 5  94259468.19942  23019119.981    23019120.8124   23019113.3914
        32.700          12.2004


 129579741.413 6 100971236.72543  24658201.722    24658201.4324   24658205.1234
        36.600          22.5004
 120406606.673 7  93823327.11144  22912615.907    22912615.6664   22912617.9614
        44.500          28.0004
 113819218.862 6  88690266.21342  21659076.709    21659076.2184   21659071.9114
        40.900          12.3004
 138226507.978 6                  26303622.568
        40.300
 133179580.458 7                  25343203.658
        42.300
 121231194.938 6  94465888.31344  23069529.114    23069528.6854   23069535.6374
        36.800          25.1004
 105767240.177 8  82416022.87848  20126831.409    20126831.0474   20126829.8254
        51.500          48.2004
 109488168.554 7  85315420.15247  20834905.145    20834904.6004   20834904.4364
        47.900          44.5004


 127514335.641 6                  24265168.735
        37.900
 146971864.503 5                  27967813.992
        32.600
 200871416.761 6                  38224552.262
        38.900
 115592004.707 6                  21608707.347    21608705.058
        36.900
 121029926.448 7  94134383.634 6  22617329.916    22617330.330    22617332.004
        47.800          41.200
 119427462.074 6  92887920.693 6  22380613.825    22380617.599    22380631.401
        37.800          37.600
 198903717.017 7                  37850111.529
        42.400
 122624474.189 6  95374532.260 5  22947477.870    22947479.690    22947481.073
        41.900          33.000
 117150796.178 7  91286355.84344  22293053.413    22293053.0114   22293055.4154
        42.900          29.6004
 202045575.837 7                  38447993.933
        43.200
 136002433.268 4                  25880406.770
        29.200
 134961630.874 5                  25682338.852
        34.900
 127024161.440 7                  24171878.577
        47.400
 125493258.638 5  97605939.044 5  23542230.397    23542233.151    23542230.531
        31.400          33.900
 105760869.666 8  82258434.757 7  19777807.586    19777808.059    19777811.912
        48.900          47.400
 113685707.275 7  88422257.163 7  21230005.021    21230006.172    21230009.213
        46.400          44.100
 25  1  1  5 16 30.0000000  0 26G18R01G26G12G11G20E27E03G25G05G29E15
                                E26S35R23R17R02S31R15G13S33E08E21E13
                                R24R08
 125634270.178 6  97896854.34942  23907412.929    23907412.8944   23907421.1584
        41.300          15.9004
 104142766.177 8  80999968.942 6  19482058.382    19482058.640    19482064.934
        50.000          39.500


 129633059.726 5 101012783.46543  24668348.703    24668348.7384   24668349.5404
        35.300          21.6004
 120440131.298 6  93849450.23343  22918995.958    22918995.6724   22918995.6794
        39.600          22.7004
 113854962.866 6  88718118.64042  21665879.968    21665879.2894   21665873.7684
        40.000          16.0004
 138267598.078 6                  26311440.609
        40.400
 133171844.983 7                  25341731.553
        43.900
 121272803.744 6  94498310.79344  23077449.413    23077448.9574   23077452.6904
        39.900          25.6004
 105776613.315 8  82423326.64047  20128614.642    20128614.2984   20128612.9474
        51.200          47.1004
 109463537.170 8  85296226.81947  20830218.018    20830217.4734   20830217.3884
        48.400          45.1004
 127528721.384 7                  24267907.722
        42.600


 200871430.011 6                  38224551.211
        38.300
 115624464.268 6                  21614774.246    21614771.958
        38.000
 120983601.169 7  94098352.918 6  22608667.822    22608671.694    22608675.023
        43.900          40.800
 119362677.938 6  92837533.182 5  22368480.614    22368480.641    22368488.746
        36.100          35.300
 198903702.760 7                  37850109.191
        42.300
 122641338.122 7  95387648.696 6  22950632.742    22950633.141    22950641.598
        42.000          38.100
 117108900.165 7  91253709.68344  22285080.952    22285080.5194   22285082.9194
        43.100          29.6004
 202045551.266 7                  38447989.135
        42.300
 135962518.571 4                  25872807.621
        29.100
 134972928.650 6                  25684490.563
        39.500
 127009877.157 7                  24169160.523
        46.900
 105745907.777 8  82246797.711 7  19775009.742    19775010.446    19775013.843
        51.700          45.600
 113727932.566 7  88455099.088 7  21237892.460    21237895.196    21237894.687
        47.100          46.100
 25  1  1  5 16 45.0000000  0 26G18R01G26G12G11G20E27E03G25G05G29E15
                                E26S35R23R17R02S31R15G13S33E08E21E13
                                R24R08
 125595610.565 6  97866730.19042  23900056.851    23900056.7404   23900064.8384
        40.600          16.8004
 104119427.293 8  80981816.517 6  19477692.865    19477692.888    19477698.117
        48.600          41.100
 131581487.078 5                  25039112.879
        30.500
 129686370.612 5 101054324.34243  24678492.733    24678492.9164   24678492.1824
        30.500          20.6004
 120473692.361 7  93875601.68343  22925381.984    22925381.6714   22925379.7264
        45.300          23.3004
 113890761.518 6  88746013.64642  21672690.948    21672689.8984   21672684.4964
        40.900          12.9004
 138308723.882 6                  26319266.438
        38.800
 133164219.472 7                  25340280.319
        42.700
 121314458.620 5                  23085377.523
        34.200
 105786107.830 8  82430724.96548  20130421.797    20130421.4584   20130420.8114
        51.200          49.1004
 109439022.071 7  85277124.14447  20825553.330    20825552.7724   20825553.9514
        47.500          46.2004
 127543132.998 7                  24270648.469
        43.100


 200871446.938 7                  38224559.537
        42.000
 115656999.185 6                  21620855.660    21620854.890
        36.300
 120937276.882 7  94062322.911 6  22600009.851    22600009.978    22600017.917
        42.500          40.000
                  92787193.099 5                  22356349.822    22356363.235
                        35.300
 198903693.556 6                  37850106.637
        41.800
 122658371.489 6  95400896.667 6  22953816.878    22953819.664    22953823.850
        41.300          36.100
 117067093.176 7  91221132.87045  22277125.645    22277125.2034   22277126.8204
        46.200          30.0004
 202045531.787 7                  38447990.571
        43.900
 135922652.067 4                  25865220.581
        27.700
 134984332.717 5                  25686659.501
        34.600
 126995617.787 7                  24166447.207
        45.400
 105731026.773 8  82235223.620 7  19772227.083    19772227.612    19772230.584
        51.500          46.800
 113770306.656 7  88488056.728 7  21245802.666    21245804.074    21245807.616
        44.200          45.500
 25  1  1  5 17  0.0000000  0 27G18R01G15G12G11G20E27E03G25G05E34G29
                                E15E26S35R23R17R02S31R15G13S33E08E21
                                E13R24R08
 125556960.149 6  97836613.00643  23892702.083    23892701.9674   23892709.8064
        39.700          20.7004
 104096281.734 8  80963814.386 6  19473362.489    19473362.984    19473368.647
        48.300          39.900
 120798141.834 6  94128359.01142  22987112.038    22987112.1984   22987113.4504
        41.500          17.0004
 129739669.227 5 101095855.74943  24688635.043    24688635.4364   24688634.1974
        31.300          19.1004
 120507284.992 7  93901777.75443  22931773.619    22931773.2844   22931771.8304
        43.500          22.1004
 113926609.857 6  88773947.41542  21679513.068    21679512.1034   21679505.5054
        41.600          15.5004
 138349880.272 6                  26327097.903
        38.900
 133156699.174 7                  25338850.145
        42.700
 121356190.351 6  94563280.33344  23093321.423    23093321.6064   23093321.2574
        37.400          25.0004
 105795718.559 8  82438213.85348  20132251.283    20132250.9624   20132250.8144
        50.900          49.5004


 109414618.641 8  85258108.47947  20820910.388    20820909.8434   20820911.5314
        48.500          47.1004
 127557565.858 6                  24273394.873
        40.600


 200871464.115 6                  38224564.165
        40.500
 115689604.458 6                  21626951.967    21626952.211
        41.800
 120890948.675 7  94026289.939 6  22591353.934    22591353.163    22591358.132
        44.600          39.400
 119233288.782 6  92736897.128 5  22344243.027    22344240.534    22344242.450
        39.500          33.400
 198903683.411 7                  37850108.735
        42.900
 122675568.875 6  95414272.392 5  22957041.991    22957041.772    22957040.248
        39.800          35.400
 117025370.743 7  91188621.94145  22269185.475    22269185.0244   22269186.1134
        46.700          30.1004
 202045511.716 7                  38447983.572
        43.700


 134995838.268 6                  25688848.888
        36.300
 126981378.547 7                  24163737.365
        47.600
 105716221.975 8  82223708.764 7  19769458.538    19769458.922    19769462.972
        51.900          46.400
 113812824.070 7  88521125.843 7  21253744.027    21253745.216    21253748.458
        47.000          46.600
 25  1  1  5 17 15.0000000  0 31G18R01G15G26G12G11G20E27E03G25G05E34
                                G29R16E05E15E26S35R23R17R02S31R15G13
                                S33E08E21E13R14R24R08
 125518316.321 7  97806500.91243  23885348.948    23885348.8194   23885354.8904
        42.000          21.1004
 104073327.084 7  80945960.722 6  19469066.684    19469067.047    19469074.843
        44.300          40.800
 120742173.069 7  94084746.91343  22976463.877    22976464.0554   22976467.1384
        44.200          22.0004


 129792941.043 5 101137355.78142  24698775.596    24698776.0384   24698774.5854
        32.000          16.9004
 120540906.635 6  93927976.43643  22938172.339    22938172.0224   22938171.1194
        40.500          21.8004
 113962505.037 6  88801917.69842  21686342.741    21686341.7494   21686335.9714
        40.500          16.7004
 138391064.353 6                  26334933.901
        37.400
 133149281.580 7                  25337437.307
        45.100
 121397978.198 6  94595842.24144  23101273.759    23101273.7464   23101273.3634
        39.800          24.1004
 105805442.617 8  82445791.05548  20134101.656    20134101.3304   20134101.6234
        52.300          49.8004


 109390324.310 8  85239177.81347  20816287.158    20816286.6314   20816289.1034
        48.200          47.7004




 127572017.233 7                  24276144.889
        42.500
 146852323.339 5                  27945069.097
        34.500
 200871478.090 6                  38224559.738
        40.000
 115722277.661 7                  21633060.967    21633061.588
        42.400
 120844614.133 7  93990252.062 6  22582695.461    22582694.232    22582699.712
        43.300          39.000
                                                  22332130.016

 198903670.879 6                  37850095.982
        41.700
 122692927.578 6  95427773.540 6  22960291.999    22960290.500    22960290.908
        36.600          38.000
 116983730.662 7  91156175.20245  22261262.434    22261262.0014   22261261.5754
        47.400          30.1004
 202045489.511 7                  38447978.663
        45.100


 135007442.363 6                  25691058.835
        37.200
 126967156.776 7                  24161031.124
        46.400
 125694213.699 7                  23579905.522    23579906.124
        42.400
 105701490.822 8  82212251.215 7  19766702.885    19766702.820    19766707.844
        52.300          45.800
 113855481.596 7  88554303.943 7  21261709.416    21261710.723    21261714.390
        45.800          46.500
 25  1  1  5 17 30.0000000  0 30G18R01G15G26G12G11G20E27E03G25G05G29
                                R16E05E15E26S35R23R17R02S31R15G13S33
                                E08E21E13R14R24R08
 125479684.851 7  97776398.41644  23877997.151    23877997.0264   23878001.7274
        42.600          24.8004
 104050569.332 6  80928260.257 6  19464809.572    19464808.985    19464816.826
        41.700          39.800
 120686242.816 6  94041164.90843  22965819.872    22965819.8324   22965824.2784
        38.700          22.3004




 120574562.840 7  93954202.05043  22944577.031    22944576.7274   22944577.3544
        42.100          23.6004
 113998452.346 6  88829928.59943  21693184.062    21693183.0434   21693177.4334
        39.200          18.1004
 138432281.569 5                  26342777.019
        31.000
 133141972.363 7                  25336047.660
        44.800
 121439827.164 6  94628451.88743  23109235.697    23109235.2644   23109235.3194
        38.100          22.5004
 105815285.347 8  82453460.72348  20135974.860    20135974.5304   20135974.4904
        52.500          50.4004
 109366145.027 8  85220336.78848  20811686.171    20811685.6664   20811687.7634
        50.500          48.7004




 127586492.838 7                  24278899.516
        42.100


 200871495.753 6                  38224576.095
        40.600
 115755024.482 7                  21639183.813    21639184.442
        43.300
 120798279.375 7  93954213.954 6  22574036.305    22574036.116    22574041.322
        44.600          39.500
 119104126.158 7  92636437.431 4  22320036.476    22320035.623    22320033.765
        42.600          28.000
 198903661.259 6                  37850094.761
        40.300
                  95441404.395 6                                  22963569.010
                        37.000
 116942179.033 7  91123797.33244  22253354.083    22253353.6414   22253354.3294
        44.200          27.9004
 202045469.092 7                  38447972.456
        44.200
 135803307.438 5                  25842523.090
        31.800
 135019150.642 6                  25693286.046
        38.100
 126952958.149 7                  24158328.856
        46.200
 125744546.962 6                  23589348.568    23589349.064
        41.300
 105686839.432 8  82200855.698 7  19763962.278    19763961.751    19763968.157
        49.800          46.700
 113898284.543 7  88587595.096 7  21269704.261    21269704.065    21269708.095
        45.200          46.200
 25  1  1  5 17 45.0000000  0 29G18R01G15G26G12G11G20E27E03G25G05G29
                                R16E15E26S35R23R17R02S31R15G13S33E08
                                E21E13R14R24R08
 125441059.989 6  97746301.10044  23870646.475    23870646.3194   23870649.5124
        40.200          24.5004
 104028003.063 6  80910708.700 6  19460588.506    19460586.763    19460594.912
        41.400          38.200
 120630345.847 7  93997608.80543  22955184.443    22955184.5634   22955188.2604
        43.800          20.3004


 129899480.222 5 101220420.55541  24719060.486    24719060.2584   24719060.2134
        34.400          11.7004
 120608247.905 6  93980450.12944  22950986.728    22950986.4154   22950988.1624
        41.200          24.3004
 114034445.988 6  88857975.51042  21700032.188    21700031.1694   21700027.2654
        41.100          15.8004
 138473525.810 5                  26350627.105
        34.700
 133134765.803 7                  25334675.144
        44.100
 121481731.261 5  94661104.37444  23117211.061    23117210.6374   23117210.8074
        35.800          27.6004
 105825240.848 8  82461218.25948  20137868.952    20137868.6174   20137869.5194
        51.900          50.8004
 109342075.372 8  85201581.21448  20807105.639    20807105.1484   20807106.9034
        50.500          49.8004


 127600986.902 6                  24281656.919
        41.300




 115787838.891 5                  21645314.479    21645312.313
        34.900
 120751938.106 7  93918170.817 6  22565377.560    22565377.185    22565382.186
        46.300          38.800
 119039630.781 6  92586287.223 6  22307946.582    22307946.695    22307950.095
        41.800          36.200
 198903648.746 6                  37850098.691
        39.500
 122728092.194 5  95455159.893 6  22966879.768    22966879.302    22966879.285
        31.700          40.800
 116900710.448 6  91091484.16443  22245464.258    22245463.7854   22245462.9884
        38.400          22.2004
 202045446.222 6                  38447976.141
        39.400
 135763604.206 5                  25834953.403
        31.000
 135030957.204 6                  25695533.005
        40.400
 126938776.823 7                  24155630.021
        46.900
                                                  23598798.881

 105672262.117 8  82189517.756 7  19761237.608    19761237.129    19761241.657
        49.900          46.900
 113941226.419 7  88620994.351 7  21277722.829    21277722.338    21277726.693
        43.300          46.700
 25  1  1  5 18  0.0000000  0 26G18R01G26G11G20E27E03G25G05G29E15E26
                                S35R23R17R02S31R15G13S33E08E21E13R14
                                R24R08


 104005634.471 7  80893310.921 6  19456405.718    19456405.957    19456411.598
        45.800          38.100


 120641968.055 7  94006725.58244  22957404.408    22957404.1364   22957405.3844
        44.100          25.1004
 114070491.959 6  88886063.30342  21706889.837    21706888.7824   21706887.5534
        40.300          15.9004
 138514803.338 5                  26358480.173
        33.500
 133127668.380 7                  25333325.117
        44.100
 121523696.157 5  94693804.28743  23125195.739    23125195.2484   23125196.7184
        35.300          21.3004
 105835315.576 8  82469068.74048  20139786.150    20139785.8154   20139786.9424
        52.400          51.6004
 109318121.954 8  85182916.19348  20802547.674    20802547.1834   20802547.7714
        50.500          48.6004
 127615505.821 5                  24284419.298
        35.700
 146762688.125 4                  27928010.236
        28.100
 200871444.894 6                  38224565.220
        38.800
 115820727.927 6                  21651466.662    21651466.330
        38.700
 120705597.337 7  93882128.070 6  22556717.472    22556717.186    22556721.677
        46.600          40.500
 118975197.560 6  92536172.773 5  22295869.425    22295871.181    22295877.720
        41.900          32.300
 198903639.095 7                  37850106.320
        42.900
 122745945.721 5  95469045.105 6  22970216.816    22970216.071    22970223.652
        34.600          41.500
 116859331.927 7  91059241.23943  22237588.206    22237587.7194   22237589.6284
        42.400          22.0004
 202045426.975 7                  38447956.318
        42.000
 135723958.368 4                  25827414.713
        26.100
 135042868.386 7                  25697800.293
        43.300
 126924619.258 7                  24152935.443
        45.200
 125845333.696 6                  23608254.626    23608253.425
        38.200
 105657765.622 8  82178242.693 7  19758525.975    19758525.962    19758530.163
        50.300          44.300
 113984313.394 7  88654506.442 7  21285767.803    21285768.258    21285771.768
        42.200          43.900
 25  1  1  5 18 15.0000000  0 26G18R01G15G12G11G20E27E03G25G05G29E15
                                E26S35R23R17R02S31R15G13S33E08E21E13
                                R24R08
 125363868.365 6  97686131.26443  23855952.156    23855951.7184   23855952.7014
        36.300          20.4004
 103983458.075 7  80876062.628 6  19452256.835    19452256.975    19452262.616
        45.100          39.400
 120518582.208 6  93910618.40243  22933932.718    22933933.0484   22933933.7124
        39.000          20.7004


 120675717.580 7  94033023.88944  22963826.451    22963826.1564   22963827.8954
        42.500          24.7004
 114106584.204 6  88914187.16442  21713757.818    21713756.7144   21713756.2334
        41.600          17.8004
 138556107.651 6                  26366342.881
        38.000
 133120674.258 7                  25331994.449
        44.200
 121565716.024 6  94726546.02044  23133194.303    23133193.8034   23133192.9274
        36.600          26.6004
 105845503.495 8  82477007.36648  20141724.673    20141724.3344   20141724.9574
        52.100          51.7004
 109294279.120 8  85164337.36548  20798010.813    20798010.3224   20798009.8434
        49.700          48.5004
 127630043.725 6                  24287185.571
        36.700


 200871460.187 6                  38224576.346
        39.300
 115853685.046 6                  21657627.140    21657628.253
        40.300
 120659251.303 7  93846081.150 6  22548056.926    22548057.634    22548063.950
        47.300          41.200
 118910821.251 6  92486102.262 6  22283805.791    22283806.542    22283816.372
        40.800          38.600
 198903627.608 6                  37850095.628
        38.500
 122763958.476 6  95483054.936 6  22973583.663    22973582.125    22973589.683
        40.500          38.000
 116818037.672 6  91027063.93843  22229731.497    22229731.0244   22229732.6704
        40.200          20.4004
 202045405.085 7                  38447962.976
        42.100


 135054878.166 6                  25700084.381
        40.100
 126910479.540 7                  24150245.555
        43.900
 105643344.121 8  82167026.068 7  19755829.098    19755828.751    19755833.842
        49.200          44.300
 114027538.915 6  88688126.288 7  21293840.515    21293840.198    21293845.176
        40.500          45.000
 25  1  1  5 18 30.0000000  0 25G18R01G15G11G20E27E03G25G05G29E15E26
                                S35R23R17R02S31R15G13S33E08E21E13R24
                                R08
 125325271.538 6  97656055.80043  23848609.622    23848609.2694   23848608.3394
        40.200          21.4004
 103961475.116 7  80858964.788 6  19448144.431    19448144.773    19448148.629
        46.600          36.500
 120462795.323 6  93867148.05943  22923314.873    22923315.0744   22923318.1834
        39.900          18.2004
 120709497.066 7  94059345.59243  22970254.751    22970254.4834   22970254.7974
        42.900          23.0004
 114142723.235 6  88942347.45942  21720633.861    21720632.6684   21720634.7694
        41.500          17.5004
 138597439.717 6                  26374207.165
        37.900
 133113784.329 7                  25330683.083
        44.800
 121607790.984 6  94759331.76944  23141200.385    23141199.6434   23141201.8274
        40.200          28.8004
 105855805.029 8  82485034.51748  20143685.016    20143684.6684   20143684.4404
        52.500          51.2004
 109270548.053 7  85145845.62847  20793494.524    20793494.0244   20793492.9364
        47.700          47.2004
 127644601.524 6                  24289956.784
        37.200


 200871472.896 6                  38224582.950
        40.500
 115886711.476 6                  21663805.074    21663805.442
        39.100
 120612900.690 7  93810030.702 6  22539392.598    22539392.985    22539401.286
        42.100          38.100
 118846503.068 5  92436076.949 5  22271754.280    22271749.871    22271759.335
        32.200          35.600
 198903614.232 6                  37850093.983
        38.200
 122782131.906 7  95497189.945 6  22976983.684    22976984.297    22976990.120
        42.700          38.700
 116776829.157 6  90994953.43743  22221889.848    22221889.4064   22221890.6914
        40.400          20.1004
 202045381.179 7                  38447964.206
        43.900
 135644808.871 5                  25812350.383
        35.600
 135066987.164 6                  25702387.556
        40.200
 126896358.418 7                  24147557.726
        44.400
 105628998.904 7  82155868.683 7  19753145.861    19753144.793    19753153.426
        45.200          47.200
 114070903.601 6  88721854.381 7  21301937.683    21301938.714    21301942.359
        37.400          44.500
 25  1  1  5 18 45.0000000  0 27G18R01G15G26G12G11G20E27E03G25G05G29
                                E15E26S35R23R17R02S31R15G13S33E08E21
                                E13R24R08
 125286689.827 7  97625992.14543  23841266.325    23841265.9994   23841266.0334
        43.300          21.7004
 103939692.627 7  80842022.835 6  19444068.840    19444069.452    19444074.431
        47.400          36.600
 120407051.708 7  93823711.60844  22912708.773    22912708.9334   22912714.7194
        42.100          24.2004


 130112481.749 5 101386272.61842  24759557.761    24759558.3514   24759558.2764
        32.000          14.5004
 120743313.743 7  94085696.28143  22976688.533    22976688.2614   22976689.4034
        43.900          23.1004
 114178916.034 7  88970549.62942  21727522.070    21727520.8504   21727522.7144
        42.000          16.6004
 138638806.285 5                  26382078.913
        33.600
 133107005.827 7                  25329393.059
        43.500
 121649927.853 6  94792165.64644  23149217.334    23149216.7264   23149221.2214
        39.600          29.7004
 105866227.287 8  82493155.77648  20145668.084    20145667.7454   20145666.9694
        52.100          50.3004
 109246936.239 8  85127446.79948  20789000.941    20789000.4544   20788999.7294
        48.900          48.1004
 127659186.060 6                  24292731.440
        38.300


 200871491.790 6                  38224576.042
        36.600
 115919814.397 6                  21669988.393    21669989.070
        37.600
 120566553.594 6  93773983.094 6  22530731.608    22530731.702    22530737.584
        40.700          36.500
 118782250.601 5  92386102.870 5  22259712.836    22259710.707    22259718.785
        35.400          33.900
 198903605.764 7                  37850095.051
        43.100
 122800473.147 7  95511455.293 6  22980418.345    22980417.533    22980424.380
        44.000          38.700
 116735713.682 6  90962915.44543  22214066.573    22214066.1134   22214066.4294
        39.500          23.2004
 202045363.511 7                  38447958.688
        43.700
 135605299.485 5                  25804827.770
        33.400
 135079202.489 6                  25704712.259
        39.200
 126882263.074 7                  24144875.816
        45.800
 105614737.130 8  82144776.127 7  19750481.882    19750481.481    19750485.084
        52.200          46.600
 114114413.970 6  88755695.770 7  21310066.342    21310068.768    21310067.977
        41.700          45.000
 25  1  1  5 19  0.0000000  0 26G18R01G15G11G20E27E03G25G05G29E15E26
                                S35R23R17R02S31R15G13S33E08E21E13R14
                                R24R08
 125248115.019 5  97595933.81743  23833924.468    23833924.2724   23833925.3194
        35.500          19.4004
 103918102.422 7  80825230.577 6  19440031.485    19440031.278    19440036.167
        45.400          38.800
 120351343.204 6  93780302.24044  22902106.906    22902107.1384   22902112.3854
        40.500          26.9004
 120777159.148 7  94112069.26843  22983130.494    22983130.2354   22983128.4284
        43.100          21.7004
 114215153.947 7  88998786.94743  21734419.549    21734418.3424   21734418.7654
        45.200          19.3004


 133100330.301 7                  25328122.865
        44.400
 121692117.574 5  94825040.69044  23157246.750    23157246.2414   23157251.6564
        30.600          29.4004
 105876761.380 8  82501364.17548  20147672.413    20147672.0694   20147671.4954
        52.100          50.1004
 109223435.305 8  85109134.40748  20784528.773    20784528.2914   20784528.7374
        49.600          49.1004
 127673789.369 5                  24295511.018
        35.800


 200871507.791 5                  38224580.840
        33.100
 115952985.077 6                  21676189.214    21676191.376
        38.400
 120520200.797 6  93737931.098 6  22522067.820    22522066.825    22522078.859
        39.600          37.800
 118718055.935 6  92336173.716 6  22247681.910    22247680.894    22247689.289
        37.600          39.800
 198903595.265 6                  37850095.074
        41.100
 122818973.150 6  95525844.267 6  22983880.497    22983880.031    22983886.739
        41.500          40.100
 116694683.462 7  90930943.96344  22206259.305    22206258.8814   22206258.2434
        45.700          24.0004
 202045342.726 6                  38447945.819
        41.500
 135565832.623 6                  25797319.209
        38.200
 135091515.499 6                  25707056.735
        40.600
 126868185.030 6                  24142196.507
        41.900
 126047357.058 6                  23646163.352    23646163.264
        38.500
 105600550.604 8  82133742.255 7  19747825.823    19747826.558    19747831.945
        50.100          44.500
 114158060.798 6  88789643.462 7  21318214.596    21318211.865    21318219.525
        37.300          44.500
 25  1  1  5 19 15.0000000  0 28G18R01G15G26G12G11G20E27E03G25G05G29
                                E15E26S35R23R17R02S31R15G13S33E08E21
                                E13R14R24R08
 125209549.235 6  97565882.51942  23826586.563    23826586.3314   23826587.7084
        38.300          17.5004
 103896707.219 7  80808589.899 6  19436028.292    19436027.593    19436034.579
        43.600          37.900
 120295672.823 6  93736922.67844  22891513.274    22891513.5284   22891516.6124
        40.600          24.7004


 130218717.356 6 101469133.92342  24779799.903    24779799.8194   24779797.3544
        36.700          14.8004
 120811035.846 6  94138466.74543  22989576.468    22989576.2274   22989574.4964
        40.600          20.6004
 114251439.180 7  89027061.16943  21741323.632    21741322.4304   21741324.1494
        42.100          20.8004
 138721583.059 5                  26397835.985
        33.700
 133093760.438 7                  25326872.053
        44.600
 121734362.882 6  94857959.20344  23165285.794    23165285.2404   23165291.6424
        39.700          26.8004
 105887409.634 8  82509661.49448  20149699.294    20149698.9504   20149697.7934
        51.800          50.2004
 109200048.018 8  85090910.56148  20780078.569    20780078.0874   20780078.4364
        49.700          48.1004
 127688413.582 6                  24298294.155
        37.000




 115986225.986 5                  21682399.567    21682398.699
        31.500
 120473845.116 5  93701876.688 6  22513406.239    22513403.476    22513413.731
        31.200          36.400
 118653921.855 5                  22235662.618    22235662.084
        33.000
 198903584.132 6                  37850089.976
        41.900
 122837635.537 7  95540358.616 6  22987386.410    22987372.149    22987379.497
        43.200          41.800
 116653741.408 7  90899041.11743  22198467.057    22198466.6284   22198466.4774
        44.400          22.6004
 202045320.654 6                  38447952.249
        40.900
 135526411.064 7                  25789817.283
        42.300
 135103928.826 7                  25709419.031
        42.200
 126854126.871 7                  24139521.772
        45.400
                  98076200.267 4                                  23655658.791
                        29.000
 105586442.291 8  82122769.093 7  19745188.040    19745187.984    19745195.061
        49.900          46.600
 114201846.794 6  88823699.148 7  21326391.690    21326391.487    21326395.310
        41.700          44.600
 25  1  1  5 19 30.0000000  0 27G18R01G15G26G12G11G20E27E03G25G05E34
                                G29E15E26S35R23R02S31R15G13S33E08E21
                                E13R24R08


 103875505.480 7  80792099.657 6  19432061.029    19432061.254    19432067.195
        43.500          37.900
 120240039.107 6  93693571.75843  22880927.050    22880927.3004   22880927.5684
        37.100          23.9004




 120844941.882 6  94164887.02543  22996028.507    22996028.2714   22996025.8264
        41.900          20.1004
 114287769.792 6  89055370.76443  21748237.332    21748236.1214   21748236.4324
        40.500          19.2004
 138763029.408 6                  26405727.981
        37.500
 133087294.481 7                  25325641.822
        44.400


 105898170.424 8  82518046.54248  20151747.202    20151746.8494   20151745.4704
        48.700          49.7004


 109176773.051 7  85072774.21048  20775649.825    20775649.3204   20775649.8794
        47.900          48.6004
 127703057.185 6                  24301079.044
        38.200


 200871600.768 5                  38224593.919
        35.400
 116019535.827 6                  21688626.435    21688626.829
        36.200
 118589847.965 4  92236458.282 4  22223656.000    22223651.771    22223662.791
        29.200          29.900
 198903570.431 7                  37850091.711
        44.000
 122856455.776 6  95554996.600 6  22990892.206    22990894.670    22990898.794
        39.900          38.000
 116612886.024 7  90867205.81344  22190692.462    22190692.0694   22190692.0694
        43.800          24.5004
 202045297.616 6                  38447947.495
        36.500
 135487033.436 6                  25782323.656
        37.500
 135116440.326 6                  25711798.795
        41.000
 126840086.824 7                  24136850.055
        44.800
 105572410.223 8  82111855.327 7  19742564.711    19742564.460    19742569.141
        50.800          45.200
 114245769.150 7  88857860.983 7  21334594.022    21334594.991    21334596.968
        43.000          43.900
 25  1  1  5 19 45.0000000  0 27G18R01G15G26G12G11G20E27E03G25G05G29
                                E15E26S35R23R17R02S31R15G13S33E08E21
                                E13R24R08
 125132474.414 6  97505830.04442  23811913.459    23811913.1294   23811919.3194
        38.500          13.8004
 103854505.174 7  80775766.008 6  19428132.000    19428131.959    19428139.590
        42.100          38.500
 120184450.282 7  93650255.73144  22870349.468    22870349.6964   22870349.4224
        42.600          24.5004


 130325000.643 5                  24800024.493
        35.000
 120878885.208 7  94191336.36643  23002486.847    23002486.6424   23002486.1314
        42.200          21.0004
 114324153.444 6  89083721.62943  21755159.740    21755158.5334   21755159.0544
        40.100          19.9004
 138804510.523 5                  26413618.900
        34.700
 133080940.245 7                  25324432.218
        43.100
 121819019.699 6  94923951.51844  23181393.822    23181393.5364   23181399.3844
        39.400          25.0004
 105909051.209 8  82526525.08248  20153817.647    20153817.2854   20153816.1134
        51.200          49.9004
 109153618.459 8  85054731.66848  20771242.975    20771242.4844   20771243.7704
        49.600          48.7004
 127717727.894 6                  24303869.512
        38.000
 146553679.032 4                  27888235.597
        24.400
 200871619.913 6                  38224583.617
        38.700
 116052922.370 7                  21694871.840    21694874.772
        42.700
 120381128.737 6  93629763.905 6  22496083.208    22496084.019    22496084.535
        37.600          36.000
 118525840.519 6  92186679.638 6  22211657.746    22211659.108    22211668.187
        36.700          39.000
 198903562.354 7                  37850085.742
        43.100
 122875442.524 7  95569764.165 6  22994448.738    22994449.001    22994453.349
        44.500          38.900
 116572125.475 7  90835444.33544  22182936.357    22182936.0004   22182936.5854
        44.700          24.4004
 202045279.801 7                  38447944.763
        44.200
 135447707.536 7                  25774842.022
        43.100
 135129057.830 5                  25714199.277
        35.300
 126826072.668 7                  24134183.795
        46.100
 105558462.724 8  82101007.259 7  19739957.160    19739957.044    19739959.229
        52.800          43.100
 114289835.302 7  88892134.657 7  21342823.893    21342824.557    21342826.162
        44.100          43.800
 25  1  1  5 20  0.0000000  0 27G18R01G15G26G12G11G20E27E03G25G05G29
                                E15E26S35R23R17R02S31R15G13S33E08E21
                                E13R24R08
 125093914.728 5  97475798.93641  23804591.366    23804591.2864   23804585.5684
        31.600          10.1004
 103833696.423 7  80759581.380 6  19424239.565    19424239.747    19424247.691
        43.900          39.700
 120128896.241 6  93606966.93944  22859777.643    22859777.7774   22859778.9314
        40.200          25.6004


 130378121.470 6 101593341.53742  24810135.835    24810136.3354   24810134.0584
        37.500          16.3004
 120912855.514 6  94217806.79943  23008952.431    23008952.2214   23008951.0694
        41.500          21.1004
 114360579.682 7  89112105.70843  21762092.119    21762090.9704   21762090.9774
        44.000          21.5004


 133074687.633 7                  25323243.197
        42.100


 105920041.592 8  82535089.04648  20155909.040    20155908.6694   20155907.7504
        51.600          50.3004
 109130574.266 8  85036775.13148  20766858.737    20766858.2504   20766858.4144
        51.500          49.3004
 127732415.629 7                  24306667.782
        43.100


 200871633.826 5                  38224599.978
        34.200
 116086375.206 6                  21701126.959    21701127.616
        41.800
 120334765.760 6  93593703.881 6  22487418.910    22487417.840    22487419.550
        41.200          36.300
 118461892.356 6  92136942.160 5  22199676.056    22199675.226    22199684.350
        38.900          32.600
 198903550.418 6                  37850079.195
        41.700
 122894585.060 6  95584652.827 6  22998026.878    22998025.638    22998039.027
        38.000          40.200
 116531450.225 7  90803749.35443  22175195.872    22175195.4884   22175196.0144
        42.900          23.5004
 202045256.896 7                  38447937.488
        44.000
 135408423.692 7                  25767366.128
        42.000
 135141770.943 6                  25716619.032
        37.100
 126812074.241 8                  24131520.880
        48.500
 105544589.882 8  82090217.283 7  19737360.509    19737360.954    19737366.131
        50.200          43.100
 114334034.750 6  88926512.085 7  21351077.032    21351077.307    21351081.547
        40.700          45.400
 25  1  1  5 20 15.0000000  0 28G18R01G15G26G12G11G20E27E03G25G05G29
                                E15E26S35R23R17R02S31R15G13S33E08E21
                                E13R14R24R08


 103813084.753 7  80743550.008 6  19420382.744    19420383.241    19420391.565
        42.800          40.700
 120073383.197 6  93563709.79443  22849214.133    22849214.2494   22849217.5134
        40.700          20.9004


 130431226.372 6 101634721.97742  24820238.963    24820239.5394   24820239.6214
        37.500          16.6004
 120946858.285 6  94244302.52343  23015422.233    23015421.9884   23015421.7444
        41.700          23.9004
 114397053.727 7  89140527.02044  21769033.065    21769031.9214   21769032.0574
        44.100          24.1004
 138887534.860 5                  26429418.813
        30.700
 133068542.116 7                  25322073.704
        42.600
 121903912.526 5  94990103.30943  23197544.386    23197543.5104   23197553.1564
        34.000          21.0004
 105931146.520 8  82543742.24048  20158022.297    20158021.9354   20158020.7264
        50.600          49.6004
 109107646.148 8  85018909.06248  20762495.615    20762495.1154   20762494.2764
        50.100          48.9004
 127747125.786 7                  24309467.510
        45.500


 200871648.766 6                  38224609.619
        36.600
 116119899.631 6                  21707392.485    21707392.775
        40.900
 120288402.078 7  93557643.379 6  22478756.210    22478755.940    22478756.412
        45.800          37.100
 118398008.220 6  92087254.489 6  22187708.286    22187704.254    22187720.421
        36.000          37.300
 198903538.693 7                  37850081.409
        42.500
 122913888.927 6  95599666.977 6  23001640.732    23001638.038    23001650.828
        36.300          38.400
 116490865.998 7  90772125.32044  22167472.904    22167472.5654   22167472.5654
        42.500          25.1004
 202045234.579 7                  38447930.226
        43.000
 135369187.466 7                  25759899.486
        42.500


 126798096.918 8                  24128860.206
        48.600
 126300770.939 6                  23693699.972    23693697.896
        40.500
 105530797.102 8  82079489.571 7  19734780.902    19734781.056    19734786.823
        48.900          44.400
 114378372.337 6  88960996.880 7  21359355.698    21359355.569    21359361.167
        38.800          45.700
 25  1  1  5 20 30.0000000  0 31G18R01G23G15G26G12G11G20E27E03G25G05
                                E34G29R16E15E26S35R23R17R02S31R15G13
                                S33E08E21E13R14R24R08
 125016879.775 5                  23789921.608
        34.600
 103792669.569 7  80727671.535 6  19416566.063    19416564.945    19416572.992
        43.100          40.600


 120017910.662 7  93520484.41443  22838657.531    22838657.6154   22838662.5834
        43.300          22.3004


 130484314.231 6 101676089.07743  24830345.774    24830346.6504   24830340.4444
        39.200          20.5004
 120980892.721 6  94270822.85944  23021898.877    23021898.6324   23021900.1154
        40.800          24.1004
 114433574.563 6  89168984.80043  21775982.909    21775981.7834   21775982.8954
        41.100          23.1004
 138929093.646 5                  26437328.387
        35.500
 133062503.149 6                  25320924.175
        41.900
 121946429.568 5  95023233.45643  23205634.864    23205633.2464   23205642.9794
        35.700          22.9004
 105942365.347 8  82552484.17448  20160156.962    20160156.5914   20160155.3494
        50.300          49.5004


 109084833.625 8  85001133.07648  20758154.303    20758153.8124   20758152.8904
        51.000          49.0004
 129745975.510 5                  24288711.936
        31.900
 127761857.725 7                  24312270.232
        46.100


 200871663.651 6                  38224608.054
        36.500
 116153495.338 7                  21713678.387    21713677.838
        45.100
 120242037.149 7  93521581.850 6  22470092.266    22470092.637    22470096.801
        46.000          40.900
 118334188.091 5  92037616.647 5  22175745.506    22175744.113    22175751.350
        33.900          30.300
 198903526.878 6                  37850073.936
        41.700
 122933352.991 7  95614805.547 5  23005285.047    23005288.259    23005288.292
        43.600          34.600
 116450372.441 7  90740571.91444  22159766.270    22159765.9224   22159766.1804
        44.600          25.4004
 202045213.394 7                  38447932.158
        44.400
 135329998.533 7                  25752442.894
        44.600
 135167497.288 5                  25721514.889
        35.800
 126784140.086 7                  24126204.173
        47.600
 126351560.156 6  98273444.412 6  23703227.883    23703226.181    23703233.980
        38.300          37.100
 105517084.198 8  82068823.984 7  19732217.546    19732217.502    19732222.835
        49.400          44.800
 114422846.720 5  88995588.128 7  21367660.011    21367657.896    21367666.460
        30.700          44.100
 25  1  1  5 20 45.0000000  0 31G18R01G23G15G26G12G11G20E27E03G25G05
                                E34G29E05E15E26S35R23R17R02S31R15G13
                                S33E08E21E13R14R24R08
 124978374.499 6                  23782592.617
        39.300
 103772452.354 7  80711947.084 6  19412784.631    19412782.605    19412789.820
        44.200          39.400


 119962480.349 6  93477291.90543  22828109.455    22828109.4904   22828113.3464
        40.500          18.2004
 131291740.629 5                  24983981.939
        32.600
 130537386.107 6 101717443.77643  24840440.073    24840441.0074   24840439.4424
        36.700          20.7004
 121014960.188 6  94297368.91043  23028380.014    23028379.7374   23028384.4144
        40.500          23.1004
 114470143.406 6  89197480.05943  21782940.410    21782939.3024   21782941.7554
        39.500          18.9004
 138970680.861 5                  26445240.548
        34.800
 133056572.027 6                  25319795.974
        40.500
 121989001.374 6  95056406.33944  23213739.222    23213737.9264   23213743.9544
        37.600          25.7004
 105953699.261 8  82561315.78848  20162313.690    20162313.3194   20162312.5314
        49.600          48.7004


 109062138.480 8  84983448.53948  20753835.079    20753834.5884   20753834.3584
        48.100          48.8004


 127776612.727 7                  24315077.783
        45.700


 200871679.808 6                  38224620.964
        37.000
 116187163.509 7                  21719968.093    21719968.190
        42.800
 120195672.221 7  93485520.256 7  22461429.224    22461431.283    22461433.498
        46.700          43.600
 118270433.369 5  91988029.689 4  22163808.268    22163807.903    22163799.584
        33.700          29.000
 198903516.867 7                  37850078.082
        43.300
 122952977.806 7  95630069.295 5  23008960.970    23008960.651    23008960.290
        44.700          32.900
 116409971.272 7  90709090.51544  22152078.546    22152078.1444   22152077.7754
        45.000          27.2004
 202045192.832 7                  38447918.582
        44.700
 135290858.275 7                  25744994.610
        44.000
 135180512.695 6                  25723990.968
        36.000
 126770204.970 7                  24123552.249
        47.800
 126402385.241 5  98312975.086 6  23712764.979    23712761.880    23712770.591
        34.600          38.800
 105503452.639 8  82058221.676 7  19729668.820    19729668.323    19729673.907
        50.100          45.500
 114467459.042 5  89030286.685 7  21375991.391    21375989.504    21375997.043
        32.000          42.900
 25  1  1  5 21  0.0000000  0 30G18R01G23G15G26G12G11G20E27E03G25G05
                                E34G29E05E15E26S35R23R17S31R15G13S33
                                E08E21E13R14R24R08
 124939883.550 6                  23775267.260
        39.100
 103752436.361 7  80696379.129 6  19409038.659    19409039.464    19409043.602
        45.400          37.600


 119907095.845 5  93434135.09042  22817566.340    22817566.2734   22817573.9374
        32.900          16.3004
 131274678.847 5 102291972.80742  24980735.787    24980735.4924   24980745.1084
        34.300          14.7004
 130590444.496 5 101758788.00743  24850536.903    24850537.8644   24850535.7854
        34.800          19.9004
 121049063.542 7  94323942.98043  23034869.637    23034869.3424   23034873.2754
        42.200          23.5004
 114506762.874 5  89226014.77742  21789906.940    21789905.8814   21789909.7864
        35.900          15.8004
 139012299.175 6                  26453161.537
        36.600
 133050751.665 6                  25318688.601
        40.700
 122031630.475 6  95089623.81844  23221851.054    23221850.0844   23221854.1714
        39.000          26.3004
 105965151.167 8  82570239.34048  20164493.247    20164492.8854   20164492.3584
        48.000          48.2004


 109039563.669 8  84965857.77648  20749539.315    20749538.8284   20749538.9804
        48.400          48.5004


 127791393.701 7                  24317890.623
        46.100


 200871700.709 5                  38224615.441
        35.300
 116220907.044 6                  21726273.210    21726272.972
        39.400
 120149310.758 7  93449461.445 7  22452762.118    22452763.306    22452768.629
        43.400          43.500
 198903511.467 7                  37850076.365
        43.900
 122972766.438 6  95645460.443 6  23012661.580    23012663.150    23012665.866
        41.100          37.000
 116369665.915 7  90677683.75644  22144408.636    22144408.2254   22144408.3034
        45.100          29.4004
 202045177.380 7                  38447918.206
        45.100
 135251769.949 7                  25737556.314
        42.800
 135193632.369 6                  25726486.501
        36.200
 126756294.501 7                  24120905.047
        45.800
 126453248.754 4  98352535.642 6  23722302.861    23722295.621    23722312.220
        27.400          37.400
 105489905.587 8  82047685.106 7  19727135.010    19727135.252    19727141.824
        51.900          46.100
 114512211.781 5  89065094.365 6  21384355.735    21384356.254    21384354.814
        32.800          41.500
 25  1  1  5 21 15.0000000  0 30G18R01G15G26G12G11G20E27E03G25G05E34
                                G29E05E15E26S35R23R17R02S31R15G13S33
                                E08E21E13R14R24R08
 124901399.473 6                  23767945.205
        36.700
 103732614.041 7  80680961.845 6  19405328.741    19405329.332    19405335.639
        44.100          37.900
 119851749.438 6  93391007.99542  22807036.636    22807036.6054   22807041.2944
        39.300          15.7004
 131257737.022 5 102278771.31042  24977512.661    24977512.2554   24977522.1334
        35.300          13.1004
 130643481.375 5 101800115.47442  24860628.530    24860629.4334   24860629.2034
        30.700          14.7004
 121083195.284 6  94350539.18643  23041366.267    23041365.9954   23041365.6694
        41.900          22.0004
 114543425.169 5  89254582.82841  21796884.953    21796883.9974   21796885.9244
        30.500          11.6004
 139053940.716 6                  26461084.924
        37.600
 133045034.740 7                  25317601.075
        42.600
 122074308.844 6  95122879.62144  23229971.630    23229970.6204   23229973.4354
        40.600          26.6004
 105976712.912 7  82579248.47247  20166693.858    20166693.4964   20166692.4544
        47.600          47.2004


 109017101.951 8  84948355.14148  20745265.043    20745264.5564   20745264.9314
        50.200          48.9004


 127806193.208 7                  24320707.036
        46.000


 200871717.923 5                  38224621.241
        34.400
 116254718.613 6                  21732596.748    21732594.187
        40.400
 120102944.724 6  93413398.956 7  22444097.347    22444098.093    22444103.801
        39.200          43.400
 118143055.100 6                  22139950.117    22139951.381
        36.300
 198903502.472 7                  37850071.947
        43.600
 122992710.567 5  95660972.706 6  23016393.531    23016388.888    23016396.773
        31.100          37.700
 116329449.226 7  90646346.07944  22136755.437    22136755.0264   22136755.9354
        46.500          29.8004
 202045158.499 7                  38447915.398
        45.600
 135212726.271 6                  25730126.530
        41.300
 135206848.551 5                  25729004.236
        35.600
 126742401.229 7                  24118261.172
        45.500
 126504142.724 6  98392119.770 5  23731856.241    23731856.563    23731856.049
        36.600          32.800
 105476435.547 8  82037208.396 7  19724616.169    19724616.790    19724621.854
        52.700          44.900
 114557096.482 6  89100004.745 6  21392746.549    21392733.673    21392734.680
        39.400          39.100
 25  1  1  5 21 30.0000000  0 29G18R01G15G26G11G20E27E03G25G05E34G29
                                E05E15E26S35R23R17R02S31R15G13S33E08
                                E21E13R14R24R08
 124862920.689 6  97295776.27242  23760624.434    23760624.3094   23760621.9574
        39.900          15.8004
 103712984.115 7  80665694.153 6  19401657.031    19401658.496    19401665.000
        45.700          40.400
 119796440.158 6  93347909.81043  22796512.859    22796512.8244   22796515.9764
        41.700          22.4004
 131240913.736 5 102265662.25841  24974308.938    24974308.3174   24974322.6964
        30.600           8.9004
 121117353.808 6  94377156.25043  23047865.641    23047865.3644   23047865.1774
        39.400          22.6004
 114580128.525 4  89283182.97141  21803869.776    21803868.8914   21803870.0754
        28.700           7.4004
 139095603.681 5                  26469012.408
        34.200
 133039419.633 7                  25316531.844
        43.400
 122117034.534 6  95156172.30244  23238102.169    23238101.1634   23238101.7584
        36.700          25.1004
 105988382.847 8  82588341.90047  20168914.255    20168913.8984   20168912.6334
        48.500          46.8004


 108994751.936 8  84930939.55248  20741011.813    20741011.3224   20741011.8374
        51.400          50.1004


 127821009.611 7                  24323526.334
        45.800


 200871731.582 5                  38224620.239
        35.700
 116288596.569 6                  21738929.465    21738927.601
        41.400
                  93377331.988 7                  22435465.890    22435437.671
                        42.400
 118079491.994 7                  22128030.404    22128030.067
        43.000
 198903488.878 7                  37850070.806
        42.900
                  95676604.440 6                                  23020157.094
                        36.000
 116289320.028 7  90615076.58944  22129118.977    22129118.5754   22129119.8254
        42.800          29.5004
 202045134.146 7                  38447909.916
        43.100
 135173725.915 7                  25722705.221
        43.000
 135220159.449 5                  25731537.132
        34.400
 126728523.497 7                  24115620.418
        46.100
 126555064.919 5  98431725.842 5  23741403.920    23741408.056    23741406.661
        33.800          31.600
 105463041.141 8  82026790.504 7  19722112.105    19722112.346    19722116.507
        53.400          44.500
 114602111.213 6  89135016.179 6  21401135.323    21401139.282    21401140.517
        40.700          36.700
 25  1  1  5 21 45.0000000  0 31G18R01G15G26G12G11G20E27E03G25G05E34
                                G29R16E05E15E26S35R23R17R02S31R15G13
                                S33E08E21E13R14R24R08
 124824453.983 6  97265802.21143  23753305.597    23753305.4324   23753302.1474
        41.600          18.8004
 103693553.453 7  80650581.449 7  19398022.508    19398022.249    19398030.121
        45.600          42.200
 119741175.172 7  93304846.28444  22785995.338    22785995.2314   22785999.9764
        42.800          24.8004
 131224215.544 5 102252650.89141  24971130.608    24971129.5534   24971145.6574
        33.300           8.7004
 130749503.780 5 101882724.08742  24880801.766    24880801.4584   24880801.8684
        33.000          12.5004
 121151545.838 5  94403799.40543  23054371.432    23054371.1694   23054372.6224
        35.500          21.9004
 114616879.584 6  89311820.21441  21810865.886    21810864.8004   21810863.2864
        38.100           8.2004
 139137294.654 5                  26476947.113
        35.500
 133033913.136 7                  25315483.730
        44.500
 122159814.011 6  95189506.92244  23246242.830    23246241.8474   23246242.2934
        39.100          26.5004
 106000167.552 8  82597524.75647  20171156.440    20171156.0834   20171154.9954
        49.800          47.0004


 108972520.780 8  84913616.58248  20736781.690    20736781.2084   20736781.3024
        51.000          50.6004
 129626197.100 4                  24266291.352    24266292.725
        28.900


 127835849.779 7                  24326350.443
        46.400
 146314650.485 5                  27842752.909
        35.100
 200871745.805 6                  38224622.260
        36.700
 116322547.793 7                  21745276.720    21745275.968
        42.200
                  93341266.442 6                                  22426772.883
                        41.900
 118015997.320 6                  22116133.515    22116133.780
        40.000
 198903477.602 7                  37850064.197
        42.300
                  95692360.892 5                                  23023946.875
                        35.800
 116249285.487 7  90583880.81644  22121501.131    22121500.7344   22121501.3744
        42.600          28.4004
 202045113.149 7                  38447911.289
        43.700
 135134775.855 7                  25715292.755
        44.400
 135233571.814 5                  25734091.899
        35.600
 126714668.098 7                  24112983.108
        45.800
 126606021.292 5                  23750964.711    23750964.674
        32.900
 105449729.548 8  82016437.034 7  19719623.101    19719623.020    19719626.981
        52.900          44.300
 114647262.741 7  89170133.979 6  21409571.831    21409572.673    21409577.547
        42.100          39.500
 25  1  1  5 22  0.0000000  0 28G18R01G15G11G20E27E03G25G05E34G29R16
                                E05E15E26S35R23R17R02S31R15G13S33E08
                                E21E13R24R08
 124785994.764 6  97235833.96444  23745986.762    23745986.7364   23745985.4014
        41.900          24.2004
 103674317.590 7  80635620.230 7  19394424.676    19394424.435    19394431.547
        46.200          42.800
 119685950.278 7  93261813.87544  22775487.035    22775486.8924   22775491.8194
        43.400          26.1004
 121185766.734 5  94430465.04943  23060886.377    23060886.0514   23060885.7464
        35.400          21.4004
 114653673.391 6  89340490.70041  21817864.339    21817863.1554   21817864.7204
        37.900           8.4004
 139179008.627 5                  26484885.950
        35.900
 133028510.685 7                  25314455.859
        44.000
 122202642.089 6  95222879.41244  23254392.934    23254391.9464   23254395.4524
        38.400          28.2004
 106012061.934 8  82606793.08147  20173419.457    20173419.1094   20173418.5304
        50.300          47.5004


 108950404.120 8  84896382.83148  20732572.886    20732572.3994   20732572.7904
        50.100          50.2004
                                                  24261902.120



 127850709.056 7                  24329177.355
        44.100
 146284777.777 5                  27837065.747
        34.000


 116356567.056 7                  21751636.354    21751635.224
        42.800
                  93305198.066 6                                  22418106.829
                        37.900
                  91740822.510 5                                  22104245.280
                        31.800
 198903463.303 7                  37850061.148
        43.100
 123053480.355 7  95708238.053 5  23027766.333    23027766.176    23027767.975
        42.400          32.900
 116209341.285 7  90552755.43944  22113900.209    22113899.7984   22113900.0324
        43.100          28.6004
 202045089.213 7                  38447902.766
        42.500
 135095871.764 7                  25707889.607
        44.700
 135247080.896 6                  25736660.943
        37.500
 126700830.368 7                  24110350.949
        46.400
 105436496.408 8  82006144.604 7  19717148.296    19717147.941    19717152.219
        52.000          43.700
 114692545.336 7  89205353.807 6  21418028.649    21418030.631    21418031.109
        43.600          39.700
 25  1  1  5 22 15.0000000  0 30G18R01G23G15G26G12G11G20E27E03G25G05
                                G29E05E15E26S35R23R17R02S31R15G13S33
                                E08E21E13R14R24R08
 124747549.000 6  97205876.18943  23738670.172    23738670.1284   23738670.5424
        39.300          23.8004
 103655282.745 7  80620815.356 7  19390864.042    19390863.593    19390870.888
        46.800          43.100
 131466614.906 5                  25017266.722
        33.400
 119630771.605 7  93218817.43043  22764986.552    22764986.4454   22764990.3884
        43.600          18.4004


 130855415.787 5 101965267.03041  24900961.941    24900960.9854   24900960.3234
        32.700           9.5004
 121220022.300 6  94457157.72943  23067405.699    23067405.2394   23067404.9154
        39.400          23.5004
 114690515.575 6  89369198.85841  21824876.763    21824875.6234   21824875.3574
        38.500           8.2004
 139220751.317 5                  26492828.569
        34.900
 133023218.223 7                  25313447.771
        42.300
 122245524.364 6  95256294.13145  23262551.874    23262550.9044   23262558.5874
        38.500          30.1004
 106024072.192 8  82616151.69848  20175705.630    20175705.2824   20175704.4644
        50.600          48.6004
 108928407.924 8  84879242.93948  20728387.481    20728386.9904   20728387.1374
        48.100          49.1004


 127865593.276 7                  24332010.097
        43.100
 146254908.268 5                  27831382.523
        32.800
 200871783.304 6                  38224626.120
        39.500
 116390661.099 7                  21758009.981    21758008.668
        43.600
 119917458.025 7  93269132.069 5  22409436.634    22409437.514    22409443.007
        42.500          34.800
 117889172.252 6  91691542.043 6  22092380.857                    22092375.707
        39.900          37.500
 198903452.742 6                  37850045.577
        40.700
 123074054.719 7  95724240.233 5  23031618.277    23031619.154    23031625.219
        43.200          34.200
 116169493.669 7  90521705.35044  22106317.626    22106317.2064   22106317.1664
        44.100          28.8004
 202045067.607 7                  38447898.858
        43.100
 135057019.653 7                  25700496.996
        44.400
 135260692.302 6                  25739249.890
        38.500
 126687016.248 7                  24107722.077
        46.300
 126708026.853 5                  23770097.936    23770100.991
        33.000
 105423347.459 8  81995917.655 7  19714689.151    19714689.631    19714692.979
        51.600          44.600
 114737964.736 7  89240680.076 6  21426511.519    21426513.003    21426512.445
        44.300          40.900
 25  1  1  5 22 30.0000000  0 29G18R01G23G15G26G12G11G20E27E03G25G05
                                G29E05E15E26S35R23R17R02S31R15G13S33
                                E08E21E13R24R08
 124709112.192 6  97175925.43744  23731355.349    23731355.3004   23731357.1194
        39.900          25.4004
 103636444.153 8  80606163.136 7  19387341.097    19387340.938    19387346.986
        48.300          43.500
 131417751.025 4                  25007957.278
        28.500
 119575635.070 7  93175853.93943  22754495.329    22754495.2494   22754495.7054
        43.100          18.6004


 130908353.530 5 102006517.24741  24911036.762    24911035.3854   24911034.8574
        35.300          11.3004
 121254308.020 6  94483873.89944  23073929.317    23073928.8574   23073929.4464
        39.200          26.8004
 114727401.272 4  89397940.99241  21831894.919    21831893.7524   21831894.4494
        29.700           8.9004
 139262517.833 6                  26500776.371
        38.300
 133018031.172 6                  25312461.571
        41.900
 122288455.790 6  95289747.25144  23270721.436    23270720.5154   23270732.4454
        38.100          27.8004
 106036193.339 8  82625596.73448  20178012.036    20178011.6924   20178011.3884
        49.600          48.2004
 108906528.051 7  84862193.69148  20724223.141    20724222.6414   20724223.8234
        47.900          48.2004


 127880497.982 6                  24334846.594
        39.700
 146225037.339 5                  27825698.747
        33.300
 200871796.711 6                  38224634.727
        37.300
 116424824.954 7                  21764397.065    21764397.127
        45.500
 119871085.735 6  93233064.990 5  22400766.076    22400766.201    22400778.004
        38.600          34.100
 117825877.728 6  91642312.900 6  22080507.245    22080511.252    22080514.648
        36.300          38.000
 198903440.402 7                  37850067.345
        43.600
 123094785.008 5  95740363.897 6  23035492.750    23035490.649    23035510.478
        34.500          37.800
 116129738.654 7  90490727.47844  22098751.782    22098751.3674   22098751.6644
        45.700          28.9004
 202045045.523 7                  38447897.565
        44.400
 135018215.226 7                  25693113.546
        46.500
 135274401.465 6                  25741859.923
        37.700
 126673221.090 7                  24105096.926
        44.800
 105410278.807 8  81985753.178 7  19712245.512    19712245.840    19712249.157
        51.500          44.700
 114783515.678 7  89276108.628 6  21435014.786    21435014.949    21435018.871
        42.800          41.800
 25  1  1  5 22 45.0000000  0 30G18R01G23G15G26G12G11G20E27E03G25G05
                                G29E05E15E26S35R23R17R02S31R15G13S33
                                E08E21E13R14R24R08
 124670686.246 6  97145983.11744  23724042.386    23724042.3424   23724044.5944
        39.000          25.8004
 103617804.307 7  80591665.510 7  19383853.178    19383853.618    19383860.556
        47.800          43.400
 131368916.514 4                  24998662.461
        28.400
 119520543.249 5  93132925.15443  22744010.162    22744010.0334   22744009.7104
        31.900          18.6004


 130961271.751 6 102047752.13542  24921106.956    24921105.6464   24921102.8274
        36.700          12.5004
 121288625.763 6  94510614.99544  23080459.537    23080459.0904   23080460.2514
        40.600          27.6004
 114764332.381 6  89426718.3884   21838924.864    21838923.5364   21838922.0424
        37.600           5.1004
 139304309.851 6                  26508730.395
        37.600
 133012951.600 7                  25311494.845
        42.600
 122331437.774 5  95323239.74643  23278901.078    23278900.1984   23278917.3344
        34.700          22.6004
 106048426.716 8  82635129.22848  20180339.744    20180339.3964   20180339.5074
        49.600          48.6004
 108884766.717 7  84845236.79847  20720082.274    20720081.7784   20720082.9894
        47.200          47.7004


 127895425.042 6                  24337688.096
        40.300
 146195166.835 5                  27820013.786
        32.600
 200871811.740 6                  38224630.189
        40.300
 116459060.397 7                  21770796.213    21770796.091
        44.000
 119824714.002 7  93196998.175 4  22392103.534    22392106.368    22392101.840
        45.300          27.500
                  91593137.294 5                                  22068664.598
                        35.600
 198903428.704 6                  37850060.070
        41.900
 123115672.729 6  95756609.943 6  23039400.524    23039398.110    23039416.315
        36.300          37.600
 116090078.483 7  90459823.49844  22091204.810    22091204.3954   22091204.1464
        46.200          29.3004
 202045023.458 7                  38447890.433
        44.400
 134979460.518 7                  25685738.246
        45.700
 135288210.095 6                  25744485.669
        36.300
 126659446.856 7                  24102475.756
        44.700
                                                  23789269.201

 105397292.419 8  81975652.663 7  19709816.636    19709817.396    19709821.705
        50.100          46.000
 114829199.713 7  89311640.731 6  21443546.011    21443546.205    21443549.653
        42.000          40.800
 25  1  1  5 23  0.0000000  0 28G18R01G26G12G11G20E27E03G25G05G29E05
                                E15E26S35R23R17R02S31R15G13S33E08E21
                                E13R14R24R08
 124632273.762 6  97116051.27244  23716732.753    23716732.6644   23716734.1354
        39.600          24.8004
 103599365.853 7  80577324.507 7  19380402.890    19380403.967    19380411.410
        47.500          42.800


 131014172.610 6 102088973.70541  24931174.088    24931172.9264   24931168.9904
        41.600          11.3004
 121322978.160 6  94537383.09944  23086996.106    23086995.6774   23086997.1374
        41.500          26.6004
 114801311.341 6  89455533.09842  21845960.377    21845959.0674   21845960.3364
        38.300          12.1004
 139346129.781 6                  26516688.619
        37.700
 133007982.130 6                  25310549.181
        41.700


 106060775.307 8  82644751.52048  20182689.756    20182689.4084   20182689.5814
        48.700          48.1004
 108863126.812 7  84828374.51147  20715964.218    20715963.7044   20715964.8664
        46.000          46.8004


 127910377.069 7                  24340533.064
        42.400
 146165299.347 4                  27814328.562
        27.300
 200871829.451 5                  38224644.538
        33.500
 116493370.180 7                  21777208.268    21777208.880
        43.000
 119778345.606 7  93160933.927 4  22383437.498    22383439.514    22383437.440
        45.200          28.100
 117699437.600 6  91544017.567 6  22056825.698    22056826.270    22056831.929
        36.000          39.000
 198903420.357 7                  37850057.293
        42.700
 123136720.331 6  95772980.266 6  23043338.107    23043338.325    23043352.412
        36.700          39.900
 116050516.179 6  90428995.76544  22083676.715    22083676.2644   22083675.9194
        41.100          25.9004
 202045005.051 7                  38447888.188
        44.000
 134940758.513 7                  25678373.561
        44.700
 135302120.822 6                  25747132.149
        36.300
 126645696.161 7                  24099859.458
        43.500
                                                  23798856.373

 105384391.053 7  81965618.304 7  19707402.421    19707402.501    19707409.573
        47.900          47.300
 114875018.971 6  89347277.933 6  21452104.160    21452102.409    21452105.719
        41.100          39.400
 25  1  1  5 23 15.0000000  0 29G18R01G23G15G26G12G11G20E27E03G25G05
                                G29E05E15E26S35R23R02S31R15G13S33E08
                                E21E13R14R24R08
 124593866.950 4  97086123.88443  23709423.193    23709423.1224   23709425.9974
        29.100          22.4004
 103581120.663 7  80563133.818 6  19376990.246    19376989.874    19376996.311
        46.200          40.600
 131271266.046 4                  24980093.059
        28.900
 119410503.398 6  93047137.74543  22723067.308    22723066.8664   22723065.8504
        41.300          19.7004
 131126545.246 5 102176591.71042  24952553.808    24952554.4604   24952565.4174
        34.500          13.1004
 131067047.386 6 102130174.76242  24941234.256    24941233.1614   24941230.2754
        38.300          14.0004
 121357357.218 6  94564171.98944  23093538.061    23093537.6554   23093538.9074
        41.200          24.5004
 114838329.858 6  89484378.57441  21853003.157    21853001.8474   21853005.0824
        37.300           9.0004
 139387969.372 6                  26524650.746
        37.300
 133003114.845 6                  25309622.165
        40.600


 106073230.859 8  82654457.12948  20185059.799    20185059.4374   20185059.6584
        49.900          48.5004
 108841600.558 7  84811600.85048  20711868.654    20711868.1634   20711868.4894
        47.700          48.1004


 127925346.297 6                  24343381.401
        41.500
 146135427.165 5                  27808642.906
        34.100
 200871841.606 4                  38224631.298
        29.700
 116527746.604 7                  21783635.171    21783635.899
        44.300
                  91494947.628 6                  22045000.470    22045009.093
                        37.400
 198903407.083 7                  37850062.471
        43.200
 123157919.040 6  95789468.222 6  23047311.026    23047308.996    23047314.900
        41.500          39.500
 116011044.158 6  90398238.44643  22076165.362    22076164.9154   22076165.0784
        39.400          23.8004
 202044981.908 7                  38447892.928
        46.700
 134902101.665 6                  25671016.106
        41.300
 135316125.327 6                  25749799.246
        40.800
 126631961.076 7                  24097245.595
        46.300


 105371566.989 8  81955644.030 7  19705005.014    19705005.237    19705011.724
        48.100          46.800
 114920965.028 7  89383013.722 6  21460682.484    21460683.574    21460687.308
        42.900          36.400
 25  1  1  5 23 30.0000000  0 28G18R01G23G15G26G12G11E27E03G25G05G29
                                E05E15E26S35R23R17R02S31R15G13S33E08
                                E21E13R24R08
 124555471.373 7  97056205.16644  23702117.582    23702117.5204   23702119.0174
        42.600          25.3004
 103563075.215 7  80549098.485 6  19373614.614    19373613.714    19373620.048
        42.900          40.000


 119355544.879 6  93004312.89242  22712613.862    22712613.3534   22712606.7484
        38.300          15.6004


 131119902.326 6 102171360.34542  24951291.193    24951290.1924   24951288.5784
        39.400          12.7004
 121391768.814 7  94590986.20744  23100086.152    23100085.7594   23100087.1604
        42.900          24.8004
 139429834.178 6                  26532615.520
        41.700
 132998355.646 6                  25308717.001
        40.900
 122460700.875 6  95423996.93342  23303507.829    23303507.6064   23303510.9004
        37.800          14.2004
 106085798.814 8  82664250.33548  20187451.667    20187451.3104   20187451.0194
        50.400          48.6004
 108820193.821 8  84794920.23448  20707794.578    20707794.0874   20707794.8814
        50.200          48.9004


 127940338.391 7                  24346232.938
        43.700
 146105555.827 4                  27802959.857
        26.500


 116562195.294 7                  21790076.084    21790075.925
        43.300
 119685601.205 5  93088783.571 5  22366106.550    22366105.005    22366111.249
        32.800          34.400
 117573328.157 6  91445932.405 5  22033194.193    22033191.178    22033196.157
        38.800          33.600
 198903394.920 7                  37850052.540
        42.400
 123179274.810 6  95806078.220 6  23051305.009    23051301.252    23051314.238
        36.200          41.300
 115971668.726 6  90367556.28743  22068672.315    22068671.8554   22068673.0764
        40.100          20.8004
 202044959.193 7                  38447888.470
        42.900
 134863495.918 6                  25663670.752
        39.100
 135330229.407 6                  25752482.387
        36.700
 126618247.368 7                  24094636.096
        43.600
 105358826.412 7  81945734.621 7  19702622.440    19702622.877    19702628.403
        47.800          46.600
 114967043.255 7  89418852.445 6  21469285.738    21469287.481    21469290.947
        43.100          37.900
 25  1  1  5 23 45.0000000  0 29G18R01G23G15G26G12G11G20E27E03G25G05
                                G29E15E26S35R23R17R02S31R15G13S33E08
                                E21E13R14R24R08
 124517090.277 6  97026297.79444  23694813.044    23694813.0524   23694814.9924
        40.600          25.6004
 103545232.309 7  80535220.726 6  19370277.594    19370277.428    19370282.648
        46.400          40.400


 119300635.604 6  92961526.55043  22702162.451    22702161.8214   22702160.5454
        40.500          22.3004


 131172739.920 6 102212532.48442  24961344.179    24961343.2994   24961343.9914
        37.000          17.4004
 121426215.736 6  94617827.94843  23106639.618    23106639.2524   23106641.4944
        38.100          20.4004
 114912482.108 5  89542213.59341  21867119.621    21867120.0014   21867122.6074
        34.500          11.6004
 139471726.854 6                  26540586.255
        36.400
 132993707.470 7                  25307832.698
        44.500
 122503883.072 5  95457645.32443  23311709.135    23311708.7024   23311721.3454
        33.400          21.6004
 106098482.103 8  82674133.41048  20189865.157    20189864.7824   20189864.9934
        51.100          49.6004
 108798909.832 8  84778335.30048  20703745.255    20703744.7554   20703744.5444
        49.400          48.9004
 127955356.410 7                  24349090.642
        42.100
 146075688.133 5                  27797279.140
        32.400
 200871868.264 5                  38224650.704
        33.800
 116596719.573 7                  21796529.625    21796530.113
        42.800
 119639234.431 6  93052720.235 5  22357444.016    22357440.981    22357443.442
        39.800          33.700
                  91396974.802 6                                  22021399.391
                        38.400
 198903387.126 6                  37850050.255
        41.800
 123200790.000 5  95822812.294 6  23055327.926    23055328.914    23055339.902
        34.000          39.800
 115932392.854 5  90336951.68042  22061196.176    22061195.7254   22061199.6224
        31.200          14.7004
 202044941.630 7                  38447877.094
        45.500
 134824944.601 7                  25656335.011
        42.400
 135344436.074 6                  25755186.615
        38.700
 126604558.089 6                  24092031.701
        41.400
 127014740.440 6                  23827647.614    23827649.915
        37.300
 105346172.415 7  81935892.654 7  19700255.811    19700255.515    19700260.714
        46.000          44.800
 115013256.103 6  89454795.604 5  21477917.882    21477917.256    21477916.667
        40.300          35.300
 25  1  1  5 24  0.0000000  0 27G18R01G23G15G26G12G11G20E27E03G25G05
                                G29E15E26S35R23R17R02S31R15S33E08E21
                                E13R24R08
 124478719.302 6  96996398.33143  23687510.883    23687510.8834   23687512.6544
        40.700          23.8004
 103527587.618 8  80521497.151 6  19366976.932    19366976.812    19366982.551
        48.100          41.400


 119245772.058 4  92918775.80243  22691717.814    22691717.0544   22691722.0434
        27.000          18.6004


 131225555.439 6 102253687.45243  24971400.313    24971399.5444   24971395.9444
        37.500          18.8004
 121460693.848 5  94644694.02043  23113200.821    23113200.4824   23113201.8034
        34.400          18.3004
 114949636.988 6  89571165.47641  21874187.706    21874187.8584   21874194.4474
        36.100           8.6004
 139513642.933 6                  26548563.708
        36.600
 132989166.137 7                  25306967.584
        43.700
 122547112.929 5  95491330.83543  23319939.850    23319939.5694   23319943.7554
        34.300          23.2004
 106111276.087 8  82684102.75348  20192300.079    20192299.7134   20192299.7564
        50.800          49.0004
 108777744.720 8  84761842.99748  20699717.486    20699716.9864   20699716.8154
        51.100          50.6004
 127970396.025 7                  24351953.321
        43.800
 146045820.032 5                  27791595.018
        34.300
 200871885.916 6                  38224636.708
        36.000
 116631314.632 6                  21802996.217    21802995.887
        41.200
 119592868.003 5  93016657.556 5  22348781.576    22348781.573    22348781.757
        32.000          35.900
 117447551.696 6  91348072.036 6  22009634.802                    22009617.886
        38.400          38.200
 198903378.852 7                  37850062.994
        43.400
 123222460.057 6  95839666.850 6  23059394.585    23059391.043    23059393.329
        41.300          37.000
 202044923.048 7                  38447876.893
        43.200
 134786443.571 7                  25649007.024
        43.500
 135358740.649 6                  25757908.520
        38.000
 126590888.859 7                  24089432.685
        45.800
 105333601.146 7  81926114.987 7  19697906.373    19697906.416    19697909.812
        47.900          44.000
 115059598.422 6  89490839.689 6  21486570.179    21486569.766    21486575.758
        39.700          41.400
 25  1  1  5 24 15.0000000  0 26G18R01G23G15G26G12G11E27E03G25G05G29
                                E15E26S35R23R17S31R15G13S33E08E21E13
                                R24R08
 124440358.958 6  96966507.13043  23680210.066    23680210.1014   23680212.9674
        39.300          23.6004
 103510141.994 7  80507928.324 6  19363713.053    19363713.851    19363718.222
        47.900          40.900


 119190974.615 6  92876092.10242  22681290.708    22681290.4044   22681291.6534
        39.500          17.7004


 131278348.635 5 102294824.98542  24981442.384    24981441.6964   24981443.9704
        34.000          15.0004
 121495203.201 6  94671584.42143  23119766.667    23119766.3374   23119768.4654
        38.900          19.3004
 139555582.465 6                  26556543.269
        36.300
 132984731.983 7                  25306124.288
        43.400
 122590390.623 6  95525053.73344  23328178.055    23328177.9714   23328178.0204
        39.500          26.0004
 106124180.766 8  82694158.36147  20194755.170    20194754.8044   20194754.6814
        49.700          47.6004
 108756699.126 8  84745443.85148  20695712.205    20695711.7054   20695711.9444
        50.000          50.3004
 127985457.592 7                  24354819.419
        42.300
 146015951.723 5                  27785910.975
        31.200
 200871903.554 6                  38224654.058
        39.000
 116665980.973 6                  21809477.586    21809477.517
        39.100
 119546502.714 7  92980595.582 6  22340116.218    22340115.608    22340119.022
        43.100          36.900
 198903370.766 7                  37850055.715
        42.800
 123244284.780 6                  23063473.172    23063472.794
        41.900
 115854134.761 5                  22046306.844    22046306.6164
        34.100
 202044904.580 7                  38447872.873
        44.600
 134747993.356 6                  25641690.162
        39.600
 135373143.451 6                  25760648.510
        37.700
 126577240.087 7                  24086832.616
        44.500
 105321112.886 8  81916401.860 7  19695571.667    19695571.916    19695574.758
        48.300          44.500
 115106070.482 7  89526984.617 7  21495251.928    21495252.583    21495253.988
        44.100          43.500
 25  1  1  5 24 30.0000000  0 25G18R01G23G15G26G11G20E27E03G25G05G29
                                E15E26S35R23S31R15G13S33E08E21E13R24
                                R08
 124402007.778 6  96936623.04644  23672914.661    23672914.6744   23672915.5034
        37.100          24.2004
 103492894.082 7  80494513.297 6  19360485.429    19360485.384    19360491.289
        46.200          40.100
 131027909.490 5                  24933771.711
        30.500
 119136202.560 6  92833412.50341  22670865.894    22670865.4524   22670868.8464
        37.800          10.6004


 121529742.635 6  94698498.22343  23126342.555    23126342.2834   23126340.5434
        38.800          19.7004
 115024095.664 4                  21888355.319
        28.300
 139597543.807 6                  26564530.204
        36.300
 132980403.677 7                  25305300.833
        42.600


 106137194.506 7  82704298.94048  20197232.072    20197231.7154   20197230.8204
        47.500          48.2004
 108735771.845 8  84729136.89148  20691730.515    20691730.0334   20691729.4194
        49.700          49.3004
 128000539.752 7                  24357689.524
        43.500


 200871919.654 6                  38224644.435
        40.300
 116700717.138 5                  21815969.020    21815968.042
        33.700
 198903361.555 6                  37850048.050
        40.700
 123266262.765 6                  23067585.477    23067585.524
        38.800
 115815147.588 6  90245575.46742  22038885.990    22038885.8744   22038889.1324
        37.900          16.2004
 202044884.858 6                  38447867.784
        38.400
 134709592.940 6                  25634383.722
        41.500
 135387642.931 6                  25763408.627
        38.600
 126563610.454 6                  24084237.659
        39.500
 105308706.616 8  81906752.587 7  19693249.720    19693251.251    19693254.514
        50.400          45.000
 115152670.276 7  89563228.926 7  21503951.761    21503953.614    21503955.452
        44.100          43.100
 25  1  1  5 24 45.0000000  0 26G18R01G15G26G11G20E27E03G25G05G29E15
                                E26S35R23R02S31R15G13S33E08E21E13R14
                                R24R08
 124363668.565 7  96906748.31944  23665618.197    23665618.2014   23665619.4604
        42.300          27.3004
 103475846.661 7  80481254.209 6  19357295.272    19357294.412    19357301.797
        42.600          38.500
 119081478.640 5  92790770.68542  22660457.101    22660456.4624   22660455.9004
        35.500          12.7004


 121564314.879 6  94725437.70442  23132920.213    23132919.9144   23132919.3954
        38.500          14.7004
 115061386.403 5  89658222.01641  21895452.370    21895452.2324   21895452.7424
        30.400           8.7004
 139639529.365 6                  26572521.044
        39.800
 132976184.021 7                  25304497.463
        42.700
 122677115.316 6  95592557.96344  23344672.171    23344672.0064   23344676.5414
        41.000          29.2004
 106150320.287 8  82714526.81647  20199729.126    20199728.7734   20199729.1334
        49.600          47.9004
 108714965.787 8  84712924.40948  20687770.683    20687770.2184   20687770.5624
        50.000          49.5004
 128015645.306 7                  24360563.912
        44.000


 200871937.269 6                  38224658.270
        40.100
 116735526.054 6                  21822472.239    21822472.898
        36.600
 117259276.913 6  91201694.446 6  21974344.602    21974343.736    21974348.625
        36.400          38.500
 198903353.128 7                  37850050.630
        42.000
 123288396.348 7                  23071727.544    23071726.877
        42.100
 115776259.038 5  90215272.80142  22031485.391    22031485.3744   22031488.9054
        31.400          13.6004
 202044866.529 7                  38447860.813
        44.400
 134671245.188 6                  25627086.625
        41.800
 135402241.591 6                  25766186.737
        40.900
 126550002.507 7                  24081648.293
        42.700
 127219813.913 6                  23866112.754    23866112.693
        38.700
 105296385.265 8  81897169.360 7  19690946.439    19690947.435    19690950.550
        50.100          46.700
 115199400.052 7  89599574.221 7  21512679.150    21512679.829    21512680.889
        44.000          42.800
 25  1  1  5 25  0.0000000  0 28G18R01G23G15G26G11G20E27E03G25G05G29
                                E15E26S35R23R17R02S31R15G13S33E08E21
                                E13R14R24R08
 124325334.102 6  96876877.30244  23658323.926    23658323.9524   23658324.1384
        41.600          27.6004
 103458992.636 7  80468145.556 6  19354143.997    19354142.084    19354149.857
        43.800          40.400
 130930805.384 4                  24915289.862
        28.900
 119026796.311 5  92748161.12342  22650049.348    22650048.7314   22650051.6814
        33.100          16.0004
 131018361.122 5                  24931963.808
        33.800
 121598912.448 7  94752396.81843  23139503.907    23139503.5994   23139504.1684
        42.500          20.7004
 115098707.706 6  89687303.55642  21902554.288    21902554.0204   21902553.5354
        39.200          13.3004
 139681531.721 6                  26580513.230
        38.600
 132972065.677 7                  25303714.559
        43.300
 122720528.033 6  95626386.01945  23352933.530    23352933.3524   23352936.1254
        39.200          32.7004
 106163550.329 8  82724835.92548  20202246.646    20202246.2894   20202247.2424
        48.200          48.2004
 108694273.929 7  84696800.86848  20683832.950    20683832.4814   20683833.1914
        47.400          48.3004
 128030766.952 6                  24363440.205
        41.500


 200871949.678 5                  38224668.162
        34.100
 116770400.304 6                  21828997.125    21828997.898
        39.600
 119407348.350 6  92872391.862 6  22314118.096    22314117.698    22314124.098
        41.800          36.500
 117196682.478 4  91153009.726 6  21962613.641    21962608.977    21962615.664
        27.100          36.100
 198903339.193 6                  37850037.363
        39.800
 123310677.376 6  95908269.986 6  23075898.365    23075896.777    23075903.271
        41.500          36.500
 115737462.671 6  90185041.77842  22024103.413    22024103.7794   22024105.8274
        41.400          17.3004
 202044841.978 7                  38447859.606
        43.500
 134632943.072 7                  25619797.583
        42.700
 135416932.170 6                  25768982.162
        38.600
 126536409.047 6                  24079062.178
        41.700
 127271138.482 6                  23875739.339    23875738.679
        37.100
 105284141.594 8  81887646.548 7  19688656.550    19688656.650    19688662.215
        50.400          47.900
 115246251.858 7  89636014.547 6  21521430.243    21521431.582    21521429.127
        44.100          41.000
 25  1  1  5 25 15.0000000  0 28G18R01G23G15G26G11G20E27E03G25G05G29
                                E15E26S35R23R17R02S31R15G13S33E08E21
                                E13R14R24R08
 124287013.797 7  96847017.35044  23651032.212    23651032.2654   23651030.7474
        44.500          27.1004
 103442341.510 7  80455194.650 6  19351029.059    19351028.569    19351035.430
        44.300          39.400
 130882267.776 4                  24906047.575
        28.800
 118972164.963 6  92705591.40842  22639655.913    22639655.3054   22639656.7824
        37.400          12.2004
 131003397.911 5 102080607.07642  24929111.591    24929111.4394   24929122.9774
        32.300          12.1004
 121633544.873 7  94779383.12043  23146094.596    23146094.2754   23146097.0484
        43.400          23.2004
 115136075.439 6  89716421.28242  21909669.153    21909669.0244   21909663.7514
        40.100          16.7004
 139723559.978 6                  26588512.107
        36.600
 132968058.198 7                  25302952.231
        42.800
 122763990.503 6  95660252.87345  23361205.137    23361204.4314   23361205.3314
        39.400          32.3004
 106176893.586 7  82735233.25547  20204785.799    20204785.4374   20204786.5024
        47.800          47.8004
 108673706.030 8  84680773.93847  20679918.930    20679918.4304   20679918.8494
        48.000          47.2004
 128045914.092 6                  24366323.978
        41.700




 116805349.534 7                  21835533.274    21835533.770
        42.800
 119360986.078 7  92836332.337 5  22305455.313    22305456.017    22305459.462
        43.600          33.700
                  91104384.474 6                                  21950904.190
                        38.500
 198903328.786 6                  37850037.452
        40.400
 123333115.196 5  95925721.621 6  23080092.657    23080086.991    23080100.475
        30.500          39.900
 115698768.065 6  90154890.16842  22016740.071    22016740.3074   22016741.9464
        38.700          14.5004
 202044821.809 7                  38447853.180
        43.800
 134594696.258 7                  25612519.618
        42.500
 135431723.856 6                  25771796.681
        38.900
 126522839.526 7                  24076480.078
        44.000
 127322491.324 6  99028630.718 4  23885372.743    23885376.340    23885379.502
        37.700          29.400
 105271985.519 8  81878191.854 8  19686384.674    19686384.824    19686388.780
        51.500          48.200
 115293234.750 7  89672556.790 7  21530201.750    21530202.213    21530203.175
        43.300          42.800
 25  1  1  5 25 30.0000000  0 29G18R01G15G26G12G11G20E27E03G25G05G29
                                E05E15E26S35R23R17R02S31R15G13S33E08
                                E21E13R14R24R08
 124248703.740 6  96817165.31943  23643741.779    23643741.8464   23643738.0224
        40.300          21.4004
 103425889.388 7  80442398.574 6  19347950.916    19347950.384    19347958.677
        43.200          38.900
 118917581.251 6  92663058.67443  22629267.089    22629266.4724   22629270.2274
        40.100          18.8004
 130988558.275 5 102069043.38142  24926289.757    24926290.0834   24926294.9084
        34.200          17.7004
 131542046.539 5 102500330.54941  25031622.279    25031622.4044   25031627.2784
        34.800           8.4004
 121668208.082 7  94806393.40043  23152691.453    23152691.1454   23152694.8734
        42.900          23.3004
 115173485.058 6  89745571.60442  21916783.084    21916782.5574   21916782.7354
        41.300          16.7004
 139765609.828 5                  26596518.200
        31.400
 132964157.541 7                  25302209.360
        44.600
 122807498.182 6  95694154.95645  23369484.408    23369483.8054   23369484.3344
        40.400          33.2004
 106190345.933 8  82745715.61048  20207345.907    20207345.5634   20207346.0594
        48.800          48.9004
 108653258.284 8  84664840.65647  20676027.494    20676026.9804   20676027.2454
        49.100          47.2004


 128061082.802 6                  24369210.305
        41.900




 116840369.475 7                  21842078.756    21842080.721
        44.100
 119314625.260 6  92800273.886 5  22296794.444    22296790.715    22296795.765
        41.100          33.300
 117071773.337 5  91055815.545 6  21939200.159    21939202.461    21939202.222
        33.800          41.600
 198903317.756 6                  37850043.216
        41.600
 123355597.287 6  95943291.759 6  23084321.658    23084320.263    23084326.270
        37.400          39.200
 115660171.511 6  90124814.98942  22009394.921    22009395.1444   22009395.7724
        41.000          14.0004
 202044800.390 6                  38447848.878
        41.700
 134556500.807 6                  25605250.979
        41.200
 135446612.563 6                  25774629.606
        40.300
 126509289.975 7                  24073901.941
        43.200
                  99068590.157 5                                  23895017.391
                        32.600
 105259913.097 8  81868802.224 8  19684126.214    19684127.012    19684131.183
        51.800          48.300
 115340344.330 6  89709197.514 7  21538996.998    21538995.203    21539001.303
        39.600          43.200
 25  1  1  5 25 45.0000000  0 30G18R01G23G15G26G12G11G20E27E03G25G05
                                E34G29E15E26S35R23R17R02S31R15G13S33
                                E08E21E13R14R24R08


 103409636.450 7  80429757.393 6  19344910.430    19344910.938    19344916.297
        45.600          36.700


 118863112.851 4  92620643.13242  22618898.880    22618898.6214   22618906.1194
        25.700          16.5004
 130973843.863 5 102057577.86442  24923488.486    24923489.2374   24923493.5754
        31.900          16.9004
 131594696.161 6 102541356.42942  25041629.408    25041629.5864   25041636.7104
        36.600          15.0004
 121702902.055 7  94833427.68143  23159293.802    23159293.5214   23159296.8664
        44.900          22.9004
 115210936.229 6  89774754.38942  21923909.582    21923908.9214   21923908.8244
        38.400          15.4004


 132960363.795 7                  25301487.390
        43.900
 122851050.712 6  95728091.96145  23377771.331    23377770.6834   23377772.6834
        40.400          33.1004
 106203907.500 8  82756283.04848  20209926.853    20209926.4874   20209926.7004
        48.100          48.9004


 108632930.895 8  84649001.13548  20672159.147    20672158.6334   20672158.5764
        49.500          48.5004
 128076273.059 6                  24372101.249
        37.700


 200871974.585 6                  38224668.430
        40.800
 116875460.129 6                  21848636.107    21848636.442
        40.000
 119268265.555 7                  22288130.617    22288129.070
        46.700
 117009365.841 6  91007303.656 6  21927505.643    21927506.481    21927512.703
        40.700          39.800
 198903306.389 6                  37850026.783
        41.100
 123378339.571 7  95960980.116 6  23088576.619    23088578.008    23088580.934
        44.300          38.500
 115621673.520 6  90094816.57342  22002070.051    22002070.2524   22002068.8754
        39.200          12.2004
 202044778.747 6                  38447842.761
        41.200
 134518357.060 6                  25597991.757
        36.400
 135461598.118 5                  25777479.638
        32.400
 126495760.207 7                  24071327.826
        44.300
                  99108567.743 5                                  23904660.937
                        33.000
 105247924.494 8  81859477.777 8  19681883.364    19681883.492    19681889.635
        50.200          48.400
 115387579.886 6  89745936.354 7  21547814.558    21547814.481    21547824.507
        38.900          44.400
 25  1  1  5 26  0.0000000  0 28G18R01G23G15G26G11G20E27E03G25G05G29
                                R16E15E26S35R23R17R02S31R15G13S33E08
                                E21E13R24R08
 124172135.954 6  96757484.95142  23629165.003    23629164.9684   23629164.8124
        36.600          17.0004
 103393582.346 7  80417270.884 5  19341908.208    19341908.194    19341912.592
        47.400          35.800


 118808625.129 6  92578131.32242  22608516.684    22608516.4034   22608524.3314
        36.200          17.1004
 130959252.845 5 102046208.16142  24920710.065    24920710.8654   24920715.9464
        33.100          13.9004
 121737626.396 7  94860485.61443  23165901.330    23165901.0624   23165904.2794
        43.000          21.8004
 115248428.473 6  89803969.19942  21931044.487    21931043.6694   21931043.6254
        40.000          12.7004
 139849793.936 4                  26612530.276
        28.900
 132956676.609 7                  25300786.069
        44.900
 122894647.336 6  95762063.32845  23386068.032    23386067.3804   23386069.9584
        37.500          32.3004
 106217577.559 8  82766935.02248  20212528.656    20212528.2944   20212527.9594
        49.500          50.1004
 108612723.785 8  84633255.32048  20668314.186    20668313.6864   20668313.5444
        49.700          48.9004
 129250133.892 5                  24195868.562
        34.300
 128091484.503 6                  24374996.074
        40.300
 145806884.784 5                  27746125.505
        31.100
 200871987.909 6                  38224669.110
        38.600
 116910621.358 5                  21855209.161    21855207.755
        34.700
 119221906.994 7  92728174.814 4  22279463.831    22279463.852    22279468.540
        45.800          29.800
 116947066.941 6  90958849.026 6  21915837.999    21915837.804    21915837.529
        40.600          38.300
 198903294.379 6                  37850035.087
        41.700
 123401233.356 7  95978786.472 6  23092862.686    23092861.876    23092866.255
        43.600          41.200
 115583274.214 7  90064895.01343  21994762.541    21994762.6884   21994760.0444
        44.300          19.1004
 202044756.436 7                  38447839.300
        42.200
 134480264.996 6                  25590744.554
        38.000
 135476680.032 5                  25780352.092
        35.200
 126482250.000 7                  24068756.904
        44.300
 105236019.755 8  81850218.594 7  19679657.826    19679657.027    19679662.539
        48.800          47.100
 115434940.789 6  89782772.573 7  21556663.987    21556664.046    21556668.205
        41.500          45.300
 25  1  1  5 26 15.0000000  0 30G18R01G23G15G26G12G11G20E27E03G25G05
                                G29E05E15E26S35R23R17R02S31R15G13S33
                                E08E21E13R14R24R08
 124133856.386 5  96727656.66142  23621880.767    23621880.7544   23621880.3564
        34.500          13.2004
 103377727.564 7  80404939.417 5  19338941.218    19338940.754    19338945.939
        44.700          34.900
 130688273.307 5                  24869150.720
        32.100
 118754186.318 6  92535711.36942  22598158.352    22598158.2454   22598164.9904
        37.900          16.8004


 131699909.445 5 102623319.51342  25061648.361    25061648.5974   25061656.1644
        34.600          12.3004
 121772381.532 6  94887567.49943  23172514.082    23172513.8724   23172516.6554
        41.900          19.2004
 115285961.898 6  89833215.98542  21938186.631    21938185.7374   21938185.9864
        40.800          17.0004
 139891959.353 6                  26620552.654
        36.900
 132953096.340 7                  25300104.113
        44.500
 122938288.113 5  95796069.06444  23394371.797    23394371.1004   23394373.6894
        34.500          28.4004
 106231356.028 8  82777671.49948  20215150.551    20215150.1984   20215150.3554
        50.100          50.7004
 108592637.451 8  84617603.66048  20664492.363    20664491.8724   20664491.6354
        51.000          50.7004


 128106717.592 7                  24377895.058
        46.600
 145777008.856 4                  27740438.598
        29.000
 200872000.653 6                  38224679.028
        39.800
 116945853.394 6                  21861796.160    21861795.135
        38.300
 119175550.261 7  92692119.533 5  22270802.933    22270802.628    22270808.300
        46.400          32.800
 116884842.125 6  90910451.763 6  21904167.933    21904167.039    21904174.782
        36.800          38.100
 198903281.229 6                  37850042.532
        41.500
 123424277.968 6  95996710.269 7  23097171.744    23097170.884    23097180.088
        39.900          43.200
 115544974.283 7  90035050.95943  21987474.365    21987474.4324   21987471.9164
        42.600          19.5004
 202044733.183 6                  38447829.427
        41.300
 134442225.123 5                  25583504.200
        35.600
 135491858.552 6                  25783240.008
        38.400
 126468759.786 6                  24066188.779
        38.500
                  99188574.558 5                                  23923971.098
                        32.400
 105224199.211 7  81841024.842 7  19677446.236    19677446.247    19677452.631
        47.900          47.600
 115482426.669 6  89819706.037 7  21565529.394    21565530.643    21565534.587
        41.800          44.400
 25  1  1  5 26 30.0000000  0 27G18R01G23G15G26G11G20E27E03G25G05G29
                                E15E26S35R23R17R02S31R15G13S33E08E21
                                E13R24R08
 124095591.067 6  96697839.58442  23614600.186    23614599.9414   23614598.0104
        39.600          14.0004
 103362076.309 7  80392766.259 5  19336013.872    19336014.591    19336015.930
        47.000          33.300
 130639890.095 5                  24859946.006
        31.400
 118699800.399 6  92493332.76444  22587809.682    22587809.3924   22587815.3884
        40.600          24.9004
 130930437.326 5 102023734.95742  24915232.190    24915231.9094   24915237.5604
        34.200          15.8004
 121807171.237 6  94914676.30743  23179133.960    23179133.7594   23179135.2834
        39.100          18.1004
 115323540.249 7  89862497.80043  21945336.972    21945336.0424   21945338.1954
        42.600          18.0004
 139934096.718 5                  26628568.533
        31.700
 132949626.988 7                  25299443.774
        45.300
 122981976.323 6  95830111.80044  23402684.723    23402684.0534   23402687.5944
        36.700          25.4004
 106245246.693 8  82788495.38448  20217793.813    20217793.4744   20217794.0464
        50.800          51.7004
 108572676.190 8  84602049.44248  20660693.684    20660693.1974   20660693.5734
        50.700          51.1004
 128121976.146 7                  24380797.749
        46.000
 145747135.534 5                  27734752.692
        35.700
 200872017.044 6                  38224676.050
        38.300
 116981160.281 6                  21868397.317    21868400.558
        40.400
 119129199.559 7  92656068.879 5  22262138.569    22262139.906    22262160.754
        46.900          33.900
 116822681.708 5  90862115.824 5  21892525.043    21892522.496    21892529.800
        35.500          35.800
 198903271.743 7                  37850035.306
        43.000
 123447477.829 7  96014754.473 7  23101515.819    23101516.331    23101521.398
        42.500          42.600
 115506778.008 7  90005287.63543  21980204.675    21980204.6884   21980204.4034
        45.400          22.5004
 202044713.164 6                  38447831.121
        41.200
 134404241.555 6                  25576276.741
        39.200
 135507137.326 6                  25786147.302
        38.100
 126455293.279 6                  24063626.954
        40.600
 105212467.390 8  81831900.081 7  19675254.118    19675254.817    19675258.075
        49.800          46.500
 115530041.097 7  89856739.555 7  21574421.734    21574421.834    21574426.963
        42.100          45.100
 25  1  1  5 26 45.0000000  0 29G18R01G23G15G26G12G11G20E27E03G25G05
                                G29E15E26S35R23R17R02S31R15G13S33E08
                                E21E13R14R24R08
 124057332.465 7  96668027.67743  23607319.802    23607319.4814   23607317.5374
        43.700          19.4004
 103346621.156 7  80380745.500 6  19333123.112    19333122.824    19333128.760
        45.300          39.200


 118645460.396 5  92450989.84843  22577470.048    22577469.5524   22577473.1964
        35.300          19.0004
 130916219.339 4 102012656.02342  24912526.377    24912526.3814   24912530.2664
        28.200          14.1004
 131804992.065 5 102705211.84041  25081653.418    25081653.0654   25081661.2244
        33.500          11.5004
 121841988.128 6  94941806.33542  23185760.171    23185759.9484   23185759.8754
        37.400          17.4004
 115361155.825 7  89891808.66242  21952494.789    21952493.8504   21952496.8694
        43.900          12.7004
 139976250.724 5                  26636589.636
        32.200
 132946261.069 7                  25298803.172
        44.300
 123025704.295 6  95864185.54844  23411005.930    23411005.2464   23411008.6584
        41.500          27.5004
 106259242.142 8  82799400.92748  20220456.773    20220456.4254   20220457.2954
        49.100          49.6004
 108552832.699 8  84586586.99148  20656918.028    20656917.5504   20656917.6194
        51.700          50.8004
 128137252.729 8                  24383704.956
        48.100
 145717257.760 5                  27729066.638
        35.800
 200872028.916 6                  38224672.293
        39.200
 117016534.188 5                  21875000.934    21875002.730
        30.400
 119082847.258 7  92620017.150 6  22253477.914    22253479.012    22253494.629
        46.700          39.800
 116760606.865 6  90813835.568 5  21880894.525    21880902.417    21880895.135
        37.200          33.900
 198903258.361 7                  37850033.728
        42.100
 123470824.392 5  96032912.963 7  23105879.795    23105881.148    23105890.665
        35.400          43.500
 115468678.263 7  89975599.52744  21972954.608    21972954.6084   21972955.1474
        45.300          25.1004
 202044689.608 7                  38447829.319
        45.100
 134366306.930 6                  25569058.291
        40.200
 135522508.877 6                  25789072.670
        37.300
 126441843.098 6                  24061068.153
        40.400
 127631241.776 5                  23943271.760
        35.900
 105200816.616 8  81822838.393 7  19673074.892    19673075.290    19673078.508
        48.800          44.800
 115577775.908 6  89893866.653 7  21583336.385    21583335.276    21583340.244
        41.800          44.000
 25  1  1  5 27  0.0000000  0 29G18R01G23G15G26G12G11G20E27E03G25G05
                                G29E15E26S35R23R17R02S31R15G13S33E08
                                E21E13R14R24R08
 124019089.803 7  96638228.23943  23600043.268    23600042.9784   23600043.0794
        44.400          22.8004
 103331371.189 7  80368884.462 6  19330270.284    19330270.662    19330276.151
        46.900          38.800


 118591175.625 6  92408690.06944  22567141.612    22567141.3314   22567139.9294
        41.800          25.7004
 130902131.571 4 102001709.41141  24909856.070    24909856.1054   24909860.1124
        26.900          10.4004
 131857518.843 5 102746141.84941  25091650.907    25091650.4164   25091655.4664
        35.200           7.0004
 121876840.963 6  94968964.36742  23192393.085    23192392.8804   23192390.5274
        38.800          13.5004
 115398817.407 7  89921155.37342  21959660.951    21959659.9774   21959663.9904
        43.600          14.6004
 140018430.233 5                  26644607.322
        31.100
 132943007.655 7                  25298184.093
        43.600
 123069480.499 6  95898296.84544  23419335.432    23419334.7574   23419339.6664
        39.100          28.7004
 106273351.151 8  82810394.95748  20223141.797    20223141.4584   20223142.2634
        51.000          51.5004
 108533116.223 8  84571223.54248  20653165.816    20653165.3344   20653165.3774
        49.800          50.0004
 128152556.416 8                  24386617.116
        48.200
 145687384.390 6                  27723383.062
        36.800
 200872046.023 6                  38224677.990
        36.500
 117051984.511 6                  21881637.008    21881637.473
        39.100
 119036502.900 7  92583971.313 4  22244818.157    22244818.302    22244840.219
        46.200          29.800
 116698613.175 6  90765618.270 5  21869274.217    21869272.979    21869275.650
        37.500          32.400
 198903249.779 7                  37850020.147
        42.300
 123494326.701 5  96051192.606 7  23110285.572    23110281.315    23110289.499
        32.800          42.500
 115430684.327 7  89945993.82644  21965724.668    21965724.6284   21965725.8844
        45.000          26.0004
 202044671.064 7                  38447825.049
        44.900
 134328430.845 7                  25561850.769
        42.200
 135537981.970 5                  25792016.208
        34.400
 126428418.378 7                  24058512.144
        42.700
 127682754.401 6                  23952932.403    23952931.557
        36.300
 105189256.590 7  81813847.225 7  19670910.208    19670910.779    19670916.622
        42.300          44.400
 115625639.816 7  89931094.136 7  21592273.944    21592274.040    21592278.110
        43.800          44.200
 25  1  1  5 27 15.0000000  0 28G18R01G23G15G26G12G11G20E27E03G25G05
                                G29E15E26S35R23R17R02S31R15G13S33E08
                                E21E13R24R08
 123980857.013 7  96608436.42843  23592768.317    23592768.0224   23592768.3264
        42.800          21.5004
 103316320.399 7  80357178.320 6  19327453.372    19327453.482    19327460.666
        45.900          38.600


 118536940.526 7  92366428.95644  22556819.518    22556819.2504   22556818.3744
        44.000          25.8004


 131910018.086 5 102787051.0244   25101644.257    25101643.5154   25101645.4864
        34.400           5.0004
 121911724.007 5  94996145.91542  23199031.072    23199030.9034   23199027.8554
        33.800          12.9004
 115436518.723 6  89950532.88742  21966836.266    21966835.1624   21966838.1454
        40.600          12.5004
 140060687.474 5                  26652662.476
        35.400
 132939860.681 7                  25297585.198
        44.700
 123113298.584 6  95932440.84844  23427674.968    23427674.3204   23427678.7234
        38.100          27.7004
 106287567.011 8  82821472.26748  20225846.869    20225846.5484   20225847.2594
        52.200          51.8004
 108513521.054 8  84555954.60248  20649436.838    20649436.3514   20649436.4064
        49.100          49.8004
 128167881.199 7                  24389533.212
        46.500
 145657509.295 5                  27717700.685
        34.100


 117087505.284 6                  21888277.961    21888278.883
        36.000
 118990160.041 7                  22236154.196    22236156.631
        46.300
 116636694.773 6  90717459.572 6  21857669.205    21857667.204    21857674.647
        37.100          36.600
 198903239.774 7                  37850031.009
        43.800
 123517978.215 5  96069588.030 6  23114708.337    23114705.498    23114713.691
        34.600          40.300
 115392790.759 7  89916466.38244  21958513.134    21958513.0724   21958515.5184
        44.700          25.6004
 202044650.717 7                  38447819.325
        46.000
 134290607.362 7                  25554652.565
        42.700
 135553550.350 6                  25794981.638
        37.900
 126415012.905 7                  24055960.815
        43.200
 105177781.154 6  81804921.808 7  19668765.005    19668762.388    19668770.869
        37.300          44.200
 115673626.306 7  89968416.954 7  21601234.968    21601235.033    21601240.207
        44.300          44.700
 25  1  1  5 27 30.0000000  0 25G18R01G15G26G11G20E27E03G25G05G29E15
                                E26S35R23R17S31R15G13S33E08E21E13R24
                                R08
 123942630.196 7  96578649.32843  23585493.898    23585493.6034   23585494.4364
        42.500          23.4004
 103301464.985 7  80345624.010 6  19324675.144    19324674.391    19324681.552
        44.100          39.900
 118482751.437 6  92324203.85244  22546506.704    22546506.4144   22546505.0414
        41.300          24.0004


 121946633.067 6  95023347.75642  23205674.763    23205674.6114   23205670.7854
        38.500          14.8004
 115474255.599 7  89979938.26041  21974016.614    21974015.4564   21974019.2674
        42.500           8.4004


 132936816.254 7                  25297006.257
        45.600
 123157154.314 5  95966614.12644  23436018.335    23436017.7634   23436025.8124
        34.800          29.1004
 106301885.881 8  82832629.77148  20228571.612    20228571.2994   20228571.6184
        49.900          48.6004
 108494043.367 8  84540777.19448  20645730.678    20645730.2054   20645729.8254
        50.900          50.1004
 128183223.059 7                  24392452.783
        44.300


 200872049.761 5                  38224673.894
        34.700
 117123092.099 6                  21894932.361    21894933.324
        40.600
 118943815.477 7                  22227497.053    22227494.056
        43.900
 198903224.983 6                  37850022.021
        38.800
 123541774.315 6  96088096.215 6  23119161.248    23119162.319    23119168.876
        41.500          38.300
 115354993.877 7  89887014.27344  21951322.685    21951322.6054   21951323.1544
        45.800          28.7004
 202044626.089 7                  38447818.292
        43.600
 134252832.679 6                  25547462.793
        38.500
 135569210.155 6                  25797961.701
        36.400
 126401622.791 7                  24053412.903
        44.000
 105166386.372 7  81796059.299 7  19666635.054    19666635.112    19666639.814
        42.600          45.200
 115721730.654 7  90005831.512 6  21610218.151    21610218.165    21610221.162
        43.600          41.700
 25  1  1  5 27 45.0000000  0 28G18R01G23G15G26G11G20E27E03G25G05G29
                                R16E15E26S35R17R02S31R15G13S33E08E21
                                E13R14R24R08
 123904423.041 6  96548877.60343  23578223.811    23578223.5124   23578222.3264
        41.400          21.3004
 103286818.944 7  80334232.624 6  19321934.487    19321934.758    19321941.789
        42.000          39.600
 130398420.900 6                  24813997.362
        36.700
 118428622.602 6  92282025.56743  22536205.690    22536205.4044   22536206.3444
        37.100          23.4004


 121981581.911 6  95050580.60742  23212323.938    23212323.8044   23212321.3134
        37.300          15.5004
 115512041.519 6  90009381.61641  21981206.450    21981205.2254   21981209.4884
        38.200           9.1004


 132933888.197 7                  25296449.165
        46.000
 123201060.686 5  96000826.87044  23444374.935    23444374.4264   23444382.5014
        31.900          28.6004
 106316321.118 8  82843878.00548  20231318.820    20231318.5074   20231317.8964
        51.100          48.7004
 108474697.162 8  84525702.24648  20642049.029    20642048.5474   20642048.3384
        51.100          50.6004
 129108984.285 5                  24169470.950
        32.200
 128198595.843 7                  24395378.154
        43.400
 145597764.621 5                  27706336.404
        34.600
 200872069.006 5                  38224699.821
        33.900
 118897482.904 7                  22218838.725    22218837.920
        44.400
                  90621321.642 6                  21834501.132    21834514.410
                        37.400
 198903218.968 6                  37850029.381
        40.200
 123565728.868 7  96106727.541 5  23123642.792    23123646.726    23123651.324
        42.200          35.900
 115317308.080 7  89857648.74244  21944151.129    21944151.0314   21944151.0344
        46.700          29.0004
 202044609.473 7                  38447813.696
        43.700
 134215120.746 6                  25540286.629
        40.100


 126388261.856 7                  24050869.944
        42.600
 127837407.563 6                  23981947.366    23981949.315
        37.600
 105155086.823 6  81787270.571 7  19664525.352    19664523.670    19664526.821
        40.100          43.800
 115769966.577 7  90043348.408 7  21619225.589    21619226.491    21619228.342
        42.900          42.300
 25  1  1  5 28  0.0000000  0 29G18R01G23G15G26G12G11G20E27E03G25G05
                                G29R16E15E26S35R17R02S31R15G13S33E08
                                E21E13R14R24R08
 123866217.765 7  96519107.33043  23570954.234    23570953.9394   23570950.4084
        43.400          21.8004
 103272364.247 7  80322990.062 6  19319231.159    19319231.376    19319237.057
        43.100          38.000


 118374536.472 6  92239880.52344  22525914.566    22525914.2674   22525915.0664
        38.900          26.8004
 130847008.182 5 101958740.05441  24899357.971    24899357.9634   24899365.2954
        31.600          10.4004
 132067375.755 5 102909621.28042  25131583.558    25131583.5414   25131582.0254
        30.200          12.8004
 122016552.525 6  95077830.43242  23218977.554    23218977.4254   23218976.3354
        36.800          14.9004
 115549858.250 6  90038849.10542  21988404.164    21988402.9804   21988405.3534
        36.500          12.0004
 140187273.980 5                  26676748.295
        33.000
 132931058.514 7                  25295910.845
        46.900
 123244999.476 5  96035064.94044  23452736.266    23452735.7754   23452744.0194
        34.800          26.6004
 106330854.669 8  82855202.81547  20234083.737    20234083.4204   20234083.4654
        49.200          47.0004
 108455464.639 8  84510715.86648  20638389.430    20638388.9524   20638388.2934
        50.200          50.2004
 129089503.258 5 100402943.221 4  24165812.523    24165813.892    24165820.170
        34.300          29.700
 128213981.517 7                  24398305.612
        42.600


 200872079.241 6                  38224693.909
        37.400
 118851144.376 7  92439812.238 6  22210180.562    22210180.877    22210183.400
        45.300          37.100
 116451399.377 7  90573339.464 6  21822954.254    21822947.465    21822951.841
        42.300          38.300
 198903203.294 5                  37850022.844
        33.400
 123589823.074 6  96125467.512 6  23128148.487    23128151.618    23128158.791
        38.400          38.400
 115279715.449 7  89828355.79845  21936998.133    21936998.0264   21936997.5024
        46.600          30.0004
 202044583.820 7                  38447803.442
        45.400
 134177453.944 6                  25533117.933
        38.300
 135600824.020 5                  25803975.520
        32.400
 126374912.030 7                  24048330.276
        43.200
                  99469139.034 5                                  23991626.542
                        30.500
 105143864.225 6  81778541.895 7  19662424.407                    19662429.303
        40.100          46.000
 115818315.016 7  90080952.736 6  21628254.998    21628255.783    21628256.803
        44.600          40.800
 25  1  1  5 28 15.0000000  0 29G18R01G23G15G26G12G11G20E27E03G25G05
                                G29R16E15E26S35R17R02S31R15G13S33E08
                                E21E13R14R24R08
 123828028.887 7  96489349.86944  23563687.220    23563686.8944   23563684.8174
        44.200          27.0004
 103258115.476 6  80311907.689 6  19316563.071    19316563.132    19316571.715
        39.400          37.300
 130302055.606 4                  24795659.309
        27.600
 118320507.809 6  92197780.27144  22515632.415    22515632.2014   22515633.1114
        38.200          24.8004


 132119766.682 5 102950445.22341  25141549.939    25141549.7524   25141555.4114
        34.000          10.7004
 122051559.615 6  95105108.67041  23225639.633    23225639.6294   23225637.9444
        39.500           9.1004
 115587720.240 5  90068352.3714   21995608.873    21995607.5994   21995610.2554
        32.300           3.2004
 140229550.682 5                  26684799.155
        34.600
 132928341.861 7                  25295394.171
        47.100
 123288985.093 5  96069339.39044  23461112.588    23461112.1374   23461113.5014
        34.200          26.5004
 106345501.050 8  82866615.59848  20236871.347    20236871.0304   20236871.0704
        50.000          48.2004
 108436360.688 8  84495829.66148  20634753.850    20634753.3814   20634752.8144
        50.600          50.0004
 129070123.143 5                  24162199.574    24162199.073
        34.300
 128229394.755 6                  24401239.093
        41.300
 145537961.447 5                  27694954.807
        31.000
 200872093.972 5                  38224688.941
        32.600
 118804814.781 7  92403778.025 5  22201521.431    22201522.103    22201524.966
        46.700          33.900
 116389791.960 6  90525422.666 6  21811403.703    21811402.214    21811406.393
        40.900          38.300
 198903192.928 7                  37850017.607
        44.100
 123614071.271 5  96144327.263 5  23132688.101    23132684.976    23132694.613
        31.200          34.600
 115242231.098 7  89799147.24744  21929863.550    21929863.4484   21929863.6364
        46.200          28.0004
 202044563.131 7                  38447802.065
        42.600
 134139847.058 6                  25525963.782
        38.800
 135616776.650 6                  25807011.735
        36.300
 126361588.009 7                  24045795.317
        45.900
 127940550.875 4  99509278.256 5  24001309.119    24001303.830    24001308.544
        28.300          33.600
 105132693.575 7  81769884.800 7  19660343.129    19660343.472    19660348.170
        47.500          47.500
 115866790.428 6  90118655.859 6  21637305.851    21637304.581    21637310.569
        40.700          40.700
 25  1  1  5 28 30.0000000  0 28G18R01G15G26G12G11G20E27E03G25G05G29
                                R16E15E26S35R23R17R02S31R15G13S33E08
                                E21E13R24R08
 123789850.734 7  96459600.72744  23556422.589    23556422.2454   23556421.5294
        44.800          28.7004
 103244067.040 6  80300981.096 5  19313936.527    19313936.581    19313942.575
        41.300          35.300
 118266531.322 4  92155720.62743  22505360.118    22505359.8284   22505361.6644
        28.000          22.5004


 132172129.121 5 102991247.20341  25151516.143    25151516.1564   25151520.9584
        32.900          10.1004
 122086597.138 6  95132410.57041  23232306.309    23232306.2164   23232305.2054
        39.500          10.3004
 115625621.756 5                  22002820.635
        34.500
 140271845.981 6                  26692843.344
        36.400
 132925732.313 8                  25294897.448
        48.200
 123333011.085 6  96103645.32544  23469485.661    23469485.1834   23469491.1584
        39.100          28.4004
 106360254.194 8  82878111.54548  20239678.560    20239678.2394   20239678.7034
        49.500          48.5004
 108417379.801 8  84481039.34448  20631141.810    20631141.3414   20631141.0634
        51.200          51.4004
 129050982.072 5                  24158617.947    24158617.401
        35.000
 128244829.727 6                  24404177.339
        39.900
 145508081.996 5                  27689267.825
        34.600
 200872108.620 6                  38224693.400
        36.600
 117266294.191 6                  21921681.575    21921683.755
        38.400
 118758488.492 7  92367746.557 6  22192862.448    22192862.868    22192867.588
        47.300          36.400
 116328262.535 7  90477566.482 6  21799879.480    21799879.451    21799876.869
        42.200          38.400
 198903181.941 7                  37850009.389
        42.200
 123638467.328 6  96163301.898 6  23137254.899    23137254.495    23137261.173
        36.000          37.600
 115204849.416 7  89770018.71044  21922750.599    21922750.4884   21922749.7054
        46.000          28.4004
 202044542.323 7                  38447799.167
        44.600
 134102294.495 6                  25518815.186
        36.300
 135632824.410 6                  25810065.659
        36.300
 126348283.866 7                  24043263.542
        44.700
 105121649.253 8  81761294.760 7  19658277.889    19658278.423    19658282.884
        50.900          46.500
 115915386.267 7  90156452.630 6  21646381.131    21646380.624    21646387.042
        42.200          41.900
 25  1  1  5 28 45.0000000  0 26G18R01G15G26G12G11G20E27E03G25G05G29
                                E15E26S35R17R02S31R15G13S33E08E21E13
                                R24R08
 123751683.119 7  96429859.82445  23549158.298    23549157.9594   23549159.1674
        45.300          30.5004
 103230218.704 7  80290210.161 5  19311347.242    19311345.875    19311351.686
        42.400          32.800
 118212607.313 5  92113701.88343  22495102.077    22495101.6084   22495100.3414
        30.600          20.6004


 132224462.881 5 103032026.68241  25161473.038    25161473.0464   25161480.1964
        31.200           8.6004
 122121664.948 6  95159735.99542  23238981.772    23238981.6794   23238978.0424
        38.600          13.8004
 115663562.028 6  90127429.55141  22010042.974    22010042.8674   22010038.0434
        37.300           7.3004
 140314159.247 6                  26700895.270
        36.600
 132923229.790 8                  25294421.169
        48.700
 123377076.988 6  96137982.34845  23477870.621    23477870.1304   23477876.2334
        39.600          30.8004
 106375113.261 8  82889690.03147  20242505.867    20242505.5374   20242506.1194
        49.800          46.8004
 108398521.865 8  84466344.85448  20627553.237    20627552.7724   20627553.0334
        51.100          52.1004
 128260286.207 5                  24407117.364
        34.500
 145478201.035 6                  27683581.731
        39.700
 200872122.334 6                  38224710.580
        36.200
 118712165.567 7  92331717.593 6  22184206.514    22184207.895    22184214.166
        46.800          40.500
 116266811.959 6  90429771.693 6  21788367.650    21788365.511    21788361.694
        40.000          39.300
 198903170.273 7                  37850016.092
        43.200
 123663010.518 6  96182391.088 5  23141847.619    23141847.482    23141853.976
        38.000          35.600
 115167570.715 7  89740970.40444  21915656.980    21915656.8334   21915655.6104
        44.800          28.1004
 202044519.970 7                  38447796.873
        44.500
 134064796.255 6                  25511680.593
        36.700
 135648967.120 6                  25813138.833
        36.400
 126334999.422 7                  24040735.359
        42.400
 105110691.223 8  81752771.830 7  19656229.068    19656229.897    19656232.990
        52.300          46.300
 115964101.953 7  90194342.575 6  21655478.014    21655478.333    21655482.622
        43.200          40.700
 25  1  1  5 29  0.0000000  0 27G18R01G15G26G12G11G20E27E03G25G05G29
                                E15E26S35R23R17R02S31R15G13S33E08E21
                                E13R24R08
 123713525.077 7  96400126.36645  23541897.025    23541896.6994   23541897.6324
        46.500          30.9004
 103216569.772 7  80279594.330 5  19308794.481    19308794.193    19308796.977
        44.100          32.300
 118158734.893 5  92071723.34643  22484845.615    22484845.0304   22484847.2874
        31.700          21.0004


 132276766.506 5 103072782.87841  25171425.726    25171425.9804   25171433.4474
        32.700          10.1004
 122156762.175 6  95187084.41142  23245660.965    23245660.9074   23245657.3624
        39.200          13.2004
 115701539.908 6  90157022.78641  22017267.617    22017267.2734   22017266.0104
        40.700           8.9004
 140356489.354 5                  26708951.062
        32.200
 132920833.405 8                  25293964.913
        48.600
 123421181.354 6  96172349.36145  23486263.279    23486262.7744   23486268.9944
        40.900          31.1004
 106390077.532 8  82901350.50047  20245353.493    20245353.1584   20245353.2604
        48.400          45.2004
 108379786.167 8  84451745.61548  20623987.786    20623987.3214   20623987.9914
        50.400          51.8004
 128275763.430 5                  24410062.579
        31.100
 145448317.699 6                  27677895.883
        38.100
 200872133.986 5                  38224718.821
        33.100
 117338126.605 5                  21935128.600    21935127.192
        34.600
 118665844.977 7  92295690.475 6  22175550.497    22175550.150    22175559.828
        46.700          40.400
 116205439.429 6  90382037.516 6  21776875.822    21776883.332    21776858.704
        36.500          37.300
 198903157.040 6                  37850001.603
        41.800
 123687699.673 6  96201593.670 5  23146466.740    23146469.879    23146474.933
        36.800          34.200
 115130394.573 7  89712001.98944  21908582.409    21908582.2174   21908582.3664
        43.600          28.1004
 202044496.362 7                  38447788.180
        43.800
 134027351.653 6                  25504557.349
        39.800
 135665203.622 6                  25816229.514
        37.100
 126321733.818 6                  24038211.317
        41.700
 105099818.985 8  81744315.667 7  19654194.742    19654195.362    19654200.007
        51.300          45.800
 116012935.911 7  90232324.522 6  21664598.557    21664599.244    21664601.973
        44.600          41.500
 25  1  1  5 29 15.0000000  0 28G18R01G23G15G26G12G11G20E27E03G25G05
                                G29E15E26S35R23R17S31R15G13S33E08E21
                                E13R14R24R08
 123675383.836 7  96370405.97244  23534638.632    23534638.3334   23534638.6644
        44.000          29.0004
 103203127.599 7  80269139.291 5  19306279.427    19306278.722    19306285.463
        44.200          32.300


 118104921.873 6  92029791.13944  22474607.690    22474606.9034   22474606.0954
        38.500          24.6004


 132329046.740 4 103113520.77941  25181371.845    25181372.2744   25181382.1184
        25.200           9.4004
 122191895.883 6  95214461.35142  23252345.864    23252345.8334   23252343.7084
        39.600          14.2004
 115739562.446 6  90186650.7074   22024502.222    22024501.8654   22024501.7884
        37.900           5.0004
 140398843.231 5                  26717011.779
        35.100
 132918550.346 8                  25293530.463
        48.900
 123465331.048 6  96206751.72245  23494663.041    23494662.5094   23494670.8654
        38.600          30.9004
 106405153.731 8  82913098.18747  20248222.973    20248222.6434   20248221.4344
        49.100          45.0004
 108361180.146 8  84437247.41348  20620447.346    20620446.8734   20620447.3794
        49.600          50.7004
 128291268.441 6                  24413016.409
        36.600
 145418439.059 6                  27672208.287
        37.400
 200872151.482 5                  38224719.013
        34.500
 117374220.078 5                  21941875.876    21941873.046
        31.200
 118619534.624 7  92259671.370 6  22166897.928    22166897.413    22166900.482
        46.300          39.300
 198903148.797 7                  37850002.350
        42.800
 123712541.447 5  96220914.973 5  23151116.895    23151115.859    23151125.416
        33.100          34.200
 115093328.549 7  89683119.38244  21901528.951    21901528.7504   21901529.9744
        44.000          28.6004
 202044477.774 7                  38447786.128
        44.300
 133989968.110 6                  25497444.257
        41.200
 135681540.981 5                  25819337.563
        33.200
 126308494.233 7                  24035691.973
        44.100
 128147095.754 5                  24040065.531    24040067.436
        34.700
 105089039.865 8  81735931.938 7  19652177.987    19652179.027    19652184.727
        49.700          44.600
 116061895.227 7  90270404.018 6  21673741.527    21673742.917    21673745.251
        45.200          41.900
 25  1  1  5 29 30.0000000  0 28G18R01G23G15G26G11G20E27E03G25G05G29
                                E15E26S35R23R17R02S31R15G13S33E08E21
                                E13R14R24R08
 123637250.352 7  96340691.64044  23527383.490    23527383.2044   23527381.3154
        42.800          25.7004
 103189883.014 7  80258837.971 5  19303800.863    19303802.002    19303806.203
        45.000          34.500
 130061828.001 5                  24749938.955
        32.400
 118051159.511 6  91987898.41944  22464377.031    22464376.1864   22464374.9024
        39.300          28.2004


 122227057.046 6  95241859.65741  23259036.763    23259036.7324   23259034.8834
        39.000          10.4004
 115777620.355 5  90216306.1374   22031745.969    22031745.4824   22031743.8724
        31.600           4.6004
 140441211.479 6                  26725074.474
        36.800
 132916371.514 8                  25293116.255
        48.600
 123509516.476 6  96241181.89944  23503072.445    23503071.9764   23503079.0584
        38.200          28.7004
 106420332.816 8  82924926.04447  20251111.178    20251110.8484   20251109.1464
        50.100          44.8004
 108342694.976 8  84422843.38148  20616929.491    20616929.0134   20616929.1824
        48.300          49.2004
 128306792.322 5                  24415966.817
        34.700
 145388556.034 5                  27666517.011
        34.700
 200872164.357 5                  38224713.097
        33.500
 117410381.473 6                  21948637.875    21948638.007
        36.500
 118573225.078 7  92223652.823 6  22158242.142    22158243.625    22158246.519
        44.900          39.000
 116083073.347 5  90286763.340 5  21753902.332    21753892.994    21753898.684
        34.000          34.600
 198903137.368 7                  37850002.109
        42.600
 123737526.348 6  96240347.633 6  23155793.785    23155790.216    23155801.177
        36.200          38.600
 115056363.681 7  89654315.58844  21894495.296    21894495.0374   21894496.2144
        44.100          28.7004
 202044456.632 7                  38447782.188
        43.600
 133952636.725 6                  25490339.413
        41.900
 135697969.911 4                  25822463.209
        29.700
 126295271.499 7                  24033175.486
        45.600
 128198785.186 5                  24049767.110    24049766.627
        32.100
 105078344.912 8  81727613.604 7  19650177.694    19650178.217    19650183.886
        48.000          44.300
 116110970.067 7  90308573.424 7  21682905.405    21682906.814    21682910.325
        45.500          42.200
 25  1  1  5 29 45.0000000  0 28G18R01G23G15G26G11G20E27E03G25G05G29
                                R16E15E26S35R23R17S31R15G13S33E08E21
                                E13R14R24R08
 123599126.898 6  96310985.06143  23520128.492    23520128.1664   23520125.4144
        37.700          22.0004
 103176838.279 7  80248692.119 6  19301359.235    19301360.175    19301368.784
        44.400          38.800
 130013855.990 5                  24740796.061
        30.600
 117997450.381 6  91946047.16745  22454155.417    22454154.6444   22454154.2174
        39.300          30.4004


 122262247.849 5  95269281.00341  23265734.708    23265734.5654   23265731.1874
        35.300           6.3004
 115815715.660 5                  22038994.198
        35.600
 140483596.071 6                  26733139.339
        37.700
 132914299.192 7                  25292721.208
        47.900
 123553739.588 6  96275641.42644  23511488.532    23511488.0274   23511494.3884
        36.500          27.6004
 106435616.561 8  82936835.44847  20254019.237    20254018.9114   20254017.2344
        49.700          44.3004
 108324333.110 8  84408535.42048  20613435.220    20613434.7424   20613434.6634
        48.000          48.6004


 128322337.229 5                  24418922.629
        34.100
 145358670.817 5                  27660830.533
        35.300
 200872176.690 5                  38224717.001
        33.200
 117446612.780 6                  21955412.777    21955411.192
        39.400
 118526918.997 6  92187637.116 6  22149589.711    22149586.684    22149594.355
        39.000          40.200
 198903124.497 7                  37849996.676
        43.000
 123762656.112 7  96259892.978 6  23160495.751    23160498.956    23160504.224
        42.100          41.300
 115019502.785 7  89625592.81744  21887480.814    21887480.5194   21887481.1644
        45.700          29.3004
 202044432.796 7                  38447784.295
        45.400
 133915359.989 7                  25483245.620
        42.200
 135714492.582 5                  25825606.232
        31.000
 126282067.957 7                  24030662.685
        46.700


 105067736.774 8  81719362.853 7  19648194.521    19648194.874    19648201.088
        48.300          44.100
 116160161.794 7  90346833.661 6  21692092.378    21692093.812    21692095.927
        46.400          40.800
 25  1  1  5 30  0.0000000  0 29G18R01G23G15G26G11G20E27E03G25G05G29
                                R16E15E26S35R23R17R02S31R15G13S33E08
                                E21E13R14R24R08


 103163997.677 7  80238704.971 6  19298957.929    19298957.353    19298967.000
        43.600          40.400


 117943798.897 6  91904240.83345  22443946.882    22443946.2124   22443945.5474
        39.300          32.6004


 122297472.304 6  95296728.5714   23272437.956    23272437.8804   23272433.8634
        37.500           4.7004
 115853852.132 5                  22046252.182
        30.700
 140526000.780 6                  26741208.418
        41.100
 132912337.409 7                  25292347.696
        46.900
 123598003.974 6  96310133.12744  23519912.859    23519912.3684   23519915.8974
        37.200          26.6004
 106451008.437 8  82948829.10947  20256948.034    20256947.7044   20256947.0824
        49.200          44.7004
 108306098.924 7  84394326.96847  20609965.004    20609964.5264   20609964.5544
        47.200          47.9004


 128337907.142 6                  24421885.272
        36.900
 145328787.316 6                  27655144.697
        39.300
 200872191.345 6                  38224718.780
        38.000
 117482917.902 6                  21962194.520    21962195.716
        38.900
 118480620.544 5  92151627.317 6  22140936.585    22140933.719    22140940.759
        34.300          40.100
 115960877.259 6  90191739.199 6  21731003.544    21731005.039    21731009.566
        38.500          38.800
 198903114.095 7                  37850009.022
        42.500
 123787934.618 7  96279554.111 7  23165226.159    23165227.826    23165235.107
        42.200          42.100
 114982750.311 7  89596954.53344  21880486.429    21880486.1304   21880486.9434
        43.800          28.5004
 202044412.248 7                  38447774.797
        44.200
 133878142.158 6                  25476163.233
        41.400
 135731112.682 5                  25828767.603
        31.700
 126268887.604 7                  24028154.898
        46.800


 105057219.493 8  81711182.765 7  19646227.569    19646227.686    19646235.618
        48.100          44.700
 116209474.337 7  90385187.742 6  21701301.540    21701302.470    21701304.076
        45.100          39.200
