     2.11           OBSERVATION DATA    M (MIXED)           RINEX VERSION / TYPE
teqc  2019Feb25                         20260317 16:18:01UTCPGM / RUN BY / DATE
Linux 2.4.21-27.ELsmp|Opteron|gcc -static|Linux 64|=+       COMMENT
BIT 2 OF LLI FLAGS DATA COLLECTED UNDER A/S CONDITION       COMMENT
-Unknown-                                                   MARKER NAME
-Unknown-           -Unknown-                               OBSERVER / AGENCY
-Unknown-           -Unknown-           -Unknown-           REC # / TYPE / VERS
-Unknown-           -Unknown-                               ANT # / TYPE
        0.0000        0.0000        0.0000                  APPROX POSITION XYZ
        0.0000        0.0000        0.0000                  ANTENNA: DELTA H/E/N
     1     1                                                WAVELENGTH FACT L1/2
     7    L1    L2    C1    P1    P2    S1    S2            # / TYPES OF OBSERV
 SNR is mapped to RINEX snr flag value [0-9]                COMMENT
  L1 & L2: min(max(int(snr_dBHz/6), 0), 9)                  COMMENT
  2025     1     1    12     0    0.0000000     GPS         TIME OF FIRST OBS
    18                                                      LEAP SECONDS
                                                            END OF HEADER
 25  1  1 12  0  0.0000000  0 28E27E10G23G02E29G32E33G10G28R19R04R21
                                E26S35R05G12G25S31G31G21S33E07E30E19
                                R14R20E12R15
 140954330.560 6                  26822717.058
        36.900


 122239389.289 6  95251482.48541  23261380.228    23261379.6744   23261382.7174
        37.200           9.0004
 124824851.710 6  97266109.51943  23753378.942    23753377.5524   23753376.2304
        41.500          23.8004
 123229292.123 7                  23449748.589
        46.100
 109444269.234 8  85281212.58447  20826523.618    20826523.3414   20826525.4394
        48.300          43.0004
 127018071.468 7                  24170729.608
        45.700
 108487481.028 8  84535742.01247  20644481.483    20644481.0274   20644484.5264
        49.100          47.3004
 110218380.277 8  85884451.56545  20973836.611    20973836.3304   20973836.0214
        48.300          35.3004
                  95210625.865 5                                  22883924.683
                        35.400
 107492494.057 7  83605545.689 7  20073479.688    20073479.635    20073482.511
        47.000          43.000
 125468176.473 6                  23446722.900    23446724.117
        39.900
 137272351.579 4                  26122063.390
        25.600


 111341464.678 8  86598491.943 7  20828618.940    20828620.734    20828623.370
        48.000          46.100
 126045913.234 5  98217604.1884   23985744.511    23985744.2344   23985739.2024
        34.200           5.9004
 119130386.480 5  92828877.33842  22669759.632    22669758.9844   22669762.8754
        34.800          16.1004
 198900956.433 7                  37849595.902
        43.800
 119038958.775 7  92757638.38046  22652359.847    22652359.5034   22652359.0444
        44.100          37.5004
 120374139.762 6  93798048.09044  22906435.836    22906434.7104   22906436.2804
        41.400          24.8004
 202015743.477 7                  38442323.916
        45.500
 135135934.180 7                  25715515.434
        42.400


 130895819.898 4                  24908644.761
        25.400
 108350691.085 8  84272751.276 7  20326309.212    20326308.986    20326313.405
        53.700          44.000
 113681649.173 5  88419079.614 7  21259040.074    21259039.364    21259047.371
        35.800          44.400
 139476137.483 6                  26541419.898
        39.400
 116403861.550 7  90536355.454 7  21783393.114    21783393.387    21783396.988
        47.300          42.600
 25  1  1 12  0 15.0000000  0 27E27E10G23G02E29G32E33G10G28R04R03R21
                                E26S35R05G25S31G31G21S33E07E30E19R14
                                R20E12R15
 140918820.493 6                  26815956.941
        38.300


 122286160.936 6  95287928.03742  23270279.618    23270278.9254   23270283.8754
        41.900          12.3004
 124803805.578 7  97249709.96344  23749373.867    23749372.4864   23749372.3314
        42.300          26.8004
 123230765.909 7                  23450029.187
        46.800
 109448035.306 8  85284147.19347  20827239.718    20827239.4324   20827242.3164
        48.800          45.0004
 127035841.242 7                  24174111.012
        44.400
 108503370.213 8  84548123.23247  20647505.210    20647504.7634   20647507.5624
        49.000          46.8004
 110188319.307 7  85861027.43845  20968116.284    20968116.0034   20968115.0944
        46.100          34.3004
 107502260.218 8  83613141.550 7  20075303.915    20075304.478    20075306.218
        49.000          42.300
 122074637.898 6  94946979.857 5  22804571.763    22804571.978    22804578.220
        36.200          35.900
 125430701.243 5  97557295.032 5  23439719.923    23439724.078    23439743.607
        34.100          32.900
 137317998.957 4                  26130775.985
        26.500


 111314496.836 8  86577516.989 7  20823574.295    20823575.554    20823578.298
        48.400          46.000
 119102368.259 5  92807044.95342  22664426.123    22664425.2834   22664431.1634
        30.400          16.5004
 198900965.542 7                  37849600.691
        44.600
 118985572.369 7  92716038.60646  22642201.665    22642201.3174   22642200.8364
        44.500          38.9004
 120373189.681 6  93797307.80443  22906255.060    22906253.9564   22906254.5044
        41.600          22.8004
 202015753.277 7                  38442325.338
        45.800
 135163988.559 7                  25720854.160
        44.800


 130872906.021 4                  24904310.635
        28.900
 108339163.760 8  84263785.485 7  20324145.728    20324145.616    20324151.129
        53.200          43.200
 113694133.415 6  88428789.556 7  21261375.929    21261375.496    21261382.233
        38.100          44.400
 139450878.013 6                  26536612.793
        38.500
 116344004.221 7  90489799.826 6  21772188.450    21772189.629    21772194.675
        44.600          40.300
 25  1  1 12  0 30.0000000  0 28E27E10G23G02E29G32E33G10G28R04R03R21
                                E26S35R05G12G25S31G31G21S33E07E30E19
                                R14R20E12R15
 140883348.357 5                  26809205.859
        35.500


 122332989.776 6  95324417.97842  23279192.291    23279191.5004   23279195.9534
        41.200          12.2004
 124782872.633 6  97233398.58544  23745390.548    23745389.1584   23745388.9784
        41.200          26.7004
 123232272.985 7                  23450316.309
        47.200
 109451853.393 8  85287122.31347  20827966.025    20827965.7534   20827968.4854
        50.100          45.1004
 127053713.700 7                  24177513.351
        43.000
 108519368.187 7  84560589.19447  20650549.470    20650549.0194   20650550.1074
        47.900          43.6004
 110158374.315 7  85837693.69445  20962418.925    20962418.6714   20962416.4994
        45.000          32.9004
 107512080.280 8  83620779.365 7  20077138.129    20077138.849    20077139.739
        50.200          42.800
 122111671.422 5  94975783.666 5  22811489.020    22811489.127    22811495.650
        34.100          35.700
 125393378.120 4  97528265.874 5  23432750.948                    23432757.806
        28.100          33.600
 137363675.606 4                  26139467.179
        28.300


 111287560.774 8  86556566.721 7  20818534.605    20818536.242    20818538.332
        49.200          44.400
 126043496.961 5                  23985272.480
        32.500
 119074460.064 5  92785298.28142  22659116.680    22659115.7554   22659119.8914
        32.700          17.8004
 198900972.634 7                  37849598.268
        43.600
 118932249.757 7  92674488.52846  22632055.059    22632054.7114   22632055.1054
        45.200          39.7004
 120372357.620 6  93796659.49843  22906096.106    22906095.0114   22906095.8914
        39.200          21.0004
 202015761.025 7                  38442328.191
        45.500
 135192047.762 7                  25726193.252
        45.400
 143056106.949 5                  27222675.028
        34.800
 130850019.609 4                  24899942.329
        28.400
 108327834.068 8  84254973.409 6  20322021.588    20322021.456    20322024.663
        53.600          41.800
 113706812.100 6  88438650.766 7  21263745.627    21263745.881    21263751.867
        37.100          42.800
 139425706.588 6                  26531823.241
        36.400
 116284219.204 7  90443300.417 6  21761001.412    21761000.539    21761006.957
        44.100          38.400
 25  1  1 12  0 45.0000000  0 28E27E10G23G02E29G32E33G10G28R04R03R21
                                E26S35R05G12G25S31G31G21S33E07E30E19
                                R14R20E12R15
 140847916.179 4                  26802463.625
        28.200


 122379877.361 6  95360953.70041  23288112.718    23288111.9274   23288118.3604
        37.800           6.1004
 124762054.797 7  97217176.94244  23741427.999    23741426.5514   23741427.2194
        42.100          26.1004
 123233815.039 8                  23450609.955
        48.100
 109455725.173 8  85290139.27747  20828702.421    20828702.1354   20828704.8274
        48.300          45.4004
 127071690.471 7                  24180933.701
        43.000
 108535476.750 8  84573141.30746  20653614.121    20653613.6654   20653614.0414
        50.200          40.7004
 110128547.166 7  85814451.77445  20956742.647    20956742.3884   20956740.6234
        44.600          32.1004
 107521956.314 8  83628460.750 7  20078982.736    20078982.750    20078985.916
        50.900          44.300
 122148733.871 5  95004609.942 5  22818415.970    22818419.735    22818420.150
        35.400          35.900
                  97499357.271 5                                  23425807.139
                        30.000
 137409383.218 4                  26148164.046
        26.200


 111260658.333 8  86535642.637 7  20813498.889    20813502.008    20813504.743
        48.100          42.900
 126042501.371 5  98214927.97742  23985085.808    23985085.5274   23985086.5114
        33.700          15.2004
 119046664.018 5  92763638.97643  22653826.523    22653825.4774   22653829.8054
        35.400          18.8004
 198900979.664 7                  37849599.314
        43.700
 118878992.923 7  92632989.65746  22621920.593    22621920.2674   22621921.1964
        45.900          40.1004
 120371645.046 6  93796104.27843  22905962.458    22905961.3584   22905958.7824
        38.200          18.7004
 202015769.242 7                  38442328.311
        45.200
 135220113.450 7                  25731533.598
        44.800
 143048866.015 6                  27221295.486
        39.700
 130827162.235 4                  24895590.975
        27.000
 108316703.817 8  84246316.479 7  20319933.351    20319933.352    20319937.068
        52.600          42.400
 113719686.722 5  88448664.372 7  21266151.793    21266151.685    21266160.238
        33.400          43.000
 139400625.149 6                  26527050.287
        37.100
 116224508.807 7  90396859.021 6  21749827.431    21749826.535    21749834.702
        44.000          39.100
 25  1  1 12  1  0.0000000  0 28E27E10G23G02E29G32E33G10G28R04R03R21
                                E26S35R05G12G25S31G31G21S33E07E30E19
                                R14R20E12R15
 140812523.595 4                  26795728.280
        24.200


 122426822.979 6  95397534.3724   23297049.057    23297048.4854   23297051.7774
        38.000           3.4004
 124741351.399 6  97201044.46943  23737486.892    23737485.3994   23737487.2234
        39.100          23.6004
 123235391.436 8                  23450910.060
        48.000
 109459650.079 7  85293197.65447  20829450.207    20829449.9394   20829451.3334
        47.700          45.1004
 127089770.891 7                  24184374.754
        42.500
 108551695.348 8  84585779.10046  20656699.727    20656699.2544   20656699.8904
        49.400          37.4004
 110098837.416 7  85791301.31545  20951088.860    20951088.6014   20951087.3304
        44.800          32.5004
 107531887.712 8  83636185.193 7  20080836.061    20080836.765    20080840.016
        51.000          44.400
 122185824.525 6  95033458.216 5  22825346.498    22825344.369    22825348.884
        37.300          33.700
 125319196.013 6                  23418892.437    23418892.604
        39.500




 111233789.014 7  86514744.276 6  20808471.537    20808472.716    20808477.481
        46.200          41.200
 126041647.052 6  98214262.45443  23984924.688    23984924.5994   23984924.1244
        38.500          21.0004
 119018979.912 6  92742066.92143  22648560.204    22648559.0874   22648560.9014
        37.400          19.1004
 198900986.478 7                  37849604.792
        44.200
 118825801.758 7  92591541.98546  22611798.549    22611798.2414   22611798.8164
        45.200          38.5004
 120371051.389 6  93795641.69543  22905849.965    22905848.8344   22905843.9374
        40.900          18.4004
 202015776.718 7                  38442331.607
        45.700
 135248185.037 7                  25736875.297
        42.900
 143041724.241 6                  27219936.044
        40.400
 130804333.404 5                  24891238.410
        30.800
 108305772.718 8  84237814.481 7  20317882.493    20317882.080    20317885.971
        52.100          42.300
 113732756.811 5  88458829.944 7  21268596.696    21268596.406    21268605.634
        33.200          43.500
 139375633.232 6                  26522294.684
        38.200
 116164872.861 7  90350475.574 6  21738667.989    21738666.859    21738671.430
        43.100          37.300
 25  1  1 12  1 15.0000000  0 28E27E10G23G02E29G32E33G10G28R04R03R21
                                E26S35R05G12G25S31G31G21S33E07E30E19
                                R14R20E12R15




 122473825.013 6  95434159.18641  23305993.710    23305993.0624   23305996.9544
        40.600          10.1004
 124720761.499 6  97185000.46743  23733569.853    23733568.3244   23733569.2104
        38.700          22.5004
 123237000.683 8                  23451216.456
        48.200
 109463626.591 8  85296296.24747  20830206.758    20830206.4814   20830207.3914
        49.800          45.6004
 127107953.394 7                  24187834.693
        44.000
 108568022.574 8  84598501.47746  20659807.079    20659806.6064   20659807.2924
        49.600          38.0004
 110069243.845 7  85768241.39145  20945457.745    20945457.4734   20945455.9654
        45.600          32.8004
 107541872.985 8  83643951.497 7  20082700.538    20082701.575    20082705.166
        51.000          44.600
 122222942.276 6  95062327.406 5  22832282.139    22832282.243    22832279.340
        38.100          31.500
 125282335.425 5                  23411994.098    23411995.207
        34.800




 111206951.387 7  86493870.561 6  20803453.762    20803452.962    20803458.219
        46.200          41.500
 126040932.233 6  98213705.37143  23984787.677    23984787.1774   23984786.5104
        37.300          18.1004
 118991406.667 5  92720581.26643  22643307.433    22643306.3074   22643312.3884
        32.700          18.5004
 198900990.973 7                  37849600.611
        43.400
 118772675.258 7  92550144.75345  22601688.718    22601688.4414   22601685.8614
        45.900          35.3004
 120370575.646 7  93795270.98643  22905758.508    22905757.3914   22905751.6254
        43.700          18.6004
 202015781.955 7                  38442330.431
        45.600
 135276261.056 6                  25742218.073
        41.400
 143034680.547 6                  27218596.096
        41.100
 130781531.677 5                  24886900.112
        35.300
 108295039.245 8  84229466.187 6  20315870.302    20315870.176    20315870.481
        53.400          41.200
 113746020.033 5  88469145.802 7  21271079.145    21271074.781    21271084.112
        30.000          42.900
 139350729.611 6                  26517554.925
        38.400
 116105310.734 7  90304149.546 6  21727522.277    21727521.559    21727524.632
        43.400          36.900
 25  1  1 12  1 30.0000000  0 28E27E10G23G02E29G32E33G10G28R04R03R21
                                E26S35R05G12G25S31G31G21S33E07E30E19
                                R14R20E12R15




 122520891.110 6  95470834.00441  23314950.323    23314949.6714   23314954.4054
        40.800          11.9004
 124700292.875 6  97169050.93143  23729676.362    23729674.7934   23729674.6544
        39.000          22.0004
 123238650.510 7                  23451530.145
        47.500
 109467662.426 8  85299441.05647  20830974.815    20830974.5074   20830975.3524
        50.800          47.0004
 127126245.639 7                  24191314.988
        46.100
 108584466.270 8  84611314.71447  20662936.588    20662936.1194   20662937.9374
        50.400          43.1004
 110039774.338 7  85745278.14945  20939849.643    20939849.3624   20939848.6984
        46.600          33.6004
 107551920.186 8  83651765.989 7  20084577.147    20084577.836    20084581.235
        51.600          44.300
 122260094.428 6  95091223.448 5  22839218.362    22839219.313    22839224.065
        36.100          34.900
 125245636.313 5                  23405140.601    23405136.230
        35.600




 111180153.138 8  86473027.448 7  20798441.869    20798441.570    20798446.330
        48.200          42.100
 126040365.226 5  98213263.53642  23984679.710    23984679.0804   23984678.4804
        35.300          12.4004
 118963952.248 4  92699188.19343  22638086.273    22638085.1114   22638089.1304
        25.500          19.7004
 198901001.983 7                  37849603.057
        43.500
 118719621.269 7  92508804.05045  22591592.387    22591592.0974   22591586.8314
        46.200          33.3004
 120370225.389 7  93794998.06643  22905691.811    22905690.6444   22905685.4144
        43.400          20.0004
 202015793.187 7                  38442331.661
        45.200
 135304349.227 6                  25747563.789
        39.300
 143027742.812 6                  27217276.297
        41.700
 130758764.673 6                  24882568.134
        38.300
 108284511.563 8  84221278.014 7  20313893.853    20313893.987    20313897.766
        52.200          42.800
 113759484.339 4  88479618.015 7  21273593.571    21273590.797    21273602.588
        29.100          42.300
 139325922.263 6                  26512834.363
        37.800
 116045830.589 7  90257887.249 6  21716392.609    21716392.656    21716395.228
        44.900          39.600
 25  1  1 12  1 45.0000000  0 28E27E10G23G02E29G32E33G10G28R04R03R21
                                E26S35R05G12G25S31G31G21S33E07E30E19
                                R14R20E12R15




 122568011.702 6  95507551.25041  23323918.197    23323917.5224   23323921.6144
        39.600           8.0004
 124679936.234 6  97153188.69843  23725802.860    23725801.3094   23725801.1834
        38.100          21.1004
 123240331.362 7                  23451849.295
        46.000
 109471748.082 8  85302624.67547  20831752.417    20831752.1004   20831753.2404
        51.400          47.9004
 127144638.074 7                  24194814.902
        47.000
 108601016.997 8  84624211.36647  20666085.971    20666085.5154   20666088.8574
        51.100          47.8004
 110010419.654 7  85722404.38745  20934263.290    20934263.0184   20934263.5254
        47.100          34.4004
 107562019.528 8  83659621.038 7  20086462.779    20086463.282    20086467.432
        50.500          44.600
 122297271.935 5  95120139.266 5  22846161.940    22846162.374    22846172.251
        34.900          35.400
 125209089.202 5                  23398323.555    23398323.351
        35.900




 111153385.120 8  86452207.878 7  20793433.524    20793434.028    20793440.635
        49.200          42.800
 126039936.527 5  98212929.4334   23984602.266    23984601.2604   23984597.9734
        31.100           3.4004


 198901008.488 7                  37849605.597
        43.800
 118666630.649 7  92467512.68345  22581507.378    22581507.0654   22581502.7684
        44.800          32.7004
 120369991.059 6  93794815.47743  22905647.507    22905646.3234   22905643.0014
        41.400          20.1004
 202015800.580 7                  38442333.552
        45.200
 135332440.079 6                  25752908.796
        39.900
 143020901.276 6                  27215973.957
        38.000
 130736023.037 6                  24878238.967
        37.100
 108274180.098 8  84213242.410 7  20311956.009    20311956.107    20311960.548
        51.900          45.100
 113773139.898 4  88490238.876 6  21276148.781    21276145.681    21276154.364
        29.100          39.800
 139301201.906 6                  26508131.017
        38.600
 115986423.657 7  90211681.914 7  21705272.620    21705273.511    21705279.070
        42.200          42.200
 25  1  1 12  2  0.0000000  0 28E27E10G23G02E29G32E33G10G28R19R04R03
                                R21E26S35R05G25S31G31G21S33E07E30E19
                                R14R20E12R15




 122615192.957 6  95544315.5884   23332898.469    23332897.7994   23332899.6534
        36.700           4.7004
 124659698.047 7  97137418.77443  23721952.837    23721951.3984   23721949.1404
        42.400          20.9004
 123242049.528 7                  23452175.986
        44.600
 109475889.843 8  85305852.00548  20832540.213    20832539.8834   20832541.5334
        50.600          48.2004
 127163136.869 7                  24198335.521
        46.800
 108617681.111 8  84637196.38148  20669257.280    20669256.8294   20669260.6334
        51.700          50.4004
 109981186.193 7  85699625.03845  20928701.092    20928700.8474   20928700.7874
        45.700          33.9004
                  95600183.810 6                                  22977573.780
                        36.400
 107572177.716 8  83667521.904 7  20088359.287    20088360.109    20088364.536
        49.500          44.700
 122334481.180 6  95149079.804 4  22853112.052    22853114.612    22853122.351
        37.000          29.300
 125172701.139 6                  23391502.296    23391513.101
        37.800




 111126653.519 8  86431416.632 6  20788431.838    20788432.353    20788439.340
        48.000          41.400
 118909379.827 5  92656670.25044  22627703.275    22627702.9134   22627705.3204
        35.100          26.5004
 198901017.664 7                  37849605.011
        43.000
 118613710.067 7  92426275.87545  22571437.721    22571437.4354   22571433.9624
        42.400          34.0004
 120369879.061 6  93794728.21843  22905625.924    22905624.7534   22905622.6374
        39.800          18.9004
 202015810.823 7                  38442334.737
        45.300
 135360539.894 6                  25758255.429
        41.200
 143014162.697 5                  27214690.721
        34.000
 130713312.704 6                  24873918.722
        36.400
 108264051.412 8  84205364.466 7  20310056.050    20310056.146    20310060.341
        51.600          45.800
 113786992.941 4  88501013.410 6  21278734.643    21278736.768    21278744.194
        28.900          37.200
 139276574.944 6                  26503443.447
        38.800
 115927096.681 6  90165538.757 7  21694170.707    21694170.874    21694176.782
        40.700          42.600
 25  1  1 12  2 15.0000000  0 28E27E10G23G02E29G32E33G10G28R19R04R03
                                R21E26S35R05G25S31G31G21S33E07E30E19
                                R14R20E12R15




 122662427.963 6  95581121.8954   23341890.666    23341890.0054   23341888.5534
        36.300           2.0004
 124639571.730 7  97121736.00943  23718121.138    23718119.7304   23718119.4104
        44.700          21.2004
 123243798.237 7                  23452508.541
        42.100
 109480080.910 8  85309117.73948  20833337.935    20833337.6144   20833338.9404
        51.200          48.3004
 127181735.249 7                  24201874.333
        46.600
 108634451.962 8  84650264.56648  20672449.582    20672449.1264   20672451.8564
        51.800          52.1004
 109952067.416 7  85676935.06345  20923160.197    20923159.9654   20923159.4854
        44.100          32.6004
                  95648994.079 6                                  22989307.188
                        37.600
 107582387.881 8  83675463.168 7  20090267.176    20090267.225    20090271.115
        48.600          45.100
 122371715.068 6                  22860082.189    22860079.709
        39.200
 125136465.707 6                  23384728.363    23384740.163
        36.100




 111099951.952 7  86410648.744 6  20783436.842    20783437.269    20783443.469
        47.500          40.100
 118882261.990 6  92635539.48444  22622543.771    22622543.4144   22622544.8354
        38.600          26.8004
 198901022.807 7                  37849608.074
        43.500
 118560853.261 7  92385088.75545  22561379.520    22561379.2924   22561378.0384
        42.500          35.2004
 120369882.628 6  93794730.97442  22905624.292    22905623.1304   22905623.8314
        37.700          17.7004
 202015816.946 7                  38442335.627
        45.000
 135388641.952 7                  25763603.110
        42.500
 143007520.448 5                  27213427.015
        34.000
 130690627.288 6                  24869601.379
        36.100
 108254118.983 8  84197639.202 7  20308193.067    20308192.584    20308197.284
        51.200          45.600
 113801036.111 4  88511935.926 6  21281359.302    21281361.458    21281370.172
        26.000          37.800
 139252034.851 6                  26498773.839
        37.100
 115867843.642 7  90119453.115 7  21683083.860    21683083.799    21683088.214
        42.200          42.400
 25  1  1 12  2 30.0000000  0 26E27E10G23G02E29G32E33G10G28R04R21E26
                                S35R05G25S31G31G21S33E07E30E19R14R20
                                E12R15




 122709724.520 6  95617975.9064   23350892.532    23350891.6924   23350888.6554
        38.600           2.8004
 124619565.377 7  97106146.67243  23714312.812    23714311.4224   23714312.2614
        43.000          21.0004
 123245585.448 6                  23452849.895
        39.400
 109484329.272 8  85312428.15448  20834146.050    20834145.7294   20834147.4094
        50.800          48.7004
 127200441.004 7                  24205433.837
        46.800
 108651337.548 8  84663422.16248  20675663.105    20675662.6404   20675664.3364
        52.700          52.8004
 109923071.414 7  85654340.79745  20917642.480    20917642.2304   20917641.7584
        44.000          31.5004
 107592658.231 8  83683451.198 7  20092184.315    20092185.510    20092187.872
        48.900          44.900






 111073288.191 7  86389910.314 6  20778448.198    20778448.217    20778453.934
        46.500          37.900
 118855262.615 6  92614500.99944  22617405.127    22617404.3584   22617408.8374
        37.400          27.5004
 198901031.647 7                  37849608.145
        43.300
 118508068.301 7  92343957.62645  22551333.906    22551333.6434   22551334.1214
        43.500          35.1004
 120370009.415 6  93794829.77143  22905650.247    22905649.0634   22905648.0314
        38.700          18.4004
 202015827.071 7                  38442336.892
        44.600
 135416754.121 7                  25768952.686
        42.700
 143000982.500 5                  27212181.918
        31.500
 130667974.452 5                  24865290.592
        34.800
 108244391.177 8  84190073.114 7  20306367.281    20306367.187    20306371.297
        50.400          45.600
                  88523012.814 6                                  21284036.086
                        39.400
 139227589.893 5                  26494122.364
        35.800
 115808672.929 7  90073431.494 6  21672013.205    21672014.271    21672014.732
        44.000          41.900
 25  1  1 12  2 45.0000000  0 28E27E10G23G02E29G32E33G10G28R19R04R03
                                R21E26S35R05G25S31G31G21S33E07E30E19
                                R14R20E12R15




 122757078.543 6  95654874.9354   23359909.581    23359908.8354   23359899.1134
        36.600           2.4004
 124599675.211 7  97090647.81043  23710528.588    23710527.2604   23710526.7474
        42.300          21.4004
 123247407.160 6                  23453197.030
        39.700
 109488630.980 8  85315780.14648  20834965.196    20834964.8664   20834966.3514
        50.300          49.1004
 127219250.194 7                  24209012.546
        47.100
 108668334.062 8  84676666.20448  20678896.972    20678896.4994   20678897.7314
        52.700          52.8004
 109894194.473 7  85631839.30145  20912147.203    20912146.9624   20912146.1784
        45.500          31.5004
 123102886.818 5  95746688.134 5  23012785.647                    23012779.182
        34.700          30.700
 107602984.807 7  83691483.017 7  20094112.839    20094113.048    20094117.368
        47.500          45.600
 122446278.021 6                  22874007.330    22874006.998
        37.700
 125064475.161 6                  23371280.230    23371275.870
        38.000




 111046658.408 7  86369198.337 5  20773468.338    20773468.301    20773469.801
        47.600          35.800
 118828378.099 5  92593552.01243  22612287.140    22612286.2774   22612295.5684
        32.400          23.2004
 198901040.759 7                  37849610.909
        43.400
 118455351.677 7  92302879.74946  22541303.088    22541302.8474   22541302.1484
        43.400          36.5004
 120370255.621 6  93795021.62043  22905696.336    22905695.1924   22905694.7874
        37.100          18.6004
 202015837.381 7                  38442341.082
        45.100
 135444872.594 7                  25774303.592
        42.800
 142994544.960 4                  27210958.992
        29.100
 130645350.504 5                  24860985.542
        31.800
 108234864.050 8  84182663.104 7  20304580.762    20304580.667    20304585.094
        51.400          46.200
                  88534240.806 6                                  21286736.647
                        40.300
 139203236.415 5                  26489489.113
        35.300
 115749581.296 7  90027471.441 6  21660959.982    21660962.052    21660955.815
        45.500          40.400
 25  1  1 12  3  0.0000000  0 29E27E10G23G02E29G32G12E33G10G28R19R04
                                R03R21E26S35R05G25S31G31G21S33E07E30
                                E19R14R20E12R15
 140530875.781 5                  26742136.331
        34.400




 124579902.238 7  97075240.29043  23706765.447    23706764.1604   23706763.9704
        42.300          21.8004
 123249264.218 6                  23453550.322
        40.400
 109492986.821 8  85319174.31748  20835794.366    20835794.0364   20835795.3724
        49.100          48.9004
 126039932.834 6  98212931.64442  23984599.642    23984599.6954   23984601.0014
        38.500          14.4004
 127238163.527 7                  24212611.067
        46.000
 108685442.383 8  84689997.35948  20682152.567    20682152.0944   20682152.7054
        52.200          52.0004
 109865437.610 7  85609431.38845  20906674.507    20906674.2714   20906672.5904
        47.000          31.7004
 123165733.244 5  95795568.516 5  23024532.891                    23024528.026
        34.200          30.000
 107613368.682 8  83699559.374 7  20096053.583    20096054.148    20096057.171
        50.800          45.600
 122483603.914 5                  22880976.811    22880973.853
        33.100
 125028717.401 6                  23364598.563    23364596.116
        39.100
 137822158.931 6                  26226684.042
        36.200


 111020064.070 8  86348513.932 6  20768494.860    20768493.960    20768497.160
        48.800          37.400
 118801609.823 5  92572693.60242  22607192.719    22607191.5794   22607200.0514
        34.100          17.1004
 198901050.253 7                  37849615.354
        44.100
 118402704.419 7  92261855.94646  22531285.461    22531285.2424   22531283.7464
        45.400          37.9004
 120370621.750 6  93795306.90743  22905768.050    22905766.9104   22905764.8354
        37.300          19.9004
 202015847.895 7                  38442340.215
        45.100
 135472998.155 7                  25779656.626
        42.000
 142988208.911 5                  27209752.503
        31.900
 130622756.282 5                  24856686.757
        31.900
 108225538.555 8  84175409.951 7  20302831.059    20302832.025    20302836.055
        51.300          47.100
                  88545619.961 6                                  21289469.622
                        40.100
 139178975.236 6                  26484872.467
        36.700
 115690570.114 7  89981573.941 6  21649921.042    21649921.652    21649912.388
        43.200          38.700
 25  1  1 12  3 15.0000000  0 28E27E10G23G02E29G32G12E33G10G28R19R04
                                R21E26S35R05G25S31G31G21S33E07E30E19
                                R14R20E12R15
 140495851.727 5                  26735488.617
        32.900


 122851896.411 6                  23377945.070
        36.100
 124560237.692 6  97059917.22743  23703023.124    23703021.8954   23703022.9444
        38.200          21.3004
 123251147.481 6                  23453908.635
        41.400
 109497387.733 8  85322603.61448  20836631.726    20836631.4004   20836632.9204
        48.300          48.0004
 126040353.411 5  98213259.29442  23984677.169    23984677.0624   23984679.8184
        34.400          17.3004
 127257171.820 7                  24216229.258
        45.700
 108702653.459 8  84703408.57348  20685427.104    20685426.6314   20685427.6464
        50.900          50.9004
 109836791.903 7  85587110.10745  20901223.979    20901223.7474   20901220.8424
        46.400          32.3004
 123228598.546 5  95844463.621 5  23036283.837                    23036291.282
        30.200          33.600
 107623800.609 8  83707673.055 7  20098002.448    20098003.628    20098005.252
        53.300          44.600


 137868157.866 6                  26235440.397
        36.700


 110993495.134 8  86327849.197 6  20763523.828    20763523.797    20763526.531
        48.200          38.600
 118774948.875 5  92551918.87542  22602121.252    22602120.1394   22602123.7674
        35.800          16.6004
 198901052.001 7                  37849614.204
        44.000
 118350117.833 7  92220879.41846  22521278.514    22521278.3224   22521277.1314
        46.600          38.4004
 120371099.188 6  93795678.92543  22905859.021    22905857.8544   22905856.2534
        39.000          21.5004
 202015850.800 7                  38442343.832
        45.500
 135501121.692 6                  25785009.202
        40.500
 142981965.327 4                  27208563.960
        28.100
 130600182.394 5                  24852390.506
        33.100
 108216405.683 8  84168306.599 7  20301117.683    20301117.565    20301122.797
        50.200          47.600
 113859183.725 5  88557143.205 6  21292234.931                    21292240.825
        34.000          39.600
 139154797.565 6                  26480271.772
        36.400
 115631630.806 5  89935732.300 6  21638890.932    21638885.750    21638883.689
        35.100          39.500
 25  1  1 12  3 30.0000000  0 28E27E10G23G02E29G32G12E33G10G28R19R04
                                R21E26S35R05G25S31G31G21S33E07E30E19
                                R14R20E12R15
 140460877.690 5                  26728833.084
        33.000


 122899421.850 6  95765775.98541  23386993.042    23386993.0164   23386984.5134
        38.600          10.2004
 124540696.920 5  97044690.60943  23699305.174    23699304.0744   23699305.3664
        33.400          19.1004
 123253072.240 7                  23454274.295
        43.500
 109501849.015 7  85326079.93347  20837480.795    20837480.4564   20837482.0144
        46.700          46.7004
 126040923.918 6  98213703.79743  23984788.313    23984788.7104   23984789.2204
        38.600          19.2004
 127276290.315 7                  24219867.334
        46.300
 108719982.690 8  84716911.83648  20688724.575    20688724.0974   20688725.4094
        50.400          50.1004
 109808272.827 7  85564887.49045  20895797.262    20895797.0344   20895794.5734
        47.400          33.8004
 123291497.896 4  95893385.456 5  23048036.465                    23048044.365
        26.500          35.200
 107634296.302 8  83715836.380 7  20099961.083    20099961.729    20099963.782
        52.100          42.600
 124957667.534 6                  23351322.054    23351320.848
        40.900
 137914192.434 6                  26244200.519
        36.000


 110966968.014 7  86307217.020 6  20758560.128    20758559.361    20758565.789
        44.400          40.600
 118748411.085 5  92531240.16643  22597071.494    22597070.3504   22597070.4364
        35.100          18.1004
 198901061.501 7                  37849614.781
        43.900
 118297607.644 7  92179962.41546  22511286.485    22511286.2574   22511286.1674
        45.100          38.2004
 120371703.239 6  93796149.59443  22905972.896    22905971.7034   22905971.4424
        37.400          21.8004
 202015860.643 7                  38442344.700
        45.500
 135529258.530 6                  25790362.876
        41.500
 142975829.717 4                  27207394.765
        28.300
 130577644.405 5                  24848099.063
        34.100
 108207480.967 8  84161365.108 7  20299443.043    20299442.589    20299448.465
        49.200          47.500
 113874199.817 6  88568822.374 6  21295045.685    21295045.021    21295047.913
        36.500          39.800
 139130719.062 5                  26475689.160
        35.200
 115572779.410 6  89889959.053 6  21627856.659    21627859.149    21627868.281
        36.200          37.300
 25  1  1 12  3 45.0000000  0 29E27E10G23G02E29G32G12E33G10G28R19R04
                                R03R21E26S35R05G25S31G31G21S33E07E30
                                E19R14R20E12R15




 122947003.651 6  95802852.60741  23396047.063    23396046.8444   23396042.8364
        39.200          11.9004
 124521272.294 6  97029554.54543  23695609.497    23695608.3484   23695608.9534
        39.600          18.1004
 123255030.702 7                  23454647.167
        44.600
 109506362.864 7  85329597.20647  20838339.445    20838339.0924   20838341.0844
        45.900          45.3004
 126041636.875 6  98214259.34742  23984923.418    23984923.2224   23984924.8544
        36.400          17.5004
 127295511.145 7                  24223525.022
        45.700
 108737422.329 8  84730501.12748  20692043.272    20692042.7854   20692044.3864
        51.100          50.0004
 109779872.788 7  85542757.62545  20890391.914    20890391.6914   20890391.0064
        47.300          34.3004
                  95942327.111 5                                  23059808.341
                        35.900
 107644847.947 8  83724043.173 6  20101932.180    20101932.382    20101931.913
        52.600          40.100
 122595745.694 6                  22901925.439    22901921.737
        36.300
 124922384.029 6                  23344725.950    23344725.473
        38.500
 137960254.587 5                  26252965.938
        35.200


 110940474.753 7  86286611.098 6  20753606.338    20753607.057    20753609.286
        46.100          41.500
 118721989.145 6  92510651.65643  22592045.250    22592044.2184   22592043.8624
        37.900          20.2004
 198901069.221 7                  37849617.970
        44.000
 118245166.289 6  92139099.02545  22501307.702    22501307.4794   22501308.6944
        41.600          34.5004
 120372426.045 6  93796712.77243  22906110.790    22906109.5704   22906109.0784
        38.500          20.0004
 202015869.659 7                  38442347.835
        45.300
 135557400.914 6                  25795717.206
        41.400
 142969794.330 5                  27206248.644
        33.300
 130555134.585 5                  24843815.394
        30.500
 108198757.064 8  84154579.786 7  20297808.181    20297808.341    20297810.658
        50.700          46.400
 113889408.715 6  88580651.532 6  21297890.214    21297890.860    21297892.433
        37.500          40.600
 139106731.949 5                  26471125.162
        32.800
 115514008.795 6  89844248.658 5  21616864.553    21616865.750    21616870.379
        39.800          34.900
 25  1  1 12  4  0.0000000  0 28E27E10G23G02E29G32G12E33G10G28R19R04
                                R03E26S35R05G25S31G31G21S33E07E30E19
                                R14R20E12R15
 140391060.897 5                  26715526.203
        33.500


 122994645.153 6  95839975.72142  23405112.861    23405112.5224   23405108.5904
        40.900          12.7004
 124501967.640 6  97014512.04242  23691934.890    23691933.6074   23691933.9194
        39.300          17.7004
 123257026.335 7                  23455026.554
        45.600
 109510932.742 7  85333158.11147  20839207.852    20839207.4864   20839210.7704
        46.700          44.3004
 126042495.486 5  98214928.40842  23985084.862    23985084.7464   23985087.9254
        33.500          16.4004
 127314837.726 7                  24227203.113
        44.900
 108754975.969 8  84744179.25048  20695383.608    20695383.1354   20695384.4604
        51.300          49.3004
 109751595.437 7  85520723.35345  20885010.421    20885010.2164   20885010.5844
        47.800          34.6004
 123417376.483 4  95991291.064 5  23071579.434                    23071573.896
        24.000          33.300
 107655459.183 8  83732296.327 7  20103912.179    20103912.180    20103915.851
        50.500          42.100
 122633189.657 6                  22908916.920    22908917.528
        39.900
 138006347.601 5                  26261737.908
        30.600


 110914018.855 7  86266034.303 6  20748658.524    20748659.180    20748659.164
        43.500          40.800
 118695686.740 6  92490156.33043  22587037.169    22587036.1014   22587042.2014
        39.300          22.7004
 198901080.375 7                  37849618.850
        43.900
 118192797.649 6  92098292.29944  22491342.498    22491342.1774   22491343.4594
        40.600          29.9004
 120373271.053 6  93797371.23343  22906269.297    22906267.9784   22906270.6164
        37.300          19.1004
 202015881.979 7                  38442350.276
        45.100
 135585552.339 6                  25801073.536
        40.000
 142963862.807 5                  27205119.222
        35.700
 130532656.462 4                  24839537.758
        28.900
 108190237.379 8  84147953.308 7  20296208.216    20296208.900    20296212.656
        49.000          46.500
 113904813.118 5  88592632.759 6  21300769.824    21300767.379    21300774.528
        34.200          41.900
 139082840.069 5                  26466579.260
        34.400
 115455323.060 6  89798604.257 5  21605882.848    21605882.828    21605887.131
        38.900          32.600
 25  1  1 12  4 15.0000000  0 27E27E10G23G02E29G32G12E33G10G28R19R04
                                E26S35R05G25S31G31G21S33E07E30E19R14
                                R20E12R15
 140356214.311 5                  26708899.401
        34.400
 147355632.496 5                  28040843.604
        34.000
 123042338.324 6  95877139.11242  23414188.447    23414187.8484   23414184.8664
        38.000          13.0004
 124482775.218 6  96999556.96443  23688282.926    23688281.6394   23688281.9584
        39.800          18.6004
 123259051.235 7                  23455411.988
        45.800
 109515550.762 7  85336756.52047  20840086.454    20840086.0794   20840089.6954
        44.800          43.8004
 126043492.038 6  98215704.90642  23985276.704    23985276.6514   23985278.0274
        36.700          17.6004
 127334262.111 7                  24230900.166
        45.300
 108772635.807 8  84757940.14948  20698743.679    20698743.2064   20698744.4114
        51.400          48.8004
 109723433.083 7  85498778.68345  20879651.887    20879651.6864   20879651.6494
        46.100          34.2004
 123480350.186 4  96040270.625 5  23083346.762                    23083346.770
        28.600          33.200
 107666121.995 8  83740589.628 7  20105904.029    20105903.845    20105909.439
        50.100          43.100
 138052463.409 4                  26270516.285
        27.300


 110887592.504 6  86245480.405 6  20743707.325    20743707.189    20743715.275
        40.200          40.500
 118669496.416 6  92469748.32743  22582052.388    22582051.2754   22582061.6054
        37.400          22.0004
 198901086.840 7                  37849620.228
        43.500
 118140493.965 6  92057536.26644  22481388.067    22481387.6474   22481386.6674
        37.800          26.5004
 120374230.118 5  93798118.54542  22906453.747    22906452.3434   22906453.5324
        32.500          17.2004
 202015890.055 7                  38442352.221
        45.300
 135613704.947 6                  25806429.310
        36.100
 142958027.411 6                  27204007.196
        36.600
 130510201.882 5                  24835266.876
        30.600
 108181914.344 7  84141479.797 7  20294646.147    20294645.357    20294652.203
        47.800          47.300
 113920405.005 6  88604759.767 6  21303683.395    21303684.062    21303688.684
        36.100          39.400
 139059035.696 5                  26462047.339
        33.400
 115396714.782 7  89753020.045 5  21594916.885    21594915.655    21594917.261
        43.400          30.800
 25  1  1 12  4 30.0000000  0 29E27E10G23G02E29G32G12E33G10G28R19R04
                                R03R21E26S35R05G25S31G31G21S33E07E30
                                E19R14R20E12R15
 140321410.746 6                  26702275.163
        37.400
 147319165.786 6                  28033904.002
        37.600
 123090087.115 5  95914345.96142  23423276.134    23423275.5404   23423271.6054
        33.600          13.2004
 124463699.044 6  96984692.45643  23684652.457    23684651.0944   23684653.1564
        41.400          20.0004
 123261109.418 7                  23455803.805
        46.300
 109520221.003 7  85340395.62547  20840975.641    20840975.2664   20840978.6004
        47.200          44.8004
 126044630.838 5  98216592.29542  23985491.529    23985491.4944   23985495.0084
        35.300          12.4004
 127353788.204 7                  24234615.361
        45.900
 108790405.947 8  84771787.00748  20702124.974    20702124.5144   20702125.8564
        51.000          48.4004
 109695389.928 7  85476926.88645  20874316.899    20874316.7034   20874315.4204
        46.600          34.5004
 123543347.811 5  96089268.703 4  23095126.540                    23095121.295
        32.300          29.100
 107676840.652 8  83748926.407 7  20107905.567    20107906.761    20107910.034
        51.200          43.800
 122708154.443 5                  22922918.804    22922918.701
        30.100
 124817489.216 7                  23325123.299    23325124.326
        42.300
 138098606.009 4                  26279312.213
        29.600


 110861199.985 7  86224952.921 6  20738775.692    20738774.376    20738778.488
        43.200          40.600
 118643422.613 6  92449431.09743  22577093.039    22577091.9264   22577101.1804
        40.600          20.0004
 198901091.787 7                  37849619.669
        43.500
 118088259.844 6  92016834.46044  22471447.301    22471446.9214   22471441.2294
        38.600          24.3004
 120375307.463 6  93798958.06842  22906661.342    22906660.0504   22906658.3724
        36.300          17.9004
 202015896.127 7                  38442352.972
        45.700
 135641862.815 4                  25811788.011
        29.900
 142952292.298 6                  27202917.094
        37.800
 130487775.078 5                  24830998.385
        33.000
 108173791.977 8  84135162.381 7  20293123.322    20293122.935    20293128.234
        49.200          46.800
 113936188.275 5  88617035.645 6  21306634.499    21306635.669    21306639.101
        34.800          38.100
 139035323.125 5                  26457534.692
        30.200
 115338188.573 7  89707499.833 5  21583964.688    21583965.899    21583966.258
        44.600          32.000
 25  1  1 12  4 45.0000000  0 29E27E10G23G02E29G32G12E33G10G28R19R04
                                R03R21E26S35R05G25S31G31G21S33E07E30
                                E19R14R20E12R15
 140286652.551 6                  26695661.488
        40.200
 147282761.792 6                  28026976.407
        38.900


 124444741.584 6  96969920.43943  23681044.095    23681042.6874   23681046.7794
        39.300          19.4004
 123263203.004 7                  23456202.427
        47.300
 109524945.514 8  85344077.02847  20841874.632    20841874.2214   20841877.3514
        49.300          45.6004
 126045913.757 5  98217591.94941  23985734.987    23985735.1344   23985739.6954
        34.400           6.8004
 127373418.061 7                  24238350.226
        45.500
 108808288.565 8  84785721.53047  20705527.651    20705527.1954   20705529.0964
        49.400          47.5004
 109667468.275 8  85455169.77145  20869003.043    20869002.8294   20869001.9524
        48.300          34.8004
 123606370.711 5  96138286.347 4  23106909.565                    23106904.208
        32.300          29.200
 107687617.551 8  83757308.439 7  20109921.402    20109922.005    20109922.421
        51.800          44.300
 122745681.875 6                  22929932.001    22929929.951
        36.200
 124782843.875 6                  23318645.914    23318647.328
        38.100
 138144776.903 4                  26288086.838
        27.300


 110834843.276 7  86204453.259 6  20733843.586    20733843.961    20733849.002
        45.200          41.500
 118617467.829 7  92429206.65243  22572156.027    22572154.8654   22572160.0284
        43.300          20.4004
 198901098.728 7                  37849623.921
        44.100
 118036097.507 6  91976188.54643  22461522.341    22461521.9884   22461514.5844
        41.300          21.8004
 120376505.357 5  93799891.48842  22906888.900    22906887.5994   22906885.7374
        34.500          17.8004
 202015904.420 7                  38442352.405
        44.700
 135670027.984 4                  25817150.152
        28.300
 142946659.623 6                  27201846.266
        38.300
 130465378.188 5                  24826735.361
        35.800
 108165872.688 8  84129002.901 7  20291637.871    20291637.855    20291642.242
        50.800          46.500
 113952164.948 5  88629461.969 6  21309624.124    21309624.103    21309629.477
        35.500          39.900
 139011704.651 4                  26453039.564
        26.000
 115279747.067 7  89662045.336 5  21573031.104    21573031.324    21573030.829
        46.500          33.100
 25  1  1 12  5  0.0000000  0 29E27E10G23G02E29G32G12E33G10G28R19R04
                                R03R21E26S35R05G25S31G31G21S33E07E30
                                E19R14R20E12R15
 140251941.628 6                  26689055.731
        40.300
 147246422.224 6                  28020060.011
        37.800


 124425904.600 6  96955242.28743  23677460.267    23677458.8504   23677462.7514
        39.400          19.3004
 123265333.494 7                  23456607.663
        47.800
 109529725.878 8  85347801.97947  20842784.746    20842784.3444   20842786.4104
        50.400          46.6004
 126047342.855 5  98218705.63441  23986006.919    23986006.9154   23986011.7004
        34.700           6.6004
 127393153.145 7                  24242104.896
        42.800
 108826285.274 8  84799744.95347  20708954.083    20708953.6184   20708953.7294
        49.600          47.5004
 109639669.812 8  85433508.63945  20863712.649    20863712.4264   20863712.2644
        48.500          35.0004
 123669420.275 4  96187324.721 5  23118689.084                    23118693.811
        29.800          30.100
 107698454.417 8  83765737.151 7  20111942.329    20111942.575    20111945.405
        48.900          43.700
 122783241.599 5  95498111.902 5  22936945.326    22936947.245    22936956.161
        33.300          35.800
 124748362.522 6                  23312207.537    23312209.126
        40.300




 110808524.325 7  86183982.956 6  20728920.126    20728919.542    20728924.610
        44.300          41.200
 118591633.922 6  92409076.36543  22567237.955    22567236.7394   22567243.3234
        39.900          18.9004
 198901108.185 7                  37849625.683
        44.200
 117984008.976 7  91935600.13143  22451608.519    22451608.0634   22451606.9134
        42.200          22.4004
 120377825.193 6  93800919.94542  22907140.427    22907139.1584   22907136.3044
        36.500          17.2004
 202015915.445 7                  38442356.572
        45.000
 135698201.961 5                  25822513.885
        31.500
 142941130.856 6                  27200794.449
        38.600
 130443012.771 6                  24822480.553
        36.700
 108158158.339 8  84123002.853 7  20290190.018    20290190.101    20290196.236
        50.200          47.100
 113968336.489 5  88642039.877 6  21312649.803    21312648.892    21312656.121
        33.700          41.400
 138988182.083 4                  26448563.045
        25.600
 115221392.687 7  89616658.627 5  21562106.673    21562110.003    21562109.642
        45.800          33.200
 25  1  1 12  5 15.0000000  0 29E27E10G23G02E29G32G12E33G10G28R19R04
                                R03R21E26S35R05G25S31G31G21S33E07E30
                                E19R14R20E12R15
 140217273.444 6                  26682458.780
        39.100
 147210142.386 6                  28013156.156
        37.200


 124407183.329 6  96940654.27743  23673898.344    23673896.9634   23673900.6974
        41.000          19.9004
 123267496.106 8                  23457019.589
        48.000
 109534557.236 8  85351566.68847  20843704.091    20843703.6944   20843705.3234
        51.300          46.9004
 126048912.815 6  98219928.88842  23986306.867    23986306.9204   23986310.4714
        36.400          13.4004
 127412988.495 6                  24245880.179
        39.500
 108844391.323 8  84813853.57548  20712399.757    20712399.2794   20712398.9674
        51.500          49.3004
 109611989.872 7  85411939.85845  20858445.139    20858444.9114   20858445.6054
        47.400          34.6004
 123732490.605 4  96236379.456 5  23130476.653                    23130486.396
        27.300          32.600
 107709346.112 7  83774208.497 7  20113976.625    20113975.933    20113978.845
        46.300          43.200
 122820828.923 6  95527346.355 5  22943978.169    22943978.081    22943977.333
        37.700          34.800
 124714040.221 6  96999806.287 6  23305793.726    23305794.552    23305797.237
        40.200          36.000




 110782238.367 7  86163538.278 6  20724003.457    20724003.458    20724007.310
        45.100          41.100
 118565916.452 6  92389036.81943  22562344.841    22562343.6394   22562350.2774
        38.300          18.9004
 198901116.013 7                  37849625.406
        43.500
 117931989.760 6  91895065.69443  22441709.949    22441709.4534   22441712.7954
        41.000          22.2004
 120379262.123 6  93802039.68243  22907411.640    22907410.3084   22907408.5234
        38.100          18.1004
 202015924.148 7                  38442357.314
        45.000
 135726380.153 5                  25827875.790
        33.100
 142935701.683 5                  27199760.790
        35.500
 130420673.823 6                  24818229.067
        37.000
 108150643.955 8  84117158.281 7  20288781.217    20288780.824    20288785.435
        51.100          46.200
 113984697.639 4  88654765.331 6  21315704.700    21315703.771    21315715.221
        28.700          40.800
 138964750.715 5                  26444106.897
        30.200
 115163120.961 7  89571336.226 6  21551202.126    21551203.197    21551206.256
        45.900          37.000
 25  1  1 12  5 30.0000000  0 29E27E10G23G02E29G32G12E33G10G28R19R04
                                R03R21E26S35R05G25S31G31G21S33E07E30
                                E19R14R20E12R15
 140182651.401 5                  26675869.170
        33.400
 147173926.095 6                  28006264.786
        37.700


 124388580.863 7  96926158.81243  23670359.203    23670357.8404   23670360.3444
        42.900          20.7004
 123269693.845 7                  23457437.594
        47.500
 109539442.636 8  85355373.50247  20844633.884    20844633.4914   20844634.8934
        50.900          47.0004
 126050627.475 5  98221264.90242  23986632.736    23986632.7444   23986636.3944
        32.700          14.9004
 127432927.102 6                  24249674.924
        39.400
 108862609.827 9  84828049.82548  20715866.419    20715865.9374   20715865.9234
        54.200          51.0004
 109584431.733 7  85390465.99145  20853200.490    20853200.2944   20853201.9884
        46.300          32.8004
 123795584.222 4  96285452.418 5  23142263.135                    23142279.912
        24.000          32.400
 107720296.078 7  83782725.165 7  20116019.172    20116017.761    20116022.993
        43.600          42.000
 122858446.768 6  95556604.539 5  22951000.334    22951006.729    22951003.848
        38.500          33.500
 124679880.759 6  96973237.781 5  23299409.243    23299410.819    23299412.873
        37.700          35.400
 138283464.915 5                  26314468.717
        34.000


 110755988.561 7  86143121.748 6  20719092.702    20719093.831    20719097.920
        46.500          41.600
 118540318.889 6  92369090.68543  22557475.229    22557474.0494   22557482.0264
        40.600          22.0004
 198901124.986 7                  37849629.220
        43.700
 117880043.281 7  91854587.90043  22431825.506    22431825.0594   22431829.0434
        43.000          22.2004
 120380819.116 6  93803252.94842  22907708.014    22907706.7044   22907703.0514
        36.400          17.1004
 202015935.125 7                  38442358.826
        45.600
 135754565.499 6                  25833237.807
        36.600
 142930375.483 5                  27198745.403
        33.900
 130398364.458 6                  24813984.468
        36.800
 108143332.797 8  84111471.739 7  20287409.064    20287408.868    20287413.840
        50.100          46.100
 114001251.440 5  88667640.456 5  21318801.390    21318803.669    21318806.127
        33.000          34.500
 138941413.804 5                  26439664.330
        33.700
 115104935.683 7  89526081.094 6  21540314.362    21540314.644    21540318.222
        47.000          38.700
 25  1  1 12  5 45.0000000  0 29E27E10G23G02E29G32G12E33G10G28R19R04
                                R03R21E26S35R05G25S31G31G21S33E07E30
                                E19R14R20E12R15
 140148071.468 4                  26669287.455
        26.800
 147137769.225 6                  27999384.122
        38.200
 123329802.973 5  96101140.61542  23468880.153    23468879.4564   23468880.0454
        35.800          12.8004
 124370093.143 7  96911752.69843  23666840.787    23666839.4594   23666840.5284
        42.000          20.4004
 123271922.363 7                  23457861.593
        45.900
 109544377.716 8  85359219.05147  20845573.257    20845572.8644   20845574.0104
        51.700          47.0004
 126052482.360 5  98222710.24041  23986987.701    23986987.8084   23986989.0624
        30.200          11.1004
 127452964.553 6                  24253488.789
        39.500
 108880936.549 9  84842330.39748  20719353.535    20719353.0394   20719353.8914
        55.100          52.7004
 109556991.206 7  85369083.75345  20847977.669    20847977.4504   20847980.2554
        43.600          30.2004
 123858696.638 4  96334539.759 5  23154068.397                    23154078.024
        25.600          32.500
 107731300.038 7  83791283.791 7  20118075.216    20118073.782    20118078.307
        44.500          42.600
                  95585883.292 5                                  22958038.082
                        32.100
 124645880.084 5  96946792.795 5  23293057.844    23293052.454    23293058.125
        32.600          35.300
 138329741.534 5                  26323275.635
        34.300


 110729770.414 8  86122729.898 6  20714190.312    20714191.851    20714191.826
        49.000          40.400
 118514837.275 6  92349234.88343  22552626.746    22552625.6514   22552635.4624
        40.400          23.7004
 198901131.005 7                  37849630.280
        43.300
 117828165.450 7  91814163.68643  22421953.188    22421952.7914   22421950.3924
        44.300          21.5004
 120382491.894 6  93804556.43642  22908025.742    22908024.4504   22908020.2414
        36.400          15.2004
 202015941.866 7                  38442361.106
        44.400
 135782753.655 6                  25838601.079
        38.200
 142925147.614 5                  27197749.121
        31.000
 130376080.535 5                  24809743.130
        35.800
 108136220.972 8  84105940.291 7  20286075.334    20286074.777    20286080.277
        50.100          46.400
 114017992.985 5  88680661.689 5  21321933.410    21321934.413    21321937.220
        34.500          32.400
 138918167.238 6                  26435242.077
        37.200
 115046833.098 7  89480890.231 6  21529443.692    21529443.342    21529445.226
        47.600          40.000
 25  1  1 12  6  0.0000000  0 29E27E10G23G02E29G32G12E33G10G28R19R04
                                R03R21E26S35R05G25S31G31G21S33E07E30
                                E19R14R20E12R15
 140113539.252 5                  26662715.276
        30.600
 147101676.682 6                  27992515.991
        38.900
 123377889.977 5  96138610.99742  23478034.516    23478033.7704   23478026.7184
        34.400          14.4004
 124351725.947 6  96897440.61743  23663345.793    23663344.5334   23663344.5334
        38.200          20.4004
 123274187.058 7                  23458292.951
        45.400
 109549367.919 8  85363107.53047  20846522.728    20846522.3354   20846524.1944
        51.900          47.5004
 126054483.516 5  98224269.6774   23987369.996    23987370.1434   23987369.6784
        32.700           4.0004
 127473106.208 7                  24257321.969
        42.900
 108899376.914 8  84856699.49748  20722862.456    20722861.9564   20722863.5344
        53.900          53.0004
 109529673.920 6  85347797.55744  20842780.413    20842780.1724   20842781.2074
        41.900          28.3004
                  96383645.805 4                                  23165877.165
                        29.700
 107742363.391 7  83799888.612 7  20120141.395    20120141.764    20120144.899
        47.800          43.800
                  95615186.680 4                                  22965075.763
                        29.300
 124612044.365 5  96920476.140 5  23286731.379    23286731.552    23286735.363
        33.500          35.300
 138376046.576 5                  26332085.911
        33.200


 110703589.842 7  86102367.324 6  20709290.535    20709291.596    20709292.609
        47.500          37.900
 118489477.435 5  92329473.89642  22547798.892    22547797.7614   22547809.9204
        34.400          17.6004
 198901139.390 7                  37849630.548
        43.000
 117776362.021 7  91773797.42944  22412094.366    22412094.0364   22412088.5154
        43.900          24.2004
 120384285.952 6  93805954.40342  22908365.427    22908364.1934   22908361.1314
        37.900          16.1004
 202015951.616 7                  38442361.375
        44.500
 135810950.124 6                  25843967.663
        40.000
 142920023.785 5                  27196775.404
        33.100
 130353827.208 5                  24805509.883
        35.600
 108129313.933 8  84100568.164 7  20284780.467    20284780.886    20284784.468
        51.200          46.400
 114034927.558 6  88693833.014 4  21325100.149    21325101.163    21325103.737
        36.200          29.900
 138895016.679 6                  26430836.220
        38.000
 114988819.143 7  89435768.296 6  21518587.014    21518588.470    21518588.372
        47.600          40.600
 25  1  1 12  6 15.0000000  0 27E27E10G23G02E29G32E33G10G28R19R04R21
                                E26S35R05G25S31G31G21S33E07E30E19R14
                                R20E12R15
 140079051.103 5                  26656155.671
        33.000
 147065645.363 6                  27985658.753
        39.500


 124333475.218 6  96883219.31643  23659873.182    23659872.0204   23659871.0714
        39.200          20.6004
 123276483.886 7                  23458729.485
        46.000
 109554409.244 8  85367035.83847  20847481.849    20847481.4524   20847484.4264
        51.900          47.8004
 127493347.965 7                  24261172.282
        43.900
 108917927.002 9  84871154.09048  20726392.282    20726391.7954   20726393.4914
        54.000          52.7004
 109502475.987 7  85326604.35544  20837605.281    20837605.0274   20837604.6914
        43.100          29.4004
                  96432766.567 4                                  23177682.248
                        29.400
 107753482.281 8  83808536.647 7  20122216.974    20122218.216    20122221.682
        48.100          44.100
 124578369.668 5  96894284.689 5  23280448.949    23280443.569    23280442.677
        34.800          35.600
 138422375.756 5                  26340901.274
        33.900


 110677442.652 7  86082030.673 5  20704398.213    20704399.851    20704399.115
        44.900          34.900


 198901145.961 7                  37849632.865
        43.200
 117724629.420 7  91733486.36344  22402251.215    22402250.9564   22402247.2074
        45.400          29.6004
 120386197.268 6  93807443.71242  22908728.972    22908727.8194   22908725.0054
        38.500          16.7004
 202015960.404 7                  38442361.495
        44.100
 135839150.826 6                  25849333.518
        40.200
 142915000.190 5                  27195819.372
        30.900
 130331600.801 5                  24801280.166
        34.500
 108122607.731 8  84095352.242 7  20283521.147    20283521.288    20283526.865
        49.800          46.600
                                                  21328302.590

 138871958.233 6                  26426448.265
        39.300
 114930890.277 7  89390712.577 6  21507746.603    21507747.378    21507748.198
        45.200          41.400
 25  1  1 12  6 30.0000000  0 26E27E10G23G02E29G32E33G10G28R04R21E26
                                S35R05G25S31G31G21S33E07E30E19R14R20
                                E12R15
 140044610.225 5                  26649603.622
        33.400
 147029678.295 6                  27978814.306
        39.000


 124315344.074 7  96869091.17243  23656422.750    23656421.6464   23656420.2624
        43.900          23.0004
 123278815.707 7                  23459173.284
        45.500
 109559504.544 8  85371006.20047  20848451.451    20848451.0544   20848454.2904
        52.100          46.7004
 127513692.589 7                  24265043.529
        44.700
 108936589.744 8  84885696.46848  20729942.967    20729942.4944   20729944.5364
        53.100          52.1004
 109475400.445 7  85305506.53745  20832452.524    20832452.2834   20832452.0724
        45.400          30.6004
 107764659.786 7  83817230.231 7  20124303.977    20124304.384    20124309.272
        46.300          44.200
 124544859.186 6  96868220.963 5  23274182.528    23274183.432    23274181.654
        36.800          35.900
 138468731.882 5                  26349719.918
        35.700


 110651332.104 7  86061722.553 5  20699516.115    20699515.520    20699515.701
        43.000          35.800


 198901154.255 7                  37849632.775
        43.300
 117672970.771 7  91693232.89545  22392420.813    22392420.5814   22392420.9694
        46.000          33.2004
 120388228.679 6  93809026.63943  22909117.004    22909115.8064   22909111.7024
        40.800          18.8004
 202015969.437 7                  38442363.534
        44.100
 135867358.633 6                  25854699.936
        38.700
 142910079.799 5                  27194885.875
        33.700
 130309403.921 5                  24797055.742
        33.000
 108116105.451 8  84090294.891 7  20282302.657    20282301.819    20282307.458
        48.700          45.900
 114069365.931 6  88720610.249 6  21331540.230    21331540.487    21331548.383
        37.100          39.000
 138848995.051 6                  26422078.930
        40.000
 114873050.108 6  89345725.858 6  21496917.333    21496920.105    21496922.436
        41.300          40.700
 25  1  1 12  6 45.0000000  0 26E27E10G23G02E29G32E33G10G28R04R21E26
                                S35R05G25S31G31G21S33E07E30E19R14R20
                                E12R15
 140010213.960 5                  26643069.301
        35.200
 146993772.779 6                  27971980.864
        38.800
 123522415.669 5                  23505533.551    23505532.7294
        35.400
 124297329.811 7  96855054.09643  23652993.709    23652992.6054   23652991.1854
        43.000          23.8004
 123281179.600 7                  23459623.532
        46.100
 109564650.867 8  85375016.33347  20849430.818    20849430.4164   20849432.1664
        51.700          44.3004
 127534136.998 7                  24268934.423
        44.300
 108955362.224 8  84900324.37848  20733515.354    20733514.8944   20733516.3434
        52.800          51.5004
 109448444.504 7  85284501.90845  20827322.848    20827322.6074   20827322.6024
        45.100          30.5004
 107775892.902 7  83825967.098 7  20126401.965    20126400.252    20126406.333
        43.600          43.500
 124511510.349 6  96842283.077 6  23267956.142    23267959.542    23267950.546
        36.500          36.300
 138515111.681 5                  26358546.118
        35.900


 110625255.278 7  86041440.600 6  20694638.136    20694639.851    20694639.951
        44.100          40.000


 198901160.576 7                  37849634.595
        43.200
 117621383.226 7  91653034.80145  22382604.561    22382604.3164   22382607.0944
        47.100          34.8004
 120390377.108 7  93810700.74643  22909525.812    22909524.6324   22909520.3954
        42.200          20.4004
 202015977.814 7                  38442364.397
        44.100
 135895570.678 6                  25860068.237
        37.600
 142905259.345 5                  27193967.377
        35.100
 130287233.755 5                  24792835.754
        34.000
 108109804.155 8  84085393.855 7  20281122.092    20281122.075    20281124.454
        48.800          45.000
 114086869.285 6  88734223.955 7  21334814.169    21334813.263    21334822.670
        38.100          42.400
 138826124.409 6                  26417726.970
        40.400
 114815296.271 6  89300806.231 6  21486113.225    21486112.336    21486115.373
        41.900          41.600
 25  1  1 12  7  0.0000000  0 27E27E10G23G02E29G32E33G10G28R04R03R21
                                E26S35R05G25S31G31G21S33E07E30E19R14
                                R20E12R15
 139975867.111 5                  26636518.086
        34.600
 146957933.875 6                  27965160.488
        38.900
 123570724.408 6  96288850.52342  23514727.418    23514726.4534   23514724.9984
        37.800          15.5004
 124279437.343 7  96841111.93144  23649589.248    23649588.1404   23649585.6864
        43.300          24.4004
 123283580.322 7                  23460080.304
        46.100
 109569853.007 8  85379069.99847  20850420.633    20850420.2494   20850419.8234
        51.400          42.5004
 127554685.944 7                  24272845.394
        45.500
 108974249.301 8  84915041.59148  20737109.211    20737108.7644   20737110.3474
        51.000          51.2004
 109421613.131 7  85263594.33745  20822217.503    20822217.2894   20822217.3964
        45.300          31.0004
 107787186.663 7  83834751.133 7  20128511.762    20128508.586    20128517.154
        42.700          44.000
 123084887.305 5                  22993288.902    22993282.124
        31.800
 124478328.366 6  96816474.984 5  23261746.272    23261745.793    23261748.719
        36.900          34.200
 138561519.696 5                  26367381.637
        34.200


 110599217.096 7  86021188.722 7  20689767.103    20689767.973    20689770.274
        44.300          42.500


 198901170.246 7                  37849636.835
        43.500
 117569872.099 7  91612896.24345  22372802.099    22372801.8494   22372804.8284
        46.500          35.1004
 120392647.321 6  93812469.74443  22909956.862    22909955.7044   22909952.6534
        41.700          21.3004
 202015989.203 7                  38442366.240
        44.400
 135923791.674 6                  25865438.135
        37.700
 142900543.884 5                  27193069.538
        33.300
 130265094.923 5                  24788622.783
        35.800
 108103708.732 7  84080653.001 7  20279975.642    20279973.982    20279981.257
        44.600          45.500
 114104565.594 6  88747987.707 7  21338122.798    21338122.921    21338131.680
        37.500          42.900
 138803351.259 6                  26413393.805
        40.300
 114757634.272 5  89255958.070 7  21475320.681    21475319.807    21475326.895
        35.700          43.300
 25  1  1 12  7 15.0000000  0 27E27E10G23G02E29G32E33G10G28R04R03R21
                                E26S35R05G25S31G31G21S33E07E30E19R14
                                R20E12R15
 139941567.495 6                  26629992.303
        36.000
 146922159.011 6                  27958351.675
        38.300
 123619088.294 6  96326536.60842  23523931.095    23523930.1124   23523928.4334
        37.500          14.9004
 124261663.907 6  96827262.58943  23646206.003    23646204.9034   23646204.0534
        40.600          23.0004
 123286014.992 7                  23460543.261
        45.400
 109575108.092 8  85383164.92946  20851420.115    20851419.7444   20851418.5684
        52.300          41.4004
 127575336.469 7                  24276774.892
        46.300
 108993248.191 8  84929845.92748  20740724.722    20740724.2714   20740725.9674
        50.000          50.4004
 109394903.650 7  85242781.73245  20817135.260    20817135.0284   20817136.1664
        44.400          30.7004
 107798538.436 7  83843580.231 7  20130632.394    20130633.420    20130636.457
        46.900          42.400
 123122713.172 4                  23000346.326
        27.300
 124445310.971 6  96790794.854 5  23255581.997    23255579.519    23255578.474
        38.600          32.600
 138607953.048 4                  26376205.914
        26.600


 110573214.533 7  86000964.512 7  20684906.309    20684906.899    20684905.909
        42.500          42.700
 118364487.581 6  92232129.74744  22524010.946    22524010.7504   22524020.9824
        36.800          25.2004
 198901180.532 7                  37849637.059
        43.700
 117518434.931 7  91572815.34545  22363014.209    22363014.0174   22363015.2124
        45.700          34.5004
 120395036.362 6  93814331.34843  22910411.649    22910410.4914   22910408.3204
        41.700          22.7004
 202016000.842 7                  38442370.461
        44.500
 135952018.847 6                  25870808.490
        36.700
 142895930.542 5                  27192192.775
        33.800
 130242984.796 6                  24784416.324
        37.100
 108097816.636 7  84076070.285 7  20278870.249    20278869.737    20278876.896
        45.300          45.800
 114122451.363 5  88761898.867 7  21341467.713    21341466.264    21341474.723
        34.700          42.000
 138780673.003 6                  26409078.314
        40.000
 114700061.702 6  89211179.408 7  21464546.773    21464547.503    21464552.897
        39.500          43.500
 25  1  1 12  7 30.0000000  0 27E27E10G23G02E29G32E33G10G28R04R03R21
                                E26S35R05G25S31G31G21S33E07E30E19R14
                                R20E12R15
 139907313.938 6                  26623476.968
        38.200
 146886447.154 6                  27951555.101
        36.900
 123667505.826 6  96364264.56042  23533145.124    23533144.4314   23533141.8134
        38.300          15.0004
 124244008.178 6  96813504.96743  23642847.019    23642845.9024   23642845.1584
        40.400          22.5004
 123288482.242 7                  23461012.603
        44.800
 109580414.749 8  85387300.03047  20852429.851    20852429.4714   20852428.5074
        51.200          42.0004
 127596087.112 7                  24280723.933
        46.800
 109012357.608 8  84944736.39848  20744361.249    20744360.8024   20744362.3804
        49.800          50.3004
 109368314.896 7  85222063.20645  20812075.041    20812074.8134   20812077.2494
        43.900          30.1004
 107809946.715 8  83852453.292 6  20132763.562    20132764.327    20132764.695
        48.700          40.300


 124412457.158 6                  23249434.910    23249436.793
        36.500
 138654410.109 4                  26385061.987
        26.000


                  85980767.427 6                                  20680046.963
                        41.500
 118339851.642 6  92212932.88645  22519326.207    22519325.7514   22519328.7074
        41.000          30.0004
 198901189.893 7                  37849641.244
        43.600
 117467070.656 7  91532791.28945  22353240.157    22353239.9884   22353238.6984
        45.300          34.6004
 120397543.074 7  93816284.64544  22910888.297    22910887.1484   22910887.5084
        42.000          24.6004
 202016011.876 7                  38442372.598
        44.700
 135980250.896 5                  25876181.951
        34.900
 142891418.508 5                  27191333.748
        35.500
 130220901.938 6                  24780213.612
        37.500
 108092126.529 8  84071644.588 7  20277806.322    20277805.540    20277808.630
        49.900          44.600
 114140525.305 5  88775956.425 7  21344846.527    21344845.358    21344857.895
        34.100          42.700
 138758088.517 6                  26404780.374
        37.600
 114642577.980 6  89166469.755 7  21453792.594    21453800.754    21453795.416
        40.800          44.300
 25  1  1 12  7 45.0000000  0 27E27E10G23G02E29G32E33G10G28R13R04R21
                                E26S35R05G25S31G31G21S33E07E30E19R14
                                R20E12R15
 139873100.504 6                  26616967.488
        39.400
 146850792.022 6                  27944769.471
        37.300
 123715970.646 6  96402029.30642  23542368.655    23542368.1734   23542365.2554
        40.700          13.9004
 124226464.326 7  96799834.50844  23639509.659    23639508.5014   23639507.5754
        42.500          24.6004
 123290975.831 7                  23461487.106
        44.700
 109585766.742 8  85391470.43547  20853449.264    20853448.8934   20853448.1534
        51.000          44.0004
 127616931.515 7                  24284690.145
        47.500
 109031571.367 8  84959708.18248  20748018.083    20748017.6364   20748018.6334
        49.500          50.6004
 109341840.773 7  85201433.98944  20807037.374    20807037.1644   20807038.4194
        42.600          27.9004
 124574930.395 4                  23328858.781    23328858.251
        29.100
 107821405.201 8  83861365.454 6  20134904.579    20134904.379    20134905.233
        49.400          40.000
                                                  23243336.803

 138700884.464 5                  26393899.967
        30.400


 110521306.804 6  85960592.362 6  20675209.936    20675215.986    20675195.660
        38.200          41.100
 118315330.245 7  92193825.30145  22514659.910    22514659.3964   22514659.9534
        43.100          30.0004
 198901192.115 7                  37849640.082
        43.800
 117415773.359 7  91492819.43046  22343479.261    22343479.0924   22343476.9044
        44.700          36.1004
 120400161.105 7  93818324.67244  22911386.999    22911385.8914   22911386.9084
        43.400          26.2004
 202016016.046 7                  38442373.023
        44.900
 136008481.501 5                  25881554.628
        34.400
 142887001.784 5                  27190491.773
        33.900
 130198840.186 6                  24776015.017
        37.100
 108086631.986 8  84067371.046 7  20276772.023    20276772.685    20276778.301
        48.300          44.500
 114158781.118 6  88790155.346 7  21348262.168    21348261.865    21348270.950
        36.000          42.600
 138735591.751 5                  26400498.148
        35.300
 114585177.115 6  89121824.714 7  21443046.075    21443045.388    21443053.917
        38.500          44.700
 25  1  1 12  8  0.0000000  0 29E27E10G23G02E29G32G12E33G10G28R13R04
                                R03R21E26S35R05G25S31G31G21S33E07E30
                                E19R14R20E12R15
 139838941.132 5                  26610467.647
        34.700
 146815207.690 6                  27937998.693
        37.500
 123764496.253 6  96439841.42342  23551603.314    23551602.7824   23551599.1474
        40.000          12.7004
 124209045.955 7  96786261.79844  23636195.373    23636194.1894   23636193.4324
        45.000          26.2004
 123293509.324 7                  23461968.791
        44.200
 109591177.734 8  85395686.79947  20854479.168    20854478.7794   20854479.5064
        52.000          45.3004
 126075710.470 5                  23991399.627
        33.100
 127637883.259 7                  24288677.012
        47.500
 109050903.196 8  84974771.96948  20751697.485    20751697.0294   20751697.9834
        50.200          51.5004
 109315495.042 7  85180904.84844  20802024.289    20802024.1024   20802023.7054
        42.300          25.5004
 124626502.529 4                  23338523.499    23338516.639
        25.900
 107832928.070 8  83870327.731 6  20137054.911    20137056.870    20137057.390
        50.200          39.500
                  95850508.455 5                                  23021578.752
                        33.900
 124347236.474 6                  23237254.215    23237252.543
        38.800
 138747389.436 5                  26402748.411
        34.300


 110495409.579 6  85940450.305 6  20670344.167    20670343.495    20670350.683
        40.800          39.700
 118290937.424 6  92174817.92544  22510018.004    22510017.3564   22510014.9974
        41.600          27.1004
 198901200.968 7                  37849641.303
        43.600
 117364557.020 7  91452910.61646  22333733.260    22333733.0864   22333731.7324
        45.700          37.3004
 120402904.107 7  93820462.08444  22911908.724    22911907.6474   22911909.0824
        42.300          25.3004
 202016026.331 7                  38442373.877
        44.900
 136036724.454 5                  25886929.643
        31.400
 142882693.619 4                  27189673.623
        29.300
 130176813.003 6                  24771824.412
        36.900
 108081347.672 8  84063261.106 7  20275782.776    20275783.052    20275788.253
        49.200          45.000
 114177231.732 5  88804505.851 6  21351711.283    21351711.503    21351720.024
        34.300          41.200
 138713196.438 5                  26396235.669
        31.200
 114527873.630 7  89077255.349 7  21432325.824    21432323.117    21432330.693
        42.400          44.500
 25  1  1 12  8 15.0000000  0 28E27E10G23G02E29G32G12E33G10G28R04R03
                                R21E26S35R05G25S31G31G21S33E07E30E19
                                R14R20E12R15
 139804828.434 4                  26603976.353
        24.000
 146779686.614 6                  27931238.908
        37.700
 123813074.860 6  96477694.77941  23560847.111    23560846.5574   23560843.2784
        37.400           7.8004
 124191745.619 6  96772781.03844  23632902.090    23632900.8794   23632900.8554
        40.800          25.8004
 123296075.071 7                  23462456.549
        43.500
 109596640.045 8  85399943.14547  20855518.450    20855518.0444   20855519.9274
        52.400          47.3004
 126079003.419 5  98243304.77741  23992026.229    23992025.3894   23992019.1954
        34.000          10.8004
 127658934.538 8                  24292682.986
        48.500
 109070345.423 8  84989921.76448  20755397.063    20755396.6124   20755398.3184
        50.800          52.4004
 109289270.226 6  85160469.93644  20797034.439    20797034.2384   20797031.5814
        41.700          24.2004
 107844507.508 8  83879333.998 6  20139216.248    20139218.185    20139218.444
        48.400          37.900
                  95880019.006 5                  23028665.219    23028665.746
                        34.600


 138793917.305 6                  26411602.671
        36.700


 110469547.172 7  85920335.068 6  20665509.326    20665508.911    20665510.210
        44.500          37.500
 118266665.862 5  92155904.99343  22505397.658    22505397.0244   22505394.7784
        32.400          21.9004
 198901208.533 7                  37849644.035
        43.500
 117313414.277 7  91413059.14746  22324000.457    22324000.2564   22324000.6944
        45.500          38.1004
 120405763.900 7  93822690.49844  22912453.219    22912452.1644   22912453.3724
        42.100          25.0004
 202016036.084 7                  38442376.484
        44.500
 136064971.972 5                  25892304.834
        31.200
 142878486.600 5                  27188872.440
        33.100
 130154812.807 6                  24767637.541
        36.200
 108076265.237 7  84059308.133 7  20274826.311    20274826.438    20274832.672
        45.100          42.000
 114195869.250 5  88819001.749 6  21355195.958    21355195.040    21355204.550
        31.000          39.800
 138690895.208 5                  26391994.380
        32.300
 114470660.180 7  89032756.000 7  21421618.053    21421617.306    21421622.275
        44.500          42.600
 25  1  1 12  8 30.0000000  0 29E27E10G23G02E29G32G12E33G10G28R13R04
                                R03R21E26S35R05G25S31G31G21S33E07E30
                                E19R14R20E12R15


 146744230.256 6                  27924492.479
        36.800
 123861707.377 5  96515590.12941  23570114.249    23570113.6994   23570097.6724
        34.300           7.9004
 124174564.646 5  96759393.22443  23629632.618    23629631.4744   23629630.9014
        30.200          21.0004
 123298674.122 7                  23462951.219
        43.300
 109602154.692 8  85404240.25748  20856568.089    20856567.6834   20856569.4754
        52.900          48.6004
 126082440.418 5  98245983.00743  23992676.570    23992676.0474   23992675.7594
        35.000          18.5004
 127680086.332 8                  24296707.835
        49.300
 109089899.165 8  85005158.43648  20759117.323    20759116.8544   20759119.3784
        50.300          51.9004
 109263167.513 7  85140130.20344  20792066.212    20792066.0114   20792061.5514
        44.500          24.5004
 124729977.341 4                  23357896.784    23357903.211
        29.800
 107856144.819 7  83888385.267 5  20141390.322    20141390.333    20141391.438
        46.400          35.800
 123312345.537 6  95909552.783 5  23035758.437    23035756.408    23035760.409
        36.500          34.700
 124282681.180 7                  23225186.788    23225189.447
        43.000
 138840468.877 6                  26420462.824
        37.200


 110443720.740 7  85900247.898 6  20660678.255    20660678.097    20660678.340
        46.900          36.700


 198901216.668 7                  37849643.100
        43.300
 117262346.511 7  91373266.12446  22314282.838    22314282.6194   22314283.2014
        45.300          37.7004
 120408742.277 6  93825011.32943  22913020.639    22913019.5844   22913020.4414
        40.400          23.7004
 202016045.815 7                  38442377.030
        44.400
 136093225.145 5                  25897680.156
        33.800
 142874381.898 5                  27188092.243
        34.000
 130132840.696 6                  24763456.138
        36.200
 108071386.335 7  84055513.446 6  20273912.195    20273910.265    20273914.326
        43.700          36.800
 114214694.484 5  88833643.513 6  21358717.111    21358717.172    21358724.034
        34.200          39.900
 138668689.268 5                  26387765.845
        30.800
 114413538.793 7  88988328.299 6  21410928.271    21410928.308    21410932.173
        45.500          41.300
 25  1  1 12  8 45.0000000  0 29E27E10G23G02E29G32G12E33G10G28R13R04
                                R03R21E26S35R05G25S31G31G21S33E07E30
                                E19R14R20E12R15


 146708836.287 6                  27917758.453
        36.900
 123910391.246 4  96553525.5934   23579380.829    23579380.0424   23579361.8414
        24.800           2.2004
 124157500.770 5  96746096.62642  23626382.808    23626381.6734   23626383.5594
        32.200          15.0004
 123301304.054 7                  23463451.745
        42.400
 109607719.324 8  85408576.32748  20857626.866    20857626.4644   20857628.3964
        52.200          49.0004
 126086019.339 6  98248771.83143  23993359.618    23993359.0154   23993357.5344
        36.400          20.9004
 127701336.124 8                  24300751.324
        49.600
 109109562.110 8  85020480.21448  20762858.618    20762858.1494   20762860.6374
        48.500          49.7004
 109237184.675 7  85119883.86044  20787121.359    20787121.1584   20787116.4114
        44.000          25.3004
 124781878.104 5                  23367624.789    23367629.214
        30.100
 107867837.586 7  83897479.623 5  20143573.979    20143571.703    20143573.429
        42.500          35.700
 123350345.016 5  95939107.857 5  23042853.025    23042852.265    23042858.470
        34.100          32.900
 124250650.347 6                  23219201.733    23219202.052
        41.300
 138887041.613 5                  26429320.992
        34.300


 110417927.790 7  85880186.738 6  20655852.184    20655852.934    20655853.853
        47.600          38.200
 118218478.584 5  92118291.38043  22496230.178    22496229.5844   22496228.7704
        34.900          20.9004
 198901222.239 7                  37849646.311
        43.800
 117211351.667 7  91333529.90046  22304578.989    22304578.7794   22304578.6944
        45.700          36.7004
 120411836.664 7  93827422.55443  22913610.196    22913609.1684   22913607.8874
        42.500          21.7004
 202016052.622 7                  38442380.531
        44.900
 136121481.582 6                  25903057.425
        36.300
 142870377.131 6                  27187332.279
        36.200
 130110894.214 6                  24759280.154
        37.300
 108066708.610 8  84051875.237 6  20273038.669    20273038.688    20273036.390
        49.800          37.300
 114233704.780 6  88848429.290 6  21362274.663    21362276.548    21362278.684
        36.200          40.700
 138646576.451 5                  26383557.323
        31.600
 114356507.316 7  88943970.559 6  21400256.766    21400257.389    21400258.928
        46.800          40.200
 25  1  1 12  9  0.0000000  0 29E27E10G23G02E29G32G12E33G10G28R13R04
                                R03R21E26S35R05G25S31G31G21S33E07E30
                                E19R14R20E12R15


 146673509.020 6                  27911036.390
        36.700


 124140557.467 6  96732894.03043  23623172.868    23623171.8624   23623159.6944
        40.700          22.2004
 123303968.323 7                  23463960.185
        42.300
 109613337.307 8  85412953.97248  20858696.276    20858695.8874   20858697.9904
        52.900          50.0004


 127722687.248 8                  24304814.592
        48.500
 109129337.679 7  85035889.76547  20766621.491    20766621.0044   20766623.1324
        47.700          47.2004
 109211325.302 7  85099733.72444  20782200.461    20782200.2834   20782197.2774
        43.400          27.2004
 124833889.620 4                  23377368.041    23377370.321
        29.600
 107879589.361 7  83906619.851 6  20145765.206    20145766.263    20145771.849
        43.600          38.500
 123388375.760 5  95968687.221 4  23049959.681    23049960.664    23049964.259
        35.000          29.800
 124218787.181 5                  23213245.272    23213246.061
        35.200
 138933638.717 4                  26438187.011
        28.300


 110392172.141 7  85860154.638 6  20651033.633    20651033.536    20651037.477
        46.800          40.800
 118194574.660 6  92099665.01044  22491680.272    22491679.7184   22491681.7204
        37.200          24.1004
 198901229.060 7                  37849648.891
        44.300
 117160433.421 7  91293853.36545  22294889.427    22294889.2084   22294887.9054
        46.000          35.0004
 120415050.333 7  93829926.71543  22914220.678    22914219.6594   22914216.7934
        42.600          19.3004
 202016061.549 7                  38442381.788
        44.800
 136149744.717 5                  25908434.060
        34.900
 142866476.017 5                  27186589.193
        35.900
 130088976.929 6                  24755109.628
        37.000
 108062235.163 8  84048395.891 6  20272198.308    20272198.886    20272199.928
        50.300          40.200
 114252903.735 5  88863361.905 7  21365861.349    21365863.509    21365871.029
        34.100          42.600
 138624560.350 5                  26379368.101
        32.300
 114299569.873 7  88899685.986 6  21389599.941    21389600.877    21389605.051
        44.400          40.600
 25  1  1 12  9 15.0000000  0 29E27E10G23G02E29G32G12E33G10G28R13R04
                                R03R21E26S35R05G25S31G31G21S33E07E30
                                E19R14R20E12R15


 146638248.654 6                  27904326.421
        37.000


 124123735.194 7  96719785.73344  23619960.588    23619959.5514   23619958.8494
        42.000          26.1004
 123306666.991 7                  23464472.946
        44.700
 109619008.757 8  85417373.27848  20859774.983    20859774.5864   20859777.8424
        52.900          49.8004


 127744139.714 8                  24308896.552
        49.000
 109149226.044 7  85051387.21947  20770406.362    20770405.8444   20770407.5424
        46.900          45.3004
 109185589.619 7  85079679.94744  20777302.706    20777302.5374   20777302.3224
        45.600          29.4004
 124886011.685 4                  23387123.561    23387124.272
        25.900
 107891400.420 6  83915806.222 6  20147971.462    20147971.202    20147978.653
        41.800          40.000
 123426437.808 5                  23057080.063    23057078.021
        35.100
 124187092.277 5                  23207317.971    23207317.056
        35.500
 138980259.950 5                  26447064.283
        30.100


 110366453.823 7  85840151.492 6  20646224.554    20646225.424    20646225.681
        47.200          41.600
 118170795.645 6  92081135.92544  22487155.341    22487154.5284   22487156.7514
        37.100          25.6004
 198901237.149 7                  37849649.280
        44.300
 117109592.106 7  91254236.78445  22285214.614    22285214.3104   22285212.7314
        44.200          34.1004
 120418383.281 6  93832523.80042  22914854.670    22914853.6554   22914849.6614
        41.000          17.2004
 202016072.421 7                  38442383.366
        45.000
 136178014.724 5                  25913813.241
        32.200
 142862679.024 5                  27185866.094
        34.300
 130067088.745 6                  24750945.736
        36.200
 108057966.559 8  84045075.847 6  20271395.345    20271395.250    20271399.244
        49.100          41.900
 114272290.858 5  88878440.822 7  21369489.448    21369491.314    21369497.059
        33.900          43.600
 138602641.358 5                  26375196.150
        34.500
 114242727.135 7  88855474.977 6  21378960.567    21378961.018    21378967.029
        43.200          40.700
 25  1  1 12  9 30.0000000  0 27E27E10G23G02E29G32G12E33G10G28R04R21
                                E26S35R05G25S31G31G21S33E07E30E19R14
                                R20E12R15


 146603054.376 6                  27897629.558
        37.000


 124107033.484 7  96706771.36944  23616782.495    23616781.5884   23616780.4684
        42.500          26.6004
 123309399.616 7                  23464992.782
        45.900
 109624733.269 8  85421833.92448  20860864.224    20860863.8404   20860866.8124
        53.300          49.0004


 127765692.994 8                  24312998.195
        48.000
 109169226.863 7  85066972.28247  20774212.909    20774212.3194   20774213.5464
        46.900          44.9004
 109159977.393 7  85059722.36045  20772428.465    20772428.2964   20772430.0514
        45.600          31.9004
 107903270.374 7  83925038.382 6  20150192.155    20150190.138    20150195.603
        44.000          40.000
 124155565.067 6                  23201428.808    23201428.841
        38.600
 139026904.751 5                  26455942.290
        34.600


 110340772.690 7  85820177.310 7  20641419.591    20641420.692    20641422.970
        46.900          43.200
 118147141.405 6  92062704.08144  22482655.615    22482654.6504   22482655.9604
        39.700          29.3004
 198901246.219 7                  37849651.256
        43.700
 117058827.826 7  91214680.24945  22275554.711    22275554.4164   22275553.5714
        42.600          34.0004
 120421835.060 6  93835213.49442  22915511.992    22915510.9684   22915506.0424
        40.200          17.1004
 202016082.567 7                  38442386.917
        44.700
 136206291.189 5                  25919194.528
        30.100
 142858985.337 5                  27185161.667
        33.100
 130045229.392 6                  24746786.466
        39.300
 108053902.245 8  84041914.706 7  20270632.679    20270632.101    20270637.141
        48.200          42.700
 114291865.415 5  88893665.496 7  21373152.234    21373149.159    21373157.126
        30.200          42.200
 138580819.105 6                  26371046.234
        38.000
 114185979.559 7  88811337.988 6  21368343.600    21368342.091    21368347.735
        43.900          41.200
 25  1  1 12  9 45.0000000  0 26E27E10G23G02E29G32E33G10G28R04R21E26
                                S35R05G25S31G31G21S33E07E30E19R14R20
                                E12R15


 146567925.703 5                  27890944.035
        34.800


 124090451.351 7  96693850.22544  23613627.611    23613626.7714   23613624.3704
        43.600          25.8004
 123312165.005 7                  23465519.053
        46.100
 109630509.615 8  85426334.93747  20861963.242    20861962.8624   20861964.6004
        51.900          47.8004
 127787345.776 7                  24317117.944
        47.100
 109189338.952 8  85082644.04247  20778039.944    20778039.3364   20778040.8084
        48.400          46.2004
 109134487.534 7  85039860.12345  20767578.613    20767578.4754   20767579.8744
        45.500          33.2004
 107915198.330 8  83934315.724 6  20152418.713    20152420.346    20152421.751
        48.000          38.200
 124124204.633 6  96541061.679 5  23195564.913    23195566.929    23195576.799
        38.000          34.700
 139073571.800 6                  26464820.484
        36.800


 110315127.271 7  85800230.837 7  20636620.535    20636622.525    20636626.703
        46.700          44.200
 118123611.167 6  92044368.80245  22478177.139    22478176.1924   22478178.3064
        39.200          30.6004
 198901254.708 7                  37849653.215
        44.000
 117008139.441 7  91175182.86545  22265908.314    22265908.0334   22265907.6954
        42.300          32.9004
 120425403.893 6  93837994.41042  22916191.470    22916190.4644   22916185.5764
        40.600          16.4004
 202016093.413 7                  38442389.380
        45.200
 136234572.848 5                  25924579.263
        30.700
 142855394.011 5                  27184478.179
        33.000
 130023397.653 6                  24742631.573
        41.200
 108050041.535 8  84038911.948 7  20269909.853    20269909.746    20269912.841
        50.200          42.200
 114311625.961 4  88909034.903 6  21376845.340    21376841.781    21376850.785
        25.100          40.600
 138559092.689 6                  26366912.894
        40.300
 114129326.198 7  88767274.287 6  21357742.384    21357742.284    21357746.394
        46.500          41.800
 25  1  1 12 10  0.0000000  0 29E27E10G23G02E29G32G12E33G10G28R19R04
                                R03R21E26S35R05G25S31G31G21S33E07E30
                                E19R14R20E12R15
 139567370.869 5                  26558788.283
        33.200
 146532859.543 5                  27884270.066
        31.500


 124073985.395 7  96681019.60344  23610492.551    23610491.6884   23610490.0004
        43.000          26.5004
 123314959.593 7                  23466051.476
        46.700
 109636334.323 8  85430873.65647  20863072.155    20863071.7934   20863072.0024
        52.100          47.5004
 126106003.783 6  98264420.67242  23997174.336    23997174.1804   23997175.6034
        38.200          13.2004
 127809094.453 7                  24321256.680
        46.300
 109209558.872 8  85098399.80547  20781887.693    20781887.0994   20781888.6974
        48.400          46.9004
 109109116.674 7  85020090.60945  20762750.743    20762750.6094   20762751.8194
        45.600          33.6004
                  97171260.417 5                                  23355179.568
                        33.900
 107927180.607 8  83943635.250 5  20154655.152    20154656.779    20154655.943
        48.700          33.300
                                                  23078435.832

 124093008.623 5  96516798.146 6  23189733.532    23189734.475    23189744.274
        35.900          36.300
 139120257.369 5                  26473703.450
        35.900


 110289514.576 7  85780309.810 7  20631830.718    20631831.114    20631835.807
        45.300          44.500
 118100201.693 6  92026127.61844  22473719.651    22473718.6274   22473722.8264
        37.600          27.1004
 198901260.118 7                  37849654.073
        44.000
 116957523.928 6  91135742.26845  22256276.315    22256276.0474   22256275.3954
        41.400          32.9004
 120429086.934 6  93840864.28642  22916892.358    22916891.3174   22916886.2984
        41.600          15.8004
 202016100.628 7                  38442390.597
        45.500
 136262856.176 5                  25929960.850
        32.600
 142851901.722 5                  27183811.982
        30.600
 130001589.869 6                  24738481.729
        40.800
 108046380.534 8  84036064.496 6  20269222.559    20269222.015    20269225.584
        49.800          41.000
                  88924546.044 6                                  21380578.169
                        37.900
 138537458.735 6                  26362794.424
        39.800
 114072764.096 8  88723281.612 6  21347157.926    21347158.257    21347161.617
        48.000          41.600
 25  1  1 12 10 15.0000000  0 29E27E10G23G02E29G32G12E33G10G28R19R04
                                R03R21E26S35R05G25S31G31G21S33E07E30
                                E19R14R20E12R15
 139533650.803 5                  26552372.336
        33.400
 146497864.264 5                  27877610.951
        31.400


 124057644.084 7  96668286.09544  23607382.783    23607381.8944   23607379.5934
        42.600          27.7004
 123317791.749 7                  23466590.205
        47.500
 109642215.708 8  85435456.54348  20864190.765    20864190.4034   20864191.1464
        51.900          48.2004
 126110450.805 6  98267885.83442  23998021.827    23998021.1434   23998022.2024
        37.800          17.9004
 127830947.299 7                  24325415.489
        44.800
 109229895.019 8  85114246.12947  20785757.483    20785756.8984   20785758.6854
        49.500          47.4004
 109083873.370 7  85000420.51045  20757947.205    20757947.0804   20757947.6774
        46.100          34.0004
                  97220581.830 5                                  23367032.511
                        31.500
 107939225.714 7                  20156905.660    20156904.109
        46.500
                  96116894.576 5                  23085581.543    23085571.051
                        30.000
 124061985.527 6  96492669.099 6  23183933.736    23183937.491    23183947.330
        37.000          37.100
 139166969.593 5                  26482597.315
        33.100


 110263942.957 7  85760420.809 7  20627044.599    20627044.215    20627051.233
        43.700          43.400
 118076921.716 6  92007987.35544  22469289.215    22469288.1294   22469293.4474
        37.000          26.9004
 198901269.774 7                  37849654.221
        43.800
 116906989.957 6  91096365.21545  22246659.864    22246659.6864   22246658.9614
        38.400          31.5004
 120432892.475 6  93843829.66342  22917616.421    22917615.3574   22917609.9674
        41.100          14.5004
 202016112.789 7                  38442390.579
        45.400
 136291149.740 5                  25935345.683
        35.200
 142848516.454 4                  27183169.257
        27.300
 129979814.601 6                  24734337.432
        38.400
 108042927.945 8  84033379.162 6  20268572.690    20268572.901    20268578.156
        48.700          41.200
 114351683.368 6  88940205.273 6  21384340.572    21384340.084    21384343.034
        36.600          37.700
 138515925.862 6                  26358698.179
        40.000
 114016302.488 7  88679367.106 6  21336590.931    21336592.211    21336592.874
        47.900          40.100
 25  1  1 12 10 30.0000000  0 28E27E10G23G02E29G32G12E33G10G28R19R04
                                R21E26S35R05G25S31G31G21S33E07E30E19
                                R14R20E12R15
 139499977.999 5                  26545964.843
        34.300
 146462932.789 5                  27870964.081
        32.700
 124252757.212 5                  23644510.310
        33.300
 124041420.110 7  96655644.03644  23604296.213    23604295.2974   23604291.8934
        45.000          29.4004
 123320653.955 8                  23467135.115
        48.200
 109648146.356 8  85440077.80848  20865319.123    20865318.7794   20865320.2574
        50.500          48.2004
 126115039.436 5  98271461.24142  23998895.903    23998895.0144   23998893.4214
        33.400          14.2004
 127852896.724 7                  24329592.695
        45.500
 109250339.998 8  85130177.25248  20789647.541    20789646.9784   20789649.5744
        49.300          48.1004
 109058750.299 7  84980844.09145  20753166.444    20753166.3194   20753166.4664
        46.500          34.2004
                  97269909.804 5                                  23378888.933
                        30.600


 124031127.830 5  96468668.652 5  23178170.042    23178167.550    23178177.944
        34.800          35.200
 139213700.895 5                  26491497.195
        31.300


 110238405.058 7  85740557.984 7  20622268.881    20622268.205    20622272.254
        45.400          42.200
 118053764.148 5  91989942.44344  22464884.709    22464883.6364   22464887.1454
        35.200          27.7004
 198901276.516 7                  37849657.441
        44.100
 116856530.435 5  91057046.15744  22237056.555    22237056.4264   22237055.6684
        34.300          25.8004
 120436813.053 7  93846884.65342  22918362.527    22918361.4234   22918355.3334
        42.100          13.3004
 202016121.253 7                  38442393.825
        44.800
 136319445.939 6                  25940728.835
        37.300
 142845231.220 3                  27182540.221
        23.900
 129958064.295 6                  24730198.707
        38.100
 108039676.379 8  84030850.157 7  20267963.846    20267963.433    20267969.756
        49.400          42.600
 114371999.205 6  88956006.504 6  21388136.701    21388139.103    21388144.136
        38.000          40.700
 138494486.822 6                  26354617.856
        39.700
 113959934.218 7  88635525.218 6  21326041.577    21326043.926    21326044.120
        44.500          38.700
 25  1  1 12 10 45.0000000  0 30E27E10G23G02E29G32G12E33G10G28R13R19
                                R04R03R21E26S35R05G25S31G31G21S33E07
                                E30E19R14R20E12R15
 139466356.633 5                  26539564.587
        31.800
 146428069.075 5                  27864331.771
        34.600
 124301867.109 4                  23653851.508
        28.800
 124025317.376 7  96643096.43945  23601231.680    23601230.7464   23601228.0454
        46.400          31.0004
 123323550.090 8                  23467685.974
        48.700
 109654130.072 8  85444740.44347  20866457.926    20866457.5914   20866459.4084
        49.300          47.9004
 126119773.583 5  98275150.11942  23999796.540    23999795.3514   23999794.4584
        30.900          12.1004
 127874946.450 7                  24333788.671
        46.500
 109270897.623 7  85146196.15847  20793559.664    20793559.1284   20793561.6404
        47.200          47.3004
 109033751.452 7  84961364.47445  20748408.900    20748408.7534   20748409.2104
        45.600          34.2004
 125200899.658 5                  23446102.066    23446101.204
        32.500
                  97319246.879 5                                  23390743.263
                        30.500
 107963486.650 8  83971736.923 5  20161436.976    20161438.352    20161454.290
        48.700          33.300
 123655480.349 6                  23099856.556    23099855.619
        37.100
                  96444800.529 6                                  23172445.239
                        37.000
 139260454.895 4                  26500397.453
        28.300


 110212904.885 7  85720724.559 7  20617497.708    20617498.339    20617503.009
        45.400          42.200
 118030733.157 6  91971996.19244  22460502.561    22460501.4844   22460503.7484
        39.300          28.5004
 198901285.467 7                  37849659.788
        43.800
 116806149.390 5  91017788.21443  22227468.581    22227468.0764   22227467.9244
        31.300          21.3004
 120440852.231 6  93850032.10341  22919130.627    22919129.3984   22919123.4154
        36.800          10.4004
 202016131.987 7                  38442396.982
        45.100
 136347748.729 6                  25946115.586
        38.100
 142842050.001 4                  27181941.328
        27.300
 129936342.910 6                  24726064.848
        38.400
 108036629.958 8  84028480.632 7  20267393.015    20267392.679    20267398.028
        50.900          42.300
 114392501.368 6  88971952.594 7  21391973.587    21391973.407    21391978.642
        38.800          42.000
 138473145.522 6                  26350557.490
        40.000
 113903663.682 5  88591759.324 6  21315506.326    21315504.133    21315515.090
        35.200          39.600
 25  1  1 12 11  0.0000000  0 29E27E10G23G02E29G32G12E33G10G28R13R04
                                R03R21E26S35R05G25S31G31G21S33E07E30
                                E19R14R20E12R15
 139432784.314 5                  26533176.250
        33.200
 146393270.858 5                  27857709.392
        31.000


 124009333.759 7  96630641.66245  23598190.303    23598189.3694   23598186.6444
        45.700          31.0004
 123326477.620 8                  23468243.084
        49.100
 109660164.297 7  85449442.43147  20867606.806    20867606.4714   20867607.7794
        47.600          47.0004
 126124650.656 5  98278950.46641  24000732.369    24000731.1004   24000722.7264
        31.100           8.6004
 127897093.830 7                  24338002.940
        47.200
 109291565.439 8  85162300.93947  20797492.779    20797492.2474   20797494.1374
        48.500          47.1004
 109008874.425 7  84941979.76845  20743675.331    20743675.1664   20743675.1664
        44.900          34.3004
 125253769.991 5                  23456001.108    23456001.488
        30.800
 107975703.798 8  83981239.290 4  20163716.335    20163717.914    20163732.371
        48.300          29.800
 123693750.839 5                  23106994.661    23107001.437
        34.900


 139307228.750 5                  26509303.154
        31.000


 110187440.146 7  85700918.675 6  20612736.027    20612736.172    20612737.985
        47.300          41.400
 118007826.563 6  91954146.89244  22456142.973    22456141.8914   22456142.8124
        41.700          29.9004
 198901292.177 7                  37849660.074
        44.200
 116755844.829 5  90978589.87343  22217895.459    22217894.5744   22217895.2444
        30.800          22.5004
 120445007.363 5  93853269.85541  22919921.829    22919920.4754   22919913.7344
        34.000           7.8004
 202016141.291 7                  38442397.961
        45.600
 136376055.478 6                  25951502.776
        37.600
 142838970.305 4                  27181354.143
        29.900
 129914647.757 5                  24721936.691
        35.500
 108033786.374 8  84026269.033 6  20266859.923    20266859.662    20266862.864
        51.600          41.900
 114413186.652 6  88988041.142 7  21395840.347    21395840.417    21395847.745
        37.700          43.200
 138451899.761 6                  26346515.302
        39.500
 113847489.286 5  88548068.079 6  21305000.582    21304998.776    21305003.356
        33.200          41.500
 25  1  1 12 11 15.0000000  0 28E27E10G23G02E29G32E33G10G28R13R04R03
                                R21E26S35R05G25S31G31G21S33E07E30E19
                                R14R20E12R15
 139399261.374 5                  26526795.391
        32.200
 146358538.409 5                  27851099.463
        30.000
 124400191.020 5                  23672569.255
        34.500
 123993469.147 7  96618279.62644  23595171.493    23595170.5634   23595167.0244
        46.200          29.8004
 123329436.453 8                  23468806.148
        50.000
 109666249.012 7  85454183.78947  20868765.077    20868764.7294   20868765.5894
        47.200          46.3004
 127919338.720 7                  24342236.086
        47.100
 109312343.404 8  85178491.58247  20801445.821    20801445.2714   20801447.6684
        48.700          47.8004
 108984119.284 7  84922690.04645  20738964.919    20738964.7454   20738964.1604
        45.400          34.6004
 125306744.328 4                  23465920.352    23465917.986
        25.600
 107987978.168 7  83990786.140 5  20166010.026    20166011.584    20166009.576
        47.600          31.700
 123732049.973 5                  23114155.707    23114159.924
        33.700
 123939514.284 5  96397455.980 5  23161062.531    23161062.181    23161071.636
        35.700          34.400
 139354022.137 5                  26518198.810
        35.700


 110162010.770 7  85681140.255 6  20607978.140    20607979.144    20607979.665
        46.100          39.900
 117985044.669 7  91936394.76745  22451808.555    22451807.4514   22451806.6704
        43.300          31.5004
 198901297.103 7                  37849660.732
        44.400
 116705616.789 6  90939451.19144  22208341.019    22208340.3134   22208336.6464
        38.500          27.9004
 120449278.720 5  93856598.19841  22920733.879    22920732.5074   22920726.3844
        31.400           7.9004
 202016148.987 7                  38442399.231
        45.500
 136404366.199 6                  25956890.144
        40.700
 142835992.238 5                  27180788.349
        31.400
 129892978.873 6                  24717814.415
        36.400
 108031145.260 8  84024214.929 7  20266365.361    20266365.051    20266368.589
        52.900          42.300
 114434054.668 6  89004271.788 7  21399743.003    21399743.218    21399749.348
        36.500          42.500
 138430749.562 6                  26342490.138
        39.000
 113791411.434 6  88504451.913 7  21294508.636    21294506.351    21294511.409
        38.100          44.500
 25  1  1 12 11 30.0000000  0 29E27E10G23G02E29G32G12E33G10G28R13R04
                                R03R21E26S35R05G25S31G31G21S33E07E30
                                E19R14R20E12R15
 139365792.713 5                  26520428.771
        35.200
 146323876.531 5                  27844503.351
        31.000
 124449457.548 5                  23681939.732
        35.000
 123977728.215 7  96606013.98844  23592175.667    23592174.7284   23592171.5254
        45.400          29.3004
 123332431.140 8                  23469376.006
        49.800
 109672388.734 8  85458967.99247  20869932.720    20869932.3404   20869933.8994
        48.600          46.0004
 126134868.342 5  98286870.95041  24002664.055    24002663.6084   24002657.6024
        34.300           6.6004
 127941685.580 7                  24346488.936
        46.200
 109333236.162 8  85194771.68048  20805421.446    20805420.9054   20805423.7914
        49.700          49.2004
 108959490.732 7  84903498.96545  20734278.832    20734278.6544   20734277.3804
        46.500          34.9004
 125359826.716 4                  23475860.110    23475861.283
        26.000
 108000314.143 7  84000380.846 5  20168310.547    20168311.303    20168317.269
        42.200          34.100
 123770382.753 5                  23121336.717
        34.500
 123909334.940 5  96373983.210 5  23155423.112    23155417.648    23155433.067
        32.200          32.600
 139400839.554 5                  26527103.586
        33.900


 110136621.438 7  85661392.960 6  20603227.865    20603228.819    20603230.493
        46.700          39.900
 117962392.404 7  91918743.64945  22447497.688    22447496.5394   22447496.4514
        42.400          32.7004
 198901306.344 7                  37849661.671
        44.200
 116655470.159 6  90900375.94044  22198796.905    22198796.2214   22198794.0654
        41.700          29.9004
 120453670.534 4  93860020.37841  22921568.914    22921567.5464   22921561.8584
        27.900           7.5004
 202016159.222 7                  38442401.463
        45.600
 136432685.483 6                  25962278.321
        40.400
 142833120.714 5                  27180244.249
        31.100
 129871340.851 6                  24713696.539
        37.700
 108028711.403 8  84022321.938 7  20265907.271    20265907.797    20265912.528
        52.700          42.700
 114455110.070 6  89020648.162 7  21403679.483    21403680.871    21403686.410
        36.600          42.300
 138409699.783 6                  26338482.727
        37.900
 113735435.020 7  88460914.647 7  21284030.723    21284030.815    21284037.197
        42.700          45.600
 25  1  1 12 11 45.0000000  0 29E27E10G23G02E29G32G12E33G10G28R13R04
                                R03R21E26S35R05G25S31G31G21S33E07E30
                                E19R14R20E12R15
 139332376.377 5                  26514068.239
        35.700
 146289283.222 5                  27837920.030
        35.100
 124498776.727 5                  23691326.024
        34.100
 123962108.977 7  96593843.15345  23589202.645    23589201.6804   23589199.8764
        46.100          30.2004
 123335459.436 8                  23469952.292
        50.100
 109678581.266 8  85463793.33547  20871110.763    20871110.3614   20871112.2614
        48.100          46.2004
 126140180.812 5  98291010.47341  24003673.096    24003672.6494   24003669.2174
        32.000           7.9004
 127964132.074 7                  24350760.288
        47.600
 109354241.534 8  85211139.52748  20809418.719    20809418.1964   20809421.5604
        49.800          50.1004
 108934986.740 7  84884404.95745  20729615.705    20729615.5134   20729614.2704
        47.500          35.6004
 125413014.413 4                  23485825.756
        25.800
 108012709.911 6  84010022.027 4  20170624.503    20170624.814    20170655.199
        41.300          29.700
 123808746.427 6                  23128487.703    23128496.451
        36.000
 123879326.824 6  96350643.581 5  23149817.567    23149816.914    23149829.548
        40.100          33.900
 139447678.534 5                  26536014.764
        32.700


 110111270.180 6  85641675.275 6  20598483.705    20598483.618    20598487.537
        40.900          39.900
 117939867.869 7  91901192.10145  22443212.105    22443211.0104   22443210.8884
        43.500          34.2004
 198901316.220 7                  37849665.154
        44.500
 116605403.098 7  90861362.70145  22189268.884    22189268.2054   22189267.6984
        42.400          31.3004
 120458180.637 5  93863534.80741  22922427.681    22922426.3404   22922419.8154
        31.700          10.9004
 202016171.977 7                  38442403.301
        45.600
 136461011.135 6                  25967668.593
        38.300
 142830353.985 5                  27179726.964
        31.100
 129849731.501 6                  24709584.140
        38.500
 108026482.480 8  84020588.307 7  20265488.736    20265489.078    20265495.567
        52.300          42.500
 114476350.419 5  89037168.508 7  21407649.954    21407652.598    21407659.925
        33.500          43.500
 138388748.314 6                  26334495.763
        37.800
 113679558.592 7  88417455.196 7  21273571.229    21273571.184    21273580.285
        43.500          45.000
 25  1  1 12 12  0.0000000  0 27E27E10G23G02E29G32E33G10G28R04R03R21
                                E26S35R05G25S31G31G21S33E07E30E19R14
                                R20E12R15
 139299012.550 5                  26507720.966
        34.600
 146254758.797 6                  27831355.397
        36.400
 124548148.468 6                  23700722.479
        37.000
 123946611.712 7  96581767.39445  23586253.489    23586252.5104   23586251.9284
        45.600          31.4004
 123338521.187 8                  23470534.893
        49.900
 109684826.533 8  85468659.77747  20872299.613    20872299.2424   20872300.6794
        49.400          46.1004
 127986678.031 8                  24355050.414
        48.300
 109375359.477 8  85227595.09648  20813437.796    20813437.2874   20813440.2614
        50.300          50.8004
 108910607.355 7  84865408.04845  20724976.427    20724976.2084   20724975.3234
        47.000          35.9004
 108025165.453 6                  20172963.465    20172957.006
        41.600
 123847141.743 6                  23135669.316    23135665.607
        38.700
 123849489.805 6  96327436.988 6  23144242.606    23144240.818    23144250.246
        36.800          36.300
 139494538.842 5                  26544926.720
        32.400


 110085956.771 6  85621987.084 6  20593750.953    20593748.353    20593752.487
        38.600          39.500
 117917471.317 7  91883740.24745  22438948.910    22438947.8334   22438950.2914
        42.500          35.4004
 198901326.528 7                  37849668.544
        44.100
 116555415.610 7  90822411.47045  22179756.277    22179755.6114   22179756.7444
        42.500          30.3004
 120462808.753 6  93867141.12942  22923310.612    22923309.3294   22923301.1764
        36.500          15.2004
 202016185.246 7                  38442407.316
        45.300
 136489343.114 6                  25973060.626
        37.800
 142827691.057 4                  27179220.934
        26.900
 129828150.559 6                  24705476.557
        38.900
 108024458.743 8  84019014.260 6  20265109.554    20265109.295    20265113.784
        52.700          40.400
 114497775.032 5  89053832.228 7  21411656.219    21411655.822    21411667.335
        30.400          44.200
 138367895.296 6                  26330527.960
        37.600
 113623782.656 7  88374073.925 7  21263137.241    21263134.614    21263142.382
        42.800          42.600
 25  1  1 12 12 15.0000000  0 27E27E10G23G02E29G32E33G10G28R04R03R21
                                E26S35R05G25S31G31G21S33E07E30E19R14
                                R20E12R15
 139265695.857 5                  26501380.358
        31.200
 146220297.753 5                  27824803.910
        34.900
 124597566.842 6                  23710124.579
        36.200
 123931230.559 7  96569782.09345  23583327.617    23583326.6254   23583325.8684
        45.200          33.0004
 123341610.747 8                  23471123.249
        49.100
 109691118.878 8  85473562.91047  20873496.723    20873496.3434   20873497.8854
        49.400          46.4004
 128009317.610 7                  24359358.162
        46.600
 109396584.327 8  85244133.97948  20817477.225    20817476.7254   20817478.8874
        51.500          51.9004
 108886346.989 7  84846503.88645  20720359.169    20720358.9154   20720359.2594
        45.500          35.8004
 108037674.904 7  84029383.476 5  20175289.092    20175292.593    20175293.005
        46.100          33.600
 123885562.621 5                  23142841.380    23142839.377
        34.500
 123819818.642 5  96304359.461 6  23138695.822    23138693.457    23138702.483
        33.200          38.100
 139541414.565 5                  26553846.203
        32.500


 110060675.937 5  85602324.304 6  20589022.007    20589017.864    20589023.992
        34.700          39.100
 117895197.343 6  91866383.91345  22434710.172    22434709.1044   22434712.2344
        41.800          35.2004
 198901333.098 7                  37849668.526
        43.900
 116505502.710 6  90783518.34844  22170258.152    22170257.5004   22170258.1774
        41.400          28.6004
 120467549.401 6  93870835.13143  22924210.712    22924209.4074   22924206.2374
        37.300          19.8004
 202016193.710 7                  38442407.857
        45.400
 136517675.727 6                  25978451.770
        37.600
 142825126.760 4                  27178728.556
        28.100
 129806592.424 6                  24701373.817
        37.900
 108022634.444 8  84017595.320 6  20264767.054    20264767.184    20264770.784
        52.800          40.000
 114519378.050 5  89070634.624 7  21415697.812    21415698.151    21415705.582
        34.400          42.100
 138347135.238 6                  26326577.207
        36.900
 113568102.346 8  88330767.018 6  21252718.629    21252719.391    21252718.118
        49.200          37.000
 25  1  1 12 12 30.0000000  0 26E27E10G23G02E29G32E33G10G28R04R21E26
                                S35R05G25S31G31G21S33E07E30E19R14R20
                                E12R15
 139232432.888 5                  26495051.447
        33.700
 146185906.578 5                  27818245.383
        34.400
 124647038.152 5                  23719539.711
        32.800
 123915972.124 7  96557892.42845  23580424.321    23580423.3244   23580422.6634
        46.100          33.6004
 123344734.484 8                  23471717.789
        49.700
 109697464.616 8  85478507.66547  20874704.879    20874704.5084   20874704.9014
        48.500          45.9004
 128032057.104 7                  24363685.945
        45.500
 109417922.479 8  85260761.12848  20821537.756    20821537.2474   20821539.0944
        52.500          52.9004
 108862212.163 7  84827697.53045  20715766.606    20715766.3434   20715766.5984
        43.100          34.5004
 108050244.934 7  84039160.086 6  20177636.629    20177638.116    20177639.033
        47.600          36.200
 123790319.913 5  96281415.914 6  23133182.225    23133180.819    23133189.446
        35.400          39.200
 139588311.817 4                  26562769.712
        29.600


 110035434.145 6  85582691.785 5  20584295.159    20584295.240    20584299.691
        36.700          35.500
 117873052.706 6  91849128.38445  22430495.600    22430494.4654   22430498.7144
        40.800          34.6004
 198901341.196 7                  37849669.554
        44.100
 116455670.943 6  90744688.42344  22160775.336    22160774.6844   22160773.6024
        39.800          26.4004
 120472408.688 6  93874621.61943  22925135.753    22925134.4704   22925133.9554
        40.600          22.2004
 202016204.176 7                  38442410.062
        45.300
 136546015.269 6                  25983845.000
        38.800
 142822667.362 4                  27178257.031
        26.100
 129785063.480 6                  24697277.561
        38.000
 108021016.133 9  84016336.657 7  20264464.513    20264465.055    20264467.421
        54.000          42.200
 114541165.327 5  89087580.320 6  21419772.439    21419772.484    21419778.268
        33.800          38.500
 138326474.743 6                  26322645.260
        36.300
 113512524.035 8  88287539.564 5  21242316.175    21242317.297    21242314.374
        50.900          33.600
 25  1  1 12 12 45.0000000  0 28E27E10G23G02E29G32G12E33G10G28R04R03
                                R21E26S35R05G25S31G31G21S33E07E30E19
                                R14R20E12R15
 139199221.654 6                  26488729.864
        36.100
 146151583.426 5                  27811714.144
        32.500
 124696559.875 5                  23728974.521
        33.000
 123900834.242 7  96546096.73445  23577543.043    23577542.0824   23577541.6374
        45.800          32.7004
 123347890.021 8                  23472317.838
        49.500
 109703861.420 8  85483492.20147  20875922.367    20875921.9924   20875921.7594
        48.800          44.7004
 126162825.571 5  98308706.71641  24007994.321    24007994.2414   24007991.2244
        32.200           8.0004
 128054894.028 7                  24368031.136
        46.100
 109439371.636 9  85277474.77548  20825619.887    20825619.3784   20825620.7644
        54.300          53.8004
 108838200.705 7  84808987.28745  20711198.772    20711198.5094   20711196.5824
        43.100          33.0004
 108062873.395 7  84048982.122 6  20179994.536    20179996.941    20179997.094
        47.200          37.100
 123962498.191 5                  23157203.184    23157202.497
        35.500
 123760991.957 5  96258605.212 6  23127698.881    23127697.018    23127708.377
        31.000          40.500
 139635228.087 4                  26571701.419
        28.300


 110010229.139 6  85563087.896 5  20579583.381    20579582.490    20579582.429
        39.900          33.200
 117851035.414 6  91831972.07145  22426306.321    22426305.1234   22426309.2694
        39.400          35.0004
 198901348.670 7                  37849671.164
        43.800
 116405918.264 5  90705920.14344  22151308.466    22151307.8274   22151304.1684
        35.700          24.4004
 120477384.420 7  93878498.84643  22926082.186    22926080.8904   22926081.1574
        43.300          23.2004
 202016214.053 7                  38442410.951
        45.500
 136574359.452 6                  25989239.538
        38.200
 142820310.500 4                  27177805.878
        26.700
 129763561.456 6                  24693185.898
        40.000
 108019601.249 8  84015236.240 7  20264198.522    20264198.989    20264203.608
        52.400          44.800
 114563134.209 5  89104667.192 6  21423882.280    21423881.610    21423888.316
        32.100          37.900
 138305911.605 6                  26318731.964
        36.600
 113457046.410 8  88244390.455 6  21231934.791    21231935.307    21231935.461
        51.000          36.900
 25  1  1 12 13  0.0000000  0 27E27E10G23G02E29G32E33G10G28R04R03R21
                                E26S35R05G25S31G31G21S33E07E30E19R14
                                R20E12R15
 139166060.672 6                  26482419.439
        36.200
 146117327.110 5                  27805194.862
        31.800


 123885815.205 7  96534393.63645  23574685.659    23574684.6944   23574682.2004
        43.500          30.4004
 123351075.592 8                  23472924.161
        49.600
 109710307.526 7  85488515.14147  20877149.005    20877148.6084   20877148.2634
        44.900          42.1004
 128077826.479 7                  24372395.173
        47.000
 109460930.061 9  85294273.55149  20829722.609    20829722.1004   20829723.4914
        54.600          54.1004
 108814310.895 7  84790371.83945  20706650.750    20706650.4514   20706649.9574
        45.800          33.9004
 108075558.517 7  84058848.252 6  20182365.105    20182365.260    20182368.798
        46.800          40.000
 124001008.549 5  96445140.740 5  23164394.283    23164394.360    23164406.871
        34.100          31.400
                  96235926.264 7                  23122258.715    23122260.112
                        42.400




 109985059.188 6  85543511.336 6  20574870.916    20574872.158    20574875.505
        41.600          36.400
 117829144.027 6  91814913.87245  22422142.043    22422140.8234   22422143.5504
        37.800          34.6004
 198901353.938 7                  37849672.559
        43.700
 116356243.150 5  90667212.29243  22141855.646    22141855.0434   22141850.4874
        33.500          21.9004
 120482474.777 7  93882465.39243  22927050.404    22927049.1444   22927048.9954
        42.100          22.9004
 202016222.082 7                  38442412.758
        45.500
 136602706.572 6                  25994635.174
        37.300
 142818054.468 4                  27177377.429
        28.900
 129742084.439 6                  24689098.376
        41.000
 108018388.293 8  84014292.853 7  20263970.812    20263970.046    20263976.915
        50.400          45.800
 114585283.162 5  89121894.071 6  21428025.494    21428026.464    21428028.774
        35.400          36.600
 138285444.160 6                  26314835.826
        36.700
 113401668.196 8  88201318.598 6  21221571.550    21221572.403    21221573.741
        50.400          40.100
 25  1  1 12 13 15.0000000  0 27E27E10G23G02E29G32E33G10G28R04R03R21
                                E26S35R05G25S31G31G21S33E07E30E19R14
                                R20E12R15
 139132955.656 5                  26476120.692
        35.100
 146083142.504 4                  27798691.557
        26.700


 123870920.415 7  96522787.37044  23571851.073    23571850.0764   23571846.1404
        42.400          28.2004
 123354296.596 8                  23473537.079
        49.400
 109716808.309 7  85493580.67546  20878385.784    20878385.3554   20878385.9094
        42.000          40.8004
 128100859.780 7                  24376778.039
        47.700
 109482603.193 9  85311161.70948  20833846.832    20833846.3274   20833847.9234
        54.300          53.7004
 108790548.327 7  84771855.53746  20702128.437    20702128.1424   20702128.4584
        47.200          36.0004
 108088305.887 7  84068762.822 6  20184742.700    20184743.385    20184750.071
        44.500          38.800
 124039552.624 5  96475119.311 5  23171596.644    23171596.257    23171602.615
        31.500          30.600
 123702849.753 6  96213383.289 7  23116843.249    23116843.925    23116844.360
        39.500          42.200




 109959929.887 7  85523966.298 6  20570170.550    20570170.788    20570177.118
        44.200          39.400
 117807384.337 6  91797958.28645  22418000.631    22417999.2994   22418002.4344
        38.800          34.0004
 198901362.493 7                  37849672.291
        43.600
 116306651.213 5  90628569.24243  22132418.404    22132417.7384   22132413.0384
        33.400          22.3004
 120487684.775 7  93886525.16843  22928042.725    22928041.4734   22928040.4214
        42.000          22.5004
 202016232.196 7                  38442413.397
        44.800
 136631062.004 6                  26000032.100
        36.900
 142815905.238 4                  27176968.585
        28.400
 129720637.956 6                  24685017.257
        39.600
 108017382.942 8  84013510.951 7  20263781.238    20263781.974    20263785.713
        49.700          43.600
 114607616.463 5  89139264.436 5  21432201.541    21432202.047    21432205.471
        35.400          34.800
 138265078.180 5                  26310960.252
        35.800
 113346395.421 7  88158328.697 6  21211226.005    21211228.158    21211229.769
        47.900          40.800
 25  1  1 12 13 30.0000000  0 27E27E10G23G02E29G32E33G10G28R04R03R21
                                E26S35R05G25S31G31G21S33E07E30E19R14
                                R20E12R15
 139099903.196 6                  26469831.678
        36.700
 146049026.616 4                  27792196.823
        25.200


 123856146.426 6  96511275.19844  23569039.080    23569038.1244   23569034.0624
        41.300          26.9004
 123357549.339 8                  23474156.214
        48.500
 109723360.136 7  85498685.98946  20879632.795    20879632.3444   20879633.6224
        42.900          41.7004
 128123990.139 7                  24381179.622
        47.400
 109504387.374 8  85328136.39448  20837992.144    20837991.6394   20837993.4804
        53.100          52.6004
 108766909.492 8  84753435.66146  20697630.674    20697630.3934   20697630.7214
        48.400          37.7004
 108101111.947 7  84078723.048 5  20187134.771    20187134.635    20187142.304
        43.000          35.700
 124078126.662 6                  23178809.166    23178815.052
        37.600
 123674037.691 7  96190973.871 6  23111464.466    23111466.732    23111459.597
        43.600          40.700




 109934837.837 7  85504450.230 7  20565479.435    20565479.108    20565484.092
        47.600          42.100
 117785752.955 6  91781102.67445  22413883.098    22413881.7574   22413885.6354
        38.600          35.5004
 198901370.531 7                  37849674.831
        44.000
 116257139.282 6  90589988.55544  22122996.837    22122996.2564   22122991.8444
        36.900          26.8004
 120493010.854 6  93890675.38943  22929056.471    22929055.2244   22929053.5794
        40.800          21.6004
 202016243.099 7                  38442417.207
        44.900
 136659422.235 5                  26005424.819
        32.500
 142813859.121 4                  27176577.931
        25.100
 129699218.268 5                  24680941.172
        35.900
 108016581.188 8  84012887.388 7  20263629.809    20263629.590    20263635.820
        48.000          43.700
 114630130.604 6  89156775.453 5  21436410.690    21436411.087    21436415.848
        36.700          34.900
 138244810.080 5                  26307104.457
        35.100
 113291224.825 7  88115418.286 6  21200898.383    21200898.755    21200905.553
        42.900          41.400
 25  1  1 12 13 45.0000000  0 27E27E10G23G02E29G32E33G10G28R04R03R21
                                E26S35R05G25S31G31G21S33E07E30E19R14
                                R20E12R15
 139066906.476 6                  26463552.085
        37.700
 146014982.203 4                  27785723.594
        29.600


 123841496.316 7  96499859.58344  23566251.829    23566250.8994   23566246.6094
        42.800          26.4004
 123360836.730 7                  23474782.068
        47.600
 109729965.916 7  85503833.35547  20880889.464    20880889.0084   20880891.1094
        46.300          42.7004
 128147220.354 7                  24385600.585
        47.000
 109526285.616 8  85345199.94848  20842159.058    20842158.5804   20842160.7594
        51.400          50.3004
 108743397.430 8  84735114.57046  20693156.604    20693156.3234   20693156.7114
        48.700          38.2004
 108113979.771 7  84088731.238 5  20189538.285    20189538.033    20189548.363
        44.300          33.200
 124116733.542 5                  23186024.002    23186025.020
        33.600
 123645400.034 6  96168699.927 6  23106111.449    23106113.667    23106107.462
        39.000          38.400




 109909785.952 8  85484965.419 7  20560793.577    20560792.638    20560796.611
        48.700          43.200
 117764253.182 6  91764349.62946  22409793.265    22409792.0274   22409794.1274
        41.200          37.5004
 198901381.259 7                  37849676.745
        43.600
 116207710.571 6  90551472.73745  22113591.662    22113591.1354   22113586.1524
        41.900          30.4004
 120498456.028 6  93894918.39643  22930092.537    22930091.3304   22930088.2994
        41.900          20.3004
 202016256.693 7                  38442418.969
        44.700
 136687790.027 4                  26010823.936
        24.100
 142811918.870 4                  27176208.421
        29.600
 129677828.298 5                  24676870.619
        32.300
 108015986.327 7  84012424.741 7  20263517.473    20263516.865    20263524.043
        46.200          44.800
 114652828.276 5  89174429.183 5  21440654.864    21440654.492    21440663.241
        35.600          35.400
 138224642.942 6                  26303267.558
        36.700
 113236160.295 7  88072590.295 7  21190596.751    21190598.408    21190601.906
        45.500          43.600
 25  1  1 12 14  0.0000000  0 27E27E10G23G02E29G32E33G10G28R04R03R21
                                E26S35R05G25S31G31G21S33E07E30E19R14
                                R20E12R15
 139033961.051 6                  26457283.099
        39.800
 145981005.458 5                  27779256.395
        30.300


 123826965.562 7  96488536.95544  23563487.127    23563486.0994   23563482.2384
        42.500          25.9004
 123364153.996 7                  23475413.449
        47.000
 109736620.861 7  85509019.03247  20882154.599    20882154.1124   20882157.3524
        45.600          42.2004
 128170545.567 7                  24390039.547
        46.400
 109548293.124 8  85362348.64547  20846346.166    20846345.6884   20846347.7454
        48.800          46.2004
 108720007.499 8  84716888.64846  20688706.285    20688705.9864   20688705.4614
        48.900          37.5004




 123616933.269 6  96146559.081 5  23100796.481    23100796.573    23100788.217
        36.800          35.400




 109884769.532 8  85465508.220 7  20556112.996    20556112.785    20556119.267
        49.700          44.800
 117742880.493 7  91747695.61346  22405726.372    22405725.2194   22405726.3634
        43.500          37.9004
 198901389.413 7                  37849677.196
        43.800
 116158360.698 7  90513018.33745  22104200.029    22104199.4934   22104195.0524
        43.900          32.9004
 120504015.409 6  93899250.37843  22931149.072    22931147.9144   22931144.7824
        40.300          18.5004
 202016267.092 7                  38442422.095
        45.000




 129656463.381 5                  24672805.764
        31.400
 108015593.529 8  84012119.172 7  20263444.899    20263444.971    20263451.258
        48.100          45.200
 114675704.759 5  89192221.976 5  21444933.734    21444932.641    21444936.641
        35.400          34.800
 138204572.188 6                  26299447.959
        36.500
 113181197.126 7  88029841.136 7  21180310.949    21180311.762    21180317.451
        47.000          45.600
 25  1  1 12 14 15.0000000  0 27E27E10G23G02E29G32G12E33G10G28R04R21
                                E26S35R05G25S31G31G21S33E07E30E19R14
                                R20E12R15
 139001066.187 6                  26451023.047
        41.500
 145947095.228 5                  27772806.925
        32.600
 124994756.023 5                  23785706.372
        35.500
 123812553.250 6  96477306.60543  23560744.032    23560743.0174   23560739.0684
        38.400          23.8004
 123367500.135 7                  23476049.981
        46.800
 109743323.966 7  85514242.24046  20883431.276    20883430.7944   20883432.3504
        44.800          41.7004
 126201204.508 5                  24015290.138
        31.900
 128193964.573 7                  24394495.831
        45.500
 109570408.887 7  85379581.68846  20850554.858    20850554.3534   20850554.6524
        42.100          40.6004
 108696738.783 8  84698757.18646  20684278.186    20684277.8694   20684277.1104
        49.100          37.5004
 108139885.254 7                  20194377.562    20194378.028
        45.900
 123588636.522 6  96124550.327 5  23095515.373    23095513.677    23095502.339
        37.400          33.400




 109859787.702 8  85446077.901 7  20551439.288    20551439.278    20551445.178
        49.800          44.700
 117721634.237 6  91731140.10046  22401683.973    22401682.8424   22401682.6754
        41.500          37.0004
 198901394.242 7                  37849676.932
        43.900
 116109088.978 6  90474624.84945  22094823.664    22094823.1324   22094819.6244
        39.800          34.0004
 120509687.902 6  93903670.50843  22932228.626    22932227.4684   22932224.1964
        40.600          19.3004
 202016274.941 7                  38442424.791
        45.900




 129635122.492 5                  24668743.131
        34.100
 108015401.805 7  84011969.985 7  20263408.952    20263408.755    20263416.236
        47.900          46.200
 114698757.563 5  89210151.965 5  21449244.525    21449243.585    21449248.198
        33.700          34.900
 138184597.014 6                  26295647.708
        36.800
 113126335.037 7  87987170.613 7  21170046.292    21170045.060    21170050.351
        47.100          46.600
 25  1  1 12 14 30.0000000  0 28E27E10G23G02E29G32G12E33G10G28R04R03
                                R21E26S35R05G25S31G31G21S33E07E30E19
                                R14R20E12R15
 138968230.163 6                  26444774.727
        41.500
 145913259.551 5                  27766366.510
        31.700
 125044631.980 5  97437378.98341  23795196.685    23795196.7344   23795205.0824
        35.800          10.1004
 123798267.536 6  96466174.93043  23558026.224    23558025.1784   23558019.6284
        40.200          22.2004
 123370883.138 7                  23476693.085
        46.300
 109750083.192 7  85519509.17746  20884718.162    20884717.6624   20884718.1474
        44.400          40.5004
 126208105.290 4                  24016603.446
        29.200
 128217485.286 7                  24398970.869
        43.200
 109592640.973 7  85396905.40746  20854787.607    20854787.0624   20854784.7454
        43.200          38.7004
 108673599.418 8  84680726.51146  20679874.453    20679874.1364   20679873.4884
        49.100          37.4004


 124232640.265 5                  23207699.590    23207708.540
        32.500
 123560517.543 6  96102679.876 5  23090233.716    23090236.845    23090249.054
        39.400          31.900




 109834848.694 8  85426680.849 7  20546774.904    20546774.222    20546779.822
        49.500          43.600
 117700522.788 6  91714689.61246  22397667.163    22397666.0414   22397665.5974
        41.900          36.3004
 198901404.251 7                  37849680.013
        43.700
 116059903.378 7  90436298.45245  22085465.588    22085465.0704   22085460.5994
        42.100          35.3004
 120515481.459 6  93908184.99943  22933331.980    22933330.8544   22933327.0194
        40.200          18.7004
 202016287.242 7                  38442427.443
        46.400




 129613813.539 6                  24664688.646
        36.400
 108015419.592 7  84011983.867 7  20263411.206    20263411.943    20263418.606
        47.500          44.900
 114721995.200 5  89228225.736 6  21453589.891    21453588.915    21453593.738
        31.000          38.100
 138164725.529 6                  26291866.185
        38.100
 113071582.804 8  87944585.564 7  21159799.419    21159800.041    21159803.887
        48.500          46.300
 25  1  1 12 14 45.0000000  0 28E27E10G23G02E29G32G12E33G10G28R04R03
                                R21E26S35R05G25S31G31G21S33E07E30E19
                                R14R20E12R15
 138935446.649 6                  26438536.156
        39.100
 145879492.151 5                  27759939.864
        34.200
 125094555.749 6  97476280.66241  23804697.744    23804697.7444   23804705.4334
        36.400          10.1004
 123784101.651 6  96455136.57643  23555330.443    23555329.3434   23555321.0804
        41.200          20.9004
 123374296.266 7                  23477342.320
        45.600
 109756891.971 7  85524814.72846  20886012.816    20886012.2804   20886014.2654
        46.400          41.4004
 126215148.845 4                  24017945.422
        24.900
 128241100.980 7                  24403465.152
        44.300
 109614982.763 7  85414314.60046  20859039.012    20859038.4674   20859037.1194
        44.200          41.0004
 108650582.888 8  84662791.55946  20675495.007    20675494.7084   20675493.8114
        49.200          38.1004


 124271366.747 4                  23214933.862    23214932.169
        28.100
 123532570.382 5  96080943.234 5  23085012.658    23085011.839    23085021.522
        33.900          31.900




 109809945.832 8  85407311.932 6  20542115.567    20542114.921    20542121.170
        48.000          41.700
 117679539.763 7  91698339.22546  22393673.313    22393672.1964   22393673.0744
        45.300          37.7004
 198901412.210 7                  37849682.079
        43.900
 116010797.682 6  90398034.33145  22076118.794    22076118.2534   22076117.3134
        41.100          35.9004
 120521389.357 6  93912788.56543  22934454.961    22934453.8214   22934453.4884
        38.700          18.2004
 202016298.205 7                  38442427.617
        44.700




 129592529.953 6                  24660638.786
        38.800
 108015639.829 8  84012155.161 7  20263454.617    20263454.406    20263458.310
        50.100          44.400
 114745410.498 5  89246437.640 6  21457965.256    21457967.318    21457974.766
        30.300          40.900
 138144951.361 5                  26288103.232
        35.400
 113016934.233 8  87902081.156 7  21149571.981    21149572.188    21149576.786
        48.400          46.000
 25  1  1 12 15  0.0000000  0 27E27E10G23G02E29G32E33G10G28R04R03R21
                                E26S35R05G25S31G31G21S33E07E30E19R14
                                R20E12R15
 138902718.659 6                  26432309.327
        37.100
 145845796.190 6                  27753529.402
        36.300
 125144529.961 6  97515221.61441  23814207.890    23814207.7654   23814214.1374
        39.300          10.4004
 123770058.616 7  96444193.91943  23552657.630    23552656.5174   23552646.4734
        43.600          22.2004
 123377742.397 7                  23477997.831
        45.400
 109763753.034 7  85530161.01246  20887317.768    20887317.2414   20887320.3374
        46.200          41.4004
 128264814.275 7                  24407976.439
        43.100
 109637437.072 8  85431811.47047  20863310.944    20863310.3864   20863310.7074
        48.200          43.8004
 108627692.125 8  84644954.60746  20671139.263    20671138.9684   20671137.9544
        49.000          38.0004
 108179195.917 8  84139466.317 6  20201718.682    20201720.401    20201725.705
        49.000          37.000
 124310124.607 5                  23222179.856    23222175.401
        35.300
 123504797.888 6  96059342.374 5  23079823.768    23079822.320    23079831.591
        37.300          33.400




 109785082.224 7  85387973.592 6  20537462.987    20537463.445    20537467.574
        47.700          38.900
 117658688.337 7  91682091.38746  22389704.101    22389702.9934   22389705.3054
        44.300          37.8004
 198901421.449 7                  37849683.170
        44.000
 115961775.103 6  90359835.01345  22066789.648    22066789.1074   22066789.2274
        38.400          34.5004
 120527414.227 5  93917483.31342  22935601.811    22935600.6354   22935601.1344
        34.500          15.6004
 202016310.287 7                  38442428.529
        44.800
 136829705.312 6                  26037825.620
        36.000


 129571274.469 6                  24656594.624
        38.200
 108016065.472 8  84012486.198 7  20263535.139    20263535.700    20263538.764
        51.400          44.900
 114769006.032 5  89264789.760 6  21462379.362    21462382.026    21462387.327
        33.600          41.400
 138125277.528 5                  26284359.628
        34.300
 112962392.811 7  87859660.058 7  21139364.714    21139365.445    21139369.476
        47.700          45.300
 25  1  1 12 15 15.0000000  0 27E27E10G23G02E29G32E33G10G28R04R03R21
                                E26S35R05G25S31G31G21S33E07E30E19R14
                                R20E12R15
 138870044.817 6                  26426091.249
        38.100
 145812170.265 6                  27747130.527
        36.600
 125194552.729 6  97554200.41041  23823725.529    23823725.3694   23823732.7504
        36.700          10.2004
 123756136.880 7  96433345.81344  23550008.547    23550007.4434   23549998.9784
        45.000          25.5004
 123381219.707 7                  23478659.875
        46.000
 109770664.715 7  85535546.76646  20888632.798    20888632.3024   20888635.7584
        47.100          41.6004
 128288623.342 7                  24412507.986
        43.200
 109660002.213 8  85449394.70847  20867603.881    20867603.3004   20867604.8064
        49.400          45.7004
 108604925.487 8  84627214.37846  20666806.865    20666806.5884   20666805.4754
        48.700          37.6004
 108192418.153 8  84149750.280 5  20204188.830    20204189.810    20204191.984
        49.800          35.700
 124348912.576 5                  23229400.620    23229404.481
        32.300
 123477199.050 7  96037876.463 6  23074667.053    23074668.740    23074674.344
        42.000          36.100




 109760256.468 7  85368664.745 6  20532819.767    20532818.704    20532822.775
        46.900          38.200
 117637967.104 7  91665945.00046  22385761.494    22385760.4124   22385762.8544
        44.100          37.7004
 198901429.869 7                  37849686.274
        44.100
 115912834.015 6  90321699.15345  22057479.280    22057478.8384   22057476.2064
        38.700          34.5004
 120533554.114 5  93922267.66841  22936770.799    22936769.5074   22936770.2404
        32.100          10.7004
 202016321.331 7                  38442431.481
        44.700
 136858101.513 6                  26043231.100
        37.000


 129550045.382 6                  24652555.923
        37.700
 108016694.821 8  84012975.677 7  20263654.227    20263653.778    20263657.838
        52.100          45.900
 114792779.578 5  89283280.355 6  21466825.429    21466826.881    21466831.467
        32.700          41.300
 138105702.442 5                  26280635.808
        34.900
 112907957.147 7  87817321.240 7  21129177.638    21129176.684    21129182.958
        44.900          45.000
 25  1  1 12 15 30.0000000  0 26E27E10G23G02E29G32E33G10G28R04R21E26
                                S35R05G25S31G31G21S33E07E30E19R14R20
                                E12R15
 138837425.422 6                  26419883.722
        37.500
 145778614.549 6                  27740745.940
        36.100
 125244623.962 4  97593216.94441  23833254.601    23833254.4764   23833260.7724
        29.500           6.5004
 123742336.540 7  96422592.29544  23547382.756    23547381.6744   23547375.3024
        44.600          27.3004
 123384728.219 7                  23479327.717
        46.600
 109777626.995 7  85540971.92646  20889958.517    20889958.0354   20889960.0124
        43.700          40.4004
 128312528.105 7                  24417057.049
        44.300
 109682678.200 8  85467064.31647  20871918.948    20871918.3764   20871919.9004
        49.000          46.3004
 108582283.162 8  84609571.00546  20662497.988    20662497.7074   20662496.5214
        48.600          36.7004
 108205699.335 8  84160080.023 5  20206669.252    20206671.122    20206669.880
        49.800          34.200
 123449774.096 7  96016545.925 6  23069543.109    23069542.887    23069552.914
        43.000          39.800




 109735468.246 8  85349385.032 6  20528183.770    20528182.745    20528185.707
        48.100          40.700
 117617376.402 7  91649900.30646  22381843.130    22381842.1024   22381844.0804
        43.800          36.5004
 198901437.594 7                  37849684.141
        43.700
 115863974.953 6  90283627.19745  22048180.811    22048180.4224   22048178.2544
        36.200          31.8004
 120539809.370 6  93927141.91341  22937964.525    22937963.1444   22937961.0294
        36.000           6.8004
 202016332.170 7                  38442432.804
        44.700
 136886502.137 6                  26048635.062
        36.100


 129528842.624 6                  24648520.958
        38.800
 108017527.969 8  84013623.635 7  20263810.102    20263809.887    20263813.800
        51.000          46.500
 114816730.964 5  89301909.182 7  21471305.478    21471306.660    21471311.595
        31.500          42.300
 138086226.318 5                  26276928.638
        35.100
 112853627.923 7  87775065.206 7  21119010.895    21119007.539    21119016.698
        42.500          44.900
 25  1  1 12 15 45.0000000  0 26E27E10G23G02E29G32E33G10G28R04R21E26
                                S35R05G25S31G31G21S33E07E30E19R14R20
                                E12R15
 138804862.798 5                  26413686.789
        35.800
 145745131.492 6                  27734381.105
        36.200
 125294745.538 5  97632272.72441  23842794.407    23842794.3814   23842798.1884
        35.300           6.8004
 123728659.808 7  96411935.11444  23544780.107    23544779.0214   23544773.2384
        43.800          26.8004
 123388270.004 7                  23480001.659
        46.900
 109784641.890 7  85546438.07346  20891295.010    20891294.5684   20891293.9374
        46.500          40.8004
 128336530.439 7                  24421624.446
        46.100
 109705467.122 8  85484821.93747  20876255.771    20876255.2134   20876256.4344
        49.200          47.1004
 108559767.297 7  84592026.16446  20658214.073    20658213.7964   20658212.0094
        47.900          36.6004
 108219041.839 7  84170457.410 6  20209156.101    20209157.935    20209161.629
        46.400          36.700
 123422525.399 7  95995352.557 6  23064452.334    23064452.705    23064461.945
        43.700          41.600




 109710719.947 8  85330136.356 7  20523553.870    20523553.640    20523558.159
        49.900          43.200
 117596918.587 7  91633959.16845  22377949.444    22377948.4524   22377949.6824
        42.200          34.1004
 198901447.287 7                  37849689.216
        43.600
 115815200.325 5  90245621.05344  22038895.152    22038894.7464   22038896.0734
        31.900          29.2004
 120546181.843 6  93932107.36941  22939174.056    22939172.4744   22939174.1094
        36.500           7.6004
 202016344.515 7                  38442434.392
        44.300
 136914909.183 5                  26054039.172
        32.200


 129507668.441 6                  24644491.178
        39.100
 108018566.972 7  84014431.763 7  20264003.950    20264002.726    20264009.134
        47.600          46.500
 114840861.974 5  89320677.725 7  21475821.662    21475821.568    21475825.314
        33.800          43.400
 138066851.214 6                  26273240.985
        36.100
 112799407.953 7  87732894.120 7  21108865.757    21108863.041    21108870.237
        45.000          44.000
 25  1  1 12 16  0.0000000  0 27E27E10G23G02E29G32E33G10G28R04R03R21
                                E26S35R05G25S31G31G21S33E07E30E19R14
                                R20E12R15
 138772350.336 5                  26407500.676
        34.100
 145711714.338 5                  27728024.090
        32.700
 125344910.387 6  97671362.20741  23852342.666    23852342.5414   23852343.9444
        37.600          11.0004
 123715100.052 6  96401369.11044  23542199.368    23542198.3134   23542192.4594
        40.100          25.0004
 123391838.183 7                  23480681.217
        47.800
 109791702.556 8  85551939.87947  20892638.342    20892637.8774   20892636.8904
        49.100          42.4004
 128360623.359 7                  24426208.503
        45.600
 109728362.102 8  85502662.20048  20880613.017    20880612.4724   20880613.7624
        48.900          48.0004
 108537371.141 8  84574574.60246  20653952.350    20653952.0874   20653950.7364
        48.800          37.5004
 108232438.714 7  84180877.214 6  20211661.149    20211661.225    20211668.170
        44.500          40.600
 124465454.866 6                  23251182.768    23251179.879
        36.100
 123395446.154 7  95974290.993 6  23059390.972    23059391.996    23059403.105
        43.600          40.900




 109686004.761 8  85310913.439 7  20518930.123    20518929.969    20518933.620
        51.000          43.800
 117576587.115 7  91618116.49645  22374080.299    22374079.3474   22374080.9734
        42.400          32.4004
 198901451.448 7                  37849688.948
        44.000
 115766503.481 6  90207675.47844  22029629.549    22029629.0314   22029628.0634
        36.600          27.6004
 120552664.684 5  93937158.82841  22940409.016    22940407.5194   22940408.1564
        35.800          10.7004
 202016351.538 7                  38442436.802
        45.300
 136943315.863 5                  26059445.876
        31.500


 129486515.862 6                  24640466.166
        38.800
 108019804.777 7  84015394.513 7  20264233.935    20264232.773    20264240.039
        44.500          45.900
 114865165.062 5  89339580.130 7  21480361.310    21480364.316    21480369.564
        32.200          43.000
 138047570.561 6                  26269572.668
        37.200
 112745290.619 7  87690802.893 7  21098738.492    21098735.997    21098743.309
        47.000          43.300
 25  1  1 12 16 15.0000000  0 27E27E10G23G02E29G32E33G10G28R04R03R21
                                E26S35R05G25S31G31G21S33E07E30E19R14
                                R20E12R15
 138739897.069 5                  26401325.188
        34.600
 145678371.847 5                  27721679.551
        32.300
 125395127.262 5  97710492.12442  23861892.312    23861892.2724   23861899.7794
        34.600          12.1004
 123701666.107 7  96390901.12443  23539642.713    23539641.6764   23539635.3264
        42.700          23.3004
 123395441.424 8                  23481366.750
        48.000
 109798817.770 8  85557484.18047  20893991.786    20893991.3134   20893990.8894
        50.700          44.7004
 128384815.509 7                  24430812.455
        43.800
 109751371.898 8  85520591.92348  20884991.638    20884991.1024   20884993.3054
        48.900          48.6004
 108515103.575 8  84557223.24646  20649714.278    20649714.0244   20649714.0264
        49.300          38.3004
 108245899.143 7  84191346.443 6  20214174.671    20214176.575    20214180.216
        44.100          41.300
 124504364.190 6                  23258445.837    23258447.603
        39.000
 123368545.782 7  95953368.677 6  23054361.894    23054364.832    23054379.259
        43.700          37.300




 109661331.765 8  85291723.312 7  20514314.227    20514314.486    20514318.933
        51.400          45.200
 117556391.068 6  91602379.36044  22370236.459    22370235.4494   22370238.6594
        37.100          29.6004
 198901459.199 7                  37849691.255
        44.100
 115717893.428 5  90169797.56544  22020377.204    22020376.6544   22020377.7114
        35.100          27.5004
 120559266.439 5  93942303.06242  22941665.071    22941663.5694   22941665.1654
        35.800          15.8004
 202016362.311 7                  38442440.035
        44.800
 136971730.869 5                  26064854.265
        30.900
 142798219.108 5                  27173596.870
        35.200
 129465393.586 6                  24636446.274
        38.300
 108021250.527 7  84016518.964 7  20264507.131    20264506.387    20264512.124
        45.300          46.800
 114889649.160 5  89358623.313 7  21484941.954    21484948.342    21484947.460
        31.000          42.200
 138028393.346 6                  26265923.379
        37.600
 112691285.436 8  87648798.916 6  21088631.764    21088631.047    21088634.330
        48.700          41.400
 25  1  1 12 16 30.0000000  0 28E27E10G23G02E29G32G12E33G10G28R04R03
                                R21E26S35R05G25S31G31G21S33E07E30E19
                                R14R20E12R15
 138707498.232 6                  26395159.694
        38.300
 145645099.443 5                  27715354.579
        31.400
 125445390.861 5  97749658.44641  23871460.478    23871460.4434   23871464.4734
        31.800          11.9004
 123688352.980 6  96380527.27743  23537107.546    23537106.5454   23537101.4594
        41.800          23.0004
 123399074.672 8                  23482058.237
        48.000
 109805982.482 8  85563067.05347  20895354.779    20895354.2974   20895355.4454
        51.500          46.9004


 128409101.658 6                  24435435.209
        41.800
 109774491.484 8  85538607.18848  20889391.137    20889390.6234   20889393.3824
        48.100          48.2004
 108492959.620 8  84539968.22246  20645500.047    20645499.8024   20645500.6624
        48.700          38.6004
 108259417.789 6  84201860.970 6  20216696.770    20216698.159    20216705.574
        40.200          41.900
 124543302.836 6                  23265720.187    23265720.142
        36.600


 140341233.255 5                  26706045.691
        35.200


 109636695.853 8  85272562.075 7  20509704.553    20509706.148    20509710.241
        49.500          45.700
 117536325.721 6  91586744.04544  22366421.093    22366420.0694   22366422.3934
        36.400          28.7004
 198901464.985 7                  37849691.939
        44.000
 115669365.555 6  90131983.66945  22011146.843    22011146.2624   22011143.8964
        36.600          31.8004
 120565982.189 6  93947536.14543  22942943.867    22942942.3564   22942944.2954
        40.000          18.4004
 202016370.647 7                  38442441.730
        45.000
 137000149.307 5                  26070261.253
        32.000
 142797415.710 6                  27173446.992
        37.000
 129444296.582 6                  24632431.628
        36.200
 108022899.077 7  84017801.172 8  20264816.749    20264817.254    20264822.155
        47.000          48.000
 114914308.901 4  89377803.200 7  21489551.052    21489548.783    21489561.740
        24.500          43.800
 138009314.639 6                  26262291.795
        37.800
 112637387.965 7  87606878.754 6  21078545.085    21078544.345    21078546.466
        47.200          40.200
 25  1  1 12 16 45.0000000  0 28E27E10G23G02E29G32G12E33G10G28R04R03
                                R21E26S35R05G25S31G31G21S33E07E30E19
                                R14R20E12R15
 138675159.410 6                  26389005.108
        40.000
 145611902.897 5                  27709041.795
        32.400
 125495706.413 5  97788865.23842  23881037.942    23881037.7734   23881039.0354
        32.400          12.2004
 123675165.833 6  96370251.56843  23534597.597    23534596.6584   23534592.1684
        38.600          20.7004
 123402743.371 7                  23482756.657
        47.400
 109813201.959 8  85568692.59448  20896728.920    20896728.4554   20896730.3754
        52.000          48.3004


 128433487.045 7                  24440076.408
        42.400
 109797726.182 7  85556712.14047  20893811.950    20893811.4324   20893814.8784
        46.800          46.4004
 108470944.744 8  84522813.78146  20641310.571    20641310.3664   20641311.3784
        48.400          38.1004
 108273000.205 5  84212425.178 6  20219232.447    20219231.155    20219239.414
        34.900          41.000
 124582275.711 4                  23273004.264    23272997.288
        28.800
 123315272.359 7                  23044409.398    23044411.837
        45.500
 140388432.144 5                  26715013.709
        34.400


 109612102.837 7  85253434.204 7  20505104.204    20505105.769    20505108.499
        47.900          44.700
 117516396.685 5  91571214.93444  22362627.680    22362626.5984   22362631.7724
        35.200          29.1004
 198901475.118 7                  37849695.427
        43.900
 115620925.338 6  90094238.05645  22001929.705    22001929.1964   22001926.6124
        41.300          35.3004
 120572817.077 6  93952862.04443  22944243.559    22944241.9904   22944245.8724
        39.700          18.6004
 202016384.070 7                  38442445.298
        45.000
 137028576.452 6                  26075671.570
        36.200
 142796720.009 5                  27173309.306
        34.700
 129423230.348 5                  24628422.970
        34.500
 108024755.761 7  84019245.243 7  20265162.371    20265163.255    20265170.325
        44.100          47.900
                  89397123.450 7                                  21494208.592
                        42.100
 137990339.905 6                  26258680.692
        38.500
 112583604.231 7  87565047.032 7  21068480.712    21068478.392    21068482.628
        44.700          42.500
 25  1  1 12 17  0.0000000  0 25E27E10G23G02E29G32E33G10G28R04R21E26
                                S35R05G25S31G31G21S33E07E30E19R14E12
                                R15
 138642872.521 6                  26382860.687
        40.700
 145578773.886 4                  27702740.743
        29.500
 125546065.369 5  97828105.82241  23890620.558    23890620.3484   23890621.4324
        31.300           9.8004
 123662096.628 6  96360067.75343  23532111.404    23532110.4834   23532105.5124
        41.900          21.5004
 123406438.989 7                  23483459.733
        47.200
 109820467.869 8  85574354.30948  20898111.412    20898110.9394   20898113.4834
        51.700          49.3004
 128457963.132 7                  24444733.713
        44.500
 109821067.681 7  85574900.31447  20898253.538    20898253.0024   20898256.3444
        45.300          43.8004
 108449050.672 7  84505753.47246  20637144.375    20637144.1744   20637144.5684
        47.300          36.7004
 108286638.243 6  84223032.573 6  20221781.956    20221777.587    20221786.513
        36.700          41.700
 123288896.674 7                  23039479.197    23039482.338
        45.400
 140435641.900 5                  26723996.887
        33.700


 109587543.772 7  85234332.713 7  20500508.217    20500510.265    20500513.849
        45.400          44.800
 117496595.883 6  91555785.71545  22358859.754    22358858.7134   22358864.1934
        38.100          30.3004
 198901480.603 7                  37849695.548
        44.100
 115572564.772 7  90056554.51646  21992724.915    21992724.4194   21992724.9834
        43.900          37.5004
 120579762.596 6  93958274.16143  22945563.790    22945562.2434   22945567.9524
        40.200          19.0004
 202016392.091 7                  38442441.783
        44.700
 137057003.962 6                  26081080.854
        36.300
 142796123.670 5                  27173194.032
        32.000
 129402186.255 5                  24624416.898
        35.000
 108026812.175 7  84020844.709 7  20265551.016    20265550.417    20265555.757
        46.400          47.700
 137971461.031 6                  26255089.384
        38.900
 112529926.111 7  87523297.386 7  21058435.596    21058435.007    21058439.945
        44.900          46.100
 25  1  1 12 17 15.0000000  0 27E27E10G23G02E29G32G12E33G10G28R04R03
                                R21E26S35R05G25S31G31G21S33E07E30E19
                                R14E12R15
 138610645.621 6                  26376728.506
        41.100
 145545720.574 3                  27696450.168
        23.100
 125596475.289 5  97867386.17441  23900212.498    23900212.2394   23900213.7104
        31.800           9.4004
 123649153.302 7  96349982.02543  23529649.232    23529648.3344   23529642.8824
        44.200          23.7004
 123410169.323 8                  23484169.103
        48.500
 109827787.969 8  85580058.26348  20899504.968    20899504.4994   20899506.5324
        52.400          50.3004
 126293521.058 5  98410517.51541  24032856.030    24032856.3114   24032854.0454
        34.000          10.2004
 128482537.594 7                  24449409.547
        46.100
 109844523.786 7  85593177.78046  20902718.062    20902717.4684   20902718.5274
        42.200          40.7004
 108427285.299 7  84488793.45745  20633002.950    20633002.7404   20633001.8204
        46.700          35.5004
 108300339.890 7  84233689.299 7  20224341.003    20224340.609    20224346.530
        44.400          42.200
 124660236.991 5  96957972.211 5  23287581.717    23287599.465    23287587.673
        35.200          34.200
 123262700.617 7                  23034586.575    23034587.467
        45.300
 140482870.220 5                  26732985.161
        34.300


 109563027.267 7  85215264.311 7  20495920.395    20495921.361    20495927.985
        44.300          45.100
 117476931.425 7  91540462.78045  22355119.822    22355118.7854   22355121.5084
        42.000          30.7004
 198901488.804 7                  37849697.766
        44.100
 115524291.918 7  90018939.33746  21983538.063    21983537.5674   21983539.3004
        42.600          37.3004
 120586826.428 6  93963778.49942  22946908.534    22946906.9964   22946911.6124
        39.500          17.4004
 202016404.284 7                  38442445.794
        44.800
 137085439.666 5                  26086489.735
        34.100
 142795634.662 5                  27173098.910
        30.700
 129381172.218 5                  24620418.399
        34.200
 108029076.144 7  84022605.610 7  20265975.689    20265974.425    20265980.458
        46.600          47.300
 137952685.896 6                  26251515.073
        39.400
 112476362.225 8  87481636.549 7  21048412.778    21048413.797    21048416.780
        48.100          47.900
 25  1  1 12 17 30.0000000  0 28E27E10G23G02E29G32G12E33G10G28R04R03
                                R21E26S35R05G25S31G31G21S33E07E30E19
                                R14R20E12R15
 138578474.673 6                  26370607.025
        41.500


 125646931.804 5  97906702.85141  23909813.989    23909813.7124   23909814.8434
        33.200           9.9004
 123636331.565 7  96339991.02544  23527208.983    23527208.0854   23527203.4874
        44.200          25.2004
 123413930.086 8                  23484884.581
        48.500
 109835157.959 8  85585801.08848  20900907.156    20900906.6874   20900908.8694
        52.500          50.7004
 126302152.959 5  98417243.69141  24034506.598    24034506.7004   24034498.1634
        32.700           9.0004
 128507205.961 7                  24454103.400
        46.300
 109868090.112 7  85611541.14846  20907203.563    20907202.9784   20907201.2704
        45.900          39.8004
 108405644.406 7  84471930.44245  20628884.764    20628884.5364   20628882.7944
        46.700          35.0004
 108314100.736 7  84244392.181 6  20226909.212    20226909.047    20226913.608
        44.200          39.700
 124699300.121 5  96988354.245 5  23294901.568    23294899.201    23294884.283
        32.300          30.300
 123236679.873 6                  23029719.439    23029722.029
        41.300
 140530112.541 5                  26741975.277
        33.400


 109538548.803 7  85196225.477 7  20491342.183    20491342.052    20491348.758
        43.000          45.900
 117457399.299 6  91525242.96744  22351399.379    22351398.3114   22351402.4734
        39.500          28.5004
 198901496.816 7                  37849701.379
        44.200
 115476102.746 6  89981389.34346  21974368.608    21974368.1034   21974368.3954
        41.400          36.4004
 120594004.056 6  93969371.46642  22948274.342    22948272.8094   22948275.3324
        38.900          17.3004
 202016414.662 7                  38442447.775
        44.900
 137113879.189 5                  26091904.000
        34.200
 142795248.856 4                  27173026.854
        24.200
 129360183.830 5                  24616424.937
        33.600
 108031543.397 7  84024524.668 7  20266434.919    20266436.250    20266442.676
        44.900          47.200
                  89455898.224 6                                  21508354.164
                        37.200
 137934010.290 6                  26247961.287
        39.800
 112422908.518 8  87440061.418 8  21038407.866    21038409.905    21038414.583
        48.000          48.900
 25  1  1 12 17 45.0000000  0 26E27E10G23G02E29G32G12E33G10G28R04R21
                                E26S35R05G25S31G31G21S33E07E30E19R14
                                E12R15
 138546362.087 6                  26364495.727
        40.600


 125697436.835 6  97946057.28941  23919424.183    23919423.8704   23919425.4824
        36.900          11.0004
 123623633.714 6  96330096.54743  23524791.370    23524790.4994   23524787.9254
        41.100          23.4004
 123417723.305 8                  23485606.660
        48.600
 109842579.975 8  85591584.48048  20902319.324    20902318.8514   20902320.7394
        52.000          50.6004
 126310930.391 4  98424083.2494   24036175.285    24036175.4904   24036169.9644
        24.800           3.2004
 128531970.189 7                  24458815.880
        46.000
 109891768.812 7  85629992.06246  20911706.938    20911706.2904   20911706.5024
        45.400          40.9004
 108384130.195 7  84455166.13245  20624790.902    20624790.6614   20624788.1254
        46.600          34.7004
 108327922.791 7  84255142.643 6  20229491.641    20229489.128    20229495.474
        44.000          39.100
 123210837.278 7                  23024899.322    23024901.973
        43.100
 140577370.751 5                  26750969.123
        33.400


 109514110.737 7  85177218.029 7  20486774.172    20486774.795    20486777.217
        47.000          45.500
 117438001.887 6  91510128.15444  22347708.878    22347707.8284   22347708.6804
        40.300          26.2004
 198901505.486 7                  37849702.997
        43.800
 115427999.549 6  89943906.36646  21965215.706    21965215.1394   21965214.2604
        41.500          36.3004
 120601297.477 6  93975054.64342  22949662.599    22949661.0574   22949661.1824
        40.700          16.3004
 202016426.474 7                  38442448.902
        44.500
 137142324.564 5                  26097316.252
        34.200


 129339223.295 5                  24612435.794
        33.200
 108034215.958 7  84026603.306 7  20266935.710    20266935.440    20266944.151
        42.400          46.700
 137915436.502 6                  26244426.990
        40.200
 112369567.721 7  87398574.132 8  21028424.305    21028424.861    21028433.171
        45.000          49.000
 25  1  1 12 18  0.0000000  0 27E27E10G23G02E29G32E33G10G28R04R03R21
                                E26S35R05G25S31G31G21S33E07E30E19R14
                                R20E12R15
 138514306.443 6                  26358395.508
        40.700
 145446936.922 5                  27677635.822
        34.300
 125747988.579 5  97985448.07341  23929043.623    23929043.2264   23929044.9044
        34.700           9.0004
 123611058.025 6  96320297.27543  23522399.962    23522399.1354   23522395.2494
        40.700          22.1004
 123421547.342 8                  23486334.572
        49.100
 109850052.339 8  85597407.11948  20903740.920    20903740.4424   20903742.1254
        52.100          50.0004
 128556828.500 7                  24463547.015
        46.000
 109915558.258 7  85648529.27347  20916234.690    20916234.0334   20916234.3824
        47.500          42.6004
 108362741.162 7  84438499.36045  20620721.038    20620720.8334   20620717.7634
        46.700          33.9004
 108341804.826 7  84265939.786 6  20232081.821    20232084.078    20232088.738
        46.700          39.700


 123185171.447 5                  23020111.908    23020109.427
        34.000
 140624642.922 5                  26759965.218
        34.100


 109489711.394 7  85158240.764 7  20482211.746    20482210.476    20482212.271
        46.600          45.200
 117418737.882 6  91495117.33844  22344044.044    22344043.0524   22344041.8964
        38.700          26.9004
 198901513.124 7                  37849701.956
        43.600
 115379981.103 6  89906489.43446  21956078.179    21956077.6214   21956076.4544
        41.400          36.8004
 120608705.350 7  93980826.94242  22951071.590    22951070.1014   22951068.4594
        42.500          16.5004
 202016438.242 7                  38442454.993
        44.800
 137170774.290 5                  26102729.282
        34.600


 129318288.927 5                  24608452.707
        34.300
 108037092.216 7  84028840.358 7  20267480.014    20267478.152    20267483.402
        47.400          46.400
                  89495764.435 6                                  21517923.275
                        38.800
 137896963.163 6                  26240912.017
        40.200
 112316338.958 7  87357173.951 7  21018465.453    21018464.640    21018471.031
        46.200          47.500
 25  1  1 12 18 15.0000000  0 25E27E10G23G02E29G32E33G10G28R04R21E26
                                S35R05G25S31G31G21S33E07E30E19R14E12
                                R15
 138482310.609 6                  26352305.937
        37.800
 145414176.570 6                  27671403.085
        37.300
 125798589.389 5  98024877.09241  23938674.267    23938673.8834   23938673.6534
        35.600           9.2004
 123598607.352 7  96310595.41843  23520030.847    23520030.0384   23520026.4124
        42.500          22.2004
 123425404.656 8                  23487068.365
        49.500
 109857577.461 8  85603270.84448  20905172.575    20905172.0704   20905173.8444
        50.400          49.6004
 128581783.300 7                  24468295.176
        46.400
 109939460.875 7  85667154.65947  20920783.426    20920782.7654   20920784.0564
        47.800          44.6004
 108341479.841 7  84421932.10645  20616674.835    20616674.6434   20616671.9554
        46.200          32.4004
 108355749.430 7  84276785.627 6  20234685.609    20234687.336    20234692.251
        45.400          39.200
 123159685.077 5                  23015356.575    23015356.548
        35.500
 140671931.355 6                  26768963.315
        36.500


 109465353.779 7  85139295.996 7  20477651.781    20477651.760    20477655.451
        46.200          44.700
 117399610.083 6  91480212.60744  22340405.533    22340404.5504   22340403.8244
        40.800          29.6004
 198901523.735 7                  37849702.765
        43.900
 115332050.133 7  89869140.65046  21946957.118    21946956.6624   21946955.5024
        45.300          37.6004
 120616230.036 6  93986690.26943  22952503.672    22952502.0364   22952498.6234
        41.700          18.2004
 202016450.932 7                  38442458.650
        45.400
 137199230.951 5                  26108144.725
        34.800


 129297383.008 5                  24604474.135
        35.000
 108040174.876 7  84031237.986 7  20268056.207    20268055.680    20268062.222
        47.100          47.000
 137878592.840 6                  26237416.701
        40.600
 112263225.296 7  87315863.331 7  21008523.959    21008525.014    21008530.887
        46.600          46.300
 25  1  1 12 18 30.0000000  0 26E27E10G23G02E29G32E33G10G28R04R03R21
                                E26S35R05G25S31G31G21S33E07E30E19R14
                                E12R15
 138450368.948 5                  26346230.249
        33.700
 145381485.684 6                  27665182.886
        40.400
 125849233.288 5  98064339.74441  23948308.777    23948308.4024   23948310.8274
        32.800           8.8004
 123586275.768 7  96300986.39143  23517684.893    23517684.0664   23517680.0224
        43.000          22.7004
 123429289.420 8                  23487807.745
        49.700
 109865149.511 8  85609171.11348  20906614.267    20906613.7624   20906615.1564
        50.000          50.1004
 128606828.524 7                  24473061.364
        47.200
 109963470.895 8  85685863.73847  20925352.130    20925351.4914   20925353.6124
        50.000          46.4004
 108320340.315 7  84405459.76245  20612651.907    20612651.7064   20612649.1184
        44.000          30.8004
 108369750.611 7  84287675.471 6  20237300.205    20237301.263    20237307.341
        44.700          40.100
                  97110131.660 4                                  23324127.094
                        29.000
 123134372.459 5                  23010638.752    23010636.626
        34.600
 140719230.044 5                  26777961.934
        34.900


 109441031.737 7  85120378.880 7  20473102.268    20473102.792    20473105.834
        47.400          44.800
 117380612.882 6  91465409.58145  22336789.639    22336788.6514   22336790.4224
        41.300          31.3004
 198901530.514 7                  37849705.569
        44.200
 115284201.134 7  89831855.73046  21937850.445    21937849.9724   21937850.1924
        46.300          38.4004
 120623865.466 6  93992639.93943  22953956.077    22953954.4904   22953951.9544
        40.200          19.0004
 202016460.770 7                  38442459.755
        45.500
 137227688.551 6                  26113559.709
        36.300


 129276500.063 5                  24600499.861
        35.400
 108043457.836 8  84033791.390 7  20268673.925    20268673.274    20268678.778
        50.000          46.700
 137860319.830 7                  26233939.245
        42.100
 112210221.265 8  87274638.033 7  20998607.102    20998607.094    20998611.169
        48.000          45.900
 25  1  1 12 18 45.0000000  0 27E27E10G23G02E29G32E33G10G28R04R03R21
                                E26S35R05G25S31G31G21S33E07E30E19R14
                                R20E12R15
 138418487.989 4                  26340160.054
        28.500
 145348870.888 6                  27658976.665
        41.500


 123574069.672 6  96291475.13943  23515361.435    23515360.5904   23515356.3344
        41.800          21.5004
 123433207.890 8                  23488553.369
        50.200
 109872774.927 8  85615113.01048  20908064.555    20908064.0554   20908066.8594
        50.400          50.5004
 128631970.408 7                  24477845.301
        47.300
 109987594.689 8  85704661.48447  20929942.241    20929941.6074   20929944.2294
        49.400          46.9004
 108299329.380 7  84389087.61844  20608654.784    20608654.5704   20608651.1754
        43.200          29.8004
 108383814.882 7  84298614.319 6  20239927.365    20239927.376    20239933.247
        43.100          40.200
                  97140634.712 5                                  23331462.236
                        32.300
                  95751676.633 6                                  23005913.623
                        36.300
 140766545.138 5                  26786965.732
        33.400


 109416752.083 8  85101494.665 7  20468560.550    20468560.804    20468563.283
        48.100          44.700
 117361752.942 6  91450713.53045  22333201.483    22333200.4824   22333201.2654
        40.900          31.2004
 198901538.628 7                  37849706.244
        44.200
 115236440.689 7  89794639.82346  21928762.054    21928761.5814   21928761.9914
        44.600          38.8004
 120631617.698 6  93998680.61143  22955432.442    22955430.8914   22955429.5534
        41.200          21.7004
 202016473.259 7                  38442461.338
        45.300
 137256153.469 6                  26118977.504
        36.600


 129255646.150 5                  24596531.646
        35.100
 108046947.247 8  84036505.359 7  20269327.868    20269328.456    20269332.641
        51.700          46.300
 115144151.825 5  89556579.397 6  21532537.380    21532537.206    21532540.263
        33.700          36.400
 137842150.719 7                  26230481.715
        42.800
 112157333.873 8  87233503.464 7  20988710.444    20988710.329    20988714.136
        49.900          46.200
 25  1  1 12 19  0.0000000  0 27E27E10G23G02E29G32E33G10G28R04R21E26
                                E21S35R05G25S31G31G21S33E07E30E19R14
                                R20E12R15


 145316327.977 7                  27652784.906
        42.500


 123561985.016 5  96282058.57042  23513059.554    23513058.6834   23513055.6674
        35.200          16.9004
 123437155.850 8                  23489304.676
        50.300
 109880449.453 8  85621093.22948  20909524.519    20909524.0504   20909527.4034
        50.100          50.1004
 128657204.554 7                  24482647.303
        44.800
 110011827.925 8  85723544.52247  20934554.151    20934553.5304   20934555.7954
        48.700          46.5004
 108278442.809 7  84372812.37744  20604679.152    20604678.9074   20604677.0434
        43.700          29.8004
 108397938.044 4  84309599.258 6  20242559.556    20242558.595    20242571.630
        28.800          40.600
                  95732266.496 6                                  23001249.788
                        39.000
 140813872.040 5                  26795972.808
        30.600




 109392510.424 8  85082640.061 7  20464025.260    20464026.180    20464029.008
        48.500          45.600
 117343026.349 6  91436121.43145  22329637.804    22329636.8794   22329635.9204
        41.100          30.1004
 198901546.231 7                  37849708.319
        44.300
 115188764.813 7  89757489.82046  21919690.397    21919689.9554   21919689.9854
        44.900          39.2004
 120639482.680 6  94004809.16643  22956928.141    22956926.6354   22956928.3514
        39.800          22.9004
 202016483.500 7                  38442464.016
        45.000
 137284621.397 6                  26124395.139
        36.100
 142795156.169 5                  27173012.463
        35.000
 129234817.145 5                  24592569.041
        35.200
 108050639.405 8  84039377.039 7  20270021.805    20270022.072    20270025.949
        53.200          45.800
 115170560.795 5  89577119.846 6  21537478.489    21537475.491    21537478.834
        32.800          36.700
 137824081.327 7                  26227043.351
        42.600
 112104559.380 8  87192456.708 7  20978832.791    20978833.499    20978838.772
        49.900          47.200
 25  1  1 12 19 15.0000000  0 27E27E10G23G02E29G32E33G10G28R04R21E26
                                E21S35R05G25S31G31G21S33E07E30E19R14
                                R20E12R15


 145283862.316 7                  27646606.860
        43.200


 123550026.053 5  96272739.92041  23510783.631    23510782.5404   23510779.5974
        34.000          11.6004
 123441137.492 8                  23490062.254
        50.900
 109888177.111 8  85627114.78448  20910994.620    20910994.1694   20910997.3734
        49.300          48.8004
 128682535.009 7                  24487468.780
        44.300
 110036174.857 8  85742516.15647  20939187.512    20939186.8954   20939189.0544
        49.300          46.4004
 108257684.861 7  84356637.35745  20600729.808    20600729.5134   20600727.1914
        43.700          30.5004
 108412125.130 6  84320633.412 6  20245207.581    20245207.874    20245221.187
        38.300          40.300
                  95712996.978 6                  22996622.131    22996618.091
                        37.600
 140861214.876 5                  26804983.027
        32.800




 109368311.393 7  85063818.594 7  20459496.816    20459498.595    20459502.421
        47.700          46.000
 117324437.590 6  91421636.76845  22326098.753    22326097.8994   22326098.1744
        40.400          30.7004
 198901556.187 7                  37849710.452
        44.200
 115141178.015 7  89720409.21746  21910635.399    21910634.9614   21910634.8154
        45.200          39.6004
 120647464.408 6  94011028.65943  22958447.717    22958446.2554   22958447.9604
        39.500          22.7004
 202016496.760 7                  38442464.911
        45.000
 137313096.760 6                  26129813.323
        38.800
 142795501.936 4                  27173067.880
        29.000
 129214017.032 6                  24588611.031
        37.900
 108054538.085 9  84042409.293 7  20270752.694    20270752.882    20270757.354
        54.000          45.200
 115197145.514 4  89597796.945 6  21542444.768    21542443.120    21542454.619
        28.100          40.800
 137806116.067 7                  26223625.245
        42.800
 112051902.654 8  87151501.511 7  20968979.913    20968979.411    20968984.228
        51.500          47.100
 25  1  1 12 19 30.0000000  0 28E27E10G23G02E29G32E33G10G28R04R03R21
                                E26E21S35R05G25S31G31G21S33E07E30E19
                                R14R20E12R15
 138323180.179 6                  26322029.153
        36.500
 145251466.638 7                  27640442.260
        43.600


 123538186.296 5  96263514.18441  23508532.187    23508530.9764   23508526.1814
        34.100          11.9004
 123445146.296 8                  23490824.949
        50.300
 109895951.538 8  85633172.77447  20912474.052    20912473.6054   20912476.0184
        48.200          47.0004
 128707955.196 7                  24492305.511
        43.600
 110060628.994 8  85761571.32847  20943840.597    20943839.9804   20943842.6364
        49.100          45.8004
 108237049.114 7  84340557.56345  20596802.958    20596802.6504   20596800.5034
        45.200          31.8004
 108426368.831 6  84331711.767 6  20247868.860    20247872.036    20247882.576
        37.800          40.300


 123035509.638 6  95693863.263 6  22992021.127    22992020.103    22992016.854
        39.800          36.400
 140908566.991 5                  26813995.922
        35.500




 109344148.429 7  85045025.187 7  20454976.255    20454976.372    20454981.713
        46.200          45.300
 117305980.530 6  91407254.69545  22322587.682    22322586.8874   22322587.3194
        41.700          31.3004
 198901561.171 7                  37849707.496
        43.500
 115093674.129 7  89683393.24046  21901594.997    21901594.5684   21901594.5904
        43.400          38.7004
 120655556.168 6  94017333.94343  22959987.118    22959985.6834   22959987.4694
        37.600          20.4004
 202016506.925 7                  38442467.048
        45.500
 137341572.997 6                  26135231.736
        38.500
 142795948.423 5                  27173153.838
        30.300
 129193239.652 6                  24584657.158
        39.500
 108058636.928 9  84045597.226 7  20271522.174    20271522.395    20271525.932
        55.200          44.500
 115223898.071 3  89618604.592 6  21547445.548    21547446.874    21547456.710
        23.200          40.100
 137788248.689 6                  26220225.290
        41.800
 111999357.404 8  87110632.997 7  20959146.313    20959146.720    20959151.099
        52.300          47.300
 25  1  1 12 19 45.0000000  0 27E27E10G23G02E29G32E33G10G28R04R21E26
                                E21S35R05G25S31G31G21S33E07E30E19R14
                                R20E12R15
 138291532.577 6                  26316003.661
        36.000
 145219146.200 7                  27634291.972
        43.400


 123526470.845 5  96254385.25742  23506300.805    23506299.5534   23506296.6264
        35.400          13.0004
 123449187.089 8                  23491594.066
        49.700
 109903777.577 8  85639271.00347  20913964.318    20913963.8534   20913965.0504
        48.200          46.6004
 128733469.796 7                  24497160.283
        44.600
 110085195.165 8  85780713.78247  20948515.597    20948514.9944   20948517.5784
        48.200          44.6004
 108216540.471 7  84324576.80445  20592899.309    20592899.0284   20592898.3954
        46.600          34.0004
 108440674.629 7  84342838.432 6  20250547.431    20250548.002    20250553.346
        44.500          38.800
 123011089.259 6  95674869.638 6  22987453.328    22987456.647    22987455.602
        40.600          37.400
 140955932.880 6                  26823010.480
        37.900




 109320026.509 7  85026263.657 7  20450464.790    20450464.339    20450469.381
        46.000          45.000
 117287660.259 6  91392979.14044  22319099.707    22319098.9384   22319101.6324
        40.200          27.5004
 198901568.461 7                  37849711.520
        44.000
 115046258.205 7  89646445.79746  21892572.830    21892572.3924   21892570.8204
        44.200          38.7004
 120663762.891 5  94023728.83443  22961547.703    22961546.1974   22961548.6784
        34.000          18.6004
 202016516.529 7                  38442468.179
        44.600
 137370054.831 6                  26140652.337
        37.000
 142796500.167 5                  27173258.742
        32.700
 129172489.752 6                  24580708.327
        38.900
 108062940.698 9  84048944.561 7  20272328.764    20272328.637    20272330.968
        54.300          42.000
                  89639546.825 6                                  21552491.722
                        37.600
 137770484.116 6                  26216845.129
        40.500
 111946929.573 8  87069855.834 7  20949335.361    20949335.117    20949339.773
        51.100          46.400
 25  1  1 12 20  0.0000000  0 28E27E10G23G02E29G32G12E33G10G28R04R03
                                R21E26E21S35R05G25S31G31G21S33E07E30
                                E19R14E12R15
 138259946.997 5                  26309993.494
        32.900
 145186903.130 7                  27628156.109
        42.900
 126154067.574 5                  24006324.230
        34.700
 123514881.333 6  96245354.47142  23504097.345    23504096.1924   23504090.7524
        40.500          13.8004
 123453261.463 8                  23492369.356
        49.200
 109911656.789 8  85645410.64647  20915463.936    20915463.4544   20915464.6674
        49.700          46.7004
 126396414.550 6                  24052437.845
        36.600
 128759080.241 7                  24502033.210
        44.500
 110109874.939 8  85799944.76647  20953212.302    20953211.7264   20953214.1684
        50.100          44.6004
 108196160.632 7  84308696.41945  20589021.202    20589020.9344   20589020.9584
        46.600          34.7004
 108455043.945 7  84354014.522 6  20253227.566    20253227.949    20253236.991
        42.300          37.700
                  97293583.653 5                                  23368186.881
                        30.300
 122986850.779 6  95656017.512 6  22982923.353    22982927.206    22982927.431
        39.500          38.500
 141003314.031 6                  26832025.213
        38.100
 148088957.131 5                  28180394.437
        30.600


 109295947.364 7  85007535.420 7  20445960.343    20445959.023    20445965.017
        46.400          45.400
 117269478.686 6  91378811.65744  22315639.528    22315638.7464   22315643.4174
        37.700          24.3004
 198901578.725 7                  37849713.859
        44.200
 114998932.254 7  89609568.47346  21883565.770    21883565.3504   21883564.4664
        45.300          38.7004
 120672085.843 5  94030214.29543  22963133.023    22963131.5304   22963132.1064
        35.100          19.8004
 202016529.578 7                  38442468.653
        44.700
 137398543.970 5                  26146073.647
        35.000
 142797158.956 5                  27173384.988
        34.600
 129151768.746 6                  24576765.584
        37.500
 108067451.213 8  84052452.661 6  20273174.242    20273174.244    20273176.632
        53.100          41.800
 137752824.064 6                  26213484.289
        39.000
 111894621.109 8  87029171.493 7  20939546.643    20939547.468    20939549.652
        50.600          44.000
 25  1  1 12 20 15.0000000  0 28E27E10G23G02E29G32G12E33G10G28R04R21
                                E26E21S35R05G25S31G31G21S33E07E30E19
                                R14R20E12R15
 138228420.639 5                  26303995.249
        33.800
 145154734.543 7                  27622034.668
        42.000
 126205036.985 5  98341619.14641  24016023.786    24016023.6524   24016026.3434
        34.200          10.3004
 123503414.813 7  96236419.49742  23501915.858    23501914.6744   23501908.0424
        44.200          16.9004
 123457366.252 8                  23493150.980
        49.200
 109919586.038 8  85651589.26347  20916972.635    20916972.1484   20916973.5804
        50.000          47.1004
 126406634.377 6  98498654.62941  24054383.243    24054383.5644   24054378.3944
        37.500           9.1004
 128784783.295 7                  24506924.312
        44.100
 110134665.200 8  85819261.83147  20957929.849    20957929.2554   20957931.0244
        49.300          44.7004
 108175906.569 7  84292914.02245  20585167.049    20585166.7684   20585167.6354
        46.300          35.1004
 108469473.815 6  84365237.755 5  20255925.553    20255921.837    20255930.450
        37.800          34.900
 122962791.003 5  95637304.305 6  22978431.055    22978429.367    22978430.790
        35.300          38.200
 141050707.039 6                  26841043.236
        38.200
 148046244.864 5                  28172267.986
        32.100


 109271908.168 8  84988838.250 7  20441464.579    20441464.269    20441469.212
        49.000          46.400
 117251432.955 6  91364750.03743  22312204.894    22312204.1794   22312211.0544
        36.300          22.0004
 198901587.037 7                  37849716.663
        44.400
 114951693.370 7  89572758.98646  21874576.055    21874575.6664   21874574.1664
        45.000          37.1004
 120680522.079 6  94036787.98243  22964737.018    22964735.5834   22964737.2314
        38.500          22.2004
 202016542.452 7                  38442471.605
        45.500
 137427037.276 6                  26151497.044
        36.300
 142797921.651 5                  27173529.526
        34.300
 129131073.560 6                  24572828.233
        36.500
 108072164.830 8  84056118.762 7  20274059.301    20274059.428    20274063.100
        53.400          44.500
 115305218.821 5  89681834.811 4  21562652.551    21562652.269    21562661.962
        33.900          29.800
 137735265.619 6                  26210142.205
        37.000
 111842429.329 8  86988577.922 6  20929779.053    20929780.604    20929781.410
        48.400          41.200
 25  1  1 12 20 30.0000000  0 28E27E10G23G02E29G32G12E33G10G28R04R21
                                E26E21S35R05G25S31G31G21S33E07E30E19
                                R14R20E12R15
 138196951.076 5                  26298008.559
        31.700
 145122637.615 6                  27615926.863
        41.900
 126256048.628 5  98381368.52141  24025731.386    24025731.2304   24025731.7804
        34.300           7.9004
 123492068.579 7  96227578.21843  23499756.003    23499754.8454   23499750.9044
        44.100          21.2004
 123461498.755 8                  23493937.396
        49.000
 109927562.661 8  85657804.80847  20918490.516    20918490.0474   20918491.4464
        50.500          46.6004
 126416995.272 6  98506728.16541  24056354.527    24056354.5944   24056350.7684
        38.000          10.2004
 128810576.070 7                  24511833.078
        42.800
 110159563.245 7  85838662.87747  20962668.600    20962668.0194   20962667.3844
        46.600          44.1004
 108155775.715 7  84277227.63945  20581336.530    20581336.2584   20581337.3824
        46.400          34.4004
 108483961.521 5  84376506.107 5  20258629.955    20258626.901    20258635.286
        34.700          33.200
 122938907.780 6  95618728.475 6  22973965.363    22973966.151    22973966.908
        37.700          38.500
 141098108.985 5                  26850061.629
        35.800
 148003504.071 5                  28164135.015
        31.400


 109247906.262 8  84970170.112 7  20436974.079    20436974.335    20436979.023
        50.000          46.600
 117233520.617 6  91350792.40143  22308806.356    22308805.6904   22308805.4034
        36.200          19.8004
 198901593.079 7                  37849716.654
        43.600
 114904539.153 7  89536015.47745  21865603.554    21865603.1704   21865600.6934
        43.800          35.6004
 120689068.810 6  94043447.78443  22966364.000    22966362.5964   22966363.0054
        38.200          21.5004
 202016551.331 7                  38442475.929
        45.500
 137455532.127 6                  26156917.899
        39.900
 142798785.692 5                  27173693.895
        32.500
 129110401.374 6                  24568894.061
        36.000
 108077079.181 8  84059941.002 7  20274981.019    20274981.455    20274986.240
        52.600          46.400
 115332656.841 4                  21567779.802    21567780.635
        29.800
 137717806.256 5                  26206818.954
        34.900
 111790352.051 7  86948073.470 6  20920028.045    20920029.118    20920035.151
        44.200          41.100
 25  1  1 12 20 45.0000000  0 29E27E10G23G02E29G32G12E33G10G28R04R03
                                R21E26E21S35R05G25S31G31G21S33E07E30
                                E19R14R20E12R15
 138165544.418 4                  26292046.934
        26.300
 145090618.576 6                  27609833.545
        41.100
 126307108.003 4                  24035445.327
        27.200
 123480848.442 7  96218835.22543  23497622.174    23497621.0924   23497619.4834
        43.400          23.5004
 123465664.740 8                  23494730.128
        49.100
 109935592.415 8  85664061.77047  20920018.239    20920017.7704   20920019.5564
        50.700          46.6004
 126427502.914 5  98514916.01141  24058353.826    24058353.8224   24058351.8064
        35.900          11.9004
 128836464.181 7                  24516760.756
        43.200
 110184574.844 7  85858152.44047  20967427.824    20967427.2254   20967426.1214
        46.600          43.0004
 108135773.864 7  84261641.75245  20577529.856    20577529.5754   20577530.3104
        45.100          32.0004
 108498513.319 5  84387824.197 5  20261347.105    20261345.062    20261349.686
        35.400          35.500


 122915206.895 6  95600294.476 6  22969533.993    22969534.473    22969541.495
        37.000          39.400
 141145525.460 5                  26859082.089
        32.600
 147960740.714 4                  28155996.756
        29.600


 109223947.453 8  84951535.487 7  20432490.966    20432491.207    20432496.405
        48.700          46.000
 117215747.642 5  91336943.46842  22305427.267    22305426.5484   22305425.4204
        34.200          13.6004
 198901602.276 7                  37849718.442
        44.000
 114857475.739 6  89499342.69845  21856648.847    21856648.4994   21856644.8564
        37.100          32.9004
 120697731.845 6  94050198.21043  22968012.919    22968011.5744   22968010.6874
        36.200          20.6004
 202016564.106 7                  38442476.541
        44.800
 137484034.296 6                  26162342.074
        41.600
 142799756.899 5                  27173880.359
        33.000
 129089758.311 5                  24564965.890
        35.800
 108082199.984 8  84063923.864 7  20275940.939    20275941.145    20275946.212
        52.300          46.800
 115360267.973 5                  21572949.318    21572946.544
        33.300
 137700451.838 5                  26203517.934
        34.100
 111738395.830 7  86907663.148 7  20910309.801    20910307.524    20910316.831
        44.400          44.700
 25  1  1 12 21  0.0000000  0 28E27E10G23G02E29G32E33G10G28R04R03R21
                                E26E21S35R05G25S31G31G21S33E07E30E19
                                R14R20E12R15


 145058674.424 6                  27603754.746
        40.100


 123469751.153 7  96210187.99444  23495510.407    23495509.3614   23495508.3234
        45.200          24.8004
 123469860.804 8                  23495528.341
        48.900
 109943671.908 8  85670357.48547  20921555.745    20921555.2764   20921557.3824
        51.300          46.8004
 128862444.130 7                  24521704.467
        44.600
 110209696.575 7  85877727.82147  20972207.006    20972206.4124   20972207.0774
        45.800          42.6004
 108115897.806 7  84246153.87045  20573747.935    20573747.6404   20573746.5754
        44.400          30.7004
 108513125.710 7  84399189.380 6  20264079.108    20264082.889    20264080.354
        42.200          38.900


 122891685.399 6  95582000.059 6  22965133.759    22965134.710    22965144.625
        37.800          38.400
 141192952.874 4                  26868107.470
        25.200
 147917951.764 4                  28147852.951
        28.600


 109200028.666 8  84932931.984 7  20428016.426    20428016.620    20428022.806
        48.400          46.200
 117198111.094 5  91323200.81842  22302054.761    22302053.7964   22302070.4694
        34.900          15.5004
 198901609.556 7                  37849720.160
        43.700
 114810499.851 7  89462738.15945  21847709.197    21847708.8264   21847705.5014
        42.200          32.4004
 120706507.200 5  94057036.18643  22969682.835    22969681.5164   22969680.6904
        35.200          19.3004
 202016575.640 7                  38442480.467
        45.200
 137512540.388 6                  26167765.868
        39.600
 142800831.824 5                  27174083.350
        33.600
 129069140.602 6                  24561041.426
        36.700
 108087523.728 8  84068064.549 7  20276940.027    20276939.873    20276944.108
        52.000          46.700
 115388047.952 5  89746258.046 6  21578141.823    21578141.120    21578149.449
        34.200          38.800
 137683199.302 5                  26200235.049
        32.100
 111686557.732 8  86867344.596 7  20900611.759    20900610.024    20900616.129
        48.400          46.200
 25  1  1 12 21 15.0000000  0 28E27E10G23G02E29G32E33G10G28R04R03R21
                                E26E21S35R05G25S31G31G21S33E07E30E19
                                R14R20E12R15


 145026804.747 6                  27597689.617
        41.100


 123458776.560 7  96201636.36044  23493422.140    23493421.0994   23493418.6844
        46.100          27.2004
 123474086.604 7                  23496332.331
        47.900
 109951800.836 8  85676691.71447  20923103.426    20923102.9484   20923104.6984
        51.800          47.7004
 128888515.471 7                  24526665.610
        45.900
 110234928.149 7  85897388.79947  20977008.048    20977007.4634   20977009.3184
        46.900          42.9004
 108096147.273 7  84230763.80445  20569991.168    20569990.8554   20569987.8944
        44.200          30.8004
 108527798.318 6  84410601.456 6  20266819.009    20266820.170    20266823.314
        41.400          41.100


 122868343.314 6  95563844.992 6  22960773.867    22960773.751    22960782.794
        39.300          39.500


 147875137.073 4                  28139705.849
        28.800


 109176149.576 7  84914359.332 7  20423550.456    20423548.642    20423556.384
        47.100          45.800
 117180610.982 6  91309564.42142  22298728.816    22298727.7844   22298741.1494
        38.100          15.5004
 198901616.593 7                  37849720.406
        44.200
 114763611.634 7  89426201.91445  21838785.167    21838784.7344   21838782.3524
        43.000          34.2004
 120715395.036 5  94063961.77243  22971374.373    22971373.0684   22971372.7704
        35.600          19.5004
 202016586.091 7                  38442479.743
        44.900
 137541050.161 6                  26173192.321
        38.400
 142802010.411 4                  27174305.114
        29.700
 129048548.290 6                  24557122.616
        37.800
 108093050.203 8  84072362.891 7  20277976.577    20277977.339    20277979.839
        52.600          46.200
 115415996.241 5  89767995.699 6  21583368.351    21583368.563    21583376.244
        32.300          41.600
 137666048.377 5                  26196971.867
        30.900
 111634837.931 8  86827118.049 7  20890931.763    20890931.550    20890937.333
        50.400          47.200
 25  1  1 12 21 30.0000000  0 28E27E10G23G02E29G32E33G10G28R04R03R21
                                E26E21S35R05G25S31G31G21S33E07E30E19
                                R14R20E12R15
 138071703.907 5                  26274170.630
        33.200
 144995011.176 6                  27591638.988
        41.900


 123447925.486 7  96193180.98944  23491356.780    23491355.7524   23491352.7194
        47.900          28.8004
 123478342.947 7                  23497142.304
        46.800
 109959980.032 8  85683065.12048  20924660.107    20924659.6344   20924661.7264
        52.300          48.3004
 128914678.811 7                  24531644.642
        47.100
 110260270.394 7  85917136.02147  20981831.372    20981830.7424   20981832.7094
        47.100          44.3004
 108076523.133 7  84215472.26845  20566256.181    20566255.8424   20566254.2374
        46.700          32.6004
 108542532.341 7  84422061.215 6  20269572.380    20269571.662    20269572.333
        43.700          38.000


 122845181.634 7  95545830.411 6  22956449.914    22956448.967    22956455.064
        42.000          40.100
 141287839.617 5                  26886178.920
        33.100
 147832297.637 4                  28131554.711
        26.600


 109152311.259 8  84895818.410 7  20419089.988    20419089.723    20419096.719
        48.300          44.300
 117163248.341 6  91296035.15641  22295425.442    22295424.4234   22295440.0774
        38.800           9.2004
 198901623.816 7                  37849721.765
        44.200
 114716812.023 7  89389734.70045  21829879.997    21829879.6004   21829876.3864
        44.200          35.9004
 120724395.883 5  94070975.44943  22973086.345    22973085.0084   22973085.2944
        33.900          20.1004
 202016596.836 7                  38442482.846
        45.300
 137569564.464 6                  26178618.510
        38.700


 129027981.943 6                  24553209.387
        38.400
 108098780.025 8  84076819.432 7  20279052.229    20279052.308    20279056.485
        52.900          47.500
 115444113.499 4  89789864.762 7  21588628.280    21588623.766    21588634.899
        29.300          44.100
 137648999.854 5                  26193727.324
        31.800
 111583237.792 8  86786984.604 7  20881274.476    20881275.184    20881280.605
        50.200          46.700
 25  1  1 12 21 45.0000000  0 27E27E10G23G02E29G32E33G10G28R04R21E26
                                E21S35R05G25S31G31G21S33E07E30E19R14
                                R20E12R15
 138040538.065 5                  26268242.021
        32.100
 144963293.521 6                  27585603.378
        41.600


 123437197.891 7  96184821.80244  23489314.931    23489313.8904   23489310.9044
        45.600          28.4004
 123482629.704 7                  23497958.103
        46.200
 109968209.403 8  85689477.62848  20926225.865    20926225.3964   20926228.3684
        51.000          49.0004
 128940933.906 8                  24536640.658
        48.100
 110285723.158 8  85936969.34847  20986675.850    20986675.2024   20986677.1944
        48.700          46.6004
 108057025.351 8  84200279.20645  20562544.835    20562544.4874   20562544.0254
        48.700          34.0004
 108557327.479 6  84433568.528 5  20272329.881    20272331.637    20272332.478
        41.200          34.900
 122822200.498 7  95527956.123 6  22952160.858    22952159.514    22952160.768
        47.300          40.700
 141335299.191 5                  26895205.504
        34.300
 147789433.628 4                  28123401.354
        25.500


 109128513.524 8  84877309.099 6  20414638.517    20414638.724    20414641.637
        49.800          41.400
 117146023.291 7  91282612.67042  22292149.458    22292148.5784   22292163.1334
        42.800          16.6004
 198901630.123 7                  37849723.723
        43.900
 114670101.417 7  89353336.86546  21820992.018    21820991.6164   21820987.6914
        44.300          36.6004
 120733509.447 6  94078076.91943  22974823.410    22974822.1004   22974818.4864
        40.700          22.2004
 202016606.456 7                  38442487.094
        44.600
 137598083.230 6                  26184044.440
        40.800
 142804680.646 4                  27174822.058
        27.000
 129007441.454 6                  24549299.962
        37.700
 108104712.995 8  84081433.963 7  20280163.668    20280164.155    20280168.774
        52.000          47.400
                  89811864.438 7                                  21593923.174
                        44.700
 137632054.157 5                  26190502.578
        33.000
 111531757.812 8  86746944.623 7  20871639.997    20871640.800    20871646.838
        49.100          45.600
 25  1  1 12 22  0.0000000  0 27E27E10G23G02E29G32E33G10G28R04R03R21
                                E26E21S35R05G25S31G31G21S33E07E30E19
                                R14E12R15
 138009436.425 3                  26262321.290
        23.200
 144931654.656 6                  27579582.302
        40.600


 123426596.873 7  96176561.26344  23487298.155    23487297.1494   23487294.2834
        43.400          26.8004
 123486949.764 7                  23498779.947
        46.700
 109976491.804 8  85695931.46848  20927801.628    20927801.1464   20927804.9774
        51.300          49.1004
 128967283.516 7                  24541654.058
        47.000
 110311289.350 8  85956891.05747  20991541.073    20991540.4524   20991542.1904
        50.200          46.8004
 108037656.945 7  84185186.96445  20558859.146    20558858.8024   20558858.2324
        47.500          34.0004
 108572187.187 6  84445125.889 6  20275110.467    20275107.840    20275109.012
        39.300          38.000
                  97539433.070 5                  23427257.266    23427243.873
                        33.200
 122799402.848 7  95510224.560 7  22947890.258    22947891.668    22947900.984
        42.000          42.500
 141382772.158 5                  26904237.981
        35.200
 147746548.251 4                  28115242.960
        26.800


 109104759.965 8  84858834.177 6  20410195.871    20410196.377    20410197.537
        52.200          40.800
 117128939.058 6  91269300.18143  22288897.180    22288896.3224   22288912.0134
        41.000          18.9004
 198901639.305 7                  37849726.031
        43.900
 114623482.848 7  89317010.73845  21812120.494    21812120.0654   21812116.9134
        42.600          35.3004
 120742738.416 7  94085268.30044  22976577.545    22976576.1954   22976574.8414
        42.600          24.4004
 202016619.320 7                  38442488.342
        44.700
 137626609.333 7                  26189472.793
        42.200
 142806175.186 5                  27175102.691
        31.800
 128986929.810 6                  24545397.020
        36.100
 108110852.209 8  84086208.947 8  20281316.201    20281316.783    20281320.834
        53.000          48.200
 137615213.972 5                  26187299.146
        33.900
 111480401.491 8  86707000.840 6  20862030.036    20862030.380    20862033.413
        48.500          40.800
 25  1  1 12 22 15.0000000  0 28E27E10G23G02E29G32E33G10G28R04R03R21
                                E26E21S35R05G25S31G31G21S33E07E30E19
                                R14R20E12R15


 144900092.553 6                  27573576.874
        40.000


 123416119.672 7  96168397.20844  23485302.352    23485301.3554   23485301.0844
        42.000          26.0004
 123491300.391 7                  23499607.258
        46.500
 109984824.557 8  85702424.54548  20929387.076    20929386.5944   20929390.6194
        51.100          49.0004
 128993724.812 7                  24546685.177
        45.200
 110336966.229 8  85976899.00847  20996426.077    20996425.4514   20996426.7584
        48.800          44.9004
 108018415.275 8  84170193.47545  20555198.044    20555197.7054   20555196.7644
        48.600          34.9004
 108587108.339 5  84456731.269 7  20277889.211    20277885.987    20277901.446
        30.400          42.000
                  97570275.301 4                                  23434651.044
                        29.900
 122776786.514 6  95492634.001 7  22943669.260    22943667.027    22943673.217
        40.600          42.200
 141430255.676 5                  26913272.423
        35.100
 147703638.971 5                  28107078.681
        30.200


 109081047.621 8  84840391.294 7  20405759.048    20405759.405    20405764.446
        52.000          43.700
 117111993.131 6  91256095.47044  22285672.545    22285671.7184   22285682.9924
        39.500          24.7004
 198901648.416 7                  37849726.889
        43.100
 114576953.950 6  89280754.49145  21803265.869    21803265.4314   21803263.0784
        39.700          32.1004
 120752079.759 6  94092547.24944  22978355.351    22978353.9564   22978353.0944
        41.800          25.0004
 202016632.731 7                  38442493.243
        45.200
 137655140.074 6                  26194901.776
        41.200
 142807774.434 5                  27175405.626
        34.700
 128966444.210 5                  24541499.756
        35.400
 108117194.763 8  84091142.016 7  20282506.428    20282506.391    20282511.051
        52.900          47.700
 115529464.942 6  89856260.492 6  21604594.813    21604596.782    21604596.258
        36.200          41.300
 137598476.967 5                  26184112.837
        33.300
 111429166.770 8  86667151.601 5  20852441.950    20852442.184    20852439.422
        48.300          31.300
 25  1  1 12 22 30.0000000  0 28E27E10G23G02E29G32G12E33G10G28R04R21
                                E26E21S35R05G25S31G31G21S33E07E30E19
                                R14R20E12R15


 144868606.704 6                  27567586.640
        38.700


 123405765.846 7  96160329.27144  23483332.940    23483331.9164   23483331.9204
        42.200          27.0004
 123495681.243 7                  23500440.837
        45.700
 109993207.211 8  85708956.50148  20930982.116    20930981.6384   20930985.1414
        51.900          49.0004
 126505109.160 5  98575418.66342  24073119.762    24073119.9904   24073122.4884
        34.700          12.5004
 129020257.224 7                  24551734.533
        44.600
 110362753.352 8  85996992.85047  21001333.252    21001332.6404   21001333.1074
        48.200          44.0004
 107999300.059 8  84155298.50045  20551560.668    20551560.3334   20551559.1084
        49.400          35.9004
 108602091.202 5  84468384.561 6  20280692.383    20280689.265    20280694.551
        34.300          41.200
 122754351.283 7  95475184.220 7  22939478.331    22939477.546    22939480.043
        43.000          42.000
 141477749.028 5                  26922309.891
        34.000
 147660705.773 4                  28098910.706
        29.900


 109057376.185 8  84821980.171 7  20401330.468    20401330.106    20401336.221
        50.300          44.900
 117095185.539 6  91242998.57344  22282474.469    22282473.7094   22282481.7084
        38.700          24.6004
 198901657.646 7                  37849729.988
        44.000
 114530514.308 6  89244567.81344  21794427.186    21794426.7974   21794425.5694
        38.900          29.3004
 120761533.242 7  94099913.58644  22980155.336    22980153.9324   22980152.6584
        42.500          24.8004
 202016645.166 7                  38442492.147
        44.900
 137683675.002 6                  26200332.724
        40.700
 142809477.900 5                  27175728.736
        35.400
 128945984.320 6                  24537606.015
        36.600
 108123740.281 8  84096232.978 7  20283735.487    20283735.497    20283738.355
        53.700          47.100
 115558256.441 5  89878653.868 6  21609977.919    21609978.800    21609978.799
        34.500          37.800
 137581842.770 5                  26180948.476
        34.700
 111378053.652 8                  20842877.604    20842878.738
        49.900
 25  1  1 12 22 45.0000000  0 29E27E10G23G02E29G32G12E33G10G28R04R03
                                R21E26E21S35R05G25S31G31G21S33E07E30
                                E19R14R20E12R15


 144837193.853 6                  27561608.860
        38.100
 126717213.123 5  98740696.56841  24113480.184    24113479.9394   24113486.9624
        34.900          11.5004
 123395531.941 7  96152354.78744  23481384.350    23481383.2554   23481386.4204
        42.100          28.1004
 123500088.537 7                  23501279.894
        44.900
 110001636.130 8  85715524.50548  20932585.964    20932585.4914   20932588.1784
        51.500          48.8004
 126516763.954 4  98584500.27841  24075344.976    24075345.0384   24075337.3324
        29.400           8.2004
 129046876.870 7                  24556799.510
        45.300
 110388647.048 7  86017169.74447  21006260.752    21006260.1494   21006260.0934
        45.400          42.8004
 107980307.671 7  84140499.21646  20547946.380    20547946.0454   20547945.1924
        47.500          36.7004
 108617131.770 6  84480082.710 6  20283508.424    20283506.754    20283503.624
        41.100          40.500
 125526843.784 5  97632017.801 5  23449467.611    23449469.429    23449475.528
        35.000          34.200
 122732093.854 7  95457872.839 7  22935320.107    22935320.278    22935319.717
        42.800          42.000
 141525248.385 5                  26931356.077
        31.600
 147617745.014 4                  28090731.355
        26.700


 109033742.161 8  84803598.135 7  20396910.120    20396908.110    20396914.703
        48.900          45.700
 117078512.783 6  91230006.70343  22279300.335    22279299.5894   22279307.1834
        36.900          21.7004
 198901662.407 7                  37849730.189
        43.700
 114484160.933 5  89208448.33044  21785606.340    21785605.8754   21785604.6984
        32.300          26.4004
 120771095.167 7  94107364.42344  22981974.730    22981973.3004   22981972.4744
        44.200          25.9004
 202016653.932 7                  38442494.951
        45.100
 137712210.513 6                  26205763.048
        41.000
 142811281.951 5                  27176072.059
        31.500
 128925546.390 6                  24533715.702
        38.600
 108130485.009 8  84101478.886 7  20284999.983    20284999.392    20285003.126
        52.300          46.300
 115587210.835 5  89901173.872 5  21615393.495    21615392.460    21615391.926
        31.500          32.400
 137565307.968 6                  26177801.524
        37.200
 111327058.874 8  86587698.626 6  20833334.129    20833334.552    20833339.678
        49.600          37.100
 25  1  1 12 23  0.0000000  0 28E27E10G23G02E29G32E33G10G28R04R03R21
                                E26E21S35R05G25S31G31G21S33E07E30E19
                                R14R20E12R15


 144805866.161 6                  27555646.994
        37.800
 126768675.134 5  98780796.76142  24123275.354    24123275.4834   24123280.4014
        35.900          12.2004
 123385430.033 7  96144483.15844  23479464.165    23479463.1064   23479464.9684
        43.700          28.5004
 123504534.304 7                  23502126.394
        45.700
 110010123.241 8  85722137.82448  20934201.098    20934200.6384   20934202.0444
        50.800          48.4004
 129073595.672 7                  24561883.911
        45.100
 110414659.316 7  86037439.02646  21011212.168    21011211.5784   21011209.6294
        44.000          41.6004
 107961450.183 7  84125805.05046  20544358.578    20544358.2524   20544358.0394
        47.700          36.9004
 108632242.376 7  84491835.413 6  20286324.883    20286326.215    20286323.027
        44.700          37.300
 125566595.909 4  97662935.877 5  23456895.648    23456895.511    23456896.172
        29.800          30.200
 122710026.266 7  95440709.204 7  22931194.177    22931195.278    22931196.161
        44.000          42.300
 141572765.452 4                  26940400.710
        25.100
 147574769.133 4                  28082553.428
        26.600


 109010158.109 8  84785254.969 7  20392497.941    20392497.297    20392501.645
        50.000          45.500
 117061987.148 6  91217129.55043  22276155.407    22276154.6744   22276160.9724
        37.300          18.3004
 198901674.844 7                  37849733.114
        43.700
 114437906.048 5  89172405.59644  21776804.595    21776804.0104   21776804.2684
        32.400          26.8004
 120780777.732 7  94114909.27844  22983817.153    22983815.7094   22983814.2734
        45.200          24.8004
 202016670.677 7                  38442501.059
        45.100
 137740758.624 6                  26211195.067
        40.700
 142813198.652 5                  27176439.979
        32.200
 128905142.481 6                  24529832.523
        38.400
 108137440.867 8  84106889.009 7  20286304.450    20286304.578    20286308.192
        52.100          46.400
 115616339.782 4  89923829.607 5  21620834.225                    21620843.411
        27.700          34.200
 137548884.561 6                  26174676.255
        38.100
 111276195.301 8  86548138.114 6  20823816.187    20823816.744    20823821.382
        49.700          41.100
 25  1  1 12 23 15.0000000  0 27E27E10G23G02E29G32E33G10G28R04R21E26
                                E21S35R05G25S31G31G21S33E07E30E19R14
                                R20E12R15


 144774608.183 6                  27549697.624
        37.400
 126820172.846 5  98820924.79241  24133072.244    24133072.4094   24133079.9134
        34.100           9.0004
 123375444.636 7  96136702.32244  23477564.085    23477563.0574   23477564.2384
        44.600          28.8004
 123509002.866 7                  23502975.920
        46.300
 110018652.971 8  85728784.37348  20935824.481    20935824.0254   20935824.7564
        50.900          48.7004
 129100397.809 7                  24566983.860
        44.900
 110440774.446 7  86057788.47247  21016181.155    21016180.5344   21016179.3774
        45.800          43.2004
 107942712.027 8  84111203.86246  20540791.813    20540791.4744   20540793.1904
        48.300          36.5004
 108647407.200 6  84503630.283 4  20289154.846    20289155.326    20289150.456
        39.900          28.700
 122688133.149 6  95423681.260 7  22927104.259    22927103.185    22927104.608
        40.700          42.000


 147531762.608 4                  28074370.255
        24.300


 108986607.927 8  84766938.158 7  20388092.935    20388092.538    20388095.747
        51.300          45.300
 117045593.255 5  91204355.07642  22273035.701    22273034.9104   22273039.3904
        35.000          17.8004
 198901680.392 7                  37849732.890
        44.000
 114391734.025 6  89136427.40845  21768020.562    21768019.9194   21768020.4994
        36.700          31.0004
 120790564.811 7  94122535.56043  22985678.963    22985677.5424   22985675.3494
        43.200          22.6004
 202016679.557 7                  38442501.994
        45.400
 137769303.623 6                  26216627.686
        40.600
 142815212.452 5                  27176821.599
        33.600
 128884756.921 6                  24525953.676
        38.900
 108144592.126 8  84112451.040 7  20287647.094    20287647.201    20287650.698
        52.800          47.600
                  89946608.638 6                                  21626321.909
                        39.100
 137532557.210 6                  26171568.327
        37.700
 111225447.473 8  86508667.581 7  20814320.385    20814320.967    20814324.774
        50.000          44.100
 25  1  1 12 23 30.0000000  0 26E27E10G23G02E29G32E33G10G28R04R21E26
                                E21S35R05G25S31G31G21S33E07E30E19R14
                                E12R15


 144743431.626 6                  27543764.128
        39.100
 126871717.491 4  98861089.3504   24142878.104    24142878.4794   24142888.4484
        28.100           5.9004
 123365587.175 7  96129021.16544  23475688.142    23475687.1184   23475688.6474
        46.100          29.4004
 123513505.645 7                  23503832.698
        46.900
 110027236.708 8  85735472.99748  20937457.843    20937457.3834   20937458.8664
        51.000          49.1004
 129127294.487 7                  24572102.492
        44.300
 110467003.929 7  86078227.00847  21021171.979    21021171.3624   21021171.6664
        46.500          45.1004
 107924104.692 8  84096704.59845  20537250.552    20537250.2134   20537251.9464
        49.100          35.7004
 108662638.195 7                  20292003.335    20292005.341
        42.500
 122666426.380 7  95406798.154 6  22923051.759    22923050.222    22923047.881
        42.700          40.900


 147488737.304 4                  28066186.092
        26.400


 108963103.361 8  84748656.835 7  20383695.553    20383695.180    20383698.894
        50.700          46.100
 117029342.860 6  91191692.43343  22269944.732    22269943.9284   22269944.4684
        40.100          21.9004
 198901690.126 7                  37849735.779
        43.400
 114345656.732 6  89100523.04245  21759252.824    21759252.2034   21759254.5134
        40.900          34.5004
 120800467.617 7  94130252.01843  22987563.714    22987562.3284   22987559.9954
        42.000          21.4004
 202016693.308 7                  38442502.986
        45.300
 137797856.926 6                  26222061.596
        40.800
 142817334.792 5                  27177224.017
        33.900
 128864401.110 6                  24522080.866
        40.500
 108151950.377 8  84118174.130 8  20289026.651    20289026.943    20289032.492
        52.000          48.700
 137516337.423 6                  26168481.371
        36.300
 111174827.705 7  86469296.657 7  20804845.316    20804846.614    20804852.249
        47.600          45.200
 25  1  1 12 23 45.0000000  0 26E27E10G23G02E29G32G12E33G10G28R04R21
                                E26S35R05G25S31G31G21S33E07E30E19R14
                                E12R15


 144712330.503 6                  27537845.843
        39.300


 123355851.663 7  96121435.06844  23473835.224    23473834.2184   23473836.3544
        46.400          29.3004
 123518036.448 7                  23504694.915
        46.800
 110035868.268 8  85742198.88848  20939100.000    20939099.5274   20939102.5314
        50.700          49.5004
 126564843.704 5  98621913.47542  24084483.423    24084484.0224   24084481.2414
        34.900          15.0004
 129154279.419 7                  24577237.994
        43.000
 110493341.561 7  86098749.81947  21026183.117    21026182.5094   21026184.3554
        46.300          46.0004
 107905622.102 7  84082302.53745  20533732.605    20533732.2844   20533734.1034
        47.100          33.7004


 122644899.492 6  95390055.033 6  22919026.379    22919025.485    22919025.755
        36.500          41.100




 108939638.530 8  84730406.405 7  20379305.830    20379305.858    20379310.725
        50.900          46.900
 117013229.995 6  91179136.94943  22266878.969    22266878.2004   22266876.6224
        40.500          23.7004
 198901696.629 7                  37849736.257
        43.700
 114299668.199 7  89064687.81845  21750500.499    21750499.9144   21750504.2464
        43.400          35.8004
 120810480.127 6  94138053.95443  22989468.926    22989467.5764   22989466.8384
        40.800          21.4004
 202016704.282 7                  38442507.440
        45.500
 137826412.535 6                  26227495.199
        39.200
 142819559.590 6                  27177646.572
        36.100
 128844068.770 6                  24518212.157
        40.800
 108159509.030 8  84124053.112 7  20290443.890    20290443.825    20290449.509
        50.400          47.900
 137500219.146 5                  26165413.445
        34.900
 111124330.113 6  86430020.745 7  20795392.332    20795391.677    20795402.848
        39.600          46.500
 25  1  1 12 24  0.0000000  0 27E27E10G23G02E29G32G12E33G10G28R04R03
                                R21E26S35R05G25S31G31G21S33E07E30E19
                                R14E12R15


 144681309.131 6                  27531942.759
        38.100


 123346242.244 7  96113947.27644  23472007.038    23472006.0684   23472007.1384
        45.700          29.2004
 123522599.468 7                  23505563.193
        47.200
 110044551.912 8  85748965.37448  20940752.217    20940751.7484   20940755.5654
        50.300          48.9004
 126577220.014 5  98631557.28841  24086834.038    24086835.0664   24086840.6704
        31.700          10.9004
 129181356.678 7                  24582391.243
        44.500
 110519791.495 7  86119360.14147  21031216.969    21031216.3614   21031218.5484
        47.100          47.1004
 107887268.523 7  84068001.01745  20530240.872    20530240.5514   20530240.7554
        45.500          32.1004
 108693284.070 6  84539312.191 5  20297727.456    20297733.356    20297727.096
        36.100          34.900
 125725895.783 5  97786820.694 5  23486648.825    23486653.614    23486654.159
        31.000          33.200
 122623557.574 5  95373455.933 6  22915041.646                    22915037.054
        30.200          39.600




 108916217.560 8  84712190.097 7  20374924.247    20374924.334    20374929.304
        51.100          47.400
 116997259.183 6  91166692.20744  22263840.560    22263839.7694   22263837.2834
        39.000          24.7004
 198901705.057 7                  37849739.669
        43.600
 114253773.013 6  89028925.33045  21741765.715    21741765.1614   21741770.7914
        40.800          32.8004
 120820606.289 6  94145944.48543  22991395.492    22991394.1824   22991395.9404
        37.200          20.4004
 202016717.271 7                  38442509.980
        45.100
 137854974.663 6                  26232930.903
        40.000
 142821891.027 6                  27178091.240
        36.600
 128823764.290 6                  24514349.466
        40.200
 108167272.805 8  84130091.649 7  20291899.495    20291900.050    20291906.257
        49.900          47.800
 137484206.735 6                  26162368.602
        37.000
 111073959.646 7  86390843.684 7  20785971.072    20785968.358    20785975.724
        42.900          45.800
 25  1  1 12 24 15.0000000  0 29E27E10G23G02E29G32G12E33G10G28R04R03
                                R21E26E21S35R05G25S31G31G21S33E07E30
                                E19R14R20E12R15
 137732316.547 5                  26209591.275
        35.300
 144650366.322 6                  27526055.204
        36.900


 123336757.252 7  96106556.41444  23470202.471    23470201.5064   23470201.9444
        45.700          29.1004
 123527192.981 8                  23506437.767
        48.200
 110053285.883 7  85755771.07647  20942414.628    20942414.1554   20942417.5554
        47.700          46.7004
 126589740.122 5  98641313.15441  24089217.558    24089218.7294   24089222.0554
        30.600           6.1004
 129208524.356 7                  24587560.906
        46.700
 110546352.014 8  86140056.60848  21036271.677    21036271.0744   21036273.5924
        49.500          48.6004
 107869042.320 7  84053798.76845  20526773.509    20526773.2014   20526772.3244
        46.300          31.8004
 108708701.376 6  84551303.686 6  20300605.372    20300607.352    20300605.935
        39.400          36.100
 125765800.760 5  97817857.572 5  23494101.301    23494104.379    23494106.212
        32.200          31.400
 122602398.915 6  95356999.283 6  22911082.815                    22911082.467
        40.300          37.500






 108892839.159 8  84694006.867 8  20370551.183    20370551.342    20370556.290
        51.300          48.500
 116981428.971 6  91154356.99744  22260827.288    22260826.4434   22260825.1004
        37.700          24.6004
 198901714.938 7                  37849739.110
        44.300
 114207969.635 5  88993234.44244  21733048.963    21733048.3514   21733050.8864
        35.100          26.7004
 120830844.402 6  94153922.26043  22993344.230    22993342.9474   22993344.5664
        37.000          18.4004
 202016729.283 7                  38442512.109
        45.100
 137883541.560 6                  26238366.755
        39.600
 142824327.438 6                  27178556.731
        36.900
 128803485.866 6                  24510491.380
        39.300
 108175239.219 8  84136287.742 7  20293395.401    20293395.374    20293400.592
        50.000          46.700
                  90039019.117 5                                  21648538.289
                        35.200
 137468298.704 6                  26159340.141
        36.900
 111023714.924 7  86351764.435 7  20776568.258    20776569.155    20776571.938
        46.100          44.500
 25  1  1 12 24 30.0000000  0 29E27E10G23G02E29G32G12E33G10G28R04R03
                                R21E26E21S35R05G25S31G31G21S33E07E30
                                E19R14R20E12R15
 137701837.239 5                  26203792.167
        35.200
 144619497.579 6                  27520181.938
        36.700


 123327392.033 7  96099258.83344  23468419.406    23468418.4274   23468419.4134
        43.600          28.4004
 123531812.348 8                  23507316.786
        48.700
 110062065.586 7  85762612.43647  20944086.715    20944086.2424   20944087.1654
        47.200          44.5004
 126602398.995 4  98651177.07541  24091627.462    24091628.3204   24091629.0094
        29.600           6.6004
 129235777.732 7                  24592746.679
        47.500
 110573018.471 8  86160835.63348  21041345.854    21041345.2604   21041348.3434
        51.600          49.7004
 107850938.984 7  84039692.29145  20523328.045    20523327.7014   20523327.1534
        45.900          32.1004
 108724176.851 6  84563340.241 6  20303503.156    20303501.740    20303494.823
        37.200          36.300
 125805732.678 4  97848915.374 5  23501573.947    23501576.299    23501566.018
        28.200          30.700
 122581418.901 6  95340681.501 6  22907158.121    22907155.907    22907163.810
        40.300          37.600






 108869498.580 8  84675853.055 8  20366185.493    20366185.438    20366190.099
        51.000          48.600
 116965735.054 5  91142127.99343  22257837.609    22257836.6704   22257840.4084
        31.400          23.9004
 198901719.454 7                  37849742.451
        44.400
 114162253.702 6  88957611.71444  21724351.385    21724350.7514   21724346.0364
        36.800          26.9004
 120841189.549 5  94161983.50142  22995312.110    22995310.8674   22995313.7034
        34.300          16.1004
 202016738.814 7                  38442513.714
        45.700
 137912108.635 6                  26243803.181
        40.200
 142826864.291 6                  27179039.473
        37.900
 128783229.027 6                  24506637.404
        37.400
 108183403.878 8  84142638.025 7  20294926.704    20294926.444    20294931.926
        49.400          45.400
 115794532.196 5  90062438.635 5  21654161.727    21654163.494    21654168.621
        35.000          32.900
 137452490.592 5                  26156332.533
        34.800
 110973592.112 7  86312780.019 7  20767188.335    20767189.350    20767190.818
        47.000          43.000
 25  1  1 12 24 45.0000000  0 29E27E10G23G02E29G32G12E33G10G28R04R03
                                R21E26E21S35R05G25S31G31G21S33E07E30
                                E19R14R20E12R15
 137671421.967 5                  26198004.224
        32.100
 144588707.130 6                  27514322.883
        39.300


 123318151.297 6  96092058.24644  23466661.594    23466660.6154   23466661.0414
        39.900          26.9004
 123536461.963 8                  23508201.462
        48.900
 110070895.451 8  85769492.89747  20945766.763    20945766.2854   20945765.5354
        48.300          43.2004
 126615201.250 4  98661152.57141  24094065.990    24094066.7054   24094064.6394
        27.800           6.0004
 129263121.023 8                  24597950.105
        48.300
 110599795.277 8  86181700.65848  21046440.836    21046440.2374   21046443.6764
        51.600          48.9004
 107832962.955 7  84025685.00945  20519907.705    20519907.3434   20519906.1074
        46.000          33.3004
 108739714.712 6  84575425.208 6  20306387.710    20306391.199    20306394.969
        41.800          37.100
                  97879997.793 5                                  23509033.735
                        30.800
 122560622.355 6  95324506.302 6  22903274.758    22903270.895    22903278.382
        41.100          38.200






 108846200.756 8  84657732.512 8  20361827.500    20361828.401    20361831.296
        51.200          48.200
 116950182.002 4  91130008.77643  22254876.876    22254875.8034   22254882.3004
        27.200          22.4004
 198901723.958 7                  37849740.979
        43.600
 114116630.001 7  88922060.79645  21715669.203    21715668.4664   21715663.6924
        42.600          30.0004
 120851645.956 5  94170131.41342  22997302.440    22997301.2384   22997303.9064
        34.900          15.3004
 202016748.651 7                  38442514.246
        45.500
 137940680.328 6                  26249239.470
        40.400
 142829506.012 6                  27179541.614
        37.600
 128762997.883 5                  24502784.982
        33.100
 108191771.146 8  84149145.875 7  20296496.548    20296496.350    20296500.616
        49.500          42.900
 115824806.473 5                  21659825.717    21659826.817
        35.400
 137436786.743 5                  26153344.787
        34.800
 110923595.921 7  86273894.139 7  20757829.612    20757829.605    20757834.775
        45.500          42.100
 25  1  1 12 25  0.0000000  0 28E27E10G23G02E29G32E33G10G28R04R03R21
                                E26E21S35R05G25S31G31G21S33E07E30E19
                                R14R20E12R15
 137641071.508 5                  26192229.601
        32.400
 144557996.238 6                  27508478.345
        41.600


 123309035.355 6  96084954.92044  23464927.327    23464926.3304   23464925.7834
        37.600          25.0004
 123541142.228 8                  23509091.945
        48.200
 110079775.859 8  85776412.71947  20947455.710    20947455.2414   20947454.0964
        49.300          43.6004
 129290554.490 7                  24603170.529
        47.700
 110626682.803 8  86202651.96347  21051557.641    21051557.0424   21051560.3394
        50.500          47.1004
 107815114.699 7  84011777.26445  20516510.835    20516510.4424   20516510.2764
        46.600          35.4004
 108755315.781 7  84587559.367 6  20309306.984    20309307.006    20309308.907
        43.800          40.400
                  97911105.346 4                                  23516506.630
                        28.700
 122540010.054 7  95308474.427 5  22899422.588    22899420.394    22899423.602
        45.400          35.900






 108822946.013 8  84639645.497 8  20357475.656    20357476.054    20357481.865
        48.900          48.000
 116934770.639 5  91117999.97243  22251946.193    22251945.1254   22251950.2214
        35.100          23.1004
 198901730.036 7                  37849742.692
        43.600
 114071099.193 7  88886582.26745  21707004.829    21707004.0924   21707000.6884
        44.600          32.8004
 120862214.098 5  94178366.35142  22999315.997    22999314.7864   22999315.5114
        35.700          16.3004
 202016758.350 7                  38442512.650
        44.400
 137969257.072 6                  26254676.868
        38.700
 142832252.953 5                  27180064.325
        31.700
 128742793.004 5                  24498939.785
        34.200
 108200341.339 8  84155811.594 7  20298103.505    20298103.536    20298109.050
        48.600          42.500
 115855244.303 5                  21665515.749    21665518.155
        34.900
 137421187.912 5                  26150375.567
        34.000
 110873727.413 7  86235107.572 7  20748497.241    20748495.620    20748504.287
        42.300          42.200
 25  1  1 12 25 15.0000000  0 26E27E10G23G02E29G32E33G10G28R04R21E26
                                S35R05G25S31G31G21S33E07E30E19R14R20
                                E12R15
 137610789.051 6                  26186464.991
        36.300
 144527367.854 7                  27502649.915
        43.900


 123300047.242 5  96077951.17543  23463216.649    23463215.6174   23463214.6904
        34.900          22.8004
 123545856.023 8                  23509989.009
        48.100
 110088709.722 8  85783374.19247  20949156.017    20949155.5754   20949154.1534
        48.800          44.2004
 129318080.831 8                  24608408.624
        48.400
 110653683.873 8  86223691.74147  21056695.716    21056695.1174   21056697.9704
        49.100          44.4004
 107797397.207 7  83997971.39246  20513139.203    20513138.8414   20513139.9074
        47.100          36.6004
 108770983.091 7  84599745.061 7  20312234.540    20312233.643    20312235.856
        46.200          44.200
 122519584.854 7  95292588.223 5  22895604.486    22895600.779    22895604.058
        42.800          33.600




 108799737.213 7  84621594.207 7  20353133.161    20353133.295    20353140.975
        47.400          47.500
 116919504.015 5  91106103.85244  22249037.434    22249036.2764   22249045.1694
        33.000          27.7004
 198901739.043 7                  37849747.155
        43.700
 114025664.430 7  88851178.57145  21698358.847    21698358.1374   21698356.8274
        43.700          34.3004
 120872896.992 5  94186690.65342  23001345.093    23001343.9264   23001348.9414
        33.100          15.2004
 202016770.585 7                  38442517.036
        44.700
 137997841.792 6                  26260116.181
        38.600
 142835108.151 4                  27180605.712
        29.200
 128722617.262 6                  24495100.782
        37.500
 108209117.297 8  84162637.300 7  20299750.746    20299750.869    20299755.233
        50.300          42.700
 115885848.117 5                  21671239.401    21671239.149
        34.000
 137405697.045 5                  26147429.599
        34.600
 110823990.229 8  86196423.037 7  20739192.925    20739193.071    20739197.750
        48.400          44.000
 25  1  1 12 25 30.0000000  0 27E27E10G23G02E29G32E33G10G28R04R03R21
                                E26S35R05G25S31G31G21S33E07E30E19R14
                                R20E12R15
 137580570.585 6                  26180713.110
        38.700
 144496817.916 7                  27496836.637
        44.600
 127285613.136 5                  24221643.470
        34.500
 123291182.791 6  96071043.82343  23461529.750    23461528.6684   23461527.1184
        38.500          23.0004
 123550599.178 8                  23510891.696
        48.100
 110097692.833 8  85790374.04847  20950865.450    20950865.0304   20950864.0844
        48.600          44.2004
 129345695.729 8                  24613663.280
        48.200
 110680794.264 8  86244816.71146  21061854.762    21061854.1684   21061855.7634
        49.600          41.5004
 107779806.299 7  83984264.16546  20509791.203    20509790.8504   20509793.3674
        46.400          37.1004
 108786712.283 7  84611978.897 7  20315170.000    20315170.730    20315173.239
        43.100          46.000
 125965781.755 4                  23531463.389    23531467.191
        27.700
 122499342.796 6  95276844.351 5  22891820.272    22891816.798    22891822.693
        41.800          35.000




 108776570.739 7  84603575.873 7  20348799.624    20348798.732    20348807.677
        46.600          46.800
 116904378.071 5  91094317.34044  22246163.857    22246162.7754   22246166.4734
        31.700          26.5004
 198901746.861 7                  37849746.202
        43.600
 113980321.711 6  88815846.62445  21689730.519    21689729.7914   21689728.8274
        40.000          32.0004
 120883689.974 5  94195100.74642  23003399.512    23003398.4534   23003402.9004
        33.100          13.0004
 202016783.156 7                  38442520.707
        44.800
 138026430.246 6                  26265556.692
        40.700
 142838067.280 4                  27181174.540
        29.400
 128702466.465 6                  24491265.773
        38.200
 108218094.539 8  84169619.556 7  20301435.603    20301435.852    20301440.069
        52.100          43.600
 115916613.184 5                  21676990.279    21676991.190
        32.700
 137390310.095 6                  26144501.658
        36.500
 110774380.507 8  86157837.716 7  20729907.504    20729907.711    20729915.855
        48.500          45.700
 25  1  1 12 25 45.0000000  0 25E27E10G23G02E29G32E33G10G28R04R21E26
                                S35R05G25S31G31G21S33E07E30E19R14E12
                                R15
 137550419.483 5                  26174973.617
        35.100
 144466349.420 7                  27491038.558
        43.800
 127337538.577 4                  24231519.987
        26.800
 123282445.178 6  96064235.30844  23459867.349    23459866.3434   23459863.7014
        40.300          26.3004
 123555374.674 8                  23511800.385
        48.500
 110106728.247 7  85797414.66947  20952584.496    20952584.1164   20952584.6574
        45.500          43.9004
 129373402.040 8                  24618935.480
        48.500
 110708017.022 8  86266029.25746  21067034.813    21067034.2374   21067034.6534
        50.000          39.6004
 107762345.117 7  83970658.01246  20506468.733    20506468.4034   20506471.0414
        45.000          36.6004
 108802506.480 5  84624263.407 7  20318114.579    20318112.158    20318121.451
        35.900          45.300
 122479287.543 7  95261245.906 5  22888071.875    22888069.735    22888074.360
        43.200          35.800
 142095896.159 5                  27039948.697
        33.100


 108753449.424 7  84585592.648 7  20344474.302    20344474.181    20344482.000
        47.500          44.600
 116889396.365 5  91082643.22044  22243313.058    22243311.9814   22243315.2954
        34.900          27.0004
 198901757.705 7                  37849748.130
        43.500
 113935074.488 6  88780589.08345  21681120.641    21681119.8864   21681117.2604
        39.100          31.4004
 120894596.203 5  94203598.98541  23005473.619    23005472.5424   23005478.0374
        32.000           9.4004
 202016798.215 7                  38442521.284
        45.400
 138055025.497 6                  26270996.582
        39.800
 142841133.745 4                  27181756.765
        29.100
 128682343.527 6                  24487437.121
        38.400
 108227276.324 8  84176760.915 7  20303159.055    20303158.921    20303162.655
        52.100          44.200
 137375030.332 5                  26141593.446
        33.800
 110724901.866 7  86119354.362 7  20720647.172    20720646.668    20720655.380
        47.200          44.000
 25  1  1 12 26  0.0000000  0 27E27E10G23G02E29G32E33G10G28R04R21E26
                                E21S35R05G25S31G31G21S33E07E30E19R14
                                R20E12R15
 137520333.578 5                  26169251.410
        30.400
 144435960.697 7                  27485255.747
        43.500
 127389505.663 4                  24241466.333
        25.900
 123273832.041 7  96057523.79144  23458228.841    23458227.8354   23458224.5294
        42.800          28.3004
 123560180.170 8                  23512715.044
        48.500
 110115813.682 7  85804494.25447  20954313.984    20954313.5914   20954314.9694
        43.900          42.9004
 129401197.332 7                  24624224.398
        47.900
 110735349.844 8  86287327.52746  21072236.153    21072235.5684   21072235.2804
        50.400          40.6004
 107745011.422 7  83957151.21345  20503170.745    20503170.4554   20503172.2094
        44.900          35.4004
 108818364.017 7  84636597.017 7  20321076.782    20321077.989    20321081.213
        42.900          44.300
 122459416.655 7  95245790.791 6  22884358.970    22884358.561    22884364.174
        44.700          39.400
 142143509.011 5                  27049009.667
        32.000




 108730371.445 8  84567643.117 7  20340158.015    20340158.658    20340161.987
        50.000          42.400
 116874556.568 5  91071079.68144  22240488.398    22240487.2584   22240490.6564
        31.600          25.3004
 198901768.497 7                  37849750.522
        43.400
 113889920.746 7  88745404.37245  21672527.738    21672526.9874   21672524.1974
        42.600          33.2004
 120905613.211 6  94212183.63542  23007573.132    23007572.0684   23007574.2624
        39.300          13.7004
 202016813.057 7                  38442527.835
        46.400
 138083625.247 6                  26276439.470
        37.500
 142844304.881 4                  27182361.121
        27.700
 128662246.200 6                  24483612.993
        39.500
 108236660.235 8  84184059.474 7  20304918.462    20304918.339    20304923.280
        51.400          44.600
 115978633.238 4                  21688588.680    21688588.741
        29.800
 137359855.558 5                  26138705.750
        30.400
 110675552.424 8  86080971.456 6  20711413.013    20711412.222    20711417.495
        48.500          41.100
 25  1  1 12 26 15.0000000  0 29E27E10G23G02E29G32E33G10G28R19R04R03
                                R21E26E21S35R05G25S31G31G21S33E07E30
                                E19R14R20E12R15
 137490310.252 4                  26163540.716
        29.300
 144405648.768 7                  27479487.673
        43.200


 123265340.515 6  96050907.03244  23456612.119    23456611.0954   23456608.8964
        40.000          28.6004
 123565012.770 8                  23513634.649
        49.000
 110124946.115 7  85811610.42346  20956051.604    20956051.1844   20956053.1434
        42.400          41.6004
 129429078.448 7                  24629530.357
        47.900
 110762789.725 8  86308709.22847  21077458.258    21077457.6864   21077457.3174
        50.900          42.3004
 107727802.347 7  83943741.52845  20499895.086    20499894.7914   20499895.8474
        46.000          34.1004
                 100377081.245 5                                  24125705.223
                        31.800
 108834281.340 7  84648977.162 7  20324049.741    20324051.131    20324053.376
        44.900          43.100
 126086131.338 5                  23553950.331
        32.500
 122439727.247 7  95230476.733 7  22880681.137    22880680.723    22880686.730
        45.400          42.000
 142191125.733 5                  27058070.728
        32.900




 108707333.614 8  84549724.845 6  20335849.886    20335850.639    20335852.332
        51.700          41.700
 116859856.064 5  91059624.74044  22237692.323    22237691.2234   22237692.3644
        35.100          24.3004
 198901775.778 7                  37849752.664
        43.300
 113844857.735 7  88710290.33946  21663951.914    21663951.1864   21663949.5704
        43.900          36.0004
 120916737.778 6  94220852.07342  23009689.030    23009687.9134   23009691.3834
        39.000          14.6004
 202016824.597 7                  38442529.534
        45.600
 138112226.613 6                  26281882.346
        38.700


 128642171.628 6                  24479792.511
        38.400
 108246243.115 8  84191512.814 7  20306715.426    20306715.430    20306720.032
        50.600          44.400
 116009882.039 5  90230039.773 4  21694437.667    21694439.197    21694482.052
        31.300          28.500
 137344782.858 4                  26135835.336
        29.400
 110626329.963 7  86042687.394 6  20702200.821    20702200.657    20702206.275
        47.400          39.700
 25  1  1 12 26 30.0000000  0 30E27E10G23G02E29G32G12E33G10G28R19R04
                                R03R21E26E21S35R05G25S31G31G21S33E07
                                E30E19R14R20E12R15
 137460353.359 4                  26157842.397
        28.400
 144375417.550 6                  27473734.706
        41.200


 123256974.173 6  96044387.82944  23455019.220    23455018.2864   23455017.7904
        41.600          28.0004
 123569875.951 8                  23514559.838
        48.600
 110134129.189 6  85818766.07946  20957799.851    20957799.4494   20957800.0494
        41.500          39.4004
 126708807.118 5                  24111883.992
        33.500
 129457048.750 7                  24634853.233
        46.600
 110790340.155 8  86330177.08947  21082700.897    21082700.3254   21082701.0284
        51.600          44.8004
 107710721.431 7  83930431.72245  20496645.025    20496644.7574   20496643.7614
        47.100          34.0004
                 100426111.542 4                                  24137485.780
                        28.200
 108850262.512 7  84661406.931 6  20327035.059    20327035.456    20327036.453
        47.600          41.400
 126126319.137 4                  23561467.562
        24.700
 122420223.259 7  95215306.854 6  22877036.408    22877035.286    22877041.445
        45.400          41.000
 142238749.462 5                  27067131.938
        30.300




 108684339.749 8  84531840.755 7  20331547.764    20331547.257    20331552.039
        50.400          42.300
 116845298.722 5  91048281.37243  22234920.527    22234919.3784   22234920.7624
        32.900          23.6004
 198901784.599 7                  37849754.269
        43.500
 113799889.220 7  88675249.94746  21655394.747    21655394.0054   21655393.2774
        44.600          37.3004
 120927973.315 6  94229606.96342  23011828.226    23011827.1224   23011829.6864
        37.800          12.9004
 202016838.449 7                  38442533.684
        46.200
 138140833.169 6                  26287326.653
        37.900


 128622123.325 6                  24475978.063
        39.000
 108256028.549 8  84199123.710 7  20308551.949    20308551.876    20308556.268
        51.700          45.200
 116041291.621 5  90254377.817 5  21700308.665    21700307.920    21700314.456
        30.600          35.200
 137329816.026 3                  26132984.842
        23.900
 110577238.403 7  86004505.205 6  20693013.663    20693013.798    20693018.356
        46.000          39.300
 25  1  1 12 26 45.0000000  0 28E27E10G23G02E29G32G12E33G10G28R04R21
                                E26E21S35R05G25S31G31G21S33E07E30E19
                                R14R20E12R15


 144345265.548 6                  27467998.164
        40.100
 127545640.139 6                  24271127.957
        36.700
 123248731.290 6  96037964.83544  23453449.281    23453448.3874   23453448.8504
        39.800          27.0004
 123574767.915 8                  23515490.884
        49.100
 110143361.083 5  85825959.69245  20959559.159    20959558.7794   20959556.4844
        31.700          34.2004
 126722755.311 5  98744992.72141  24114538.763    24114538.9194   24114539.2514
        35.200          11.7004
 129485106.313 7                  24640192.933
        45.500
 110817999.317 8  86351729.67947  21087963.803    21087963.2404   21087966.0104
        52.300          47.3004
 107693766.985 7  83917220.44245  20493418.279    20493418.0114   20493417.4054
        46.500          34.8004
 108866305.780 8  84673884.977 6  20330030.543    20330032.002    20330032.973
        49.300          40.900
 122400902.823 7  95200279.646 6  22873424.015    22873423.056    22873432.385
        42.100          40.200
 142286378.324 4                  27076195.691
        28.600




 108661388.306 8  84513989.665 6  20327253.002    20327253.328    20327257.131
        51.100          41.200
 116830882.964 6  91037048.33344  22232181.425    22232180.3174   22232177.6594
        37.600          26.9004
 198901792.445 7                  37849756.438
        43.600
 113755013.678 7  88640281.98246  21646855.403    21646854.6574   21646854.2894
        44.600          37.9004
 120939317.952 6  94238446.81641  23013986.790    23013985.7584   23013988.7294
        39.100          11.5004
 202016849.957 7                  38442533.702
        45.700
 138169443.124 6                  26292772.522
        37.200
 142854488.203 5                  27184295.496
        33.400
 128602099.474 6                  24472166.690
        37.300
 108266014.276 8  84206890.382 7  20310424.434    20310424.248    20310430.164
        50.600          45.800
 116072860.066 5  90278931.082 5  21706212.685    21706210.802    21706213.135
        32.300          33.400
 137314953.564 5                  26130171.906
        30.800
 110528276.429 7  85966423.667 6  20683851.232    20683853.080    20683858.058
        45.800          40.900
 25  1  1 12 27  0.0000000  0 28E27E10G23G02E29G32G12E33G10G28R04R21
                                E26E21S35R05G25S31G31G21S33E07E30E19
                                R14R20E12R15
 137400671.878 5                  26146478.333
        34.200
 144315194.398 6                  27462276.485
        40.100
 127597767.050 6                  24281043.630
        36.700
 123240613.629 7  96031639.41044  23451906.318    23451905.4694   23451902.8674
        43.900          28.1004
 123579690.213 8                  23516427.592
        50.400


 126736846.999 6  98755973.22242  24117222.657    24117222.8714   24117223.7864
        37.000          14.9004
 129513252.493 7                  24645549.121
        47.000
 110845768.721 8  86373368.15748  21093247.791    21093247.2244   21093251.7054
        52.200          48.6004
 107676940.572 7  83904108.93446  20490216.947    20490216.6704   20490215.8354
        47.400          36.2004
 108882412.658 7  84686412.569 6  20333037.154    20333037.849    20333041.981
        47.200          41.900
 122381768.174 7  95185396.995 6  22869849.510    22869848.490    22869861.191
        43.000          41.800
 142334013.698 5                  27085259.722
        32.400




 108638480.936 8  84496172.798 6  20322967.949    20322968.060    20322971.241
        51.300          40.100
 116816610.554 5  91025927.00044  22229462.484    22229461.3804   22229463.1114
        34.300          27.6004
 198901800.037 7                  37849757.149
        43.700
 113710232.976 7  88605387.91846  21638334.380    21638333.6474   21638333.1114
        45.200          38.7004
 120950773.142 6  94247373.08741  23016165.277    23016164.3474   23016168.8244
        38.000           7.6004
 202016862.347 7                  38442536.707
        45.600
 138198058.105 6                  26298217.155
        40.100
 142858075.829 5                  27184970.566
        33.300
 128582101.484 6                  24468362.071
        38.800
 108276202.210 8  84214814.347 7  20312335.421    20312335.491    20312339.654
        50.700          44.800
 116104588.502 5  90303608.687 6  21712145.877    21712146.850    21712149.066
        34.100          37.300
 137300196.610 5                  26127364.124
        33.900
 110479446.203 7  85928444.634 6  20674709.746    20674709.417    20674720.821
        42.600          41.900
 25  1  1 12 27 15.0000000  0 29E27E10G23G02E29G32G12E33G10G28R04R03
                                R21E26E21S35R05G25S31G31G21S33E07E30
                                E19R14R20E12R15
 137370911.849 5                  26140807.515
        30.700
 144285202.871 6                  27456568.555
        36.800
 127649933.115 6                  24290971.996
        37.700
 123232619.569 7  96025410.30044  23450385.368    23450384.5194   23450381.1604
        44.100          29.2004
 123584641.288 8                  23517370.049
        50.300


 126751079.982 6  98767063.85942  24119937.659    24119937.6104   24119934.0944
        38.000          15.0004
 129541485.612 8                  24650921.401
        48.100
 110873646.760 8  86395091.28448  21098553.220    21098552.6574   21098557.0084
        50.000          48.2004
 107660240.745 7  83891096.06646  20487039.697    20487039.4074   20487038.3364
        47.700          38.3004
 108898581.888 7  84698988.654 7  20336055.722    20336055.130    20336062.544
        46.900          43.100
 126247089.261 5                  23584010.614
        32.100
 122362817.732 7  95170657.593 6  22866308.122    22866308.942    22866318.137
        46.000          38.200
 142381653.775 5                  27094326.291
        34.500




 108615616.432 8  84478389.308 6  20318691.013    20318690.600    20318692.891
        52.100          40.400
 116802480.375 5  91014916.49944  22226777.415    22226776.3154   22226775.1164
        33.500          26.3004
 198901807.067 7                  37849757.180
        43.700
 113665545.951 7  88570566.86746  21629829.867    21629829.1834   21629829.4314
        43.300          38.9004
 120962337.122 5  94256384.13541  23018364.062    23018363.1504   23018369.5424
        33.300           8.8004
 202016873.842 7                  38442541.098
        45.400
 138226676.529 6                  26303662.172
        38.500
 142861767.373 5                  27185674.942
        35.500
 128562128.010 6                  24464560.425
        40.900
 108286590.320 8  84222894.019 7  20314283.775    20314283.777    20314288.826
        50.600          45.900
 116136475.287 5  90328409.502 6  21718107.148    21718107.424    21718112.435
        34.400          39.100
 137285543.972 5                  26124569.923
        32.700
 110430746.890 6  85890567.417 6  20665601.057    20665598.222    20665604.685
        40.100          41.000
 25  1  1 12 27 30.0000000  0 29E27E10G23G02E29G32G12E33G10G28R04R03
                                R21E26E21S35R05G25S31G31G21S33E07E30
                                E19R14R20E12R15
 137341215.989 4                  26135160.817
        28.600
 144255290.040 5                  27450875.205
        32.500
 127702136.915 5                  24300907.621
        35.600
 123224747.774 7  96019276.46944  23448887.260    23448886.3934   23448883.3504
        44.800          28.7004
 123589619.759 8                  23518317.519
        50.900
 110171193.843 6  85847680.29045  20964880.068    20964880.0944   20964882.3934
        39.800          34.3004
 126765453.239 5  98778263.80542  24122668.760    24122668.4744   24122671.5014
        34.100          14.0004
 129569804.074 8                  24656309.933
        48.600
 110901632.013 8  86416897.94547  21103879.370    21103878.8034   21103881.7044
        50.100          46.5004
 107643666.114 8  83878180.75746  20483885.691    20483885.4104   20483884.6884
        49.700          39.8004
 108914812.099 7  84711612.114 7  20339086.135    20339087.355    20339094.376
        47.300          42.500
 126287399.761 5                  23591549.897    23591546.687
        31.800
 122344050.135 7  95156060.482 6  22862802.681    22862802.438    22862806.572
        46.900          36.700
 142429296.901 5                  27103392.895
        34.700




 108592793.107 8  84460637.766 7  20314422.168    20314422.834    20314425.036
        53.600          42.700
 116788491.068 6  91004015.82845  22224113.374    22224112.1984   22224113.2894
        39.900          30.9004
 198901812.375 7                  37849759.908
        43.500
 113620951.292 7  88535817.76346  21621343.941    21621343.3204   21621343.4504
        44.200          37.4004
 120974008.621 5  94265478.93141  23020585.836    23020584.9564   23020590.6824
        33.200          11.3004
 202016883.206 7                  38442537.932
        45.000
 138255296.950 5                  26309107.511
        33.800
 142865561.250 5                  27186401.534
        35.700
 128542177.461 6                  24460763.645
        41.300
 108297177.358 8  84231128.370 7  20316270.005    20316269.472    20316276.203
        51.000          47.100
 116168518.384 5  90353331.970 6  21724099.328    21724100.642    21724103.556
        32.200          38.800
 137270994.530 6                  26121797.728
        36.200
 110382177.416 7  85852791.162 7  20656514.913    20656512.699    20656514.923
        45.400          42.300
 25  1  1 12 27 45.0000000  0 28E27E10G23G02E29G32G12E33G10G28R04R21
                                E26E21S35R05G25S31G31G21S33E07E30E19
                                R14R20E12R15
 137311589.723 4                  26129523.464
        28.300
 144225461.211 5                  27445196.915
        31.400
 127754383.317 5                  24310853.896
        34.100
 123217003.282 7  96013241.78644  23447413.776    23447412.8914   23447409.0564
        45.100          27.2004
 123594630.658 8                  23519271.071
        51.100
 110180624.735 7  85855029.03446  20966676.251    20966676.9034   20966678.5994
        43.500          38.4004
 126779971.392 5  98789576.49541  24125429.120    24125428.9154   24125435.4204
        30.700           6.5004
 129598212.796 8                  24661716.149
        48.600
 110929729.530 8  86438792.07247  21109225.807    21109225.2354   21109227.0104
        50.700          45.3004
 107627221.830 8  83865367.01346  20480756.245    20480755.9734   20480755.7284
        49.900          40.6004
 108931108.419 8  84724287.013 6  20342131.510    20342131.551    20342134.417
        48.100          39.400
 122325471.322 7  95141610.452 6  22859331.048    22859329.445    22859336.065
        44.400          38.900
 142476948.015 5                  27112461.309
        35.200




 108570016.725 9  84442922.833 7  20310161.242    20310161.910    20310164.734
        54.000          44.400
 116774648.051 6  90993229.06145  22221478.717    22221477.5734   22221479.9864
        39.500          34.5004
 198901819.680 7                  37849757.082
        43.200
 113576454.357 7  88501144.80646  21612875.978    21612875.3524   21612875.8244
        44.500          37.5004
 120985792.338 5  94274661.05642  23022830.183    23022829.4324   23022832.6334
        35.700          13.6004
 202016895.735 7                  38442541.715
        45.200
 138283924.599 4                  26314555.880
        28.000
 142869462.842 4                  27187135.951
        29.700
 128522255.130 7                  24456972.929
        42.000
 108307968.169 8  84239521.218 7  20318295.167    20318295.381    20318301.307
        52.400          47.600
                  90378379.310 6                                  21730124.278
                        36.600
 137256553.483 6                  26119048.339
        38.000
 110333743.591 8  85815120.384 7  20647450.095    20647452.642    20647453.434
        50.000          45.100
 25  1  1 12 28  0.0000000  0 27E27E10G23G02E29G32E33G10G28R04R21E26
                                E21S35R05G25S31G31G21S33E07E30E19R14
                                R20E12R15


 144195715.015 5                  27439539.275
        35.600
 127806671.204 5                  24320799.482
        31.400
 123209385.316 7  96007305.67644  23445964.119    23445963.2434   23445957.5814
        45.100          25.5004
 123599673.038 8                  23520230.383
        50.600
 110190107.199 7  85862417.97846  20968481.572    20968481.9204   20968483.1044
        42.100          38.9004
 129626710.709 8                  24667139.119
        48.700
 110957938.344 8  86460772.90547  21114593.225    21114592.6674   21114593.6954
        49.200          44.0004
 107610907.040 8  83852654.15846  20477652.064    20477651.7834   20477651.1704
        49.500          40.5004
 108947470.129 7  84737012.823 6  20345186.719    20345187.203    20345192.077
        47.500          37.500
 122307080.300 7  95127306.408 6  22855895.691    22855894.680    22855899.896
        44.900          39.100
 142524605.954 6                  27121530.823
        36.100




 108547286.240 8  84425243.613 7  20305908.933    20305909.750    20305911.469
        52.600          44.200
 116760950.623 6  90982555.69545  22218871.594    22218870.4864   22218874.2204
        40.800          35.3004
 198901828.905 7                  37849762.774
        43.900
 113532054.404 7  88466547.43446  21604427.991    21604427.4104   21604426.6894
        45.200          38.7004
 120997687.235 6  94283929.77142  23025091.834    23025091.0434   23025095.1484
        38.900          16.2004
 202016909.391 7                  38442544.993
        45.100
 138312558.518 4                  26320008.730
        24.800
 142873470.926 4                  27187930.151
        25.300
 128502359.934 6                  24453186.867
        41.400
 108318961.886 8  84248071.862 7  20320358.305    20320358.548    20320363.091
        52.500          47.300
                  90403550.591 5                                  21736176.954
                        35.900
 137242220.005 6                  26116319.695
        38.000
 110285444.921 8  85777554.739 7  20638407.779    20638408.995    20638416.156
        48.600          46.700
 25  1  1 12 28 15.0000000  0 27E27E10G23G02E29G32E33G10G28R04R21E26
                                E21S35R05G25S31G31G21S33E07E30E19R14
                                R20E12R15
 137252539.919 4                  26118281.664
        29.300
 144166047.942 6                  27433894.161
        39.100
 127858996.146 5                  24330757.755
        32.200
 123201889.846 7  96001464.99744  23444537.776    23444536.9134   23444530.3874
        44.400          24.9004
 123604742.735 8                  23521195.238
        50.100
 110199637.094 7  85869843.86046  20970297.396    20970297.8254   20970296.1954
        44.000          39.2004
 129655293.478 7                  24672577.697
        47.600
 110986254.313 8  86482837.25047  21119981.879    21119981.3614   21119981.9154
        49.700          43.5004
 107594717.651 8  83840039.02946  20474571.202    20474570.9034   20474570.1114
        48.800          40.1004
 108963893.227 7  84749786.274 5  20348253.785    20348253.868    20348255.094
        46.700          35.300
 122288872.866 7  95113145.095 6  22852493.766    22852495.129    22852499.486
        44.100          39.000
 142572266.386 6                  27130600.959
        36.400




 108524597.484 8  84407596.808 7  20301664.504    20301665.621    20301667.220
        52.000          44.800
 116747394.862 7  90971992.72945  22216291.498    22216290.3634   22216294.4204
        42.600          35.3004
 198901836.150 7                  37849763.736
        43.900
 113487747.638 8  88432022.68346  21595997.189    21595996.6314   21595995.3154
        48.000          39.5004
 121009689.120 6  94293281.84742  23027376.853    23027376.0754   23027378.1224
        37.400          16.7004
 202016921.038 7                  38442544.716
        44.900




 128482487.673 6                  24449405.824
        41.500
 108330154.057 8  84256776.899 7  20322456.158    20322455.717    20322461.977
        49.900          46.000
 116265623.095 5  90428842.512 6  21742257.312                    21742264.058
        35.500          39.700
 137227990.128 6                  26113611.454
        37.700
 110237277.421 7  85740091.110 7  20629395.122    20629394.379    20629401.096
        47.600          46.000
 25  1  1 12 28 30.0000000  0 26E27E10G23G02E29G32E33G10G28R04R21E26
                                E21S35R05G25S31G31G21S33E07E19R14R20
                                E12R15
 137223117.104 5                  26112681.854
        34.100
 144136464.436 6                  27428263.394
        39.800
 127911362.307 5                  24340724.213
        30.600
 123194520.922 7  95995722.89944  23443134.960    23443134.1024   23443128.9714
        45.000          24.7004
 123609843.899 8                  23522166.066
        49.700
 110209218.597 7  85877309.94546  20972119.269    20972119.5774   20972118.9894
        44.000          39.0004
 129683965.079 7                  24678034.384
        46.100
 111014681.506 8  86504988.28447  21125390.594    21125390.0584   21125392.2304
        49.200          44.2004
 107578657.846 8  83827524.86946  20471514.445    20471514.1594   20471513.8504
        49.100          39.9004
 108980381.733 6  84762610.680 5  20351331.637    20351328.887    20351331.731
        41.600          34.900
 122270853.499 6  95099130.173 6  22849129.486    22849128.217    22849135.793
        40.400          38.500
 142619933.215 6                  27139672.268
        37.100




 108501955.003 8  84389986.029 7  20297428.534    20297430.333    20297432.607
        51.700          45.900
 116733985.227 6  90961543.64145  22213738.904    22213737.8184   22213741.8664
        41.800          35.4004
 198901844.601 7                  37849763.584
        43.600
 113443538.567 7  88397574.07146  21587584.035    21587583.4324   21587582.2124
        46.600          39.0004
 121021801.599 6  94302720.04742  23029683.079    23029682.2924   23029682.2464
        37.100          16.8004
 202016934.970 7                  38442548.749
        45.000
 138369836.610 5                  26330924.922
        32.300
 128462642.776 6                  24445628.824
        41.500
 108341548.827 8  84265639.510 7  20324594.172    20324593.818    20324599.068
        49.700          44.900
 116298299.750 6  90454257.587 6  21748370.666    21748371.750    21748375.706
        38.100          41.800
 137213868.146 6                  26110923.923
        37.900
 110189246.311 8  85702733.561 7  20620409.717    20620408.336    20620412.173
        49.700          44.500
 25  1  1 12 28 45.0000000  0 27E27E10G23G02E29G32E33G10G28R04R21E26
                                E21S35R05G25S31G31G21S33E07E30E19R14
                                R20E12R15
 137193759.595 5                  26107093.965
        34.100
 144106960.297 6                  27422648.105
        37.400
 127963765.009 5                  24350695.986
        34.400
 123187274.257 7  95990076.09844  23441755.412    23441754.4874   23441752.4904
        42.600          24.4004
 123614972.139 8                  23523141.760
        49.900
 110218847.284 7  85884812.78846  20973951.641    20973951.9404   20973950.6784
        44.900          39.4004
 129712720.979 7                  24683506.438
        46.400
 111043215.516 8  86527222.56147  21130821.206    21130820.6614   21130822.9224
        48.600          44.7004
 107562723.342 8  83815108.35646  20468481.391    20468481.1144   20468481.8274
        48.500          39.1004
 108996931.597 6  84775482.744 6  20354422.633    20354420.357    20354424.542
        41.500          36.900
 122253017.937 6  95085258.091 6  22845801.529    22845799.648    22845806.764
        36.300          40.000
 142667601.866 6                  27148742.554
        37.300




 108479354.488 8  84372407.878 7  20293198.839    20293200.415    20293204.455
        48.500          46.200
 116720717.542 6  90951205.13945  22211214.230    22211213.2114   22211216.3654
        41.300          34.6004
 198901851.418 7                  37849764.362
        43.600
 113399423.014 8  88363198.34046  21579189.788    21579189.2124   21579186.2894
        48.000          38.9004
 121034020.173 6  94312240.94942  23032008.628    23032007.7884   23032006.6764
        38.500          17.3004
 202016945.786 7                  38442552.648
        45.400
 138398480.798 5                  26336371.675
        34.400


 128442820.495 6                  24441856.382
        41.600
 108353141.866 8  84274656.340 7  20326769.716    20326769.987    20326773.171
        51.200          44.300
 116331130.229 6  90479792.417 7  21754505.660    21754507.519    21754515.548
        36.500          42.100
 137199849.733 6                  26108255.870
        41.100
 110141347.425 8  85665478.940 6  20611444.181    20611444.329    20611445.971
        51.200          41.200
 25  1  1 12 29  0.0000000  0 27E27E10G23G02E29G32E33G10G28R04R21E26
                                E21S35R05G25S31G31G21S33E07E30E19R14
                                R20E12R15
 137164470.137 5                  26101521.945
        34.700
 144077537.940 6                  27417050.588
        37.700
 128016206.637 5                  24360675.997
        30.200
 123180152.462 7  95984526.63944  23440400.685    23440399.6394   23440399.2474
        42.900          25.3004
 123620129.967 8                  23524123.293
        49.400
 110228525.670 7  85892354.36546  20975792.421    20975792.6754   20975792.2224
        45.700          40.2004
 129741563.500 7                  24688995.354
        46.100
 111071858.799 8  86549541.98547  21136272.776    21136272.2404   21136273.7584
        48.600          45.5004
 107546916.668 7  83802791.44346  20465474.369    20465474.1154   20465474.1194
        46.700          37.9004
 109013545.566 7  84788404.659 6  20357524.055    20357525.545    20357528.018
        46.100          39.700
 122235368.316 5  95071530.516 6  22842498.458    22842499.980    22842504.865
        34.100          37.900
 142715274.588 6                  27157814.212
        37.700




 108456798.652 7  84354864.400 7  20288980.889    20288982.141    20288984.661
        47.200          46.300
 116707594.492 6  90940979.28745  22208717.662    22208716.6974   22208717.8914
        41.900          33.5004
 198901858.123 7                  37849765.390
        43.500
 113355403.701 7  88328897.59846  21570812.587    21570811.9974   21570808.7044
        47.600          38.5004
 121046348.123 6  94321847.12942  23034355.293    23034354.4304   23034352.6644
        40.400          17.3004
 202016957.183 7                  38442555.796
        46.000
 138427129.375 5                  26341811.284
        33.900


 128423023.446 6                  24438088.783
        41.400
 108364935.076 8  84283828.841 7  20328981.650    20328981.965    20328985.614
        51.700          44.900
 116364116.792 5  90505448.609 6  21760673.141    21760673.707    21760683.566
        34.700          41.400
 137185937.489 7                  26105608.877
        42.000
 110093583.852 8  85628329.510 6  20602505.945    20602505.859    20602507.824
        52.700          40.200
 25  1  1 12 29 15.0000000  0 27E27E10G23G02E29G32E33G10G28R04R21E26
                                E21S35R05G25S31G31G21S33E07E30E19R14
                                R20E12R15
 137135252.322 6                  26095962.881
        36.600
 144048200.798 6                  27411467.065
        37.000
 128068690.221 5                  24370661.005
        30.500
 123173158.766 7  95979077.01644  23439070.721    23439069.6444   23439069.4944
        42.200          26.3004
 123625320.644 8                  23525111.484
        50.100
 110238257.022 7  85899937.23546  20977645.108    20977645.3224   20977644.9044
        45.500          40.6004
 129770495.721 7                  24694501.109
        46.700
 111100614.590 8  86571949.07347  21141744.966    21141744.4394   21141745.6024
        50.000          46.3004
 107531241.077 7  83790576.67746  20462492.064    20462491.8104   20462491.3734
        46.600          37.5004
 109030226.545 7  84801378.801 6  20360636.053    20360637.611    20360644.502
        43.000          41.900
 122217908.756 5  95057950.793 6  22839237.909                    22839233.309
        35.000          36.400
 142762954.415 6                  27166888.492
        38.900




 108434290.940 7  84337358.407 7  20284770.535    20284770.825    20284775.268
        46.700          47.200
 116694619.583 7  90930868.88545  22206248.379    22206247.4764   22206248.3444
        42.200          33.9004
 198901868.067 7                  37849769.486
        43.600
 113311484.138 7  88294674.59746  21562454.755    21562454.1744   21562451.2824
        46.900          38.6004
 121058788.353 6  94331540.81042  23036720.038    23036719.1534   23036720.1064
        40.100          16.0004
 202016972.424 7                  38442557.576
        45.500
 138455785.637 5                  26347261.707
        30.800


 128403254.934 6                  24434327.273
        41.600
 108376932.018 8  84293159.816 7  20331232.418    20331232.734    20331237.241
        51.900          46.700
 116397261.838 5  90531228.067 6  21766870.840    21766869.574    21766882.031
        34.000          40.800
 137172134.931 6                  26102982.300
        41.900
 110045959.549 8  85591288.394 6  20593593.412    20593593.308    20593598.147
        52.300          40.700
 25  1  1 12 29 30.0000000  0 28E27E10G23G02E29G32E33G10G28R04R03R21
                                E26E21S35R05G25S31G31G21S33E07E30E19
                                R14R20E12R15
 137106101.338 5                  26090412.900
        34.500
 144018944.454 5                  27405897.588
        35.900
 128121210.652 4                  24380654.724
        29.000
 123166288.266 6  95973723.37244  23437763.623    23437762.5824   23437762.3584
        40.900          26.5004
 123630539.172 8                  23526104.525
        50.700
 110248036.408 7  85907557.53346  20979504.172    20979504.3594   20979506.7184
        43.600          41.3004
 129799512.489 7                  24700022.620
        46.400
 111129477.848 8  86594439.90048  21147236.569    21147236.0374   21147237.8104
        51.300          48.1004
 107515691.634 7  83778460.20946  20459533.187    20459532.9334   20459532.1424
        47.500          37.7004
 109046970.120 8  84814401.522 7  20363767.802    20363769.853    20363772.510
        48.000          42.700
 126611127.669 5                  23652012.741    23652008.399
        34.200
 122200634.685 6  95044515.362 6  22836005.677    22836006.934    22836006.922
        38.800          41.000
 142810636.182 6                  27175961.343
        37.600
 146449898.780 5                  27868488.805
        32.700


 108411826.651 8  84319886.137 7  20280569.363    20280571.001    20280572.555
        49.900          47.200
 116681788.179 6  90920870.34845  22203807.111    22203806.2314   22203807.4864
        39.000          34.3004
 198901876.538 7                  37849769.254
        43.400
 113267659.659 7  88260525.68546  21554114.972    21554114.3874   21554112.2204
        44.400          38.6004
 121071335.493 6  94341317.80642  23039106.272    23039105.3334   23039107.1394
        36.000          13.6004
 202016985.036 7                  38442560.080
        46.100
 138484444.762 5                  26352715.300
        32.200


 128383509.849 7                  24430569.621
        43.000
 108389127.320 8  84302645.030 7  20333520.684    20333520.823    20333525.697
        51.800          47.700
 116430560.273 5  90557126.846 6  21773096.229    21773097.440    21773108.555
        33.700          40.600
 137158437.130 7                  26100376.351
        42.900
 109998469.967 9  85554352.041 6  20584707.370    20584708.019    20584710.855
        54.500          40.000
 25  1  1 12 29 45.0000000  0 29E27E10G23G02E29G32E33G10G28R04R03R21
                                E26E21S35R05G25S31G31G21S33E07E30E19
                                R16R14R20E12R15
 137077016.930 5                  26084881.296
        33.400
 143989768.881 5                  27400346.015
        34.800


 123159540.544 6  95968465.42844  23436479.267    23436478.2214   23436477.9614
        38.400          26.0004
 123635785.024 8                  23527102.870
        50.400
 110257863.269 6  85915214.79446  20981375.035    20981375.2274   20981376.6434
        38.800          39.4004
 129828613.136 7                  24705559.826
        44.600
 111158448.011 8  86617014.02648  21152749.247    21152748.7294   21152750.7934
        51.700          49.2004
 107500267.945 8  83766441.75446  20456597.778    20456597.5104   20456596.8044
        48.000          38.3004
 109063775.595 7  84827472.427 7  20366905.196    20366907.099    20366909.845
        47.900          42.600
 126651725.609 5                  23659587.111    23659588.412
        32.000
 122183545.331 6  95031223.551 7  22832817.121    22832817.035    22832813.513
        40.000          43.000
 142858319.202 5                  27185035.293
        34.700
 146406375.425 5                  27860199.954
        30.800


 108389405.396 8  84302447.360 7  20276373.224    20276374.862    20276377.976
        50.300          46.700
 116669099.874 6  90910983.33245  22201392.122    22201391.2014   22201393.7494
        40.100          34.0004
 198901883.030 7                  37849768.507
        43.000
 113223930.047 7  88226450.68146  21545793.791    21545793.2374   21545791.5414
        45.400          39.6004
 121083988.718 5  94351177.44342  23041516.261    23041515.3054   23041514.6074
        35.100          12.5004
 202016996.007 7                  38442562.262
        45.500
 138513106.300 5                  26358168.917
        30.000


 128363787.817 7                  24426817.273
        42.700


 108401520.437 7  84312284.153 8  20335843.033    20335842.471    20335851.692
        47.400          49.000
 116464010.726 5  90583143.870 6  21779353.374    21779355.127    21779362.642
        34.700          38.700
 137144843.795 7                  26097789.408
        42.000
 109951114.930 8  85517520.349 6  20575844.404    20575845.371    20575845.837
        53.400          38.800
 25  1  1 12 30  0.0000000  0 29E27E10G23G02E29G32E33G10G28R04R03R21
                                E26E21S35R05G25S31G31G21S33E07E30E19
                                R16R14R20E12R15
 137048004.221 5                  26079361.677
        35.000
 143960678.894 5                  27394812.174
        34.600


 123152920.355 6  95963306.84844  23435220.437    23435219.3694   23435218.0324
        41.000          26.3004
 123641063.007 8                  23528107.160
        50.500
 110267742.444 6  85922912.84246  20983256.514    20983256.6074   20983256.1164
        38.900          36.0004
 129857802.294 7                  24711114.034
        44.300
 111187529.868 8  86639675.19548  21158284.141    21158283.6454   21158284.7844
        51.400          49.0004
 107484974.829 8  83754525.04946  20453687.506    20453687.2434   20453685.9164
        48.200          38.3004
 109080647.979 7  84840595.399 7  20370057.000    20370056.561    20370060.966
        46.800          42.100
 126692357.874 5                  23667176.582    23667177.582
        33.300
 122166645.837 6  95018079.452 7  22829656.582    22829656.264    22829654.893
        41.100          44.100
 142906008.077 5                  27194110.330
        33.500
 146362837.991 5                  27851922.675
        30.800


 108367032.029 8  84285045.823 7  20272188.319    20272189.468    20272191.500
        50.300          45.200
 116656559.710 6  90901211.72845  22199004.484    22199003.5194   22199006.8104
        41.000          33.3004
 198901892.347 7                  37849769.835
        43.400
 113180300.346 7  88192453.53346  21537490.703    21537490.1494   21537490.3674
        46.500          40.7004
 121096752.671 6  94361123.35741  23043944.888    23043943.8564   23043942.9354
        38.200          11.9004
 202017010.300 7                  38442561.735
        45.300
 138541774.772 5                  26363624.834
        33.100


 128344093.637 7                  24423069.956
        42.500


 108414116.317 7  84322080.983 8  20338207.633    20338207.625    20338214.797
        47.100          49.400
 116497617.795 5  90609282.733 5  21785634.667    21785637.350    21785646.949
        32.100          35.900
 137131359.802 7                  26095223.356
        42.600
 109903900.049 8  85480797.756 6  20567007.269    20567007.410    20567011.775
        49.500          38.800
 25  1  1 12 30 15.0000000  0 29E27E10G23G02E29G32E33G10G28R04R03R21
                                E26E21S35R05G25S31G31G21S33E07E30E19
                                R16R14R20E12R15
 137019056.731 6                  26073851.583
        37.800
 143931667.793 5                  27389291.375
        34.100


 123146421.112 7  95958242.49244  23433982.599    23433981.5314   23433980.9264
        43.300          28.1004
 123646366.449 8                  23529115.814
        50.100
 110277667.299 6  85930646.46446  20985144.092    20985143.9854   20985144.5404
        38.000          36.7004
 129887073.139 7                  24716683.845
        42.400
 111216716.665 8  86662418.14948  21163838.496    21163838.0274   21163838.7984
        51.700          49.1004
 107469805.655 7  83742704.90146  20450800.860    20450800.5924   20450798.9654
        47.700          38.4004
 109097580.654 7  84853765.305 6  20373218.032    20373217.395    20373221.402
        46.300          39.600
 126733018.220 5                  23674778.635    23674780.995
        34.400
 122149929.675 6  95005078.151 7  22826528.238    22826525.940    22826530.655
        36.800          43.300
 142953695.863 5                  27203184.842
        32.100
 146319280.167 4                  27843640.247
        27.100


 108344699.820 8  84267676.318 7  20268011.421    20268011.238    20268012.599
        50.400          43.300
 116644161.338 6  90891550.65445  22196645.770    22196644.7604   22196646.2774
        38.800          32.5004
 198901897.222 7                  37849774.628
        43.500
 113136763.973 7  88158529.07746  21529205.978    21529205.4374   21529206.4634
        44.600          41.1004
 121109620.765 6  94371150.38841  23046391.951    23046390.8964   23046391.3054
        37.300          11.3004
 202017019.988 7                  38442565.451
        44.900
 138570443.899 6                  26369080.274
        37.000
 142914207.325 5                  27195668.654
        33.200
 128324420.656 7                  24419326.499
        42.600


 108426907.701 7  84332029.861 8  20340605.182    20340604.884    20340613.769
        43.800          48.800
 116531374.439 5                  21791959.501    21791959.527
        34.300
 137117978.508 7                  26092676.701
        42.500
 109856818.919 7  85444179.198 6  20558198.634    20558196.561    20558202.567
        46.900          40.400
 25  1  1 12 30 30.0000000  0 29E27E10G23G02E29G32E33G10G28R04R03R21
                                E26E21S35R05G25S31G31G21S33E07E30E19
                                R16R14R20E12R15
 136990180.998 6                  26068357.146
        38.200
 143902742.145 6                  27383787.797
        36.000


 123140048.918 7  95953277.08744  23432770.108    23432769.0444   23432767.4134
        45.500          29.4004
 123651701.493 8                  23530131.062
        49.000
 110287644.049 6  85938420.53846  20987043.240    20987043.0754   20987042.9634
        39.500          39.1004
 129916431.701 6                  24722271.884
        41.400
 111246014.559 8  86685247.68348  21169413.060    21169412.5824   21169413.9234
        52.500          49.2004
 107454766.698 7  83730986.21146  20447939.376    20447939.0954   20447937.4404
        46.200          38.6004
 109114580.195 7  84866987.098 6  20376390.936    20376392.703    20376395.078
        46.800          37.500
 126773712.618 4                  23682418.327    23682420.172
        29.600
 122133403.566 6  94992224.621 7  22823442.956    22823442.019    22823442.351
        40.800          44.900
 143001388.691 4                  27212261.040
        26.900
 146275708.129 4                  27835371.903
        26.900


 108322415.624 8  84250344.137 7  20263842.341    20263842.693    20263844.680
        51.500          43.900
 116631911.139 6  90882005.00145  22194314.773    22194313.7764   22194314.6884
        38.000          32.9004
 198901904.904 7                  37849776.623
        43.300
 113093327.668 7  88124682.58146  21520940.486    21520939.9994   21520941.1474
        42.800          40.2004
 121122599.046 6  94381263.29442  23048862.585    23048861.5754   23048860.7274
        37.600          12.9004
 202017032.518 7                  38442568.523
        44.500
 138599119.727 6                  26374538.901
        38.900
 142919261.325 5                  27196625.492
        32.000
 128304774.959 7                  24415588.210
        42.000
 129581064.535 5                  24257842.708
        30.100
 108439900.940 6  84342135.723 7  20343042.278    20343042.017    20343050.191
        40.700          47.200
 116565287.027 5                  21798294.247    21798294.913
        34.300
 137104706.351 7                  26090151.642
        42.300
 109809878.606 8  85407670.051 7  20549414.950    20549413.610    20549419.205
        48.200          42.100
