     2.11           OBSERVATION DATA    M (MIXED)           RINEX VERSION / TYPE
teqc  2019Feb25                         20260317 16:18:01UTCPGM / RUN BY / DATE
Linux 2.4.21-27.ELsmp|Opteron|gcc -static|Linux 64|=+       COMMENT
BIT 2 OF LLI FLAGS DATA COLLECTED UNDER A/S CONDITION       COMMENT
-Unknown-                                                   MARKER NAME
-Unknown-           -Unknown-                               OBSERVER / AGENCY
-Unknown-           -Unknown-           -Unknown-           REC # / TYPE / VERS
-Unknown-           -Unknown-                               ANT # / TYPE
        0.0000        0.0000        0.0000                  APPROX POSITION XYZ
        0.0000        0.0000        0.0000                  ANTENNA: DELTA H/E/N
     1     1                                                WAVELENGTH FACT L1/2
     7    L1    L2    C1    P1    P2    S1    S2            # / TYPES OF OBSERV
 SNR is mapped to RINEX snr flag value [0-9]                COMMENT
  L1 & L2: min(max(int(snr_dBHz/6), 0), 9)                  COMMENT
  2025     1     1     1     0    0.0000000     GPS         TIME OF FIRST OBS
    18                                                      LEAP SECONDS
                                                            END OF HEADER
 25  1  1  1  0  0.0000000  0 23G03G06G14G19G12G11E27G24E34S35R13E15
                                R22E36R23S31S33G17R12R11E02E30R21
 123672459.176 5                  23534093.998
        32.100
 106039840.840 8  82628494.47248  20178697.470    20178697.1624   20178700.9694
        51.600          52.3004
 119253969.853 6  92925134.75341  22693269.130    22693269.4514   22693276.5934
        38.300          10.0004
 106408753.772 7  82915907.33445  20248914.554    20248913.1954   20248914.5154
        45.400          35.8004
 121251731.386 6  94481909.34646  23073425.491    23073425.2414   23073429.2814
        41.700          36.8004
 115680664.367 6  90140803.02643  22013302.163    22013302.0744   22013308.0884
        40.600          23.5004
 137622521.456 7                  26188681.233
        42.200
 121398237.669 5  94596072.05044  23101315.662    23101315.9754   23101324.6454
        35.500          25.2004
 122182719.636 7                  23250580.942
        42.700


 116158260.746 7                  21752715.887    21752715.368
        44.400
 131767047.611 7                  25074431.561
        42.800
 103824938.499 8  80752782.418 8  19449897.747    19449898.663    19449902.494
        52.800          48.100
 136397860.538 5                  25955658.487
        31.200
 114976314.294 6                  21493620.568    21493620.512
        40.700
 198906036.500 7                  37850569.871
        42.400
 202059915.241 7                  38450728.205
        44.100
 115301154.457 7  89845094.77346  21941083.906    21941083.5134   21941085.3824
        44.900          39.5004
 103137582.934 8  80218147.420 8  19307555.720    19307555.863    19307562.343
        52.500          49.000
 113615543.888 7  88367681.421 7  21261602.430    21261602.195    21261606.565
        46.200          42.300
 130697437.229 6                  24870883.320
        40.600
 123727820.875 8                  23544605.109
        50.000
 116181706.663 7  90363537.923 6  21711325.090    21711323.869    21711329.483
        44.600          38.100
 25  1  1  1  0 15.0000000  0 22G06G14G19G12G11E27G24E34S35R13E15R22
                                E36R23S31S33G17R12R11E02E30R21
 106035192.025 8  82624872.05849  20177812.729    20177812.4214   20177816.1154
        51.200          54.2004
 119302426.060 6  92962892.93041  22702491.792    22702492.1724   22702497.0974
        40.600           9.0004
 106414467.753 7  82920359.83646  20250002.513    20250001.1324   20250001.9024
        44.400          36.3004
 121202994.884 7  94443932.95745  23064151.494    23064151.2314   23064154.7964
        42.900          34.3004
 115641619.137 6  90110378.22543  22005873.658    22005873.6234   22005876.8824
        40.300          23.1004
 137585910.367 7                  26181714.727
        44.700


 122186034.926 7                  23251211.983
        45.600


 116105713.042 7                  21742874.888    21742874.373
        42.300
 131733577.962 7                  25068062.986
        43.400
 103829387.152 8  80756242.541 8  19450730.184    19450730.358    19450735.454
        49.800          48.400
 136434792.852 6                  25962677.845
        36.800
 114939056.556 7                  21486652.976    21486655.348
        46.100
 198906042.654 7                  37850557.918
        43.100
 202059911.154 6                  38450729.663
        41.600
 115326868.082 7  89865131.36046  21945977.158    21945976.7694   21945977.6684
        45.000          38.7004
 103131980.282 8  80213789.822 8  19306506.843    19306506.865    19306513.559
        50.400          48.800
 113672970.762 7  88412346.853 7  21272348.309    21272348.130    21272353.457
        47.200          43.900
 130728710.777 6                  24876833.870
        39.800
 123722263.645 8                  23543547.827
        50.300
 116228913.630 7  90400254.477 6  21720144.062    21720144.628    21720151.891
        46.000          38.500
 25  1  1  1  0 30.0000000  0 23G03G06G14G19G12G11E27G24E34S35R13E15
                                R22E36R23S31S33G17R12R11E02E30R21


 106030670.226 8  82621348.60748  20176952.452    20176952.1354   20176955.8064
        50.500          53.8004
 119350945.061 6  93000699.78642  22711724.855    22711725.1904   22711729.7684
        39.400          15.8004
 106420244.917 7  82924861.50146  20251101.735    20251100.3454   20251101.5764
        43.100          37.2004
 121154303.046 7  94405991.35145  23054883.282    23054883.0054   23054887.3674
        44.100          34.0004
 115602660.815 6  90080021.11844  21998458.503    21998458.4594   21998462.2434
        40.300          24.8004
 137549322.370 6                  26174750.982
        40.200


 122189435.769 7                  23251859.477
        46.100


 116053266.344 7                  21733054.894    21733053.975
        42.300
 131700170.383 6                  25061705.285
        41.300
 103833949.175 8  80759790.804 8  19451585.402    19451585.789    19451589.910
        51.200          48.300
 136471727.293 5                  25969698.843
        34.900
 114901889.418 6                  21479704.486    21479705.257
        39.200
 198906047.039 7                  37850568.234
        42.100
 202059905.486 7                  38450730.325
        42.800
 115352608.036 7  89885188.45546  21950874.905    21950874.4994   21950875.7454
        46.900          40.4004
 103126572.709 8  80209583.918 8  19305494.735    19305494.808    19305501.667
        52.000          49.500
 113730497.678 7  88457089.886 7  21283112.420    21283112.354    21283120.874
        46.200          43.200
 130760043.229 6                  24882795.648
        38.300
 123716783.359 8                  23542505.147
        50.300
 116276140.717 7  90436986.672 6  21728971.346    21728970.318    21728981.307
        43.400          37.900
 25  1  1  1  0 45.0000000  0 22G06G14G19G12G11E27G24E34S35R13E15R22
                                E36R23S31S33G17R12R11E02E30R21
 106026276.688 8  82617925.08948  20176116.036    20176115.7194   20176119.7564
        49.700          53.7004
 119399527.956 6  93038556.54542  22720970.557    22720970.8874   22720973.6854
        37.400          15.5004
 106426086.397 7  82929413.35046  20252214.640    20252213.2684   20252213.2494
        45.100          37.9004
 121105657.669 6  94368085.92745  23045625.922    23045625.6634   23045629.5434
        40.200          32.7004
 115563790.496 6  90049732.62544  21991061.415    21991061.4114   21991065.0934
        36.200          25.2004
 137512758.931 7                  26167794.842
        45.100
 121458905.350 6  94643331.74844  23112852.225    23112852.4974   23112864.2044
        39.300          28.5004
 122192923.217 8                  23252524.179
        48.200
 200840274.065 5                  38218628.238
        35.200
 116000922.186 7                  21723252.215    21723251.708
        43.700
 131666826.455 7                  25055361.265
        43.200
 103838625.511 8  80763428.009 8  19452460.386    19452461.051    19452466.634
        49.500          49.600


 114864814.771 6                  21472775.219    21472772.967
        38.800
 198906052.081 6                  37850563.432
        41.000
 202059899.752 6                  38450723.559
        41.500
 115378375.725 7  89905267.17646  21955778.656    21955778.2544   21955778.6074
        46.500          40.0004
 103121361.532 8  80205530.812 8  19304519.169    19304519.650    19304526.200
        52.900          50.400
 113788125.267 7  88501911.291 7  21293898.129    21293898.610    21293903.351
        46.500          42.500
 130791435.879 5                  24888768.664
        35.400
 123711381.415 8                  23541477.035
        50.700
 116323389.172 6  90473735.463 6  21737800.174    21737799.112    21737808.589
        39.000          40.100
 25  1  1  1  1  0.0000000  0 22G06G14G19G12G11E27G24E34S35R13E15R22
                                E36R23S31S33G17R12R11E02E30R21
 106022017.048 8  82614605.89548  20175305.526    20175305.2134   20175309.2974
        49.400          53.7004
 119448180.208 6  93076467.29842  22730227.480    22730227.7794   22730231.9294
        38.300          16.6004
 106431997.968 7  82934019.79246  20253339.232    20253337.8604   20253337.8844
        46.400          37.8004
 121057065.202 7  94330221.74945  23036379.034    23036378.7804   23036382.4604
        43.500          31.1004
 115525014.122 5  90019517.24644  21983682.502    21983682.5064   21983686.9254
        35.400          24.1004
 137476226.116 7                  26160842.274
        44.000
 121479358.371 6  94659269.13144  23116745.255    23116745.4744   23116751.5514
        38.800          27.8004
 122196503.094 8                  23253205.344
        48.600
 200840317.077 6                  38218650.391
        37.800
 115948687.192 6                  21713467.804    21713468.849
        41.300
 131633551.854 6                  25049028.250
        39.800
 103843422.087 8  80767158.687 8  19453359.491    19453359.445    19453365.068
        50.000          49.300


 114827838.195 6                  21465858.342    21465858.793
        39.900
 198906062.666 6                  37850571.557
        39.500
 202059899.986 7                  38450720.532
        44.600
 115404177.186 8  89925372.19446  21960688.818    21960688.4294   21960688.4974
        48.000          40.0004
 103116352.989 8  80201635.313 8  19303581.415    19303581.767    19303588.863
        52.300          49.300
 113845859.155 7  88546815.326 6  21304698.396    21304699.126    21304709.157
        44.600          41.800
 130822894.492 4                  24894754.994
        29.800
 123706063.843 8                  23540465.267
        49.400
 116370664.486 7  90510505.097 6  21746633.989    21746633.880    21746641.564
        42.900          37.600
 25  1  1  1  1 15.0000000  0 23G03G06G14G19G12G11E27G24E34S35R13E15
                                R22E36R23S31S33G17R12R11E02E30R21


 106017880.908 8  82611382.97048  20174518.628    20174518.3334   20174522.2114
        51.800          53.9004
 119496891.254 6  93114423.96143  22739495.891    22739496.1054   22739501.4864
        39.900          18.1004
 106437969.089 7  82938672.61045  20254475.981    20254474.6314   20254473.8154
        45.700          33.9004
 121008515.238 7  94292390.63845  23027141.324    23027141.0114   23027142.4384
        43.800          30.7004
 115486321.679 6  89989367.38443  21976321.113    21976320.9754   21976324.4434
        37.700          20.5004
 137439713.534 7                  26153893.710
        44.600
 121499926.464 5  94675296.26044  23120659.938    23120660.0004   23120662.8794
        34.900          24.9004
 122200164.765 7                  23253902.602
        46.400


 115896551.137 6                  21703706.617    21703707.069
        40.200
 131600336.409 7                  25042707.928
        42.600
 103848327.799 8  80770974.241 8  19454280.005    19454280.205    19454283.808
        52.200          49.700
 136582692.421 5                  25990822.397
        35.300
 114790949.285 7                  21458969.509    21458968.496
        43.300
 198906067.592 6                  37850571.239
        39.400
 202059894.788 7                  38450726.882
        44.200
 115430001.539 8  89945495.07146  21965602.639    21965602.2244   21965602.3774
        48.600          39.0004
 103111536.531 8  80197889.192 8  19302679.803    19302680.100    19302686.772
        51.800          48.700
 113903688.187 6  88591793.482 7  21315522.165    21315521.843    21315533.971
        41.300          45.600
 130854408.585 6                  24900755.048
        39.400
 123700820.192 8                  23539467.152
        49.600
 116417955.831 7  90547287.215 6  21755475.191    21755476.491    21755479.784
        44.400          38.800
 25  1  1  1  1 30.0000000  0 23G03G06G14G19G12G11E27G24E34S35R13E15
                                R22E36R23S31S33G17R12R11E02E30R21


 106013873.539 8  82608260.36149  20173755.853    20173755.5634   20173759.6924
        50.800          54.5004
 119545666.371 6  93152430.49043  22748778.264    22748778.3934   22748783.3674
        36.100          22.0004
 106444005.330 7  82943376.17045  20255623.643    20255622.2984   20255622.2984
        47.100          32.9004
 120960013.487 7  94254597.28145  23017912.369    23017912.0654   23017909.3784
        46.100          32.3004
 115447718.675 5  89959287.11143  21968973.731    21968973.5754   21968977.7994
        33.700          22.6004
 137403226.963 7                  26146950.781
        43.600
 121520614.773 6  94691417.03844  23124596.083    23124596.2084   23124599.0964
        38.200          29.1004
 122203913.654 7                  23254615.409
        47.600


 115844519.967 5                  21693955.130    21693954.890
        34.800
 131567185.548 6                  25036399.188
        40.500
 103853348.065 8  80774878.917 8  19455219.690    19455219.979    19455225.098
        50.700          51.200
 136619752.535 6                  25997874.387
        38.000
 114754153.611 6                  21452086.998    21452086.374
        40.200
 198906075.011 7                  37850568.234
        43.200
 202059891.186 7                  38450724.677
        43.700
 115455854.459 8  89965640.16446  21970522.570    21970522.1684   21970521.3094
        48.400          39.5004
 103106917.925 8  80194296.929 7  19301816.242    19301816.196    19301820.690
        51.900          46.400
 113961617.552 6  88636849.635 6  21326366.512    21326365.573    21326371.177
        37.700          41.900
 130885983.463 7                  24906762.396
        42.700
 123695656.158 8                  23538484.324
        48.800
 116465268.324 6  90584085.877 6  21764314.747    21764313.062    21764320.173
        40.400          39.500
 25  1  1  1  1 45.0000000  0 23G03G06G14G19G12G11E27G24E34S35R13E15
                                R22E36R23S31S33G17R12R11E02E30R21


 106009992.860 8  82605236.47549  20173017.075    20173016.7764   20173021.6954
        50.500          54.6004
 119594503.458 6  93190485.34843  22758072.758    22758072.8654   22758076.4994
        37.000          23.8004
 106450104.664 7  82948128.94045  20256785.085    20256783.7314   20256783.2344
        47.800          34.2004
 120911558.302 7  94216840.14045  23008690.654    23008690.3414   23008688.8574
        45.000          32.3004
 115409203.256 6  89929275.13343  21961645.885    21961645.7604   21961647.0484
        38.900          21.4004
 137366764.489 7                  26140011.880
        42.500
 121541421.081 5  94707629.74944  23128553.062    23128553.2364   23128559.5814
        33.600          27.1004
 122207747.588 8                  23255344.908
        49.300


 115792592.392 5                  21684234.490    21684230.935
        30.900
 131534097.465 6                  25030099.569
        39.000
 103858480.665 8  80778870.962 8  19456181.178    19456181.065    19456185.540
        50.900          50.300
 136656841.584 5                  26004932.152
        34.100
 114717448.955 6                  21445224.188    21445224.110
        41.200
 198906080.718 6                  37850568.341
        40.700
 202059886.337 7                  38450723.403
        42.700
 115481733.869 8  89985805.94246  21975447.105    21975446.6944   21975446.0504
        48.700          40.1004
 103102495.090 8  80190856.961 7  19300987.907    19300988.065    19300993.538
        52.200          47.600
 114019644.711 6  88681981.836 6  21337221.188    21337220.611    21337230.566
        39.400          39.700
 130917617.103 7                  24912782.102
        43.700
 123690569.819 8                  23537516.727
        49.100
 116512600.038 6  90620899.347 6  21773160.811    21773161.352    21773165.002
        40.900          39.400
 25  1  1  1  2  0.0000000  0 23G03G06G14G19G12G11E27G24E34S35R13E15
                                R22E36R23S31S33G17R12R11E02E30R21


 106006237.093 8  82602309.93749  20172302.553    20172302.2494   20172307.1754
        50.000          54.4004
 119643400.451 6  93228586.83143  22767376.844    22767376.9914   22767380.9174
        36.400          22.8004
 106456265.553 7  82952929.65845  20257957.161    20257955.7984   20257956.6144
        47.100          35.4004
 120863148.266 7  94179118.12245  22999478.069    22999477.7304   22999479.9794
        43.100          33.2004
 115370773.811 6  89899330.12843  21954333.643    21954333.4914   21954331.0364
        36.500          21.9004
 137330324.603 7                  26133077.176
        42.500
 121562343.473 5  94723932.96244  23132536.303    23132536.4054   23132542.4824
        32.800          27.2004
 122211664.762 8                  23256090.276
        50.100


 115740766.878 5                  21674531.717    21674525.931
        31.000
 131501070.447 6                  25023816.571
        39.300
 103863723.586 8  80782948.793 8  19457162.713    19457163.007    19457167.848
        51.100          50.100
 136693957.727 6                  26011995.463
        37.200
 114680833.860 6                  21438378.308    21438378.231
        40.600
 198906082.849 6                  37850581.712
        41.800
 202059878.146 7                  38450725.276
        44.400
 115507638.040 8  90005991.01246  21980376.569    21980376.1454   21980376.5554
        48.200          41.3004
 103098266.576 8  80187568.122 8  19300195.948    19300196.338    19300202.178
        52.300          48.100
 114077767.340 5  88727188.380 5  21348101.446    21348097.761    21348105.404
        30.600          35.900
 130949307.724 7                  24918812.810
        43.100
 123685559.528 8                  23536563.101
        48.500
 116559948.726 6  90657726.090 6  21782005.954    21782005.148    21782014.795
        41.700          39.200
 25  1  1  1  2 15.0000000  0 23G03G06G14G19G12G11E27G24E34S35R13E15
                                R22E36R23S31S33G17R12R11E02E30R21


 106002614.561 8  82599487.21449  20171612.956    20171612.6434   20171617.1944
        50.300          54.4004
 119692365.535 6  93266741.41844  22776692.283    22776692.4214   22776698.7774
        38.000          24.9004
 106462496.251 8  82957784.77046  20259142.708    20259141.3584   20259142.7884
        49.000          36.5004
 120814792.016 7  94141438.09545  22990276.195    22990275.8514   22990280.9534
        43.800          33.1004
 115332438.976 6  89869458.88743  21947036.891    21947036.7574   21947034.0944
        41.000          20.1004
 137293915.902 7                  26126149.366
        43.200
 121583389.892 6  94740332.87945  23136540.561    23136540.6814   23136545.9214
        38.900          30.4004
 122215673.488 8                  23256853.038
        49.100
 200840664.780 5                  38218698.720
        35.900
 115689052.840 5                  21664848.497    21664844.153
        35.500
 131468113.019 6                  25017545.389
        38.100
 103869085.179 8  80787118.971 8  19458167.326    19458167.727    19458172.411
        51.700          49.700
 136731109.101 5                  26019061.775
        30.000
 114644316.991 7                  21431551.989    21431551.744
        42.800
 198906091.168 7                  37850571.892
        42.700
 202059875.640 7                  38450719.490
        44.400
 115533575.406 8  90026201.96346  21985311.837    21985311.3994   21985312.9674
        48.000          40.8004
 103094241.147 8  80184437.287 8  19299442.043    19299442.664    19299448.575
        52.900          48.100
 114135969.911 6  88772475.768 5  21358996.651    21358996.460    21359005.566
        38.600          35.500
 130981063.738 7                  24924855.795
        43.400
 123680633.899 8                  23535625.518
        49.400
 116607322.606 7  90694572.315 6  21790861.701    21790862.681    21790868.151
        43.000          37.800
 25  1  1  1  2 30.0000000  0 23G03G06G14G19G12G11E27G24E34S35R13E15
                                R22E36R23S31S33G17R12R11E02E30R21


 105999119.837 8  82596764.08049  20170947.732    20170947.4284   20170951.5714
        50.900          54.2004
 119741393.229 6  93304944.77644  22786023.784    22786023.9894   22786028.9074
        38.000          25.0004
 106468791.301 8  82962690.03546  20260340.258    20260338.9134   20260340.7814
        49.200          37.9004
 120766484.611 6  94103796.00845  22981083.744    22981083.3734   22981089.5374
        41.300          33.9004
 115294193.529 6  89839657.29443  21939758.296    21939758.1314   21939758.3354
        40.900          21.7004
 137257533.238 7                  26119225.366
        43.300
 121604555.054 6  94756825.27145  23140569.471    23140569.5514   23140573.1054
        41.200          32.2004
 122219768.352 8                  23257632.769
        49.400
 200840705.476 6                  38218703.983
        36.400
 115637445.383 6                  21655184.824    21655180.748
        39.500
 131435219.870 5                  25011286.767
        33.700
 103874559.779 8  80791377.019 8  19459192.452    19459192.945    19459197.839
        51.000          49.600
 136768290.508 4                  26026140.302
        28.800
 114607892.799 6                  21424743.401    21424742.120
        36.800
 198906099.480 6                  37850575.988
        40.900
 202059872.781 7                  38450718.882
        43.800
 115559540.558 7  90046434.57647  21990252.913    21990252.4804   21990254.5844
        47.600          42.4004
 103090413.556 8  80181460.305 8  19298725.591    19298725.648    19298732.794
        51.700          49.100
 114194294.409 6  88817839.110 5  21369906.939    21369910.654    21369914.102
        39.300          34.400
 131012879.734 7                  24930910.161
        43.600
 123675787.721 8                  23534703.547
        49.200
                  90731433.892 6                  21799715.291    21799725.608
                        39.300
 25  1  1  1  2 45.0000000  0 23G03G06G14G19G12G11E27G24E34S35R13E15
                                R22E36R23S31S33G17R12R11E02E30R21
 123980273.893 4                  23592661.585
        28.400
 105995749.070 8  82594137.53649  20170306.564    20170306.2564   20170309.8624
        51.300          54.2004
 119790479.707 5  93343194.01743  22795363.096    22795363.2834   22795370.1984
        32.400          21.6004
 106475147.215 8  82967642.67346  20261548.763    20261547.4314   20261551.1424
        48.500          37.2004
 120718222.616 6  94066189.34745  22971899.500    22971899.1164   22971905.6294
        38.700          32.4004
 115256033.959 6  89809922.61943  21932496.168    21932496.0754   21932499.0454
        40.600          22.9004
 137221173.048 7                  26112306.394
        43.500
 121625834.680 4  94773406.80744  23144615.568    23144615.4754   23144623.6394
        28.500          25.4004
 122223945.469 8                  23258427.492
        49.400
 200840743.171 5                  38218728.671
        34.000
 115585941.025 6                  21645539.154    21645537.386
        41.400
 131402387.481 6                  25005039.101
        36.200
 103880143.373 8  80795719.846 8  19460238.146    19460238.294    19460243.524
        50.500          48.900
 136805497.708 5                  26033221.202
        34.600
 114571557.708 6                  21417953.096    21417951.107
        38.600
 198906103.985 6                  37850573.135
        41.900
 202059867.352 7                  38450720.510
        45.100
 115585529.824 7  90066685.98547  21995198.687    21995198.2454   21995201.5454
        46.300          42.0004
 103086780.028 8  80178634.253 8  19298046.219    19298046.686    19298051.971
        52.600          48.600
 114252712.506 6  88863275.377 6  21380844.247    21380844.728    21380850.739
        39.600          39.900
 131044751.938 7                  24936976.582
        44.800
 123671017.355 8                  23533795.870
        50.800
 116702375.471 5  90768307.419 5  21808625.960                    21808578.643
        34.400          32.000
 25  1  1  1  3  0.0000000  0 23G03G06G14G19G12G11E27G24E34S35R13E15
                                R22E36R23S31S33G17R12R11E02E30R21


 105992504.622 8  82591609.41649  20169689.016    20169688.7124   20169692.3764
        51.900          54.3004
 119839626.955 6  93381490.56543  22804716.611    22804716.7804   22804721.7074
        36.200          21.3004
 106481566.326 7  82972644.58346  20262770.743    20262769.4154   20262772.3334
        47.700          36.4004
 120670008.767 6  94028620.19645  22962724.522    22962724.1514   22962729.2794
        40.500          30.9004
 115217962.839 6  89780256.84643  21925253.049    21925253.0094   21925255.3794
        39.500          21.1004
 137184837.921 7                  26105391.446
        44.100


 122228207.181 8                  23259238.369
        48.900
 200840779.419 5                  38218715.010
        33.400
 115534542.876 6                  21635912.594    21635911.123
        39.300
 131369618.249 7                  24998803.236
        42.100
 103885838.225 8  80800149.184 7  19461306.064    19461306.569    19461309.393
        51.700          47.700
 136842732.945 5                  26040305.684
        34.800
 114535314.205 6                  21411176.991    21411177.118
        41.800
 198906107.531 6                  37850571.655
        41.900
 202059860.598 7                  38450717.370
        44.600
 115611545.688 7  90086958.12746  22000149.802    22000149.3464   22000152.7224
        45.900          41.1004
 103083343.081 8  80175961.080 8  19297402.561    19297402.933    19297408.080
        51.400          48.100
 114311226.309 6  88908786.114 6  21391793.220    21391790.938    21391800.155
        37.800          41.700
 131076682.671 7                  24943052.594
        44.400
 123666325.356 8                  23532903.178
        50.100
 116749802.262 6  90805194.964 5  21817427.285    21817446.817    21817444.784
        37.000          30.800
 25  1  1  1  3 15.0000000  0 23G03G06G14G19G12G11E27G24E34S35R13E15
                                R22E36R23S31S33G17R12R11E02E30R21


 105989391.400 8  82589183.56349  20169096.225    20169095.9264   20169099.8414
        52.000          54.7004
 119888839.902 6  93419838.26643  22814080.522    22814080.6744   22814085.3524
        39.200          23.0004
 106488053.590 7  82977699.63046  20264005.548    20264004.2294   20264005.6294
        47.300          36.2004
 120621848.457 6  93991092.78245  22953558.910    22953558.4634   22953562.6804
        41.700          30.1004
 115179985.299 6  89750664.06243  21918026.271    21918026.2844   21918028.5614
        39.400          22.5004
 137148533.059 6                  26098482.679
        41.900
 121668697.718 6  94806798.36543  23152784.438    23152783.9384   23152788.3894
        37.900          23.8004
 122232558.336 7                  23260065.910
        47.500


 115483256.345 6                  21626309.258    21626307.781
        39.400
 131336917.327 6                  24992578.602
        38.700
 103891649.144 8  80804668.796 8  19462394.116    19462395.101    19462399.168
        51.600          48.900
 136880001.108 5                  26047397.032
        31.000
 114499167.422 6                  21404420.790    21404422.406
        41.300
 198906115.429 6                  37850580.643
        41.600
 202059857.487 7                  38450722.164
        44.500
 115637593.109 7  90107254.84246  22005106.167    22005105.7114   22005109.3104
        46.600          40.1004
 103080108.034 8  80173444.939 8  19296796.420    19296797.248    19296802.756
        51.300          48.500
 114369840.629 6  88954374.957 7  21402761.116    21402761.733    21402768.097
        40.800          42.100
 131108676.910 7                  24949140.470
        44.700
 123661716.834 8                  23532026.382
        50.000
 116797251.575 6                  21826309.357    21826308.044
        36.700
 25  1  1  1  3 30.0000000  0 23G03G06G14G19G12G11E27G24E34S35R13E15
                                R22E36R23S31S33G17R12R11E02E30R21


 105986402.535 8  82586854.59949  20168528.290    20168527.9914   20168531.2344
        52.000          54.4004
 119938111.604 6  93458231.81344  22823459.570    22823459.7444   22823460.6994
        40.500          24.5004
 106494602.392 8  82982802.61946  20265252.095    20265250.7904   20265251.3424
        48.100          37.3004
 120573735.497 6  93953602.28444  22944403.913    22944403.4574   22944405.0124
        38.600          28.6004
 115142094.723 6  89721138.96843  21910815.528    21910815.5814   21910817.6184
        41.400          22.9004
 137112251.958 6                  26091578.584
        39.400
 121690329.838 6  94823654.49744  23156901.798    23156901.5664   23156904.2944
        39.200          26.5004
 122236992.112 7                  23260908.913
        45.700


 115432075.251 6                  21616722.614    21616721.986
        38.400
 131304278.016 7                  24986369.460
        42.900
 103897569.095 8  80809273.212 8  19463503.064    19463503.495    19463508.112
        51.200          49.100
 136917295.347 5                  26054496.492
        32.200
 114463110.272 5                  21397677.667    21397676.820
        35.000
 198906120.019 6                  37850582.534
        40.800
 202059851.374 7                  38450718.211
        42.800
 115663665.401 7  90127570.91746  22010067.301    22010066.8454   22010069.6454
        47.400          38.0004
 103077068.178 8  80171080.651 8  19296227.249    19296227.733    19296234.641
        50.200          49.900
 114428548.064 7  89000036.173 6  21413748.310    21413748.581    21413756.305
        43.900          41.900
 131140727.827 7                  24955239.597
        46.600
 123657185.152 8                  23531163.743
        50.700
 116844716.420 7  90879017.057 6  21835176.530    21835176.966    21835187.775
        42.000          38.800
 25  1  1  1  3 45.0000000  0 23G03G06G14G19G12G11E27G24E34S35R13E15
                                R22E36R23S31S33G17R12R11E02E30R21


 105983540.825 8  82584624.70548  20167983.675    20167983.3674   20167986.6044
        52.000          53.6004
 119987444.715 7  93496673.13544  22832846.491    22832846.6384   22832848.3654
        44.200          24.7004
 106501215.634 7  82987955.82246  20266510.216    20266508.9154   20266509.8184
        47.900          37.3004
 120525672.880 6  93916151.03245  22935257.991    22935257.5894   22935258.8944
        36.300          30.0004
 115104294.122 7  89691684.06243  21903622.661    21903622.7144   21903623.6144
        44.700          23.1004
 137075997.565 6                  26084679.709
        40.300
 121712078.968 6  94840601.83944  23161039.667    23161039.3544   23161045.5574
        39.300          25.4004
 122241511.311 7                  23261768.661
        42.700
 200840752.367 5                  38218726.270
        33.800
 115381002.879 6                  21607159.644    21607159.055
        40.700
 131271703.345 6                  24980169.938
        40.100
 103903600.701 8  80813964.510 8  19464633.229    19464633.416    19464638.029
        50.900          49.600
 136954618.239 5                  26061595.782
        32.400
 114427146.090 7                  21390956.331    21390955.734
        42.700
 198906124.418 7                  37850587.847
        42.400
 202059846.378 6                  38450712.702
        40.700
 115689765.386 8  90147908.58246  22015034.000    22015033.5584   22015036.1284
        48.000          37.7004
 103074226.548 8  80168870.531 8  19295694.832    19295695.221    19295702.348
        50.700          49.400
 114487350.955 6  89045771.793 6  21424752.127    21424751.312    21424758.893
        41.300          40.800
 131172838.272 7                  24961349.774
        45.700
 123652733.325 8                  23530316.239
        49.700
 116892199.470 6  90915948.335 6  21844053.237    21844050.329    21844059.537
        41.200          39.500
 25  1  1  1  4  0.0000000  0 23G03G06G14G19G12G11E27G24E34S35R13E15
                                R22E36R23S31S33G17R12R11E02E30R21
 124125466.751 4                  23620291.256
        29.300
 105980808.566 8  82582495.68548  20167463.412    20167463.0994   20167466.5814
        51.600          53.8004
 120036841.530 6  93535164.12343  22842245.555    22842245.6534   22842248.6414
        40.900          23.5004
 106507895.692 8  82993161.07846  20267781.646    20267780.3504   20267781.2574
        48.300          38.4004
 120477663.201 6  93878740.95745  22926122.356    22926121.9994   22926124.1694
        40.400          32.3004
 115066586.136 6  89662301.32643  21896447.240    21896447.2094   21896449.0124
        39.700          22.7004
 137039772.511 6                  26077786.012
        41.600
 121733947.229 5  94857642.08143  23165201.133    23165200.8164   23165207.4754
        34.600          23.6004
 122246118.162 7                  23262645.397
        45.700
 200840792.502 6                  38218730.853
        39.200
 115330042.116 6                  21597614.806    21597614.694
        39.700
 131239195.808 5                  24973984.427
        35.200
 103909746.210 8  80818744.420 8  19465784.210    19465784.546    19465789.557
        49.700          50.000
 136991972.022 5                  26068704.842
        30.800
 114391277.159 7                  21384248.547    21384246.758
        42.100
 198906132.541 6                  37850576.922
        40.000
 202059843.292 6                  38450715.989
        38.900
 115715895.584 7  90168269.81146  22020006.584    22020006.1424   22020008.3764
        46.900          36.7004
 103071585.806 8  80166816.638 8  19295200.322    19295201.084    19295208.328
        50.900          50.200
 114546251.460 6  89091583.322 6  21435773.895    21435774.247    21435781.711
        41.900          40.100
 131205010.603 7                  24967471.630
        43.400
 123648363.911 8                  23529484.991
        49.900
 116939702.739 6  90952895.319 6  21852925.163    21852925.435    21852934.599
        41.700          41.800
 25  1  1  1  4 15.0000000  0 23G03G06G14G19G12G11E27G24E34S35R13E15
                                R22E36R23S31S33G17R12R11E02E30R21


 105978201.862 8  82580464.50148  20166967.035    20166966.7314   20166970.7274
        52.000          53.5004
 120086297.771 6  93573701.42943  22851659.248    22851659.3284   22851660.3784
        40.400          23.8004
 106514638.598 8  82998415.34046  20269064.956    20269063.6644   20269064.9074
        49.200          39.5004
 120429703.020 6  93841369.58145  22916995.437    22916995.0664   22916997.7714
        37.800          31.1004
 115028967.089 6  89632987.82843  21889289.172    21889289.1644   21889290.8654
        39.500          23.7004
 137003573.206 6                  26070896.645
        39.300
 121755930.622 5  94874772.07043  23169383.294    23169383.1384   23169392.1004
        33.200          23.4004
 122250808.778 7                  23263538.944
        46.800


 115279190.001 6                  21588092.551    21588091.989
        39.700
 131206751.437 6                  24967807.295
        37.200
 103916001.611 8  80823609.692 8  19466955.759    19466955.968    19466960.402
        51.000          49.900
 137029352.610 4                  26075814.819
        29.400
 114355499.652 7                  21377563.195    21377561.405
        42.300
 198906138.166 7                  37850584.779
        44.200
 202059837.936 6                  38450720.733
        37.000
 115742051.953 8  90188651.38946  22024983.950    22024983.5084   22024985.5874
        48.000          37.9004
 103069142.173 8  80164916.070 8  19294742.736    19294743.517    19294749.616
        51.300          48.200
 114605245.311 7  89137467.338 7  21446815.457    21446815.032    21446819.858
        43.600          42.200
 131237240.819 6                  24973603.950
        41.200
 123644073.181 8                  23528668.035
        49.000
 116987222.087 7  90989854.801 6  21861807.024    21861806.462    21861813.614
        44.300          37.900
 25  1  1  1  4 30.0000000  0 23G03G06G14G19G12G11E27G24E34S35R13E15
                                R22E36R23S31S33G17R12R11E02E30R21


 105975720.164 8  82578530.73549  20166495.203    20166494.8994   20166499.2714
        52.400          54.2004
 120135813.015 5  93612284.63442  22861079.089    22861079.0854   22861083.1914
        34.200          16.5004
 106521444.059 7  83003718.27846  20270359.500    20270358.2044   20270360.2784
        45.800          37.6004
 120381791.899 6  93804036.35744  22907878.474    22907878.0904   22907879.7574
        39.300          27.7004
 114991436.761 6  89603743.50643  21882147.780    21882147.8024   21882148.4814
        40.600          22.0004
 136967399.356 6                  26064014.272
        39.900
 121778028.040 7  94891990.82844  23173590.775    23173590.6644   23173595.9664
        42.500          27.9004
 122255582.555 7                  23264447.042
        46.500
 200840809.931 6                  38218743.535
        39.400
 115228446.400 5                  21578589.717    21578587.797
        34.600
 131174370.271 7                  24961647.759
        42.700
 103922366.060 8  80828559.834 8  19468148.467    19468148.939    19468153.784
        50.600          51.000
 137066747.910 5                  26082936.192
        32.500
 114319813.164 7                  21370891.923    21370892.762
        42.100
 198906141.919 7                  37850587.927
        43.600
 202059832.183 7                  38450713.601
        45.000
 115768234.082 7  90209053.03545  22029966.616    22029966.1874   22029966.5104
        46.600          34.1004
 103066895.224 8  80163168.467 8  19294321.961    19294322.679    19294328.765
        50.500          48.600
 114664331.425 7  89183423.292 6  21457871.491    21457871.664    21457878.422
        43.100          40.900
 131269528.674 7                  24979749.450
        43.800
 123639860.818 8                  23527866.744
        49.300
 117034757.073 7  91026826.411 6  21870689.185    21870689.796    21870698.012
        45.000          40.100
 25  1  1  1  4 45.0000000  0 23G03G06G14G19G12G11E27G24E34S35R13E15
                                R22E36R23S31S33G17R12R11E02E30R21


 105973363.279 8  82576694.23348  20166046.405    20166046.0924   20166050.7224
        51.100          53.1004
 120185386.948 6  93650913.68743  22870512.243    22870512.2034   22870516.4104
        37.500          19.0004
 106528311.803 7  83009069.81045  20271666.170    20271664.8834   20271666.7084
        46.200          34.9004
 120333930.393 6  93766741.82045  22898770.703    22898770.2974   22898773.1954
        40.500          33.4004
 114953995.002 7  89574568.11444  21875021.370    21875021.4104   21875023.8724
        45.000          24.4004
 136931251.055 6                  26057134.165
        40.800
 121800239.572 7  94909298.52945  23177816.792    23177816.6854   23177822.1424
        42.600          30.8004
 122260439.307 8                  23265371.850
        48.000
 200840845.358 6                  38218758.760
        40.100
 115177811.530 6                  21569106.907    21569106.714
        39.700
 131142051.957 7                  24955497.761
        44.200
 103928839.378 8  80833594.702 8  19469360.855    19469361.053    19469365.871
        49.800          49.600
 137104180.825 5                  26090058.918
        32.600
 114284217.718 7                  21364237.425    21364238.429
        44.800
 198906144.835 7                  37850585.003
        42.700
 202059823.852 6                  38450707.251
        40.500
 115794441.901 8  90229474.65546  22034953.701    22034953.2774   22034952.7494
        48.300          36.4004
 103064844.965 8  80161573.850 8  19293938.827    19293938.665    19293945.372
        51.200          48.300
 114723509.362 7  89229450.594 7  21468945.177    21468943.916    21468953.991
        42.300          42.100
 131301873.777 7                  24985904.409
        44.000
 123635726.831 8                  23527079.706
        49.200
 117082307.173 7  91063809.846 6  21879575.628    21879576.641    21879582.219
        44.400          36.300
 25  1  1  1  5  0.0000000  0 23G03G06G14G19G12G11E27G24E34S35R13E15
                                R22E36R23S31S33G17R12R11E02E30R21


 105971137.377 8  82574959.78348  20165623.359    20165623.0554   20165626.7774
        53.100          53.7004
 120235025.519 6  93689593.05043  22879961.182    22879961.1954   22879961.3004
        39.100          21.9004
 106535248.171 7  83014474.81245  20272986.029    20272984.7514   20272985.5864
        44.900          33.0004
 120286125.108 7  93729491.08946  22889674.454    22889674.0744   22889677.5974
        43.500          37.7004
 114916648.328 7  89545466.84043  21867914.122    21867914.1754   21867915.8574
        45.400          22.4004
 136895134.769 7                  26050261.272
        42.000
 121822570.948 6  94926699.53745  23182064.472    23182064.3074   23182070.9394
        41.300          30.2004
 122265385.255 8                  23266313.135
        49.200
 200840885.083 6                  38218756.726
        38.000
 115127292.641 5                  21559642.109    21559643.513
        32.100
 131109803.099 7                  24949360.668
        42.900
 103935427.610 8  80838718.917 8  19470594.577    19470594.545    19470600.321
        48.500          49.400
 137141645.997 5                  26097192.552
        34.600
 114248719.503 7                  21357600.247    21357601.356
        45.500
 198906151.525 7                  37850595.073
        42.400
 202059820.390 7                  38450710.261
        42.500
 115820681.698 7  90249921.25746  22039946.327    22039945.8984   22039947.3504
        47.800          38.7004
 103062998.107 8  80160137.424 8  19293593.223    19293593.299    19293599.671
        52.000          48.800
 114782785.227 6  89275554.022 6  21480039.355    21480039.098    21480045.042
        39.600          40.400
 131334282.396 7                  24992070.698
        43.600
 123631677.649 8                  23526309.764
        49.100
 117129878.720 7  91100809.930 5  21888466.217    21888466.410    21888470.391
        44.600          35.700
 25  1  1  1  5 15.0000000  0 23G03G06G14G19G12G11E27G24E34S35R13E15
                                R22E36R23S31S33G17R12R11E02E30R21


 105969036.004 8  82573322.37949  20165222.940    20165222.6324   20165227.0594
        52.200          55.0004
 120284722.152 7  93728317.58243  22889417.555    22889417.5514   22889418.6794
        43.200          20.5004
 106542246.844 7  83019928.38146  20274318.605    20274317.3404   20274317.1414
        47.700          36.5004
 120238369.903 7  93692279.32845  22880585.921    22880585.5734   22880589.4634
        43.600          34.2004
 114879390.480 6  89516434.79944  21860824.131    21860824.2114   21860826.1484
        39.000          25.7004
 136859044.325 7                  26043395.536
        42.800
 121845015.722 6  94944182.99744  23186336.170    23186336.0364   23186341.2444
        39.300          24.6004
 122270413.716 8                  23267269.588
        48.800
 200840922.936 5                  38218762.432
        32.400
 115076883.360 6                  21550205.828    21550205.103
        36.100
 131077617.234 6                  24943237.235
        40.100
 103942124.116 8  80843927.334 8  19471849.642    19471849.739    19471853.690
        51.400          50.200
 137179136.641 5                  26104325.632
        34.900
 114213312.282 7                  21350982.052    21350982.219
        46.600
 198906156.250 7                  37850589.233
        45.200


 115846947.142 7  90270387.84646  22044944.755    22044944.3264   22044945.8864
        47.500          37.5004
 103061347.980 8  80158853.983 8  19293284.387    19293284.225    19293290.709
        49.400          48.700
 114842151.824 7  89321727.957 6  21491147.586    21491147.753    21491156.018
        43.800          40.800
 131366747.957 6                  24998248.832
        39.000
 123627706.918 8                  23525554.118
        51.100
 117177464.665 7  91137821.146 5  21897357.627    21897358.218    21897363.380
        43.000          31.100
 25  1  1  1  5 30.0000000  0 23G03G06G14G19G12G11E27G24E34S35R13E15
                                R22E36R23S31S33G17R12R11E02E30R21


 105967062.473 8  82571784.55948  20164847.498    20164847.2034   20164851.5944
        51.700          53.5004
 120334480.288 7  93767090.24144  22898886.082    22898886.0334   22898888.8284
        44.400          27.0004
 106549311.379 7  83025433.24045  20275662.231    20275660.9484   20275660.8154
        42.200          30.2004
 120190668.789 7  93655109.74046  22871508.984    22871508.6364   22871511.6574
        46.200          36.4004
 114842225.131 5  89487474.92943  21853754.233    21853754.3444   21853753.6024
        35.800          20.5004
 136822983.328 6                  26036531.550
        41.200
 121867576.927 6  94961763.20944  23190629.716    23190629.4484   23190635.9524
        36.600          26.6004
 122275528.368 8                  23268243.314
        50.100


 115026588.293 6                  21540789.914    21540789.878
        40.700
 131045497.943 6                  24937123.836
        40.200
 103948932.144 8  80849222.510 8  19473124.501    19473124.808    19473129.408
        48.600          48.300
 137216663.271 5                  26111464.974
        31.800
 114177999.740 7                  21344381.822    21344381.264
        44.500
 198906163.284 6                  37850582.552
        37.700
 202059790.876 6                  38450710.055
        41.500
 115873241.783 7  90290877.15846  22049948.432    22049947.9994   22049950.2404
        47.400          39.9004
 103059898.564 8  80157726.649 8  19293012.414    19293012.373    19293019.469
        49.800          48.300
 114901612.447 7  89367975.080 6  21502274.658    21502276.119    21502283.686
        43.400          41.700
 131399274.366 7                  25004439.297
        44.300
 123623818.426 8                  23524814.383
        50.500
 117225068.496 7                  21906254.136    21906255.249
        42.900
 25  1  1  1  5 45.0000000  0 23G03G06G14G19G12G11E27G24E34S35R13E15
                                R22E36R23S31S33G17R12R11E02E30R21
 124334196.089 6                  23660015.010
        36.400
 105965214.925 8  82570344.94048  20164495.841    20164495.5374   20164499.5704
        50.400          51.4004
 120384297.757 7  93805909.01044  22908366.490    22908366.4554   22908368.8784
        44.200          25.6004
 106556439.822 7  83030987.93045  20277020.299    20277019.0164   20277015.6724
        45.100          31.4004
 120143019.950 7  93617980.88846  22862441.544    22862441.1644   22862444.6294
        46.000          37.7004
 114805164.022 5  89458587.03143  21846696.219    21846696.3084   21846700.6014
        35.200          21.6004
 136786950.194 7                  26029675.664
        44.000
 121890252.397 6  94979432.42644  23194943.672    23194943.7974   23194951.8594
        37.900          28.4004
 122280727.032 8                  23269231.965
        48.100
 200841057.354 6                  38218778.064
        37.300
 114976405.534 6                  21531390.028    21531389.589
        39.200
 131013443.592 6                  24931024.947
        41.200
 103955849.665 8  80854602.769 7  19474421.814    19474421.807    19474424.676
        50.000          46.800
 137254209.517 4                  26118603.388
        26.700
 114142780.094 6                  21337794.412    21337794.139
        41.000
 198906169.521 6                  37850592.604
        40.700
 202059787.025 7                  38450706.898
        44.600
 115899563.660 7  90311387.72246  22054957.075    22054956.6104   22054959.8574
        46.000          39.6004
 103058647.835 8  80156753.898 8  19292778.886    19292779.352    19292785.389
        51.200          48.900
 114961164.692 7  89414293.379 6  21513420.793    21513422.828    21513426.760
        44.300          40.800
 131431859.290 7                  25010638.238
        42.000
 123620010.321 8                  23524089.384
        50.200
 117272688.095 6                  21915153.550    21915155.620
        41.600
 25  1  1  1  6  0.0000000  0 23G03G06G14G19G12G11E27G24E34S35R13E15
                                R22E36R23S31S33G17R12R11E02E30R21
 124364527.294 6  96907445.69843  23665784.906    23665784.9064   23665787.4914
        38.100          20.5004
 105963490.628 8  82569001.35548  20164168.044    20164167.7364   20164171.2424
        51.000          52.2004
 120434171.713 7  93844771.82743  22917857.913    22917857.8914   22917859.0254
        42.800          23.6004
 106563629.682 6  83036590.49844  20278387.859    20278386.5634   20278383.8414
        41.100          29.9004
 120095421.224 7  93580891.03646  22853383.527    22853383.1164   22853386.7454
        45.700          37.5004
 114768177.874 5  89429766.72343  21839657.733    21839657.7024   21839661.7174
        32.500          20.8004
 136750942.514 7                  26022823.331
        43.500
 121913039.236 5  94997188.45944  23199280.144    23199280.1614   23199289.0474
        34.900          27.1004
 122286007.083 8                  23270236.818
        49.000
 200841093.464 6                  38218799.112
        37.700
 114926333.271 7                  21522013.981    21522013.929
        42.300
 130981451.536 7                  24924936.813
        43.100
 103962873.761 8  80860066.001 8  19475736.919    19475737.050    19475741.426
        50.800          48.400
 137291780.009 5                  26125757.682
        34.300
 114107650.290 7                  21331227.664    21331228.075
        42.600
 198906172.130 6                  37850586.697
        41.400
 202059779.367 6                  38450706.737
        41.600
 115925910.225 7  90331917.54046  22059971.601    22059971.1234   22059973.9684
        47.000          40.0004
 103057593.445 8  80155933.826 8  19292581.435    19292581.666    19292588.611
        50.100          50.200
 115020805.544 7  89460680.604 7  21524582.814    21524582.916    21524587.317
        44.000          42.600
 131464500.132 6                  25016849.604
        40.900
 123616280.167 8                  23523380.079
        50.700
 117320320.420 6                  21924053.134    21924053.197
        38.300
 25  1  1  1  6 15.0000000  0 24G03G06G14G19G12G11G20E27G24E34S35R13
                                E15R22E36R23S31S33G17R12R11E02E30R21


 105961895.926 8  82567758.74048  20163864.813    20163864.5004   20163867.7124
        51.000          52.5004
 120484108.496 6  93883683.54043  22927360.866    22927360.8084   22927361.1654
        37.700          19.7004
 106570887.332 6  83042245.79245  20279768.237    20279766.9594   20279766.4304
        41.900          32.4004
 120047879.383 7  93543845.54646  22844338.236    22844337.8394   22844341.2784
        43.600          40.3004
 114731286.914 5  89401020.56143  21832636.955    21832636.5664   21832642.7324
        35.300          21.8004
 127485284.019 5                  24259639.432
        32.700
 136714966.880 7                  26015977.182
        45.600
 121935943.752 5  95015036.14144  23203638.144    23203638.4074   23203646.2584
        35.700          25.2004
 122291374.817 7                  23271257.903
        46.800
 200841133.176 6                  38218796.568
        38.700
 114876378.435 6                  21512658.206    21512656.974
        41.500
 130949528.419 7                  24918862.441
        44.000
 103970010.771 8  80865617.019 8  19477074.257    19477073.994    19477078.991
        50.900          49.100
 137329380.802 5                  26132913.131
        34.600
 114072617.183 7                  21324678.764    21324678.821
        46.100
 198906179.765 7                  37850586.675
        43.200
 202059774.973 7                  38450702.051
        43.800
 115952287.989 7  90352471.66046  22064990.669    22064990.1784   22064992.0544
        45.400          40.2004
 103056741.914 8  80155271.553 8  19292422.092    19292422.861    19292428.692
        52.100          49.400
 115080540.991 6  89507141.493 7  21535761.244    21535759.620    21535767.554
        41.000          42.400
 131497203.412 6                  25023073.942
        36.500
 123612634.494 8                  23522686.121
        50.600
 117367972.068 7  91286037.245 6  21932962.183    21932962.958    21932973.803
        44.900          36.900
 25  1  1  1  6 30.0000000  0 24G03G06G14G19G12G11G20E27G24E34S35R13
                                E15R22E36R23S31S33G17R12R11E02E30R21
 124425584.069 5                  23677405.706
        34.800
 105960424.883 8  82566612.48548  20163585.050    20163584.7334   20163587.6144
        51.900          52.5004
 120534101.996 6  93922639.48043  22936871.415    22936871.3134   22936874.7614
        41.000          18.0004
 106578207.164 7  83047949.55845  20281161.789    20281160.5154   20281160.6424
        44.700          34.5004
 120000388.930 7  93506840.11146  22835300.877    22835300.4804   22835304.9744
        47.400          40.7004
 114694485.280 6  89372344.00643  21825635.381    21825635.0334   21825639.4654
        39.000          23.4004
 127430768.187 4                  24249268.355
        25.800
 136679017.679 7                  26009135.933
        46.300
 121958959.756 5  95032970.74244  23208021.294    23208021.5354   23208025.2474
        34.300          24.7004
 122296824.266 7                  23272295.135
        46.000
 200841170.495 6                  38218799.618
        39.400
 114826535.621 7                  21503324.738    21503323.512
        42.700
 130917668.406 7                  24912799.963
        42.700
 103977254.493 8  80871251.051 8  19478430.909    19478431.046    19478435.592
        50.100          49.200
 137367005.910 5                  26140070.891
        33.600
 114037674.913 7                  21318149.150    21318148.146
        46.400
 198906184.297 6                  37850587.382
        39.000
 202059770.790 7                  38450698.880
        42.300
 115978691.059 7  90373045.50446  22070014.855    22070014.3644   22070015.7654
        46.700          40.6004
 103056087.536 8  80154762.612 8  19292299.497    19292299.740    19292305.347
        51.300          48.200
 115140364.928 6  89553671.176 7  21546956.856    21546957.019    21546963.710
        41.100          44.500
 131529963.080 5                  25029306.750
        35.600
 123609067.622 8                  23522007.052
        51.100
 117415636.600 6  91323109.752 6  21941867.047    21941865.981    21941877.734
        37.700          37.200
 25  1  1  1  6 45.0000000  0 24G03G06G14G19G12G11G20E27G24E34S35R13
                                E15R22E36R23S31S33G17R12R11E02E30R21
 124456297.597 5  96978970.93843  23683248.653    23683248.4214   23683252.4334
        34.800          18.1004
 105959076.927 8  82565562.13348  20163327.845    20163327.5374   20163331.1624
        50.900          52.5004
 120584151.458 6  93961638.98042  22946395.648    22946395.5324   22946398.9064
        38.900          14.1004
 106585588.545 4  83053701.40644  20282564.550    20282563.2314   20282565.9354
        26.400          28.1004
 119952949.741 7  93469874.58546  22826272.467    22826272.0614   22826277.4844
        46.000          39.6004
 114657772.412 5  89343736.64543  21818648.065    21818647.7704   21818652.5734
        33.500          23.4004
 127376251.444 5                  24238891.927
        33.700
 136643094.641 7                  26002301.294
        46.800
 121982086.577 6  95050991.61844  23212420.208    23212420.4314   23212425.6814
        36.900          28.8004
 122302354.985 7                  23273347.663
        47.500
 200841205.576 5                  38218833.799
        33.900
 114776804.826 7                  21494012.279    21494012.467
        42.000
 130885871.161 7                  24906749.203
        43.100
 103984604.304 8  80876967.573 8  19479808.180    19479808.136    19479812.579
        51.400          48.400
 137404654.687 5                  26147237.181
        33.600
 114002823.067 8                  21311635.175    21311634.655
        48.400
 198906185.766 6                  37850600.819
        40.600
 202059761.134 7                  38450707.238
        43.900
 116005118.889 8  90393638.60546  22075043.814    22075043.3234   22075044.1054
        49.200          41.8004
 103055629.933 8  80154406.720 7  19292214.411    19292214.868    19292219.125
        52.600          47.400
 115200276.144 6  89600268.768 7  21558168.208    21558168.334    21558175.311
        41.200          44.000
 131562778.834 6                  25035552.084
        39.700
 123605579.227 8                  23521343.086
        50.900
 117463313.351 7  91360191.614 5  21950779.908    21950780.456    21950785.188
        43.000          35.900
 25  1  1  1  7  0.0000000  0 22G03G06G14G12G11E27G24E34S35R13E15R22
                                E36R23S31S33G17R12R11E02E30R21


 105957855.316 8  82564610.25648  20163095.172    20163094.8644   20163098.8974
        51.300          52.3004
 120634260.220 6  94000684.74942  22955930.159    22955930.0704   22955934.7444
        36.800          13.0004
 119905565.533 7  93432951.92846  22817255.389    22817255.0004   22817259.7154
        47.500          38.2004
 114621152.209 6  89315201.44844  21811679.670    21811679.3934   21811683.3794
        41.400          24.9004
 136607201.302 7                  25995470.732
        46.800
 122005327.183 5  95069101.25744  23216846.291    23216846.4834   23216850.6604
        34.300          28.8004
 122307970.084 7                  23274416.147
        46.900
 200841241.402 5                  38218837.023
        32.200
 114727190.217 6                  21484722.464    21484722.618
        41.300
 130854140.119 7                  24900711.511
        42.700
 103992063.327 8  80882769.045 8  19481205.619    19481206.005    19481210.028
        52.600          48.900
 137442330.249 5                  26154403.626
        30.900
 113968064.862 7                  21305135.532    21305134.928
        45.600
 198906189.140 6                  37850594.219
        39.600
 202059753.019 7                  38450700.995
        44.300
 116031574.994 7  90414253.75247  22080078.255    22080077.7464   22080077.9454
        46.700          42.0004
 103055372.503 8  80154206.507 7  19292165.196    19292165.260    19292170.215
        51.400          46.500
 115260277.834 7  89646936.700 7  21569395.220    21569395.733    21569402.670
        42.800          43.900
 131595653.709 5                  25041809.579
        35.500
 123602172.760 8                  23520694.992
        50.300
 117511005.581 6  91397285.697 5  21959686.956    21959686.676    21959698.648
        39.900          34.300
 25  1  1  1  7 15.0000000  0 23G03G06G14G12G11G20E27G24E34S35R13E15
                                R22E36R23S31S33G17R12R11E02E30R21


 105956763.980 8  82563759.87748  20162887.350    20162887.0294   20162891.2534
        50.700          51.7004
 120684431.968 6  94039779.55641  22965480.364    22965480.2304   22965482.6604
        36.700          11.0004
 119858240.616 7  93396075.50646  22808250.488    22808250.0994   22808252.4854
        47.000          37.0004
 114584628.672 7  89286741.60444  21804730.712    21804730.3994   21804732.4974
        44.700          26.6004
 127267227.601 5                  24218147.408
        35.000
 136571341.891 7                  25988646.414
        45.600
 122028685.550 5  95087302.58044  23221288.554    23221288.7824   23221297.5864
        35.300          29.7004
 122313673.523 7                  23275501.729
        46.700


 114677696.355 7                  21475453.361    21475453.266
        42.700
 130822479.372 6                  24894685.003
        38.600
 103999635.435 8  80888658.502 7  19482624.328    19482624.887    19482627.662
        53.700          47.100
 137480036.513 4                  26161581.144
        27.000
 113933404.825 7                  21298656.971    21298656.365
        44.900
 198906196.493 6                  37850595.417
        41.300
 202059750.498 7                  38450700.521
        43.300
 116058063.287 7  90434894.00047  22085118.895    22085118.3904   22085119.5114
        46.100          42.2004
 103055319.710 8  80154165.450 7  19292155.593    19292155.821    19292161.571
        51.800          47.900
 115320373.528 7  89693677.829 7  21580642.875    21580640.495    21580648.523
        42.600          44.800
 131628591.866 6                  25048076.778
        39.000
 123598852.352 8                  23520063.272
        49.700
 117558717.133 6  91434394.701 5  21968598.052    21968600.212    21968611.942
        41.100          33.000
 25  1  1  1  7 30.0000000  0 22G03G06G14G12G11E27G24E34S35R13E15R22
                                E36R23S31S33G17R12R11E02E30R21


 105955794.541 8  82563004.48248  20162703.258    20162702.9374   20162706.2534
        52.100          51.4004
 120734658.357 5  94078916.87741  22975038.610    22975038.4184   22975040.1634
        35.000          11.9004
 119810966.946 7  93359238.99246  22799253.807    22799253.3924   22799255.7064
        47.000          36.7004
 114548193.678 7  89258350.71444  21797796.175    21797795.8314   21797798.7054
        44.100          27.4004
 136535508.335 7                  25981827.515
        45.900


 122319456.924 8                  23276602.878
        48.300
 200841291.961 6                  38218835.462
        39.000
 114628315.289 6                  21466203.727    21466203.192
        39.500
 130790880.766 6                  24888672.017
        36.800
 104007311.982 8  80894629.168 8  19484061.565    19484062.098    19484066.456
        53.300          48.800


 113898834.314 7                  21292192.092    21292192.957
        42.300
 198906200.283 7                  37850592.832
        42.400
 202059743.757 6                  38450695.133
        39.900
 116084575.596 7  90455552.96047  22090163.245    22090162.7314   22090165.5904
        46.000          42.5004
 103055463.063 8  80154276.947 8  19292182.235    19292182.682    19292188.419
        51.900          48.600
 115380554.644 7  89740485.226 7  21591904.364    21591905.013    21591909.290
        46.700          43.200
 131661584.879 6                  25054354.606
        41.500
 123595609.889 8                  23519446.263
        49.700
 117606439.323 7  91471511.937 5  21977523.265    21977522.825    21977531.760
        43.900          32.000
 25  1  1  1  7 45.0000000  0 24G03G06G14G19G12G11E27G24R05E34S35R13
                                E15R22E36R23S31S33G17R12R11E02E30R21


 105954953.941 8  82562349.49648  20162543.422    20162543.1054   20162546.2414
        52.000          51.8004


 106615777.680 5  83077238.90944  20288312.491    20288311.9734   20288309.1444
        35.800          25.2004
 119763752.117 7  93322448.39545  22790269.494    22790269.0654   22790268.8854
        46.700          35.1004
 114511854.418 7  89230034.46444  21790880.535    21790880.1964   21790882.8534
        43.300          25.6004
 136499707.934 7                  25975015.171
        46.000
 122075802.795 5  95124021.95143  23230235.408    23230235.3554   23230250.2674
        31.000          19.7004
 129050481.683 5                  24141558.602
        31.000
 122325327.289 8                  23277719.517
        48.200


 114579054.705 6                  21456978.912    21456978.767
        37.300
 130759351.451 6                  24882670.634
        37.300
 104015099.995 8  80900686.527 8  19485520.438    19485521.188    19485525.291
        52.800          48.100
 137555522.932 5                  26175944.880
        31.800
 113864360.632 6                  21285745.874    21285745.070
        38.200
 198906207.806 7                  37850591.330
        42.400
 202059740.742 7                  38450694.462
        44.900
 116111118.940 7  90476236.07946  22095216.431    22095215.9224   22095217.1464
        42.000          41.9004
 103055809.754 8  80154546.609 8  19292246.955    19292247.659    19292253.991
        52.200          48.500
 115440827.579 7  89787364.101 7  21603185.410    21603186.890    21603189.449
        46.700          44.800
 131694639.758 6                  25060643.219
        37.900
 123592452.557 8                  23518845.539
        49.300
 117654179.143 7  91508642.836 5  21986445.650    21986447.566    21986453.381
        44.700          34.200
 25  1  1  1  8  0.0000000  0 24G03G06G14G19G12G11E27G24R05E34S35R13
                                E15R22E36R23S31S33G17R12R11E02E30R21


 105954235.884 8  82561790.00248  20162406.828    20162406.5074   20162409.2084
        52.600          51.3004


 106623482.970 6  83083243.07343  20289777.025    20289776.3284   20289774.1684
        36.300          23.2004
 119716590.434 7  93285699.14246  22781294.584    22781294.1514   22781294.5934
        45.900          36.4004
 114475604.889 7  89201788.13744  21783983.195    21783982.9054   21783984.2624
        44.300          26.9004
 136463934.579 7                  25968207.227
        47.000
 122099495.106 5  95142483.48743  23234748.727    23234748.5134   23234756.3034
        34.200          20.3004
 129062193.861 5                  24143762.701
        31.500
 122331278.210 8                  23278852.261
        48.100


 114529908.753 6                  21447774.949    21447775.126
        41.500
 130727885.299 6                  24876681.467
        36.600
 104022992.902 8  80906825.491 8  19486998.339    19486999.315    19487004.307
        51.900          48.200
 137593303.466 4                  26183132.685
        28.200
 113829977.212 6                  21279320.210    21279321.973
        41.400
 198906213.183 6                  37850595.270
        41.800
 202059735.009 7                  38450700.182
        45.300
 116137687.141 7  90496938.60646  22100272.347    22100271.8424   22100273.0354
        44.800          40.6004
 103056353.731 8  80154969.715 8  19292349.144    19292349.617    19292355.608
        51.800          48.200
 115501185.721 7  89834309.304 7  21614479.453    21614478.954    21614485.474
        43.000          45.300
 131727750.321 6                  25066946.371
        38.100
 123589374.236 8                  23518259.485
        49.000
 117701930.121 7  91545782.430 5  21995366.914    21995370.577    21995375.712
        44.100          34.000
 25  1  1  1  8 15.0000000  0 23G03G06G14G19G12G11E27G24E34S35R13E15
                                R22E36R23S31S33G17R12R11E02E30R21
 124643282.026 5  97124671.31543  23718829.329    23718829.4134   23718831.5284
        33.900          19.4004
 105953642.388 8  82561327.56348  20162293.789    20162293.4634   20162295.9864
        52.800          51.6004


 106631252.106 6  83089297.00944  20291255.479    20291254.7514   20291251.1184
        41.300          25.3004
 119669484.054 7  93248992.98145  22772329.858    22772329.3714   22772331.1234
        43.400          35.6004
 114439447.333 7  89173613.47344  21777104.112    21777103.8494   21777103.9154
        45.500          29.9004
 136428190.669 7                  25961405.395
        47.600
 122123298.509 5  95161031.62244  23239277.159    23239276.7884   23239285.1624
        35.200          24.7004
 122337311.750 8                  23280000.191
        48.300


 114480880.025 6                  21438593.797    21438592.626
        40.900
 130696484.479 6                  24870707.485
        38.000
 104030992.606 8  80913047.457 7  19488498.085    19488498.435    19488501.921
        52.100          47.300
 137631108.751 4                  26190329.019
        26.300
 113795686.663 7                  21272910.450    21272911.589
        46.100
 198906217.610 6                  37850594.688
        40.600
 202059729.469 7                  38450693.349
        44.000
 116164282.392 7  90517662.17846  22105331.613    22105331.0814   22105332.9004
        46.500          41.2004
 103057097.141 8  80155547.940 7  19292487.958    19292488.268    19292494.220
        51.200          47.700
 115561630.749 6  89881322.084 7  21625792.671    21625791.953    21625797.132
        41.900          45.900
 131760918.571 6                  25073257.252
        40.500
 123586377.218 8                  23517688.805
        48.700
 117749694.093 6  91582931.969 5  22004294.111    22004295.328    22004302.998
        40.200          33.500
 25  1  1  1  8 30.0000000  0 23G03G06G14G19G12G11E27G24E34S35R13E15
                                R22E36R23S31S33G17R12R11E02E30R21
 124674882.151 5  97149294.84742  23724839.385    23724839.3504   23724842.8874
        33.700          15.2004
 105953171.563 8  82560960.70048  20162204.313    20162203.9874   20162206.8274
        52.700          52.2004


 106639082.931 6  83095398.96243  20292743.669    20292742.8474   20292740.3784
        39.700          22.8004
 119622431.497 6  93212328.75945  22763376.309    22763375.8314   22763377.9334
        41.800          34.1004
 114403380.099 7  89145509.19445  21770240.825    21770240.5844   21770240.8514
        44.800          30.8004
 136392474.587 7                  25954608.246
        46.200
 122147211.038 6  95179664.78644  23243830.451    23243830.1704   23243835.7584
        37.800          27.1004
 122343426.003 8                  23281163.517
        48.400
 200841585.755 5                  38218879.476
        34.600
 114431967.401 7                  21429435.324    21429434.390
        42.100
 130665147.310 6                  24864744.283
        38.500
 104039097.031 8  80919350.912 8  19490016.556    19490017.629    19490021.235
        53.100          48.700


 113761487.010 7                  21266517.823    21266517.884
        45.600
 198906219.888 6                  37850598.534
        39.000
 202059719.817 7                  38450695.491
        44.300
 116190902.772 7  90538405.34347  22110397.104    22110396.5954   22110398.6274
        46.400          42.1004
 103058038.354 8  80156280.022 7  19292663.802    19292664.164    19292670.366
        51.000          47.600
 115622160.611 6  89928400.799 7  21637122.241    21637122.463    21637125.022
        41.400          46.600
 131794142.680 6                  25079578.748
        41.500
 123583459.810 7                  23517133.675
        47.900
 117797468.812 6                  22013221.906    22013223.374
        40.900
 25  1  1  1  8 45.0000000  0 23G03G06G14G19G12G11E27G24E34S35R13E15
                                R22E36R23S31S33G17R12R11E02E30R21
 124706613.914 5  97174020.85942  23730876.775    23730876.7534   23730879.9044
        33.400          14.4004
 105952831.612 9  82560695.83048  20162139.716    20162139.3904   20162142.9274
        54.100          53.2004
 120986628.012 6                  23022991.809
        37.000
 106646984.194 6  83101555.83443  20294246.626    20294245.7814   20294243.3004
        37.600          21.5004
 119575441.355 7  93175713.08946  22754434.180    22754433.6754   22754437.3714
        44.300          37.3004
 114367411.754 7  89117481.96344  21763396.928    21763396.7004   21763396.2234
        42.600          29.8004
 136356794.840 7                  25947818.976
        46.100
 122171240.556 5  95198389.06643  23248400.990    23248400.6954   23248408.1224
        32.000          23.9004
 122349629.221 8                  23282343.839
        48.100


 114383179.828 7                  21420297.784    21420297.814
        43.100
 130633882.290 6                  24858796.584
        41.100
 104047314.496 8  80925742.297 7  19491554.268    19491554.843    19491560.931
        50.400          47.900


 113727386.666 8                  21260144.280    21260144.239
        48.800
 198906228.427 6                  37850593.521
        39.900
 202059718.458 7                  38450694.753
        42.500
 116217556.730 8  90559174.64847  22115470.002    22115469.5244   22115470.3414
        48.800          43.1004
 103059185.877 8  80157172.557 7  19292879.129    19292879.500    19292885.894
        51.200          47.100
 115682783.140 6  89975551.750 7  21648468.335    21648467.676    21648469.882
        38.700          46.600
 131827430.945 7                  25085914.028
        42.700
 123580630.469 7                  23516595.444
        47.300
 117845262.786 6                  22022146.021    22022149.305
        38.100
 25  1  1  1  9  0.0000000  0 22G06G14G19G12G11E27G24E34S35R13E15R22
                                E36R23S31S33G17R12R11E02E30R21
 105952614.385 8  82560526.63048  20162098.973    20162098.6564   20162102.0844
        52.300          53.8004
 121037200.529 5  94314690.69842  23032615.910    23032615.6654   23032616.4754
        34.300          17.1004
 106654947.654 6  83107761.16243  20295763.185    20295762.2734   20295759.1894
        40.000          23.0004
 119528505.937 6  93139140.17746  22745501.957    22745501.4434   22745505.3904
        40.900          36.2004
 114331534.295 6  89089525.52843  21756568.364    21756568.1774   21756568.5654
        36.100          23.5004
 136321143.665 7                  25941034.514
        47.000
 122195378.917 6  95217198.35144  23252997.596    23252997.3774   23253004.7264
        38.200          26.0004
 122355913.208 8                  23283538.848
        48.000
 200841578.768 6                  38218876.954
        38.500
 114334509.614 6                  21411183.996    21411183.525
        41.500
 130602681.340 5                  24852855.413
        35.700
 104055636.578 8  80932215.050 8  19493115.043    19493115.712    19493119.708
        51.700          49.500
 137744729.405 5                  26211950.004
        34.700
 113693377.672 7                  21253783.727    21253784.250
        45.800
 198906234.517 6                  37850605.671
        41.000
 202059714.585 7                  38450688.332
        42.500
 116244236.256 7  90579963.92447  22120545.871    22120545.4114   22120547.7434
        46.800          42.2004
 103060531.558 8  80158219.177 8  19293131.305    19293131.735    19293138.067
        51.600          48.700
                  90022767.905 7                                  21659829.489
                        46.900
 131860775.246 6                  25092259.390
        41.100
 123577881.307 7                  23516072.371
        47.600
 117893067.650 7                  22031098.741    22031097.598
        43.600
 25  1  1  1  9 15.0000000  0 22G06G14G19G12G11E27G24E34S35R13E15R22
                                E36R23S31S33G17R12R11E02E30R21
 105952518.260 8  82560451.73549  20162079.914    20162079.6064   20162084.3854
        52.000          54.5004
 121087826.212 5  94354139.30842  23042250.615    23042250.5224   23042251.5664
        33.700          16.2004
 106662971.992 6  83114013.86543  20297289.624    20297288.7394   20297285.3854
        39.400          22.2004
 119481624.288 7  93102609.12345  22736581.093    22736580.5974   22736584.9864
        44.300          35.9004
 114295746.475 6  89061638.98144  21749758.000    21749757.8264   21749758.4144
        38.800          24.4004
 136285519.584 7                  25934255.526
        47.200
 122219624.097 6  95236090.75044  23257610.040    23257609.8264   23257616.8384
        39.200          28.9004
 122362276.314 8                  23284750.392
        48.400
 200841615.308 5                  38218886.550
        35.000
 114285955.794 7                  21402090.411    21402090.803
        42.600
 130571543.179 5                  24846934.545
        32.900
 104064061.427 8  80938767.703 7  19494692.408    19494693.354    19494696.429
        53.100          47.700
 137782632.170 4                  26219153.998
        26.700
 113659458.317 7                  21247442.821    21247441.795
        46.000
 198906237.726 6                  37850598.350
        39.900
 202059706.794 7                  38450690.711
        43.200
 116270939.890 7  90600771.95446  22125628.068    22125627.6084   22125629.1474
        46.800          41.0004
 103062074.013 8  80159418.895 7  19293420.000    19293420.879    19293426.406
        52.900          46.600
 115804354.522 6  90070048.084 7  21671204.041    21671203.869    21671206.191
        36.600          45.200
 131894173.942 7                  25098614.543
        44.800
 123575210.835 8                  23515564.484
        48.700


 25  1  1  1  9 30.0000000  0 23G03G06G14G19G12G11E27G24E34S35R13E15
                                R22E36R23S31S33G17R12R11E02E30R21


 105952550.250 8  82560476.66749  20162086.183    20162085.8754   20162090.6904
        52.300          54.4004
 121138511.825 6  94393634.50142  23051894.618    23051894.7744   23051897.2404
        38.600          16.2004
 106671064.434 5  83120319.64543  20298830.256    20298829.4114   20298826.3874
        34.700          22.6004
 119434803.690 7  93066125.58346  22727670.156    22727669.6424   22727675.7834
        44.600          36.0004
 114260055.344 6  89033827.81243  21742964.662    21742964.5284   21742966.5074
        40.100          22.4004
 136249930.049 7                  25927483.344
        45.600
 122243983.124 6  95255071.81545  23262245.635    23262245.4434   23262252.1274
        36.600          30.6004
 122368725.585 7                  23285977.668
        47.700


 114237526.159 6                  21393020.618    21393021.342
        38.700
 130540474.723 6                  24841021.973
        37.400
 104072596.159 8  80945405.831 7  19496291.174    19496291.597    19496294.336
        51.100          44.000
 137820562.936 5                  26226373.047
        31.500
 113625636.237 6                  21241119.498    21241118.067
        39.500
 198906244.708 7                  37850605.393
        44.200
 202059702.161 7                  38450697.141
        45.100
 116297674.647 7  90621604.22546  22130715.306    22130714.8374   22130716.5394
        44.200          40.4004
 103063820.678 8  80160777.397 7  19293748.155    19293748.341    19293751.998
        52.800          45.800
                  90117397.362 7                                  21682597.855
                        44.100
 131927634.172 7                  25104982.095
        44.000
 123572626.373 8                  23515072.274
        48.800
 117988711.262 7                  22048958.440    22048959.253
        42.700
 25  1  1  1  9 45.0000000  0 23G06G14G19G12G11G20E27G24E34S35R13E15
                                R22E36R23S31S33G17R12R11E02E30R21
 105952707.527 8  82560599.25249  20162115.952    20162115.6394   20162120.3244
        52.100          54.4004
 121189254.590 6  94433174.26442  23061550.856    23061551.1644   23061553.1234
        40.200          17.6004
 106679222.151 5  83126676.34044  20300383.692    20300382.9194   20300380.3964
        34.900          27.6004
 119388041.697 6  93029687.75945  22718771.804    22718771.2414   22718775.8374
        37.800          34.7004
 114224458.667 4  89006090.22243  21736193.000    21736192.8714   21736192.3164
        28.700          19.2004
 126722297.598 4                  24114466.422
        26.900
 136214372.532 7                  25920716.273
        46.200
 122268453.027 6  95274139.26744  23266899.886    23266899.7794   23266909.4114
        36.000          27.3004
 122375258.195 8                  23287220.789
        48.200
 200841718.547 5                  38218912.159
        35.700
 114189218.291 6                  21383974.902    21383974.248
        40.400
 130509473.665 6                  24835122.915
        38.700
 104081237.765 8  80952127.102 7  19497909.574    19497910.110    19497912.867
        49.600          44.000
 137858518.803 4                  26233598.204
        29.200
 113591908.726 7                  21234817.413    21234816.669
        45.400
 198906252.120 6                  37850599.933
        40.800
 202059700.106 7                  38450684.464
        43.900
 116324437.898 7  90642458.71646  22135808.203    22135807.7434   22135810.0084
        45.100          39.5004
 103065768.567 8  80162292.478 7  19294111.907    19294112.420    19294117.938
        52.200          47.400
 115926340.313 5  90164813.377 7  21694000.180    21693996.673    21694006.141
        34.800          45.400
 131961153.126 7                  25111361.012
        43.300
 123570125.317 8                  23514596.511
        48.600
 118036554.247 6                  22057897.855    22057899.239
        41.200
 25  1  1  1 10  0.0000000  0 22G06G14G19G12G11E27G24E34S35R13E15R22
                                E36R23S31S33G17R12R11E02E30R21
 105952988.622 8  82560818.32049  20162169.531    20162169.2234   20162173.3084
        51.500          54.1004
 121240052.825 6  94472757.19542  23071215.943    23071216.2294   23071219.9534
        39.200          15.0004
 106687443.676 6  83133082.73644  20301947.042    20301946.2244   20301945.9514
        39.500          27.1004
 119341337.557 6  92993295.01645  22709884.887    22709884.3114   22709887.5164
        37.400          33.7004
 114188954.836 5  88978424.95942  21729434.210    21729434.0414   21729436.4194
        31.600          17.6004
 136178845.860 7                  25913955.743
        43.800


 122381872.685 7                  23288478.881
        47.500
 200841759.244 6                  38218911.077
        36.200
 114141031.627 6                  21374949.499    21374950.044
        40.300
 130478538.595 5                  24829235.186
        35.100
 104089984.621 8  80958930.232 7  19499549.333    19499549.961    19499552.298
        50.800          45.700
 137896498.269 5                  26240824.239
        31.000
 113558273.808 7                  21228528.175    21228528.218
        44.500
 198906259.502 6                  37850602.035
        41.600
 202059696.974 7                  38450688.918
        44.100
 116351228.226 7  90663334.29646  22140905.028    22140904.5374   22140908.2304
        45.700          40.1004
 103067916.682 8  80163963.238 8  19294514.224    19294514.562    19294520.388
        52.100          48.000
 115987387.716 6  90212294.625 7  21705423.808    21705424.781    21705430.828
        39.700          44.400
 131994729.405 7                  25117750.313
        43.600
 123567706.420 8                  23514136.265
        49.500
 118084408.724 6                  22066842.473    22066843.977
        41.100
 25  1  1  1 10 15.0000000  0 21G06G14G19G12G11E27G24E34S35R13E15R22
                                E36R23S31S33G17R12R11E02E30
 105953389.025 8  82561130.34049  20162245.334    20162245.0354   20162249.2274
        51.200          54.2004
 121290902.014 6  94512379.90742  23080893.524    23080893.7834   23080896.4774
        40.600          15.4004
 106695724.767 6  83139535.52345  20303522.611    20303521.7484   20303522.4224
        41.600          32.0004
 119294686.890 7  92956943.93645  22701008.802    22701008.2084   22701010.3714
        43.700          35.0004
 114153539.843 5  88950828.93943  21722696.391    21722696.2844   21722697.5224
        34.700          22.1004
 136143345.798 7                  25907200.850
        45.200


 122388564.484 7                  23289752.652
        47.600


 114092962.032 6                  21365945.977    21365945.533
        37.300
 130447665.085 6                  24823361.126
        40.400
 104098831.973 8  80965811.530 7  19501206.238    19501206.809    19501210.657
        50.600          47.300
 137934496.721 5                  26248055.493
        34.100
 113524727.477 7                  21222255.691    21222256.499
        44.200
 198906262.316 6                  37850602.500
        40.900
 202059688.186 7                  38450688.162
        46.300
 116378041.309 7  90684227.61046  22146007.927    22146007.4404   22146010.6384
        44.000          40.2004
 103070260.516 8  80165786.274 8  19294952.962    19294952.808    19294959.730
        50.600          48.500
 116048514.100 7  90259837.346 7  21716865.607    21716865.244    21716868.027
        45.000          43.300
 132028358.537 7                  25124149.760
        43.300
 123565365.403 8                  23513690.713
        50.100
 25  1  1  1 10 30.0000000  0 23G03G06G14G19G12G11E27G24E34S35R13E15
                                R22E36R23S31S33G17R12R11E02E30R21


 105953914.833 8  82561540.07549  20162345.742    20162345.4524   20162349.4944
        51.000          54.3004
 121341808.083 6  94552046.95542  23090582.527    23090582.7374   23090583.3444
        41.300          16.4004
 106704071.466 7  83146039.42845  20305111.448    20305110.5594   20305110.7074
        42.200          34.3004
 119248096.456 7  92920639.74746  22692141.899    22692141.3004   22692144.6864
        46.600          37.2004
 114118220.022 6  88923307.05143  21715975.543    21715975.4414   21715976.9154
        39.400          23.4004
 136107878.781 7                  25900451.549
        44.700


 122395339.740 7                  23291042.229
        47.800


 114045016.200 6                  21356969.920    21356968.657
        38.700
 130416859.590 6                  24817497.592
        40.000
 104107785.950 8  80972775.782 8  19502882.643    19502883.265    19502888.669
        50.500          49.100
 137972520.316 5                  26255290.397
        34.200
 113491275.993 7                  21216001.710    21216001.012
        42.200
 198906266.537 6                  37850609.127
        40.000
 202059682.582 7                  38450689.056
        43.100
 116404883.396 7  90705143.52646  22151117.091    22151116.6184   22151117.8664
        45.000          39.1004
 103072806.361 8  80167766.390 8  19295429.555    19295429.993    19295436.360
        51.200          48.400
 116109725.246 7  90307446.016 7  21728319.712    21728320.137    21728322.902
        44.900          42.300
 132062046.674 7                  25130560.100
        42.200
 123563108.595 8                  23513261.096
        49.400
 118180144.075 7                  22084734.188    22084736.142
        44.000
 25  1  1  1 10 45.0000000  0 22G03G06G14G19G12G11E27G24E34S35R13E15
                                R22E36R23S31S33G17R12R11E02E30


 105954566.355 8  82562047.77649  20162469.671    20162469.3854   20162473.2694
        51.100          54.1004
 121392771.326 6  94591758.51442  23100279.494    23100279.6994   23100281.7484
        41.500          15.0004
 106712484.406 7  83152595.00145  20306712.122    20306711.2334   20306711.4984
        45.200          35.7004
 119201566.903 7  92884383.05946  22683287.112    22683286.5184   22683290.7754
        47.300          38.3004
 114082995.939 6  88895859.76743  21709273.707    21709273.6584   21709274.1184
        39.800          23.0004
 136072445.473 7                  25893708.840
        43.400
 122367376.549 6  95351207.33944  23285734.448    23285734.6404   23285737.9434
        37.700          26.9004
 122402198.768 7                  23292346.986
        47.700
 200841890.930 6                  38218938.989
        36.800
 113997195.337 7                  21348014.005    21348014.260
        42.000
 130386122.512 6                  24811649.609
        36.500
 104116846.831 8  80979823.097 8  19504581.433    19504581.462    19504585.874
        50.600          49.500
 138010569.119 5                  26262534.713
        31.000
 113457919.891 6                  21209767.293    21209764.257
        38.900
 198906272.262 6                  37850607.701
        39.700
 202059678.504 7                  38450685.300
        44.300
 116431754.939 7  90726082.38246  22156230.279    22156229.7924   22156231.3094
        44.500          38.2004
 103075554.768 8  80169904.051 7  19295943.965    19295944.055    19295950.145
        51.000          47.600
 116171021.389 7  90355120.682 6  21739791.346    21739792.044    21739793.070
        44.100          40.800
 132095794.209 7                  25136981.475
        42.600
 123560936.576 8                  23512847.763
        49.800
 25  1  1  1 11  0.0000000  0 23G03G06G14G19G12G11E27G24E34S35R13E15
                                R22E36R23S31S33G17R12R11E02E30R21


 105955340.672 8  82562651.17048  20162616.797    20162616.5074   20162620.4484
        52.400          53.7004
 121443788.621 6  94631512.20142  23109985.823    23109985.9614   23109990.1284
        39.800          12.5004
 106720960.671 7  83159199.91845  20308324.562    20308323.6554   20308324.5474
        43.300          35.5004
 119155095.807 8  92848171.89746  22674443.710    22674443.1114   22674445.8474
        48.100          36.9004
 114047864.851 6  88868484.92144  21702587.008    21702586.9464   21702587.3794
        40.600          24.1004
 136037043.206 7                  25886971.752
        44.300
 122392388.113 6  95370696.81943  23290489.797    23290489.7534   23290494.3144
        36.100          22.2004
 122409138.625 8                  23293667.511
        48.900
 200841929.084 5                  38218951.993
        32.900
 113949496.872 7                  21339081.113    21339082.355
        43.000
 130355451.221 6                  24805811.721
        38.600
 104126011.392 8  80986951.105 8  19506298.097    19506298.172    19506302.445
        51.000          50.300
 138048640.298 5                  26269774.755
        31.400
 113424656.596 7                  21203549.421    21203548.688
        42.100
 198906278.110 7                  37850612.789
        42.800
 202059672.514 7                  38450679.143
        44.500
 116458653.207 7  90747042.06246  22161349.308    22161348.8124   22161350.3604
        45.700          39.8004
 103078503.018 8  80172197.168 7  19296495.548    19296496.077    19296501.152
        50.500          46.000
 116232399.038 6  90402858.811 7  21751275.720    21751275.958    21751280.543
        38.700          42.800
 132129598.254 6                  25143414.921
        40.100
 123558846.576 8                  23512449.673
        48.000
 118275928.571 6  91992201.637 5  22102632.365    22102634.294    22102639.809
        41.800          35.200
 25  1  1  1 11 15.0000000  0 23G03G06G14G19G12G11E27G24E34S35R13E15
                                R22E36R23S31S33G17R12R11E02E30R21


 105956239.655 8  82563351.68449  20162787.976    20162787.6774   20162791.5954
        51.700          54.1004
 121494861.875 6  94671309.46442  23119703.825    23119704.0174   23119709.3474
        37.500          12.0004
 106729502.310 7  83165855.73546  20309950.209    20309949.3064   20309950.2594
        46.100          37.4004
 119108685.453 7  92812008.06846  22665612.861    22665612.2764   22665613.0294
        46.800          37.2004
 114012828.947 6  88841184.26644  21695919.688    21695919.6214   21695920.0294
        41.300          25.1004
 136001674.205 7                  25880240.975
        46.000
 122417508.843 5  95390271.42243  23295272.955    23295272.8394   23295273.8084
        30.900          22.9004
 122416161.186 8                  23295003.303
        48.400


 113901923.579 7                  21330173.564    21330173.268
        43.800
 130324847.699 5                  24799988.145
        30.200
 104135281.500 8  80994161.199 8  19508034.852    19508035.397    19508039.424
        52.200          49.800
 138086735.690 5                  26277024.283
        31.700
 113391487.532 7                  21197351.333    21197351.918
        46.800
 198906284.735 6                  37850608.506
        41.300
 202059668.915 7                  38450683.154
        45.700
 116485580.009 7  90768023.97446  22166472.141    22166471.6094   22166473.9904
        44.000          36.6004
 103081653.126 8  80174647.233 7  19297084.554    19297084.386    19297090.011
        50.300          45.200
                  90450661.643 7                                  21762782.540
                        44.000
 132163460.695 6                  25149858.829
        40.700
 123556840.784 7                  23512067.546
        47.600
 118323837.334 6  92029464.070 6  22111585.619    22111585.369    22111593.956
        36.300          36.800
 25  1  1  1 11 30.0000000  0 24G03G06G14G19G12G11G20E27G24E34S35R13
                                E15R22E36R23S31S33G17R12R11E02E30R21


 105957260.924 8  82564147.52348  20162982.323    20162982.0284   20162986.0484
        50.800          52.2004
 121545988.502 6  94711148.46641  23129432.585    23129432.7374   23129438.5344
        38.400           6.4004
 106738107.056 7  83172560.77145  20311587.698    20311586.8004   20311587.3824
        45.400          35.0004
 119062333.850 8  92775890.02846  22656792.445    22656791.8514   22656792.5794
        49.100          40.1004
 113977886.169 7  88813956.16644  21689269.870    21689269.8214   21689270.7944
        42.000          26.5004
 126341084.286 5                  24041910.713
        30.800
 135966336.444 7                  25873516.159
        45.500


 122423264.066 8                  23296355.620
        48.800


 113854473.329 6                  21321287.066    21321286.026
        41.900
 130294309.627 5                  24794174.810
        34.400
 104144654.554 8  81001451.439 8  19509789.821    19509789.878    19509794.813
        50.200          48.500


 113358410.773 7                  21191166.063    21191165.701
        44.300
 198906289.941 7                  37850614.560
        44.400
 202059662.872 6                  38450677.850
        38.900
 116512533.173 7  90789026.43346  22171600.813    22171600.2774   22171601.9354
        46.600          37.2004
 103085002.891 8  80177252.621 7  19297711.949    19297711.929    19297718.686
        50.200          47.000
                  90498527.085 6                                  21774297.719
                        39.700
 132197379.239 6                  25156312.262
        37.600
 123554917.002 8                  23511702.361
        49.200
 118371755.566 6  92066733.997 5  22120542.046    22120536.144    22120549.512
        40.800          35.700
 25  1  1  1 11 45.0000000  0 23G03G06G14G19G12G11E27G24E34S35R13E15
                                R22E36R23S31S33G17R12R11E02E30R21


 105958405.784 8  82565039.63648  20163200.541    20163200.2514   20163203.7984
        51.900          51.8004


 106746776.372 7  83179316.08245  20313237.248    20313236.3364   20313236.8434
        44.000          35.3004
 119016042.968 7  92739819.32246  22647983.199    22647982.5824   22647983.9974
        44.800          37.9004
 113943037.912 6  88786801.73044  21682638.867    21682638.7834   21682639.9184
        41.900          24.5004
 135931031.364 6                  25866797.719
        41.800
 122468065.867 6  95429670.47844  23304895.024    23304894.9844   23304900.5724
        39.200          28.6004
 122430448.609 8                  23297723.256
        50.700
 200841911.466 4                  38218951.058
        28.900
 113807148.389 7                  21312424.336    21312423.775
        42.500
 130263848.103 4                  24788377.177
        29.300
 104154131.908 8  81008822.679 8  19511564.789    19511565.220    19511570.267
        52.000          50.800


 113325427.915 8                  21185001.384    21185001.600
        48.200
 198906295.839 6                  37850603.533
        37.400
 202059658.223 6                  38450679.491
        40.000
 116539514.094 7  90810050.51346  22176735.792    22176735.2474   22176736.4044
        44.700          39.3004
 103088553.827 8  80180014.455 7  19298377.097    19298377.754    19298383.482
        52.000          45.300


 132231355.266 6                  25162777.516
        41.600
 123553076.809 8                  23511352.132
        49.100
 118419684.386 6  92104011.840 5  22129498.190    22129497.088    22129505.756
        41.800          35.600
 25  1  1  1 12  0.0000000  0 24G03G06G14G19G12G11G20E27G24E34S35R13
                                E15R22E36R23S31S33G17R12R11E02E30R21


 105959672.738 8  82566026.91048  20163441.394    20163441.1084   20163444.5234
        51.900          52.2004


 106755509.079 7  83186120.82846  20314899.638    20314898.6864   20314898.0024
        42.500          36.0004
 118969811.916 7  92703795.18746  22639185.878    22639185.2614   22639186.1024
        46.400          39.3004
 113908283.086 6  88759720.08843  21676025.311    21676025.2274   21676027.5474
        40.800          23.1004
 126232310.288 5                  24021199.068
        34.600
 135895758.056 8                  25860085.432
        48.100
 122493506.607 5  95449494.36244  23309734.826    23309734.5764   23309742.7934
        34.200          28.6004
 122437713.272 8                  23299104.980
        49.000


 113759947.926 7                  21303587.541    21303585.707
        42.600
 130233441.830 5                  24782593.495
        32.100
 104163711.803 8  81016273.761 8  19513359.631    19513358.524    19513364.398
        48.000          49.000


 113292537.419 7                  21178850.413    21178851.045
        46.900
 198906300.991 7                  37850608.032
        42.100
 202059652.756 7                  38450684.929
        42.400
 116566521.445 7  90831095.17346  22181874.443    22181873.9114   22181874.4774
        45.700          36.9004
 103092304.600 8  80182931.758 7  19299078.879    19299079.132    19299085.808
        50.800          46.400
                  90594446.492 7                                  21797378.004
                        43.000
 132265387.430 6                  25169253.956
        41.800
 123551318.955 7                  23511017.265
        47.900
 118467622.229 5  92141296.644 6  22138455.096    22138452.246    22138465.465
        33.500          38.600
 25  1  1  1 12 15.0000000  0 23G03G06G14G19G12G11E27G24E34S35R13E15
                                R22E36R23S31S33G17R12R11E02E30R21


 105961063.826 8  82567110.89948  20163705.910    20163705.6294   20163709.2354
        49.600          52.5004


 106764307.094 7  83192976.49145  20316575.112    20316574.1114   20316571.8734
        43.900          35.3004
 118923642.797 8  92667819.33246  22630400.808    22630400.2094   22630400.0704
        48.200          40.1004
 113873623.900 7  88732713.00643  21669431.063    21669430.9254   21669432.7314
        42.700          23.6004
 135860518.737 7                  25853379.559
        46.200
 122519055.400 6  95469402.54244  23314598.171    23314597.9434   23314605.3434
        36.200          29.4004
 122445060.147 8                  23300503.371
        48.900
 200842061.068 6                  38218964.044
        37.800
 113712874.126 6                  21294769.535    21294768.987
        40.900
 130203105.144 6                  24776819.447
        41.300
 104173396.282 8  81023806.129 8  19515174.499    19515174.276    19515178.298
        50.700          48.200
 138239292.284 5                  26306062.394
        33.200
 113259741.466 8                  21172721.126    21172721.143
        48.600
 198906306.865 6                  37850608.935
        40.600
 202059648.051 7                  38450672.565
        42.100
 116593557.302 7  90852162.07146  22187019.802    22187019.2704   22187020.1254
        44.700          39.8004
 103096257.317 8  80186006.095 7  19299818.548    19299818.748    19299824.619
        51.400          45.600
                  90642500.469 7                                  21808940.582
                        45.300
 132299477.641 6                  25175741.931
        40.500
 123549645.646 8                  23510698.983
        48.600


 25  1  1  1 12 30.0000000  0 22G06G14G19G12G11E27G24E34S35R13E15R22
                                E36R23S31S33G17R12R11E02E30R21
 105962578.759 8  82568291.39148  20163994.202    20163993.9124   20163997.9494
        50.400          52.4004


 106773170.230 7  83199882.82445  20318260.676    20318259.6394   20318258.1714
        43.500          34.0004
 118877535.894 7  92631891.91746  22621626.240    22621625.6194   22621626.7024
        46.000          38.6004
 113839060.572 6  88705780.62844  21662852.988    21662852.7964   21662854.9924
        41.600          24.9004
 135825313.441 7                  25846680.250
        46.400
 122544711.360 7  95489394.20445  23319478.804    23319478.6614   23319488.1094
        42.600          30.9004
 122452488.916 8                  23301917.101
        49.600
 200842101.498 6                  38218985.060
        40.000
 113665928.121 7                  21285979.261    21285978.877
        43.800
 130172836.273 6                  24771060.140
        40.100
 104183184.911 9  81031419.503 8  19517008.871    19517009.568    19517011.641
        54.300          48.200
 138277500.358 6                  26313333.771
        36.100
 113227039.854 7                  21166607.794    21166607.782
        46.600
 198906313.817 6                  37850618.907
        40.800
 202059645.376 6                  38450681.928
        39.900
 116620621.810 7  90873251.30446  22192170.571    22192170.0484   22192170.9294
        45.100          39.5004
 103100412.094 8  80189237.598 7  19300597.456    19300597.436    19300602.538
        50.800          46.000


 132333625.762 6                  25182239.959
        41.000
 123548056.901 8                  23510396.577
        48.400
 118563236.583 5  92215891.205 5  22156376.865    22156375.090    22156387.326
        34.300          33.700
 25  1  1  1 12 45.0000000  0 23G06G14G19G12G11G20E27G24E34S35R13E15
                                R22E36R23S31S33G17R12R11E02E30R21
 105964214.692 8  82569566.15548  20164305.345    20164305.0594   20164309.3044
        49.900          52.4004


 106782095.891 7  83206837.92446  20319959.097    20319958.0154   20319957.4864
        46.900          37.3004
 118831489.007 7  92596011.30646  22612863.521    22612862.8784   22612865.3634
        46.900          40.4004
 113804590.043 7  88678920.55044  21656294.056    21656293.8604   21656294.7374
        44.500          25.4004
 126069051.496 4                  23990143.894
        28.000
 135790139.672 7                  25839986.828
        46.500
 122570471.745 6  95509467.34244  23324381.816    23324381.6154   23324388.9584
        40.600          28.6004
 122459996.785 8                  23303345.789
        48.200


 113619106.989 7                  21277210.814    21277209.283
        42.200
 130142632.759 6                  24765311.034
        40.100
 104193074.633 8  81039111.528 8  19518860.620    19518861.026    19518865.053
        53.300          49.600
 138315728.734 6                  26320608.005
        37.100
 113194430.019 7                  21160510.939    21160510.743
        46.400
 198906319.676 6                  37850624.773
        40.100
 202059639.630 7                  38450678.069
        43.000
 116647712.352 8  90894360.75446  22197324.789    22197324.2804   22197326.0844
        48.100          40.5004
 103104766.134 8  80192624.100 7  19301412.364    19301411.938    19301418.037
        51.100          46.700
                  90738794.330 7                  21832099.320    21832109.507
                        43.900
 132367829.037 6                  25188747.593
        40.900
 123546550.063 8                  23510110.265
        49.600
 118611203.246 5                  22165342.798    22165341.834
        34.600
 25  1  1  1 13  0.0000000  0 24G03G06G14G19G12G11G20E27G24E34S35R13
                                E15R22E36R23S31S33G17R12R11E02E30R21


 105965972.829 8  82570936.15048  20164639.583    20164639.2974   20164643.7864
        49.400          51.4004
 121853889.422 5                  23188024.833
        34.300
 106791085.591 7  83213842.87846  20321669.248    20321668.1664   20321668.7414
        45.900          37.1004
 118785503.531 7  92560178.54946  22604113.168    22604112.5164   22604115.1534
        45.700          40.1004
 113770214.105 6  88652134.13344  21649752.128    21649751.9544   21649752.0604
        41.800          24.2004
 126014640.608 5                  23979793.212
        33.000
 135754998.889 7                  25833299.626
        44.900
 122596337.460 6  95529622.39043  23329303.217    23329303.0574   23329310.1224
        36.000          22.9004
 122467584.939 8                  23304789.657
        49.100


 113572413.027 7                  21268468.043    21268466.818
        43.500
 130112495.906 5                  24759576.882
        32.800
 104203066.683 8  81046883.147 8  19520733.354    19520733.683    19520736.896
        53.400          48.500
 138353978.634 5                  26327885.802
        35.400
 113161913.256 8                  21154431.712    21154432.220
        48.300
 198906324.776 6                  37850622.314
        41.600
 202059633.887 6                  38450674.112
        40.800
 116674830.057 7  90915491.42846  22202485.377    22202484.8814   22202486.2204
        47.600          40.1004
 103109320.753 8  80196166.609 7  19302264.356    19302264.269    19302271.451
        49.900          47.900
 116726257.594 6  90787032.285 7  21843710.034    21843711.292    21843714.602
        41.300          43.300
 132402088.658 7                  25195268.361
        43.300
 123545126.638 8                  23509839.288
        48.700
 118659178.395 5                  22174308.523    22174306.096
        33.600
 25  1  1  1 13 15.0000000  0 23G03G06G14G19G12G11E27G24E34S35R13E15
                                R22E36R23S31S33G17R12R11E02E30R21
 125298877.195 5                  23843585.506
        34.600
 105967854.402 8  82572402.30748  20164998.137    20164997.8514   20165001.6054
        50.700          52.6004


 106800140.525 7  83220898.68445  20323392.740    20323391.6454   20323391.4154
        45.400          35.2004
 118739581.302 7  92524395.04347  22595374.551    22595373.8944   22595377.6254
        47.900          42.2004
 113735934.311 7  88625422.66144  21643229.339    21643229.1654   21643229.1934
        46.200          29.1004
 135719892.788 7                  25826618.728
        43.000
 122622309.537 6  95549860.46644  23334246.151    23334246.0044   23334248.8054
        39.300          26.6004
 122475254.619 8                  23306249.254
        49.800
 200842228.649 6                  38219010.209
        38.600
 113525847.828 7                  21259748.052    21259746.944
        43.600
 130082427.336 5                  24753856.035
        35.400
 104213162.119 8  81054735.187 8  19522624.802    19522625.099    19522627.767
        52.800          48.500
 138392251.038 5                  26335169.143
        34.200
 113129490.978 8                  21148371.300    21148371.768
        48.100
 198906330.776 7                  37850621.285
        44.000
 202059629.177 6                  38450669.484
        40.900
 116701976.081 7  90936644.15346  22207651.024    22207650.5284   22207651.5524
        47.500          41.0004
 103114077.494 8  80199866.295 7  19303154.155    19303154.346    19303161.930
        48.500          47.800
 116788357.465 6  90835332.066 7  21855331.456    21855329.582    21855335.102
        38.100          42.700
 132436405.943 6                  25201798.668
        40.100
 123543788.047 8                  23509584.787
        48.300
 118707163.451 6                  22183271.135    22183274.373
        37.000
 25  1  1  1 13 30.0000000  0 24G03G06G14G19G12G11G20E27G24E34S35R13
                                E15R22E36R23S31S33G17R12R11E02E30R21
 125332944.201 5  97662044.13341  23850065.688    23850065.7234   23850069.7704
        33.100          11.4004
 105969860.654 8  82573965.64248  20165380.145    20165379.8554   20165382.7264
        51.400          52.1004


 106809262.047 7  83228006.35645  20325128.022    20325126.9314   20325126.0564
        46.400          33.7004
 118693723.983 7  92488662.12246  22586647.407    22586646.7554   22586651.0484
        47.500          41.1004
 113701751.979 7  88598787.12244  21636724.526    21636724.3434   21636725.0304
        44.300          29.0004
 125906034.659 5                  23959100.434
        32.800
 135684822.866 6                  25819945.177
        41.400
 122648389.088 6  95570182.32243  23339207.547    23339207.4404   23339209.1454
        38.700          21.6004
 122483007.037 8                  23307724.232
        49.900


 113479413.618 6                  21251050.002    21251051.498
        41.900
 130052428.240 6                  24748146.550
        38.700
 104223362.142 8  81062668.548 8  19524535.358    19524536.007    19524538.603
        52.500          48.200
 138430547.189 5                  26342458.512
        35.800
 113097164.434 7                  21142329.201    21142330.002
        47.600
 198906339.939 6                  37850622.381
        41.600
 202059628.029 7                  38450677.761
        46.600
 116729152.034 7  90957820.21346  22212822.683    22212822.2144   22212823.6684
        45.400          41.8004
 103119037.587 8  80203724.156 7  19304083.336    19304083.406    19304090.256
        49.000          47.300


 132470782.233 6                  25208340.488
        41.300
 123542535.798 8                  23509346.644
        48.300


 25  1  1  1 13 45.0000000  0 23G06G14G19G12G11G20E27G24E34S35R13E15
                                R22E36R23S31S33G17R12R11E02E30R21
 105971985.712 8  82575621.53948  20165784.582    20165784.2924   20165786.8584
        53.000          53.7004
 122008545.012 5                  23217466.520
        34.100
 106818444.511 7  83235161.56445  20326875.214    20326874.1194   20326873.0974
        45.600          31.7004
 118647926.122 7  92452975.54646  22577931.770    22577931.1444   22577936.2044
        45.000          41.3004
 113667661.507 7  88572223.17044  21630236.853    21630236.6844   21630238.4324
        44.600          28.0004
 125851682.832 6                  23948759.909
        39.400
 135649783.532 7                  25813278.387
        45.200
 122674570.023 6  95590583.00743  23344190.213    23344190.1604   23344190.4344
        40.000          23.4004
 122490836.384 8                  23309214.385
        48.500
 200842285.984 6                  38219014.944
        40.100
 113433104.663 6                  21242378.984    21242377.490
        41.400
 130022493.033 6                  24742447.370
        36.000
 104233660.671 8  81070678.534 8  19526464.366    19526464.877    19526468.023
        53.000          49.100
 138468861.156 6                  26349747.870
        36.800
 113064928.375 7                  21136299.872    21136299.648
        44.500
 198906345.009 7                  37850623.660
        44.400
 202059622.881 7                  38450675.628
        43.700
 116756352.199 7  90979015.15746  22217998.430    22217997.9884   22218000.2464
        46.300          41.8004
 103124195.320 8  80207735.792 7  19305048.515    19305048.047    19305056.485
        48.000          47.600
                  90932114.182 7                  21878628.015    21878621.568
                        42.100
 132505211.619 6                  25214891.235
        41.700
 123541364.205 8                  23509123.588
        48.800
 118803160.653 6                  22201213.050    22201214.120
        37.700
 25  1  1  1 14  0.0000000  0 23G06G14G19G12G11G20E27G24E34S35R13E15
                                R22E36R23S31S33G17R12R11E02E30R21
 105974231.550 8  82577371.57649  20166211.431    20166211.1324   20166215.0204
        52.800          54.3004


 106827689.931 7  83242365.80545  20328635.061    20328633.9754   20328631.6524
        45.100          30.4004
 118602190.377 7  92417337.40546  22569230.410    22569229.7984   22569232.9694
        43.700          40.9004
 113633665.231 7  88545732.58144  21623767.076    21623766.8714   21623768.7544
        42.400          26.3004
 125797340.316 5                  23938416.424
        32.000
 135614777.220 6                  25806616.038
        41.500
 122700854.188 5  95611051.18743  23349187.684    23349187.8184   23349196.0584
        33.500          21.2004
 122498744.626 8                  23310719.449
        49.200


 113386924.043 7                  21233730.706    21233729.930
        42.300
 129992568.208 6                  24736764.850
        37.900
 104244059.611 8  81078766.650 8  19528411.911    19528412.170    19528416.756
        51.200          49.800
 138507195.072 6                  26357044.053
        37.900
 113032784.321 7                  21130291.652    21130290.248
        45.300
 198906349.575 6                  37850623.472
        39.700
 202059616.376 6                  38450678.906
        41.600
 116783578.545 7  91000230.47146  22223179.893    22223179.4374   22223180.8494
        46.700          41.6004
 103129552.897 8  80211902.813 7  19306052.651    19306051.819    19306058.320
        49.700          45.300


 132539696.250 6                  25221452.785
        39.500
 123540275.522 8                  23508916.285
        48.400
 118851168.426 5  92439840.249 5  22210188.540    22210189.056    22210193.006
        34.500          35.800
 25  1  1  1 14 15.0000000  0 23G03G06G14G19G12G11E27G24E34S35R13E15
                                R22E36R23S31S33G17R12R11E02E30R21


 105976599.783 8  82579216.96048  20166662.368    20166662.0734   20166666.3144
        51.900          53.7004
 122111912.122 5  95152167.64842  23237124.910    23237125.0214   23237131.7054
        31.800          12.0004
 106837000.378 7  83249620.66644  20330405.706    20330404.5984   20330402.4504
        42.800          26.9004
 118556518.784 7  92381749.22746  22560537.577    22560536.9654   22560540.9844
        44.800          39.5004
 113599765.018 7  88519316.92044  21617316.983    21617316.7874   21617317.6294
        42.900          27.2004
 135579805.716 7                  25799961.433
        43.300
 122727243.173 6  95631630.11744  23354214.516    23354214.7264   23354220.2664
        38.100          29.4004
 122506733.379 7                  23312239.360
        47.800
 200842364.948 5                  38219024.795
        35.400
 113340873.784 6                  21225106.273    21225105.369
        41.100
 129962767.195 6                  24731096.320
        38.300
 104254560.509 8  81086934.018 8  19530380.187    19530380.806    19530383.447
        53.800          49.100
 138545550.392 5                  26364342.199
        32.100
 113000734.292 8                  21124301.492    21124301.811
        48.900
 198906354.444 6                  37850614.609
        38.300
 202059610.290 7                  38450669.064
        42.700
 116810832.903 8  91021467.66547  22228366.431    22228365.9624   22228366.6034
        48.100          42.8004
 103135112.262 8  80216226.720 7  19307092.346    19307092.254    19307099.368
        48.700          47.900
 117037526.427 6  91029131.783 6  21901971.146    21901972.201    21901964.390
        37.600          41.800
 132574237.778 7                  25228025.135
        42.400
 123539271.685 8                  23508724.811
        48.800
 118899259.052 6                  22219166.738    22219167.381
        40.200
 25  1  1  1 14 30.0000000  0 24G03G06G14G19G12G11G20E27G24E34S35R13
                                E15R22E36R23S31S33G17R12R11E02E30R21


 105979089.343 8  82581156.89048  20167136.162    20167135.8634   20167140.0964
        51.000          52.8004
 122163673.809 5  95192501.44442  23246974.660    23246974.6474   23246983.1594
        34.400          13.2004
 106846374.650 6  83256925.28444  20332188.510    20332187.3704   20332187.1694
        37.100          24.4004
 118510910.520 7  92346210.42046  22551859.729    22551859.1484   22551861.0734
        45.300          40.0004
 113565959.952 7  88492975.38644  21610883.530    21610883.3474   21610884.0244
        47.500          28.5004
 125688578.934 5                  23917742.588
        31.500
 135544868.421 7                  25793312.736
        43.200
 122753735.410 6  95652273.43444  23359256.548    23359256.9454   23359257.7284
        41.600          27.7004
 122514801.579 8                  23313774.909
        49.600
 200842402.921 6                  38219047.981
        39.400
 113294953.550 6                  21216509.078    21216509.211
        36.400
 129933033.190 6                  24725437.762
        37.200
 104265162.097 8  81095179.769 8  19532366.668    19532366.989    19532368.843
        52.600          48.300
 138583925.930 6                  26371646.012
        36.700
 112968777.444 7                  21118326.859    21118326.493
        47.900
 198906359.156 7                  37850627.031
        43.300
 202059605.294 7                  38450675.042
        43.300
 116838114.257 7  91042725.86447  22233557.659    22233557.2034   22233557.6874
        47.200          42.1004
 103140872.255 8  80220706.714 8  19308170.766    19308171.507    19308177.588
        48.900          48.300
 117100009.205 6  91077729.335 6  21913654.956    21913652.669    21913656.619
        37.200          40.500
 132608835.102 7                  25234609.743
        42.300
 123538351.727 8                  23508549.677
        48.800


 25  1  1  1 14 45.0000000  0 24G03G06G14G19G12G11G20E27G24E34S35R13
                                E15R22E36R23S31S33G17R12R11E02E30R21


 105981699.402 8  82583190.73248  20167632.528    20167632.2294   20167636.3574
        51.600          51.7004
 122215486.137 5  95232874.79541  23256834.405    23256834.2624   23256843.5034
        33.000           9.5004
 106855812.278 5  83264279.28844  20333985.128    20333983.9354   20333984.4704
        34.300          24.3004
 118465365.242 7  92310720.66746  22543192.091    22543191.5334   22543193.3744
        46.400          41.3004
 113532249.621 7  88466707.65744  21604468.614    21604468.4314   21604468.6414
        45.500          27.5004
 125634285.121 5                  23907408.202
        32.400
 135509964.762 7                  25786671.509
        43.400
 122780330.116 6  95672996.59344  23364319.207    23364319.7254   23364317.0024
        39.500          26.4004
 122522948.420 8                  23315324.710
        48.700
 200842440.117 6                  38219062.768
        38.200
 113249163.072 5                  21207930.062    21207932.322
        33.400
 129903365.755 6                  24719792.148
        36.200
 104275863.555 8  81103503.187 8  19534370.648    19534371.600    19534373.646
        51.600          48.100
 138622320.953 6                  26378950.527
        36.800
 112936912.734 7                  21112370.157    21112369.595
        47.500
 198906362.911 7                  37850625.900
        42.000
 202059597.429 7                  38450669.627
        42.700
 116865422.045 7  91064004.68046  22238754.270    22238753.8104   22238753.3064
        46.100          40.6004
 103146832.298 7  80225342.354 8  19309283.611    19309284.588    19309293.168
        47.000          48.400
 117162566.436 6  91126384.877 6  21925359.327    21925358.899    21925363.595
        41.700          40.500
 132643487.618 7                  25241205.299
        42.700
 123537515.132 8                  23508390.531
        48.600
 118995313.122 5  92551898.023 5  22237112.912    22237112.623    22237114.020
        35.600          32.700
 25  1  1  1 15  0.0000000  0 23G03G06G14G19G12G11E27G24E34S35R13E15
                                R22E36R23S31S33G17R12R11E02E30R21
 125539830.260 6                  23889437.597
        38.000
 105984431.871 8  82585319.93748  20168152.232    20168151.9284   20168155.5124
        51.100          51.0004


 106865315.119 6  83271684.08944  20335794.448    20335793.1884   20335794.3424
        39.500          27.1004
 118419885.415 7  92275281.93846  22534537.196    22534536.6424   22534538.7854
        47.600          41.4004
 113498636.054 7  88440515.28344  21598072.155    21598071.9774   21598071.3594
        43.400          25.0004
 135475096.992 7                  25780036.661
        45.600
 122807028.861 6  95693800.84844  23369392.954    23369393.3294   23369400.4364
        37.400          28.0004
 122531175.809 8                  23316890.387
        48.900


 113203504.798 5                  21199374.045    21199373.650
        30.400
 129873766.829 6                  24714159.348
        36.200
 104286666.636 8  81111905.593 8  19536393.524    19536394.660    19536397.789
        51.200          48.800
 138660737.297 6                  26386261.097
        36.900
 112905142.542 7                  21106430.214    21106429.751
        47.500
 198906367.397 6                  37850625.466
        41.400
 202059591.383 7                  38450673.522
        45.900
 116892758.361 7  91085305.71746  22243955.595    22243955.1044   22243954.5544
        46.000          40.7004
 103152994.407 7  80230135.085 8  19310439.102    19310439.241    19310446.534
        47.500          48.600
 117225199.644 5  91175099.664 6  21937077.600    21937076.267    21937084.357
        31.500          39.200
 132678197.147 7                  25247809.972
        43.000
 123536764.042 8                  23508247.683
        49.000
 119043351.592 6  92589261.251 5  22246085.253    22246085.417    22246098.109
        39.200          35.600
 25  1  1  1 15 15.0000000  0 24G03G06G14G19G12G11G20E27G24E34S35R13
                                E15R22E36R23S31S33G17R12R11E02E30R21
 125574728.204 5  97850436.16942  23896076.192    23896076.4114   23896077.0654
        35.200          15.3004
 105987285.347 8  82587543.44348  20168695.268    20168694.9734   20168697.5364
        50.600          49.7004


 106874881.989 7  83279138.81545  20337614.717    20337613.4614   20337615.5534
        43.800          31.1004
 118374470.121 7  92239893.48146  22525894.360    22525893.8064   22525896.0114
        47.100          41.2004
 113465118.167 6  88414397.44843  21591693.678    21591693.5264   21591691.6014
        41.200          21.2004
 125525708.464 5                  23886745.404
        32.600
 135440264.046 7                  25773407.936
        46.300
 122833830.280 6  95714685.10045  23374497.802    23374498.1864   23374503.7474
        38.900          31.2004
 122539482.373 8                  23318470.651
        48.100


 113157978.495 5                  21190853.078    21190852.347
        35.600
 129844235.203 6                  24708540.055
        39.100
 104297569.832 8  81120385.843 8  19538435.721    19538435.938    19538439.997
        50.600          48.300
 138699173.515 5                  26393573.514
        35.800
 112873465.703 8                  21100509.318    21100508.965
        48.600
 198906371.677 6                  37850618.969
        40.100
 202059585.053 7                  38450671.702
        45.700
 116920121.945 7  91106628.01346  22249162.897    22249162.4014   22249161.3924
        45.300          41.5004
 103159357.467 8  80235084.144 8  19311630.905    19311630.996    19311638.315
        48.900          49.000
 117287907.463 6  91223872.399 6  21948811.092    21948809.765    21948822.233
        36.700          39.800
 132712962.434 7                  25254425.638
        45.100
 123536097.277 8                  23508121.072
        50.200
 119091396.961 7  92626629.805 5  22255064.945    22255066.801    22255070.442
        42.100          30.900
 25  1  1  1 15 30.0000000  0 24G03G06G14G19G12G11G20E27G24E34S35R13
                                E15R22E36R23S31S33G17R12R11E02E30R21
 125609745.209 5  97877722.16942  23902739.100    23902739.1804   23902741.8444
        30.500          13.1004
 105990260.857 8  82589862.04848  20169261.390    20169261.0954   20169263.1874
        51.400          49.6004
 122371243.298 6  95354256.05941  23286473.756    23286473.6634   23286482.7954
        37.100           8.1004
 106884514.107 7  83286644.29745  20339447.436    20339446.1804   20339447.7874
        45.000          31.9004
 118329120.970 7  92204556.54046  22517264.419    22517263.8524   22517265.0374
        43.900          39.3004
 113431697.271 6  88388355.20143  21585334.470    21585334.2384   21585332.0014
        39.800          21.7004
 125471437.018 5                  23876417.326
        35.000
 135405467.325 7                  25766785.650
        44.500
 122860735.110 6  95735649.86945  23379616.809    23379617.1304   23379625.9954
        39.500          33.1004
 122547869.154 7                  23320066.273
        46.500


 113112585.141 6                  21182354.147    21182353.666
        38.900
 129814772.270 6                  24702931.381
        39.700
 104308574.063 8  81128944.716 8  19540497.215    19540497.790    19540502.430
        51.000          48.800
 138737630.659 4                  26400892.117
        28.900
 112841883.136 7                  21094604.795    21094604.348
        46.400
 198906377.520 7                  37850623.812
        42.300
 202059580.287 7                  38450670.231
        44.500
 116947514.134 7  91127972.59646  22254375.262    22254374.7574   22254375.2914
        44.000          41.5004
 103165922.495 8  80240190.299 8  19312860.072    19312860.701    19312866.804
        50.500          48.400
 117350690.483 6  91272703.583 6  21960561.552    21960563.652    21960569.637
        40.300          38.700
 132747784.544 7                  25261051.746
        42.400
 123535516.158 8                  23508010.145
        50.300
 119139449.858 6  92664004.104 5  22264045.691    22264046.163    22264051.356
        38.800          30.600
 25  1  1  1 15 45.0000000  0 24G03G06G14G19G12G11G20E27G24E34S35R13
                                E15R22E36R23S31S33G17R12R11E02E30R21
 125644880.710 5  97905100.53342  23909423.963    23909424.0744   23909430.0504
        30.000          15.0004
 105993357.959 8  82592275.40748  20169850.390    20169850.0954   20169852.8554
        50.800          50.2004
 122423261.775 6  95394789.98541  23296373.935    23296373.8104   23296379.4794
        38.900           6.0004
 106894211.139 7  83294200.43245  20341292.502    20341291.2504   20341292.3634
        44.600          32.4004
 118283837.903 7  92169271.09946  22508647.615    22508647.0794   22508647.6624
        45.200          39.2004
 113398373.216 7  88362388.42144  21578992.762    21578992.4724   21578991.4064
        42.900          24.0004
 125417179.111 5                  23866093.424
        33.100
 135370706.704 7                  25760171.106
        45.000
 122887742.726 6  95756694.79745  23384756.323    23384756.5734   23384766.7694
        38.700          31.3004
 122556335.687 7                  23321677.741
        46.300


 113067325.581 6                  21173878.284    21173878.238
        40.000
 129785377.653 6                  24697338.470
        41.900
 104319678.825 8  81137581.764 8  19542577.394    19542577.537    19542581.801
        51.500          48.300
 138776108.139 5                  26408213.923
        35.300
 112810394.667 7                  21088716.693    21088716.187
        44.100
 198906383.801 7                  37850624.662
        42.200
 202059575.304 7                  38450665.728
        45.100
 116974934.416 7  91149339.05947  22259593.470    22259592.9474   22259594.5734
        45.400          42.8004
 103172689.413 8  80245453.434 8  19314127.654    19314128.200    19314133.508
        51.100          48.100
 117413547.891 6  91321592.588 6  21972328.758    21972326.765    21972334.404
        39.400          37.700
 132782663.140 7                  25267689.289
        42.500
 123535020.450 8                  23507915.796
        50.500
 119187509.924 6  92701384.139 5  22273022.351    22273022.087    22273038.736
        36.900          32.200
 25  1  1  1 16  0.0000000  0 23G06G14G19G12G11G20E27G24E34S35R13E15
                                R22E36R23S31S33G17R12R11E02E30R21
 105996571.073 8  82594779.16148  20170461.846    20170461.5604   20170465.0614
        52.000          50.7004
 122475325.849 6  95435359.39241  23306285.045    23306284.8494   23306286.0104
        38.200           7.1004
 106903967.652 7  83301802.93045  20343149.479    20343148.2594   20343148.6454
        46.400          32.6004
 118238615.830 7  92134033.18546  22500042.574    22500042.0244   22500042.7844
        44.100          40.9004
 113365140.570 7  88336492.89244  21572668.457    21572668.1534   21572667.5574
        44.800          24.6004
 125362929.724 6                  23855769.426
        36.300
 135335976.905 7                  25753562.575
        43.200
 122914847.366 6  95777815.41944  23389912.104    23389912.2914   23389925.4664
        37.600          24.9004
 122564876.425 7                  23323302.650
        44.500


 113022194.193 6                  21165429.323    21165427.680
        38.700
 129756045.957 7                  24691757.157
        42.500
 104330878.322 8  81146292.458 7  19544675.462    19544676.012    19544679.694
        52.900          47.800
 138814600.544 5                  26415538.393
        31.500
 112778994.766 7                  21082846.410    21082846.784
        43.500
 198906384.843 7                  37850632.505
        42.500
 202059566.279 7                  38450663.952
        44.100
 117002377.480 7  91170723.27047  22264815.631    22264815.0954   22264817.6384
        46.500          44.5004
 103179652.354 8  80250869.068 7  19315430.821    19315431.915    19315437.250
        49.800          47.800
 117476473.616 6  91370534.657 5  21984105.882    21984102.971    21984106.357
        38.600          33.000
 132817592.658 6                  25274335.751
        41.300
 123534604.789 8                  23507836.793
        51.000
 119235571.759 6  92738765.501 6  22282006.454    22282010.858    22282018.944
        38.900          36.700
 25  1  1  1 16 15.0000000  0 24G03G06G14G19G12G11G20E27G24E34S35R13
                                E15R22E36R23S31S33G17R12R11E02E30R21


 105999906.687 8  82597378.35148  20171096.725    20171096.4444   20171100.2284
        51.100          51.4004
 122527441.840 6  95475969.34441  23316197.223    23316196.8844   23316204.2344
        36.400           6.5004
 106913790.349 7  83309456.98845  20345019.011    20345017.7824   20345017.1934
        44.900          32.8004
 118193461.798 7  92098848.29046  22491449.997    22491449.4434   22491450.5664
        45.500          40.7004
 113332006.143 7  88310673.90044  21566363.629    21566363.3254   21566362.1674
        46.300          25.1004
 125308695.527 5                  23845449.359
        35.200
 135301284.799 7                  25746960.351
        44.900
 122942055.205 5  95799016.34542  23395089.398    23395089.5274   23395104.7054
        32.900          16.1004
 122573497.895 7                  23324943.742
        44.500


 112977198.502 6                  21157001.496    21157002.857
        40.400
 129726783.964 6                  24686188.617
        41.200
 104342179.064 8  81155081.890 7  19546792.986    19546793.504    19546796.324
        53.100          47.600
 138853114.259 5                  26422867.586
        30.600
 112747690.186 7                  21076996.742    21076995.112
        43.800
 198906388.415 7                  37850637.200
        43.700
 202059559.061 7                  38450663.961
        43.300
 117029849.900 7  91192130.37247  22270043.000    22270042.4464   22270045.8684
        46.200          45.3004
 103186818.603 8  80256442.826 7  19316772.663    19316772.874    19316777.954
        49.200          47.200
 117539474.026 5  91419534.848 6  21995901.322    21995900.449    21995896.801
        35.800          36.100
 132852579.645 7                  25280993.116
        43.300
 123534275.999 8                  23507774.301
        50.900
 119283641.341 6  92776152.945 5  22290991.596    22290991.078    22291000.694
        37.200          32.500
 25  1  1  1 16 30.0000000  0 22G03G06G14G19G12G11E27E34S35R13E15R22
                                E36R23S31S33G17R12R11E02E30R21


 106003363.046 8  82600071.63148  20171754.895    20171754.6094   20171758.0134
        50.500          50.8004
 122579608.223 5  95516618.2554   23326120.887    23326120.9224   23326130.6864
        30.400           3.8004
 106923677.597 7  83317161.31045  20346900.684    20346899.4684   20346898.7894
        44.800          33.9004
 118148374.342 7  92063715.23446  22482869.798    22482869.2624   22482870.7474
        46.100          41.8004
 113298968.422 7  88284930.27244  21560076.754    21560076.4774   21560076.3084
        46.800          28.5004
 135266628.973 7                  25740364.325
        44.700
 122582198.370 7                  23326599.455
        44.300


 112932337.145 6                  21148597.512    21148597.960
        36.400
 129697590.177 6                  24680632.504
        36.700
 104353579.125 8  81163948.659 7  19548929.318    19548929.562    19548932.556
        52.300          47.100
 138891647.364 5                  26430202.188
        34.000
 112716479.280 7                  21071163.501    21071163.262
        44.300
 198906392.297 6                  37850633.390
        41.800
 202059551.918 7                  38450660.769
        45.200
 117057350.229 7  91213559.21347  22275276.825    22275276.3024   22275279.2634
        46.000          45.6004
 103194186.062 8  80262173.117 8  19318150.335    19318151.784    19318157.754
        48.700          48.000
 117602546.820 5  91468591.606 6  22007687.471    22007686.380    22007701.679
        35.700          40.500
 132887622.352 6                  25287662.583
        37.000
 123534032.466 8                  23507727.799
        51.100
                                                  22299970.101

 25  1  1  1 16 45.0000000  0 23G03G06G14G19G12G11G20E27E34S35R13E15
                                R22E36R23S31S33G17R12R11E02E30R21


 106006943.797 8  82602861.82748  20172436.442    20172436.1614   20172439.4884
        51.100          51.0004
 122631828.266 5  95557309.1994   23336061.816    23336061.8294   23336067.4284
        30.900           5.0004
 106933633.227 7  83324918.94045  20348794.539    20348793.3054   20348793.3084
        45.200          32.8004
 118103357.721 7  92028637.42147  22474303.120    22474302.6204   22474305.7884
        45.500          43.3004
 113266031.317 7  88259265.04244  21553807.861    21553807.5804   21553810.5064
        43.700          26.2004
 125200256.860 5                  23824818.431
        32.500
 135232013.367 7                  25733776.741
        44.100
 122590981.347 7                  23328271.084
        45.100


 112887614.885 6                  21140225.038    21140223.156
        37.700
 129668468.273 6                  24675092.680
        38.800
 104365082.163 8  81172895.443 8  19551082.935    19551083.096    19551088.093
        52.300          48.300
 138930203.683 5                  26437539.276
        32.000
 112685365.836 7                  21065346.187    21065346.441
        47.200
 198906400.099 7                  37850639.749
        43.000
 202059549.041 7                  38450664.543
        44.200
 117084882.009 7  91235012.55947  22280516.292    22280515.7784   22280518.5384
        45.200          45.2004
 103201758.666 8  80268062.910 8  19319568.728    19319568.417    19319575.491
        48.800          48.700
                  91517707.527 6                                  22019519.019
                        37.800
 132922724.711 6                  25294342.912
        41.400
 123533878.124 8                  23507698.541
        50.500
                                                  22308961.049

 25  1  1  1 17  0.0000000  0 24G03G06G14G19G12G11G20E27G24E34S35R13
                                E15R22E36R23S31S33G17R12R11E02E30R21
 125822285.195 4  98043392.04141  23943188.395    23943188.0514   23943197.7324
        29.700          11.0004
 106010639.474 8  82605741.57348  20173140.078    20173139.7924   20173142.5394
        50.600          50.6004
 122684092.397 5  95598034.3994   23346010.586    23346010.6754   23346012.6524
        31.700           4.1004
 106943647.827 7  83332722.55245  20350700.133    20350698.8904   20350699.0384
        45.000          33.5004
 118058402.855 7  91993607.70447  22465748.698    22465748.2254   22465751.9284
        47.100          43.6004
 113233185.675 6  88233671.02844  21547558.942    21547558.6524   21547561.3734
        39.000          25.5004
 125146064.490 6                  23814505.607
        38.200
 135197428.943 7                  25727195.839
        43.900


 122599837.615 7                  23329955.991
        45.400


 112843022.434 6                  21131875.375    21131874.856
        37.300
 129639409.191 6                  24669561.213
        39.100
 104376678.520 8  81181914.817 7  19553256.313    19553256.599    19553260.577
        52.800          47.900
 138968773.627 4                  26444879.283
        29.600
 112654340.481 7                  21059546.053    21059547.748
        46.800
 198906402.858 7                  37850639.440
        42.900
 202059540.573 7                  38450656.950
        44.400
 117112436.007 7  91256483.20447  22285759.301    22285758.8144   22285761.6544
        44.700          43.7004
 103209526.966 8  80274104.900 8  19321024.172    19321024.480    19321030.530
        50.100          49.100
 117728801.184 5  91566874.826 6  22031341.133    22031340.736    22031350.870
        35.500          40.600
 132957877.140 6                  25301031.145
        40.300
 123533803.765 8                  23507684.768
        50.500


 25  1  1  1 17 15.0000000  0 24G03G06G14G19G12G11G20E27G24E34S35R13
                                E15R22E36R23S31S33G17R12R11E02E30R21
 125858120.174 6  98071315.55241  23950009.526    23950009.1464   23950021.7144
        36.700           9.3004
 106014457.155 8  82608716.40348  20173866.743    20173866.4714   20173868.9054
        51.500          50.8004
 122736407.861 5  95638799.74241  23355962.605    23355962.6224   23355967.7624
        35.000           6.5004
 106953728.621 7  83340577.74445  20352618.260    20352617.0354   20352617.4804
        45.800          33.8004
 118013517.269 7  91958631.98047  22457207.392    22457206.8964   22457210.8204
        46.400          44.1004
 113200438.857 6  88208154.05943  21541327.076    21541326.7414   21541330.1004
        41.400          23.5004
 125091889.086 5                  23804194.553
        30.900
 135162883.057 7                  25720622.873
        44.900
 123051866.806 5  95884632.31944  23415991.064    23415990.2864   23416005.2394
        34.400          25.9004
 122608774.120 7                  23331656.346
        44.200


 112798567.736 6                  21123551.281    21123549.983
        36.900
 129610420.009 6                  24664044.827
        39.200
 104388375.148 8  81191012.214 8  19555447.462    19555447.368    19555451.981
        52.000          48.500
 139007364.211 5                  26452223.182
        30.600
 112623410.372 7                  21053762.338    21053763.718
        46.600
 198906407.649 7                  37850636.784
        42.900
 202059534.886 7                  38450658.157
        43.500
 117140019.534 7  91277976.86246  22291007.068    22291006.6034   22291009.6984
        43.300          41.3004
 103217498.401 8  80280304.922 8  19322515.398    19322515.900    19322522.093
        50.400          48.200
 117792089.346 6  91616098.930 6  22043186.683    22043186.610    22043192.867
        37.500          37.800
 132993086.857 7                  25307731.511
        43.800
 123533816.676 8                  23507686.973
        50.300


 25  1  1  1 17 30.0000000  0 23G03G06G14G19G12G11E27G24E34S35R13E15
                                R22E36R23S31S33G17R12R11E02E30R21
 125894073.582 5  98099331.2784   23956851.475    23956851.1134   23956864.2854
        33.000           4.6004
 106018397.173 8  82611786.57348  20174615.707    20174615.4304   20174618.5284
        48.600          49.7004
 122788774.739 5  95679605.1814   23365930.417    23365930.4344   23365932.9164
        32.400           3.4004
 106963876.224 7  83348484.98645  20354549.120    20354547.8864   20354548.7694
        42.400          32.2004
 117968702.006 8  91923711.06547  22448679.643    22448679.1474   22448681.7504
        48.100          43.7004
 113167791.379 7  88182714.48244  21535115.080    21535114.7814   21535115.6404
        42.900          25.1004
 135128376.395 7                  25714056.294
        44.800
 123079580.867 5  95906227.70643  23421267.636    23421267.1984   23421276.7724
        32.500          23.7004
 122617791.269 7                  23333372.229
        45.700


 112754251.756 6                  21115254.235    21115251.300
        38.900
 129581501.475 6                  24658539.927
        36.100
 104400172.394 8  81200187.862 7  19557657.157    19557657.342    19557661.038
        53.000          47.300
 139045975.837 6                  26459574.911
        36.200
 112592576.393 7                  21047997.020    21047997.413
        44.100
 198906415.100 7                  37850632.107
        43.400
 202059531.809 7                  38450662.674
        46.700
 117167633.051 6  91299493.88546  22296264.186    22296263.6904   22296263.9304
        36.400          36.6004
 103225673.421 8  80286663.270 7  19324045.731    19324046.407    19324051.809
        51.100          47.900
 117855450.429 6  91665379.809 5  22055039.588    22055040.881    22055045.519
        37.300          35.000
 133028354.105 6                  25314442.023
        40.800
 123533917.488 8                  23507706.330
        49.800
 119524198.221 5                  22335942.656
        31.200
 25  1  1  1 17 45.0000000  0 24G03G06G14G19G12G11E27G24E34S35R13E15
                                R22E36R23S31S33R07G17R12R11E02E30R21
 125930141.222 5                  23963712.136
        32.400
 106022455.590 7  82614948.99447  20175387.943    20175387.6664   20175391.1794
        47.500          47.6004
 122841189.032 5  95720447.6844   23375902.582    23375902.7114   23375907.2734
        33.500           2.4004
 106974086.781 7  83356441.28845  20356493.023    20356491.7944   20356492.4504
        42.900          33.1004
 117923953.414 7  91888842.11647  22440164.100    22440163.5954   22440165.4784
        47.700          43.2004
 113135239.570 6  88157349.42542  21528919.314    21528919.0554   21528918.4594
        41.100          17.3004
 135093905.349 7                  25707497.548
        43.300
 123107392.798 5  95927899.34743  23426558.766    23426557.7114   23426566.8584
        33.300          22.6004
 122626885.077 7                  23335103.107
        46.800
 200842958.948 6                  38219149.840
        36.100
 112710071.110 6                  21106974.687    21106975.453
        37.600
 129552649.612 6                  24653050.049
        38.700
 104412066.118 8  81209438.524 7  19559885.309    19559885.498    19559889.516
        52.200          47.600
 139084604.479 6                  26466922.041
        37.100
 112561834.300 7                  21042252.475    21042250.985
        44.700
 198906420.928 7                  37850634.615
        42.300
 202059526.278 7                  38450657.312
        43.200
 129985021.046 4                  24282293.700
        29.400
 117195272.832 6  91321031.38745  22301523.741    22301523.1514   22301523.9584
        37.400          34.9004
 103234048.110 8  80293176.901 7  19325614.141    19325614.605    19325618.781
        50.900          47.000
 117918880.155 5  91714714.028 6  22066911.985    22066910.092    22066917.847
        34.700          38.600
 133063675.245 5                  25321163.589
        35.300
 123534102.482 8                  23507740.851
        49.500


 25  1  1  1 18  0.0000000  0 24G03G06G14G19G12G11E27G24E34S35R13E15
                                R22E36R23S31S33R07G17R12R11E02E30R21
 125966320.567 5                  23970600.585
        32.600
 106026629.962 7  82618201.75047  20176181.776    20176181.5044   20176185.4564
        47.800          46.5004
 122893648.175 5                  23385884.877
        33.500
 106984357.970 7  83364444.82445  20358448.617    20358447.3704   20358447.8994
        43.100          33.8004
 117879269.352 8  91854023.43646  22431661.047    22431660.5474   22431660.9664
        48.400          41.6004
 113102781.286 6  88132057.31842  21522742.554    21522742.3044   21522739.4104
        38.300          14.5004
 135059467.825 7                  25700944.247
        42.200
 123135300.457 6  95949645.57444  23431871.303    23431870.0744   23431874.4104
        36.300          28.4004
 122636053.159 7                  23336847.672
        46.700
 200842995.249 6                  38219150.712
        39.800
 112666023.990 6                  21098729.123    21098729.097
        39.700
 129523862.395 6                  24647572.424
        39.700
 104424053.728 8  81218762.239 8  19562130.171    19562130.369    19562135.223
        50.400          48.000
 139123247.777 5                  26474275.888
        35.800
 112531181.755 7                  21036522.941    21036521.061
        44.300
 198906423.053 7                  37850637.732
        42.500
 202059518.125 7                  38450649.786
        42.500
 129932456.892 5                  24272468.786
        32.000
 117222936.500 6  91342587.51545  22306787.214    22306786.6334   22306788.6364
        36.100          35.0004
 103242620.074 8  80299844.008 7  19327218.691    19327218.871    19327224.273
        50.600          47.600
 117982375.813 5  91764099.554 6  22078791.690    22078791.117    22078799.950
        30.200          37.900
 133099047.767 6                  25327896.638
        39.200
 123534369.424 8                  23507792.107
        49.900
 119620337.663 5                  22353933.308    22353928.178
        31.400
 25  1  1  1 18 15.0000000  0 23G03G06G14G19G12G11E27G24E34S35R13E15
                                R22E36R23S31S33G17R12R11E02E30R21


 106030926.225 8  82621549.46948  20176999.797    20176999.5344   20177002.2874
        50.400          48.0004
 122946158.147 6                  23395882.222
        37.300
 106994695.928 7  83372500.39445  20360415.510    20360414.2454   20360415.5564
        46.000          34.9004
 117834656.435 7  91819260.18646  22423171.600    22423171.0774   22423169.8824
        46.500          39.8004
 113070422.743 6  88106842.97542  21516585.082    21516584.9444   21516580.5504
        37.700          12.2004
 135025070.147 7                  25694398.852
        42.900
 123163309.266 5  95971470.60644  23437201.118    23437200.0184   23437202.7874
        34.400          27.9004
 122645301.428 8                  23338607.853
        48.400
 200843033.710 6                  38219148.999
        38.300
 112622117.156 6                  21090505.264    21090506.584
        39.200
 129495145.891 6                  24642108.653
        41.900
 104436141.238 8  81228163.624 7  19564394.638    19564394.812    19564399.805
        50.200          47.700
 139161911.623 4                  26481629.622
        28.400
 112500625.121 7                  21030809.701    21030807.106
        43.900
 198906428.373 6                  37850631.785
        40.400
 202059512.176 7                  38450648.414
        44.100
 117250630.148 6  91364166.95745  22312057.545    22312057.0314   22312059.1814
        37.900          34.4004
 103251395.418 8  80306669.271 7  19328861.682    19328862.117    19328866.968
        51.300          46.900
 118045943.220 6  91813540.802 6  22090690.201    22090689.622    22090695.244
        40.000          38.300
 133134477.720 6                  25334638.246
        39.500
 123534724.533 8                  23507859.654
        50.100
 119668449.704 6  93075414.685 5  22362894.350    22362901.356    22362902.659
        40.100          34.900
 25  1  1  1 18 30.0000000  0 23G03G06G14G19G12G11E27G24E34S35R13E15
                                R22E36R23S31S33G17R12R11E02E30R21


 106035340.031 8  82624988.77048  20177839.817    20177839.5494   20177842.3844
        50.300          49.4004
 122998714.640 5  95843228.3594   23405878.713    23405879.0214   23405892.7084
        34.800           5.4004
 107005096.597 7  83380604.84445  20362393.685    20362392.4114   20362394.2004
        45.100          34.3004
 117790110.912 7  91784549.47546  22414695.010    22414694.4694   22414692.8664
        46.000          39.8004
 113038159.750 7  88081702.98143  21510446.256    21510446.0424   21510443.6464
        42.400          23.0004
 134990708.240 7                  25687859.247
        42.800
 123191415.057 6  95993371.24344  23442547.919    23442546.8914   23442551.5184
        37.400          25.4004
 122654625.622 8                  23340381.972
        48.200
 200843070.545 6                  38219159.024
        38.400
 112578346.591 6                  21082309.933    21082309.979
        39.600
 129466496.017 7                  24636657.139
        43.300
 104448324.069 8  81237639.170 8  19566676.947    19566676.905    19566682.474
        50.300          49.000


 112470160.029 7                  21025115.033    21025114.457
        44.900
 198906431.675 6                  37850635.832
        41.700
 202059504.387 7                  38450651.284
        43.100
 117278349.716 7  91385766.67346  22317332.566    22317332.0754   22317333.9754
        44.100          37.4004
 103260369.944 8  80313649.481 7  19330542.322    19330542.544    19330546.264
        50.400          46.700


 133169960.805 5                  25341389.217
        33.200
 123535163.715 8                  23507943.008
        49.200
 119716564.499 6  93112837.320 6  22371891.738    22371894.491    22371892.427
        36.600          36.600
 25  1  1  1 18 45.0000000  0 23G03G06G14G19G12G11G20E27G24E34S35R13
                                E15R22E36R23S31S33G17R12R11E02E30


 106039877.066 8  82628524.14348  20178702.568    20178702.3004   20178706.5174
        49.800          50.2004


 107015565.780 7  83388762.67445  20364386.176    20364384.9114   20364385.7364
        44.400          32.6004
 117745639.120 7  91749896.18546  22406231.709    22406231.1774   22406230.2894
        47.000          40.0004
 113005998.293 7  88056642.11643  21504325.849    21504325.6484   21504325.8094
        42.800          21.7004
 124767164.831 5                  23742404.080
        32.300
 134956388.316 7                  25681328.342
        42.300
 123219623.153 5  96015334.60644  23447913.328    23447913.2394   23447924.8304
        35.300          24.8004
 122664031.438 7                  23342171.699
        47.700


 112534719.004 6                  21074139.068    21074137.812
        39.500
 129437918.577 7                  24631218.874
        42.900
 104460607.981 8  81247193.307 8  19568978.921    19568978.936    19568983.688
        51.100          49.400
 139239314.185 5                  26496360.190
        33.000
 112439792.597 7                  21019437.022    21019437.388
        45.600
 198906438.614 6                  37850636.802
        41.900
 202059502.217 7                  38450655.658
        45.000
 117306100.971 7  91407391.05446  22322612.591    22322612.1094   22322614.6214
        45.100          38.6004
 103269549.602 8  80320789.263 7  19332258.550    19332258.967    19332264.995
        49.200          45.700
 118173272.527 6  91912583.904 6  22114526.247    22114526.384    22114526.233
        41.600          36.300
 133205502.697 6                  25348155.881
        39.300
 123535692.920 8                  23508043.974
        49.600
 25  1  1  1 19  0.0000000  0 24G03G06G14G19G12G11G20E27G24E34S35R13
                                E15R22E36R23S31S33G17R12R11E02E30R21


 106044529.489 8  82632149.42248  20179588.709    20179588.4414   20179592.4884
        51.000          51.5004


 107026095.865 7  83396967.98445  20366390.420    20366389.1424   20366388.4104
        44.700          30.5004
 117701233.892 7  91715294.75746  22397781.329    22397780.8114   22397780.6804
        47.100          39.9004
 112973930.815 7  88031654.52443  21498223.717    21498223.5344   21498225.6894
        44.100          23.1004
 124713101.539 6                  23732116.188
        36.500
 134922102.638 7                  25674804.284
        42.500


 122673511.035 8                  23343975.395
        48.300


 112491227.041 6                  21065996.158    21065995.318
        40.900
 129409405.921 7                  24625792.682
        42.700
 104472984.811 8  81256819.725 8  19571297.454    19571297.629    19571302.680
        52.700          49.700
 139278029.902 5                  26503725.026
        33.700
 112409514.815 7                  21013775.776    21013774.973
        42.300
 198906443.035 6                  37850641.757
        40.200
 202059495.797 7                  38450650.319
        44.900
 117333876.227 7  91429034.12046  22327898.065    22327897.5874   22327900.4104
        43.700          39.8004
 103278926.580 8  80328082.469 7  19334015.228    19334014.902    19334020.522
        48.900          46.200
 118237043.215 6  91962183.447 6  22126457.845    22126460.555    22126461.508
        40.200          38.300
 133241095.867 6                  25354927.354
        38.400
 123536304.516 8                  23508160.147
        48.900
 119812743.572 5  93187695.495 5  22389882.675    22389885.653    22389877.118
        35.600          34.700
 25  1  1  1 19 15.0000000  0 23G03G06G14G19G12G11G20E27G24E34S35R13
                                E15R22E36R23S31S33G17R12R11E02E30


 106049298.890 8  82635865.85148  20180496.693    20180496.4254   20180500.2904
        51.400          52.5004
 123156684.514 5                  23435935.081
        34.500
 107036688.580 7  83405222.02845  20368405.979    20368404.6834   20368404.0794
        47.100          32.8004
 117656896.380 7  91680746.11446  22389344.146    22389343.6324   22389344.2624
        46.200          41.1004
 112941959.189 7  88006741.60644  21492140.002    21492139.8334   21492142.6414
        45.300          27.4004
 124659054.182 6                  23721827.757
        37.300
 134887853.327 7                  25668285.601
        43.200
 123276340.436 5  96059529.70144  23458706.404    23458706.0154   23458717.6284
        34.500          27.5004
 122683065.960 7                  23345794.319
        46.600


 112447872.801 6                  21057877.774    21057876.783
        41.200
 129380960.000 7                  24620380.760
        45.000
 104485456.101 8  81266519.661 8  19573634.258    19573634.589    19573638.186
        53.700          49.000
 139316761.070 5                  26511100.015
        30.800
 112379328.586 7                  21008131.848    21008132.567
        43.000
 198906445.976 5                  37850633.444
        35.700
 202059487.007 6                  38450643.423
        39.800
 117361677.416 7  91450697.40746  22333188.578    22333188.1004   22333190.3444
        45.200          37.8004
 103288502.565 8  80335530.467 8  19335806.791    19335806.677    19335813.902
        48.400          48.000
 118300879.626 6  92011833.938 6  22138401.026    22138402.255    22138406.406
        38.800          40.900
 133276741.743 6                  25361708.818
        41.200
 123537000.348 8                  23508292.728
        50.500
 25  1  1  1 19 30.0000000  0 24G03G06G14G19G12G11G20E27G24E34S35R13
                                E15R22E36R23S31S33G17R12R11E02E30R21


 106054189.745 8  82639676.91448  20181426.648    20181426.3804   20181430.7904
        51.500          51.5004
 123209433.535 6  96007378.57843  23445975.841    23445975.3274   23445981.5964
        36.600          18.1004
 107047348.666 7  83413528.60045  20370435.102    20370433.8014   20370433.0154
        44.900          32.2004
 117612631.975 8  91646254.43147  22380920.796    22380920.3094   22380922.6014
        48.600          42.3004
 112910088.214 7  87981907.13045  21486075.500    21486075.3404   21486077.9674
        46.700          30.2004
 124605027.666 6                  23711551.794
        39.000
 134853645.237 7                  25661776.479
        43.400
 123304838.399 6  96081735.93945  23464129.953    23464129.7664   23464137.1894
        41.800          33.9004
 122692700.889 7                  23347627.718
        47.800
 200843097.774 5                  38219202.064
        32.900
 112404661.719 6                  21049783.498    21049785.136
        37.400
 129352585.411 7                  24614981.914
        45.700
 104498026.404 8  81276296.553 7  19575987.678    19575987.838    19575992.406
        51.100          46.900


 112349238.486 7                  21002509.834    21002508.576
        42.300
 198906450.972 6                  37850648.491
        41.300
 202059481.419 7                  38450648.543
        43.700
 117389509.067 6  91472384.41845  22338484.290    22338483.8394   22338485.4334
        40.500          33.7004
 103298282.175 8  80343136.864 7  19337637.977    19337638.732    19337644.017
        51.400          46.700
 118364785.781 6  92061538.695 7  22150369.741    22150368.715    22150367.657
        40.600          42.800
 133312445.100 7                  25368503.406
        42.300
 123537785.223 8                  23508441.926
        50.700
 119908949.944 5  93262561.664 6  22407854.635    22407851.385    22407869.483
        30.000          39.700
 25  1  1  1 19 45.0000000  0 24G03G06G14G19G12G11G20E27G24E34S35R13
                                E15R22E36R23S31S33G17R12R11E02E30R21


 106059197.375 8  82643578.97848  20182379.748    20182379.4894   20182383.4784
        52.600          51.8004
 123262226.736 6  96048516.15242  23456022.847    23456022.5974   23456027.4594
        38.900          15.1004
 107058071.420 7  83421883.98945  20372475.455    20372474.1684   20372473.2514
        43.500          30.6004
 117568436.542 8  91611816.48847  22372511.101    22372510.6144   22372513.5984
        48.200          43.2004
 112878313.318 7  87957147.49444  21480027.262    21480027.0884   21480030.6484
        44.400          29.9004
 124551017.838 5  97052752.14742  23701273.115    23701273.3694   23701274.2594
        35.400          15.4004
 134819473.904 7                  25655273.361
        44.000
 123333431.554 6  96104016.29245  23469569.096    23469568.8774   23469577.2004
        41.400          34.3004
 122702410.975 7                  23349475.362
        47.300
 200843135.443 5                  38219198.983
        34.200
                                                  21041709.569

 129324277.676 7                  24609594.417
        44.200
 104510690.857 8  81286146.669 7  19578360.838    19578361.165    19578365.183
        51.300          47.500


 112319240.133 6                  20996901.361    20996900.075
        41.400
 198906454.544 6                  37850640.124
        41.000
 202059474.392 7                  38450640.843
        42.800
 117417366.650 7  91494091.62545  22343786.029    22343785.5564   22343786.4664
        44.500          34.6004
 103308260.795 8  80350897.993 7  19339507.148    19339507.620    19339512.717
        51.500          47.300
 118428756.405 6  92111293.660 7  22162335.229    22162336.986    22162339.724
        40.700          42.400
 133348201.090 7                  25375307.687
        42.100
 123538654.598 8                  23508607.109
        50.000
                  93299998.413 5                                  22416859.877
                        34.600
 25  1  1  1 20  0.0000000  0 23G06G14G19G12G11G20E27G24E34S35R13E15
                                R22E36R23S31S33G17R12R11E02E30R21
 106064330.201 8  82647578.60348  20183356.293    20183356.0344   20183360.2464
        51.600          52.1004
 123315073.602 6  96089695.44142  23466079.918    23466079.7894   23466083.4804
        40.800          15.3004
 107068865.437 7  83430294.92944  20374528.960    20374527.6954   20374526.6834
        45.800          29.8004
 117524319.161 7  91577439.40747  22364115.523    22364115.0544   22364118.8334
        46.600          42.4004
 112846643.262 6  87932469.61344  21474001.275    21474001.1234   21474003.4244
        41.000          28.5004
 124497033.243 6  97010686.29742  23691000.015    23690999.8504   23691002.1954
        39.100          15.9004
 134785348.131 7                  25648779.986
        44.900
 123362127.978 6  96126377.23645  23475030.956    23475030.9074   23475036.9844
        37.500          31.3004
 122712204.710 8                  23351338.885
        48.400


 112318752.422 5                  21033680.469    21033676.313
        33.700
 129296045.385 7                  24604222.140
        42.900
 104523457.766 8  81296076.550 8  19580752.595    19580753.300    19580756.343
        53.700          48.900


 112289342.008 7                  20991314.458    20991314.643
        42.600
 198906466.163 7                  37850652.457
        43.900
 202059474.466 6                  38450638.549
        39.700
 117445258.830 7  91515825.78246  22349092.751    22349092.2694   22349094.2154
        44.200          36.2004
 103318447.270 8  80358820.844 7  19341412.617    19341412.942    19341419.225
        49.800          47.200
 118492800.107 6  92161105.330 6  22174311.871    22174314.352    22174324.191
        38.500          40.900
 133384018.238 7                  25382123.071
        42.400
 123539617.173 8                  23508790.657
        50.000
 120005211.106 5  93337442.950 5  22425844.923    22425845.637    22425855.346
        35.300          33.900
 25  1  1  1 20 15.0000000  0 23G06G14G19G12G11G20E27G24E34S35R13E15
                                R22E36R23S31S33G17R12R11E02E30R21
 106069573.664 8  82651664.43248  20184354.506    20184354.2434   20184357.9284
        49.900          51.7004
 123367959.366 6  96130905.15641  23476141.713    23476141.5754   23476146.2954
        38.000          10.1004
 107079716.292 7  83438750.11645  20376592.916    20376591.6424   20376591.1234
        46.700          31.2004
 117480265.559 8  91543111.96046  22355732.490    22355732.0254   22355735.1984
        49.300          41.6004
 112815063.792 6  87907862.25544  21467991.100    21467990.9404   21467993.8674
        40.900          28.1004
 124443059.981 5  96968629.28242  23680729.592    23680729.2264   23680731.5094
        35.400          13.9004
 134751253.776 7                  25642291.901
        43.000
 123390913.215 6  96148807.28944  23480508.452    23480508.4124   23480513.2734
        39.200          29.5004
 122722067.586 7                  23353215.697
        46.400
 200843258.426 5                  38219213.846
        31.400
 112275961.982 5                  21025664.552    21025664.153
        32.800
 129267874.330 7                  24598860.568
        43.500
 104536312.481 8  81306074.619 8  19583159.813    19583160.008    19583165.086
        51.600          48.000


 112259529.276 6                  20985739.134    20985740.166
        41.600
 198906469.351 7                  37850647.033
        42.300
 202059467.876 7                  38450647.363
        43.600
 117473171.065 7  91537575.57546  22354405.778    22354405.3054   22354406.1004
        44.600          38.1004
 103328826.770 8  80366893.766 7  19343356.583    19343356.783    19343361.738
        50.400          47.300
 118556901.572 7  92210961.956 6  22186312.183    22186314.332    22186319.618
        45.100          38.100
 133419882.185 7                  25388947.756
        43.300
 123540658.628 8                  23508988.396
        49.600
 120053349.426 6                  22434846.475    22434848.417
        37.600
 25  1  1  1 20 30.0000000  0 23G06G14G19G12G11G20E27G24E34S35R13E15
                                R22E36R23S31S33G17R12R11E02E30R21
 106074936.521 8  82655843.30648  20185375.037    20185374.7654   20185377.9904
        50.300          49.9004


 107090632.942 7  83447256.55344  20378670.514    20378669.2454   20378667.5034
        44.400          28.4004
 117436285.080 7  91508841.51146  22347363.801    22347363.3324   22347363.8204
        46.900          39.9004
 112783583.835 7  87883332.44844  21462001.145    21462000.9934   21462002.4074
        42.700          26.5004
 124389107.429 6  96926588.41842  23670462.600    23670461.9834   23670463.9884
        36.100          13.5004
 134717199.942 7                  25635811.546
        45.100
 123419795.660 6  96171313.08345  23486004.235    23486004.1194   23486009.0184
        39.700          30.7004
 122732008.407 7                  23355107.433
        47.400


 112233315.052 6                  21017678.235    21017679.195
        38.300
 129239773.329 7                  24593513.815
        45.400
 104549263.678 8  81316147.792 7  19585587.055    19585587.035    19585591.088
        50.900          46.600


 112229811.321 7                  20980183.565    20980184.734
        43.200
 198906474.253 6                  37850646.031
        41.700
 202059460.875 7                  38450646.272
        43.000
 117501112.506 7  91559348.07746  22359722.139    22359721.6394   22359722.9264
        47.300          40.5004
 103339408.187 8  80375123.798 8  19345337.706    19345337.091    19345342.957
        49.100          48.000
 118621069.518 7  92260870.282 6  22198321.637    22198321.555    22198326.238
        43.800          39.600
 133455801.656 6                  25395782.040
        38.200
 123541788.011 8                  23509203.321
        49.800
 120101491.772 6                  22443840.298    22443840.707
        38.200
 25  1  1  1 20 45.0000000  0 23G03G06G14G19G12G11E27G24E34S35R13E15
                                R22E36R23S31S33G17R12R11E02E30R21
 126371896.267 4                  24047766.468
        24.500
 106080413.686 8  82660111.23648  20186416.999    20186416.7274   20186420.0934
        50.500          49.3004


 107101610.591 7  83455810.56344  20380758.204    20380756.8994   20380756.9324
        42.400          25.8004
 117392373.118 8  91474624.53346  22339006.808    22339006.3484   22339005.4014
        48.200          40.5004
 112752198.685 7  87858876.53244  21456028.122    21456027.9884   21456028.3104
        44.000          29.5004
 134683181.862 7                  25629338.718
        46.100
 123448770.051 6  96193890.53145  23491517.662    23491517.5514   23491522.6454
        40.700          30.5004
 122742022.018 8                  23357012.886
        48.300


 112190807.255 6                  21009716.889    21009715.226
        37.100
 129211737.558 6                  24588178.124
        41.900
 104562306.138 8  81326291.931 7  19588028.703    19588029.167    19588033.905
        50.900          44.900


 112200182.862 7                  20974645.094    20974646.442
        44.300
 198906475.914 6                  37850644.489
        38.700
 202059452.511 7                  38450637.583
        43.400
 117529078.003 8  91581139.32347  22365043.832    22365043.3364   22365044.6184
        48.600          42.4004
 103350186.672 8  80383507.086 7  19347354.954    19347355.183    19347360.947
        49.900          47.100
 118685298.309 7  92310826.030 6  22210341.317    22210342.001    22210345.356
        43.100          39.800
 133491771.691 6                  25402627.825
        38.100
 123543000.458 8                  23509434.077
        50.000
 120149632.867 6  93449807.209 5  22452834.158    22452836.458    22452843.753
        36.900          30.400
 25  1  1  1 21  0.0000000  0 24G03G06G14G19G12G11G20E27G24E34S35R13
                                E15R22E36R23S31S33G17R12R11E02E30R21


 106086009.211 8  82664471.40148  20187481.452    20187481.1754   20187485.0414
        49.900          49.3004
 123526946.726 4                  23506392.735
        28.900
 107112653.392 7  83464415.38744  20382860.736    20382859.4174   20382858.8134
        43.300          28.0004
 117348534.096 7  91440464.30046  22330664.511    22330664.0554   22330661.2644
        46.800          38.7004
 112720912.484 7  87834497.74944  21450074.957    21450074.8324   21450074.3004
        44.500          29.1004
 124281251.160 6  96842548.67041  23649938.731    23649938.5574   23649940.0324
        36.000          11.1004
 134649203.958 7                  25622872.504
        45.600
 123477840.308 6  96216542.65245  23497049.970    23497049.8594   23497054.2524
        39.900          30.5004
 122752112.552 7                  23358932.843
        46.300
 200843396.865 6                  38219242.161
        38.200
 112148443.294 6                  21001784.622    21001783.592
        39.600
 129183771.344 6                  24582856.001
        40.900
 104575443.866 8  81336510.147 7  19590491.509    19590491.635    19590494.169
        52.000          45.600


 112170648.319 7                  20969123.576    20969124.297
        45.700
 198906478.724 7                  37850649.720
        42.900
 202059444.269 7                  38450640.025
        44.500
 117557071.883 7  91602952.71847  22370371.130    22370370.6524   22370371.6084
        47.900          42.6004
 103361166.513 8  80392046.955 7  19349410.432    19349411.271    19349416.677
        50.900          47.600
 118749591.917 7  92360832.156 6  22222371.300    22222371.783    22222380.495
        44.400          40.500
 133527796.364 6                  25409482.657
        37.600
 123544300.244 8                  23509681.290
        49.300
 120197777.291 7  93487252.708 6  22461847.554    22461851.325    22461848.487
        42.400          36.200
 25  1  1  1 21 15.0000000  0 25G03G06G14G19G12G11G20E27G24E34S35R13
                                E15R22E36R23S31S33R07G17R12R11E02E30
                                R21


 106091723.099 8  82668923.78848  20188569.020    20188568.7614   20188572.2314
        49.300          48.7004
 123580015.399 4  96296085.65641  23516482.392    23516483.0044   23516487.3244
        29.300           7.1004
 107123761.442 7  83473071.05944  20384974.734    20384973.4334   20384971.9644
        43.500          25.9004
 117304768.616 8  91406361.43146  22322336.065    22322335.6094   22322332.8984
        48.300          40.6004
 112689725.695 7  87810196.40645  21444140.649    21444140.5154   21444140.9494
        43.600          31.0004
 124227374.655 5                  23639681.634    23639681.3534
        35.300
 134615266.624 7                  25616415.117
        47.400
 123507006.280 5  96239269.37244  23502600.580    23502600.4554   23502604.2334
        31.500          27.9004
 122762280.031 7                  23360867.648
        46.600


 112106223.721 6                  20993880.606    20993877.321
        40.300
 129155874.805 7                  24577548.127
        42.200
 104588676.773 8  81346802.431 7  19592970.186    19592971.155    19592972.941
        52.600          44.300


 112141207.898 7                  20963619.924    20963620.820
        46.300
 198906482.024 7                  37850643.939
        42.400
 202059436.497 7                  38450638.965
        44.500
 129249718.013 4                  24144936.388
        29.600
 117585094.459 8  91624788.44447  22375702.994    22375702.5254   22375704.4294
        49.400          43.0004
 103372347.626 8  80400743.380 7  19351503.058    19351503.172    19351509.316
        48.200          46.600
 118813950.035 6  92410888.460 6  22234414.383    22234413.282    22234423.116
        38.400          38.900
 133563875.754 7                  25416350.686
        42.900
 123545687.704 8                  23509945.579
        48.700


 25  1  1  1 21 30.0000000  0 24G06G14G19G12G11G20E27G24E34S35R13E15
                                R22E36R23S31S33R07G17R12R11E02E30R21
 106097557.284 8  82673469.91548  20189679.451    20189679.1834   20189682.4504
        49.700          48.1004


 107134936.897 7  83481779.24844  20387101.938    20387100.6464   20387097.8894
        43.600          26.0004
 117261079.230 8  91372317.83147  22314022.541    22314022.0854   22314021.4354
        49.300          43.0004
 112658640.393 7  87785974.12245  21438225.287    21438225.1674   21438226.9644
        44.500          30.6004
 124173503.667 5  96758594.59441  23629430.241    23629429.7634   23629437.0844
        35.200          10.5004
 134581372.121 8                  25609965.181
        48.000
 123536269.718 6  96262072.04444  23508169.811    23508169.6774   23508173.4924
        36.800          29.3004
 122772526.453 7                  23362817.655
        47.100


 112064151.077 7                  20985999.292    20985999.435
        42.000
 129128050.139 7                  24572253.518
        43.700
 104602006.782 8  81357170.219 7  19595467.048    19595467.925    19595469.703
        52.300          45.000


 112111863.767 7                  20958134.731    20958135.575
        47.500
 198906488.849 7                  37850646.098
        43.000
 202059433.080 7                  38450637.963
        45.500
 129197272.212 5                  24135145.435
        31.500
 117613147.660 8  91646648.06047  22381041.041    22381040.5764   22381042.6304
        48.600          42.0004
 103383732.123 8  80409597.998 7  19353634.832    19353635.474    19353639.794
        49.400          45.800
 118878374.355 6  92460996.221 6  22246469.135    22246469.228    22246475.574
        39.900          37.800
 133600011.914 6                  25423226.428
        41.500
 123547164.961 8                  23510226.926
        49.700


 25  1  1  1 21 45.0000000  0 24G06G14G19G12G11G20E27G24E34S35R13E15
                                R22E36R23S31S33R07G17R12R11E02E30R21
 106103507.671 8  82678106.58848  20190811.793    20190811.5214   20190814.7684
        50.400          48.5004
 123686251.238 5  96378915.74442  23536711.319    23536711.6454   23536714.4804
        35.800          13.5004
 107146175.784 7  83490536.84944  20389240.086    20389238.7854   20389237.5614
        42.900          26.9004
 117217462.200 8  91338330.62547  22305722.771    22305722.3334   22305723.4854
        49.400          44.1004
 112627652.734 7  87761827.95644  21432327.575    21432327.4324   21432330.9474
        42.000          27.8004
 124119652.839 6  96716632.83141  23619182.397    23619181.7134   23619191.2824
        37.500           8.4004
 134547516.744 8                  25603522.847
        48.200
 123565626.262 6  96284947.34445  23513755.112    23513755.0144   23513759.9884
        36.700          30.6004
 122782847.663 7                  23364782.028
        47.300


 112022221.782 7                  20978148.167    20978148.397
        43.800
 129100293.478 6                  24566970.095
        40.100
 104615429.706 8  81367610.289 7  19597982.673    19597983.061    19597985.729
        53.600          46.400


 112082611.894 7                  20952666.193    20952665.877
        46.400
 198906494.883 6                  37850652.014
        41.200
 202059427.775 7                  38450640.078
        43.400
 129144837.311 5                  24125355.571
        30.400
 117641227.576 8  91668528.52147  22386384.953    22386384.5024   22386386.2554
        48.500          42.0004
 103395316.096 8  80418607.768 7  19355803.515    19355803.894    19355809.094
        50.100          46.400
 118942860.475 6  92511151.984 6  22258544.388    22258547.961    22258544.005
        37.400          37.200
 133636200.817 7                  25430112.578
        42.600
 123548728.172 8                  23510524.246
        49.700
 120342229.505 6                  22488836.324    22488834.441
        40.100
 25  1  1  1 22  0.0000000  0 23G06G14G19G12G11G20E27G24E34S35R13E15
                                R22E36R23S31S33G17R12R11E02E30R21
 106109575.226 8  82682834.55148  20191966.156    20191965.8884   20191968.7014
        51.100          49.0004
 123739457.283 5  96420374.91242  23546834.581    23546834.6974   23546839.9474
        35.700          14.7004
 107157479.457 7  83499344.92044  20391391.651    20391390.3554   20391389.0774
        44.900          28.9004
 117173919.017 8  91304400.92447  22297436.621    22297436.1974   22297438.0924
        50.500          45.3004
 112596764.041 6  87737758.88644  21426451.208    21426451.0524   21426452.1544
        40.900          27.2004
 124065823.176 6  96674687.57141  23608939.126    23608938.4244   23608949.0084
        37.400           9.2004
 134513701.797 7                  25597087.623
        47.100
 123595076.817 5  96307895.82445  23519358.655    23519358.5264   23519365.3914
        35.800          32.2004
 122793244.727 7                  23366760.016
        46.000


 111980437.769 7                  20970323.885    20970323.836
        43.500
 129072606.000 6                  24561701.440
        41.600
 104628946.305 8  81378123.248 8  19600514.265    19600514.813    19600519.149
        53.800          48.800


 112053453.211 7                  20947214.697    20947215.104
        47.200
 198906500.738 6                  37850648.509
        39.600
 202059423.012 7                  38450638.030
        42.000
 117669335.413 8  91690430.72646  22391733.024    22391732.5644   22391734.9954
        48.100          41.2004
 103407100.442 8  80427773.368 7  19358011.069    19358011.078    19358014.686
        51.200          45.200
 119007408.787 6  92561356.314 6  22270616.846    22270619.965    22270624.134
        36.300          38.500
 133672443.561 7                  25437008.694
        42.700
 123550378.580 8                  23510838.071
        50.000
 120390384.056 6                  22497825.774    22497827.706
        38.600
 25  1  1  1 22 15.0000000  0 23G06G14G19G12G11G20E27G24E34S35R13E15
                                R22E36R23S31S33G17R12R11E02E30R21
 106115754.770 8  82687649.77348  20193142.134    20193141.8664   20193144.6494
        49.600          49.9004
 123792703.154 5  96461865.06842  23556964.666    23556964.7594   23556973.0644
        35.700          15.1004
 107168842.799 7  83508199.45645  20393553.125    20393551.8564   20393552.6684
        45.700          31.9004
 117130445.010 8  91270525.11947  22289164.039    22289163.6104   22289165.0494
        51.000          45.7004
 112565969.395 6  87713763.09644  21420590.691    21420590.5354   21420591.6684
        40.000          26.8004
 124012010.357 6  96632755.34141  23598699.357    23598698.6784   23598709.5924
        41.200           7.5004
 134479922.494 7                  25590660.040
        44.500
 123624615.936 5  96330913.27944  23524980.925    23524980.7604   23524987.1104
        33.300          27.0004
 122803712.399 7                  23368752.297
        44.200
 200843669.125 5                  38219286.984
        35.000
 111938794.270 7                  20962526.081    20962525.335
        43.600
 129044982.680 6                  24556444.914
        38.300
 104642551.360 9  81388704.960 7  19603064.562    19603064.814    19603066.919
        54.600          47.900


 112024382.581 7                  20941778.945    20941778.630
        44.300
 198906502.507 6                  37850639.986
        40.700
 202059413.986 7                  38450630.035
        43.100
 117697466.211 7  91712350.81046  22397086.774    22397086.3094   22397087.7784
        46.300          40.3004
 103419080.079 8  80437090.899 7  19360252.278    19360251.915    19360257.831
        49.800          45.400
 119072014.086 5  92611604.895 6  22282706.998    22282705.732    22282716.868
        35.200          40.600
 133708735.007 6                  25443914.882
        39.400
 123552111.227 8                  23511168.175
        50.000
 120438534.985 6                  22506826.833    22506830.321
        40.600
 25  1  1  1 22 30.0000000  0 23G06G14G19G12G11G20E27G24E34S35R13E15
                                R22E36R23S31S33G17R12R11E02E30R21
 106122055.184 8  82692559.23948  20194341.174    20194340.9204   20194343.8264
        50.400          50.2004
 123845997.557 6  96503393.15342  23567108.670    23567108.9334   23567114.1634
        36.800          14.4004
 107180275.013 7  83517107.69645  20395728.491    20395727.2224   20395729.1274
        44.600          30.8004
 117087049.628 8  91236710.60447  22280906.114    22280905.6814   22280907.4294
        49.500          46.6004
 112535277.859 6  87689847.63344  21414748.760    21414748.6134   21414751.4424
        40.200          25.3004
 123958223.793 6  96590843.48841  23588464.336    23588463.7194   23588474.7904
        41.600           7.4004
 134446188.050 7                  25584240.164
        45.300


 122814259.685 7                  23370760.146
        46.800
 200843708.898 5                  38219283.259
        34.500
 111897300.895 6                  20954751.617    20954752.354
        39.100
 129017432.630 6                  24551202.595
        40.100
 104656253.714 8  81399362.357 7  19605630.227    19605630.283    19605633.339
        53.400          46.800


 111995409.663 7                  20936363.813    20936362.775
        43.300
 198906508.702 6                  37850645.177
        39.400
 202059409.557 7                  38450635.625
        45.000
 117725628.977 7  91734295.81246  22402446.595    22402446.1084   22402446.8924
        46.000          40.2004
 103431264.209 8  80446567.445 7  19362531.731    19362532.130    19362538.685
        49.300          45.300
 119136684.967 5  92661904.390 7  22294811.817    22294810.271    22294819.744
        32.800          43.400
 133745084.091 6                  25450831.429
        39.300
 123553935.288 8                  23511515.245
        50.000
 120486691.261 5                  22515822.903    22515820.764
        34.500
 25  1  1  1 22 45.0000000  0 25G03G06G14G19G12G11G20E27G24E34S35R13
                                E15R22E36R23S31S33R07G17R12R11E02E30
                                R21
 126675323.315 5                  24105507.818
        31.000
 106128472.822 8  82697560.00048  20195561.856    20195561.5974   20195564.9904
        50.100          50.1004
 123899336.753 5  96544956.15242  23577258.531    23577258.6244   23577264.1114
        32.100          14.3004
 107191772.369 7  83526066.66545  20397916.982    20397915.7174   20397917.3654
        45.200          32.5004
 117043729.651 8  91202954.85147  22272662.386    22272661.9484   22272664.1724
        50.200          45.7004
 112504686.068 6  87666009.91044  21408927.235    21408927.1194   21408930.2984
        40.100          27.4004
 123904460.344 7  96548950.02841  23578233.823    23578233.2874   23578244.3664
        42.700           7.0004
 134412495.217 7                  25577828.834
        42.800


 122824882.958 7                  23372781.065
        46.300
 200843749.737 4                  38219325.753
        29.200
 111855954.572 5                  20947008.132    20947007.347
        33.600
 128989952.455 6                  24545973.286
        39.600
 104670049.673 8  81410092.569 7  19608214.678    19608214.545    19608217.186
        52.600          46.400


 111966530.303 7                  20930965.144    20930964.253
        43.100
 198906515.133 6                  37850655.426
        41.000
 202059405.442 7                  38450635.602
        44.800
 128935236.187 4 100282999.136 5  24086187.248                    24086199.904
        29.000          30.700
 117753820.260 7  91756263.00946  22407810.646    22407810.1324   22407810.7604
        47.500          39.2004
 103443649.108 7  80456200.151 7  19364850.985    19364850.912    19364857.526
        47.700          45.200
 119201417.489 6  92712251.897 6  22306926.421    22306927.644    22306934.339
        39.500          41.900
 133781487.163 6                  25457759.491
        36.000
 123555847.347 8                  23511879.045
        49.500
 120534849.238 5                  22524823.225    22524821.183
        35.100
 25  1  1  1 23  0.0000000  0 24G03G06G14G19G12G11G20E27G24E34S35R13
                                E15R22E36R23S31S33G17R12R11E02E30R21
 126713742.471 5                  24112815.138
        31.000
 106135001.102 8  82702646.99748  20196804.209    20196803.9464   20196807.1184
        49.900          50.6004
 123952714.150 6  96586548.92042  23587417.298    23587417.3154   23587420.6954
        36.600          13.7004
 107203328.577 7  83535071.50345  20400115.986    20400114.7174   20400116.3084
        45.600          33.2004
 117000479.015 8  91169253.11947  22264431.920    22264431.4824   22264434.6734
        49.600          45.2004
 112474187.704 7  87642244.93645  21403124.820    21403124.7184   21403127.2454
        44.000          30.8004
 123850713.903 6  96507069.79841  23568005.591    23568004.9704   23568017.3404
        40.400           9.0004
 134378837.765 7                  25571425.439
        43.700


 122835575.636 7                  23374815.957
        45.700


 111814749.549 5                  20939294.671    20939289.675
        32.100
 128962535.796 7                  24540756.299
        43.300
 104683932.414 8  81420890.297 7  19610815.021    19610814.695    19610817.591
        52.100          46.300


 111937738.414 6                  20925582.723    20925580.495
        37.400
 198906517.027 7                  37850657.796
        43.300
 202059395.788 7                  38450634.753
        43.200
 117782033.654 7  91778247.44846  22413179.013    22413178.4684   22413179.7034
        47.900          39.5004
 103456228.377 7  80465984.026 7  19367205.136    19367205.083    19367212.461
        46.900          45.200
 119266204.591 6  92762641.857 6  22319050.352    22319050.463    22319058.464
        41.900          40.500
 133817937.912 5                  25464693.282
        34.900
 123557841.076 8                  23512258.032
        48.700
 120583002.380 6                  22533835.987    22533836.010
        41.400
 25  1  1  1 23 15.0000000  0 24G03G06G14G19G12G11G20E27G24E34S35R13
                                E15R22E36R23S31S33G17R12R11E02E30R21
 126752271.761 5  98768018.00442  24120148.388    24120148.6244   24120158.7034
        31.200          12.1004
 106141646.652 8  82707825.36248  20198069.269    20198069.0014   20198071.9794
        49.000          51.5004
 124006136.287 6  96628176.55542  23597581.043    23597581.0604   23597585.2524
        36.800          16.2004
 107214950.377 7  83544127.46445  20402326.940    20402325.6664   20402327.5964
        42.700          32.2004
 116957304.884 8  91135611.02347  22256216.253    22256215.8294   22256217.8754
        49.000          42.6004
 112443789.673 7  87618558.22145  21397340.386    21397340.2574   21397342.5134
        44.900          32.0004
 123796991.567 6  96465208.6564   23557781.377    23557780.6354   23557794.7104
        37.000           5.4004
 134345222.650 6                  25565026.014
        41.600


 122846344.326 7                  23376864.901
        43.500


 111773692.995 6                  20931605.824    20931604.155
        38.400
 128935189.463 7                  24535551.454
        43.500
 104697908.579 8  81431760.654 7  19613432.344    19613432.298    19613436.195
        50.600          46.800


 111909040.539 7                  20920220.890    20920218.850
        44.000
 198906519.717 7                  37850660.756
        42.000
 202059387.769 6                  38450625.738
        40.900
 117810275.916 8  91800254.41546  22418553.215    22418552.6654   22418554.7864
        48.700          39.8004
 103469008.588 8  80475924.228 7  19369597.102    19369597.822    19369604.332
        48.500          44.900
 119331052.760 7  92813079.280 6  22331186.396    22331186.885    22331193.089
        43.300          38.700
 133854442.867 6                  25471641.948
        38.300
 123559923.344 8                  23512654.725
        49.100
 120631157.250 5  93824333.885 5  22542822.474    22542820.014    22542838.788
        32.800          33.400
 25  1  1  1 23 30.0000000  0 23G06G14G19G12G11G20E27G24E34S35R13E15
                                R22E36R23S31S33R07G17R12R11E02E30
 106148408.410 8  82713094.28148  20199355.607    20199355.3174   20199358.7734
        50.100          52.2004
 124059602.108 4  96669838.17842  23607754.658    23607754.6504   23607758.8424
        29.300          14.5004
 107226636.898 7  83553233.84145  20404551.470    20404550.2054   20404550.6324
        45.100          32.3004
 116914206.817 8  91102028.17046  22248014.645    22248014.2164   22248015.1084
        48.900          40.8004
 112413491.176 7  87594949.02845  21391573.946    21391573.7944   21391576.6064
        45.700          33.0004
 123743292.901 5  96423365.6274   23547562.677    23547561.7564   23547576.1994
        34.400           5.0004
 134311649.288 7                  25558638.066
        42.900


 122857188.144 7                  23378928.533
        43.200


 111732784.453 7                  20923944.583    20923944.842
        42.100
 128907912.604 6                  24530361.452
        40.700
 104711977.072 8  81442702.849 7  19616067.698    19616067.197    19616072.114
        50.900          46.100


 111880436.047 7                  20914872.918    20914873.253
        43.700
 198906522.625 6                  37850657.260
        40.600
 202059380.337 7                  38450633.308
        44.400
 128778316.583 6                  24056867.111
        36.100
 117838546.236 8  91822283.21446  22423932.754    22423932.2274   22423935.4004
        48.800          41.4004
 103481989.066 7  80486020.123 7  19372027.921    19372029.718    19372034.963
        47.800          44.900
 119395960.715 6  92863563.213 6  22343332.139    22343330.028    22343337.787
        38.800          39.100
 133891001.138 5                  25478598.427
        35.700
 123562093.383 8                  23513067.104
        48.200
 25  1  1  1 23 45.0000000  0 24G06G14G19G12G11G20E27G24E34S35R13E15
                                R22E36R23S31S33R07G17R12R11E02E30R21
 106155289.420 8  82718456.11248  20200665.708    20200665.4134   20200668.5834
        50.900          53.5004
 124113114.363 5  96711536.07242  23617936.527    23617936.3494   23617941.8224
        32.400          13.6004
 107238391.551 8  83562393.30545  20406789.161    20406787.9054   20406786.7394
        48.300          33.6004
 116871188.191 6  91068507.23145  22239829.138    22239828.6874   22239827.4244
        41.900          35.7004
 112383295.532 7  87571419.91945  21385828.158    21385828.0334   21385830.6074
        44.900          32.9004
 123689621.415 6  96381543.58941  23537349.627    23537348.8184   23537362.6334
        37.300           6.3004
 134278120.975 7                  25552257.976
        45.200


 122868109.946 7                  23381007.134
        44.800


 111692027.553 6                  20916313.322    20916313.428
        41.200
 128880708.493 7                  24525184.750
        43.400
 104726140.876 8  81453719.119 8  19618721.906    19618721.333    19618725.897
        52.400          48.200


 111851927.884 7                  20909541.981    20909541.474
        42.600
 198906529.900 6                  37850659.916
        41.600
 202059375.846 7                  38450631.551
        43.900
 128725999.344 4                  24047064.615    24047067.913
        27.400
 117866847.784 8  91844336.38746  22429318.614    22429318.0914   22429320.7044
        48.200          41.5004
 103495172.613 7  80496274.020 7  19374492.796    19374494.544    19374501.617
        43.000          45.100
                  92914095.593 5                                  22355494.475
                        33.800
 133927615.757 6                  25485565.327
        37.900
 123564354.414 8                  23513497.765
        49.400
 120727472.090 6                  22560826.433    22560826.116
        40.100
 25  1  1  1 24  0.0000000  0 24G03G06G14G19G12G11G20E27G24E34S35R13
                                E15R22E36R23S31S33G17R12R11E02E30R21


 106162284.414 8  82723906.76149  20201996.366    20201996.0674   20201999.8484
        52.400          54.3004


 107250209.120 7  83571601.79745  20409037.169    20409035.9134   20409035.8714
        46.000          34.8004
 116828244.262 6  91035044.50845  22231655.767    22231655.3204   22231652.1764
        40.200          30.9004
 112353197.660 7  87547967.08045  21380100.812    21380100.7104   21380103.6924
        44.900          32.2004
 123635972.189 6  96339739.12041  23527140.261    23527139.2964   23527153.2924
        39.100           6.0004
 134244632.842 7                  25545885.515
        46.400


 122879104.691 7                  23383098.859
        43.700
 200843957.420 5                  38219338.028
        34.500
 111651417.567 6                  20908709.731    20908709.944
        41.300
 128853572.055 7                  24520021.233
        43.000
 104740394.542 8  81464805.317 8  19621392.181    19621392.149    19621396.010
        52.500          49.300


 111823511.119 7                  20904228.264    20904228.927
        44.500
 198906535.027 7                  37850655.780
        42.600
 202059370.787 7                  38450629.722
        43.100
 117895175.547 8  91866409.94946  22434710.176    22434709.6494   22434710.4494
        48.500          41.1004
 103508554.278 7  80506681.939 7  19377002.343    19377002.001    19377007.041
        44.700          45.200


 133964281.630 6                  25492544.837
        40.400
 123566701.482 8                  23513944.486
        50.300
 120775629.658 6                  22569820.712    22569820.525
        39.000
 25  1  1  1 24 15.0000000  0 24G03G06G14G19G12G11G20E27G24E34S35R13
                                E15R22E36R23S31S33G17R12R11E02E30R21
 126907444.933 5                  24149682.622
        31.600
 106169395.169 8  82729447.61249  20203349.213    20203348.9184   20203353.1044
        52.100          54.4004


 107262091.619 7  83580860.90345  20411298.765    20411297.5184   20411297.3324
        45.000          34.2004
 116785377.251 7  91001641.71845  22223497.489    22223497.0164   22223493.4544
        45.500          32.0004
 112323199.657 7  87524592.07244  21374392.017    21374391.9194   21374394.8754
        42.800          29.3004
 123582347.618 6  96297953.8514   23516935.675    23516934.8974   23516948.1734
        36.600           4.1004
 134211187.033 7                  25539520.601
        46.400


 122890174.099 7                  23385204.824
        42.600
 200843997.156 5                  38219343.023
        35.700
 111610957.246 6                  20901131.063    20901129.564
        39.200
 128826505.280 7                  24514869.798
        43.300
 104754739.796 8  81475962.746 8  19624079.119    19624079.433    19624083.943
        52.500          50.600
 140094824.643 5                  26659157.985
        30.500
 111795187.612 7                  20898933.130    20898933.122
        42.600
 198906541.129 7                  37850655.435
        42.800
 202059366.196 7                  38450622.988
        43.900
 117923531.486 8  91888505.46247  22440105.752    22440105.2114   22440106.5444
        49.000          42.9004
 103522135.821 7  80517245.356 7  19379541.805    19379542.232    19379549.699
        45.900          46.000
 119591469.876 6  93015294.420 6  22379896.652                    22379847.039
        36.400          38.300
 134001000.558 6                  25499532.580
        41.200
 123569136.567 8                  23514407.790
        50.500
 120823787.388 6  93974181.480 5  22578815.208    22578819.348    22578843.939
        36.800          31.000
 25  1  1  1 24 30.0000000  0 24G03G06G14G19G12G11G20E27G24E34S35R13
                                E15R22E36R23S31S33G17R12R11E02E30R21
 126946514.925 5                  24157117.412
        33.600
 106176619.302 8  82735076.81749  20204724.322    20204724.0274   20204728.0884
        51.600          54.1004
 124273873.763 6  96836838.89842  23648535.078    23648534.5284   23648543.6974
        37.800          13.2004
 107274036.797 7  83590168.85845  20413571.214    20413569.9944   20413570.6964
        42.800          32.5004
 116742585.300 7  90968297.37245  22215353.647    22215353.1824   22215350.3264
        45.200          33.9004
 112293299.395 6  87501293.23344  21368704.191    21368704.0664   21368702.9644
        38.800          25.5004
 123528745.816 6  96256186.0774   23506738.167    23506737.4704   23506747.3074
        36.900           4.3004
 134177781.556 7                  25533164.553
        47.000


 122901315.820 6                  23387326.035
        41.700
 200844035.544 6                  38219340.273
        38.600
 111570644.415 6                  20893584.121    20893583.089
        41.000
 128799506.028 7                  24509732.509
        43.100
 104769174.198 8  81487189.504 8  19626783.523    19626783.772    19626788.684
        53.700          51.300
 140133880.359 4                  26666588.109
        28.300
 111766955.059 6                  20893657.644    20893657.962
        41.700
 198906545.484 6                  37850657.971
        39.500
 202059359.046 7                  38450624.119
        44.200
 117951913.510 8  91910621.32647  22445506.717    22445506.1634   22445507.8934
        49.100          43.5004
 103535914.995 7  80527962.506 7  19382121.190    19382121.303    19382129.186
        45.000          46.100
                  93065959.862 6                                  22392035.984
                        36.300
 134037770.233 6                  25506529.026
        41.200
 123571657.584 8                  23514887.575
        51.100
                                                  22587808.365

 25  1  1  1 24 45.0000000  0 24G03G06G14G19G12G11G20E27G24E34S35R13
                                E15R22E36R23S31S33G17R12R11E02E30R21
 126985692.348 5                  24164573.271
        33.600
 106183958.737 8  82740795.87048  20206121.281    20206120.9914   20206124.6254
        50.600          53.7004
 124327553.371 5  96878667.08442  23658752.000    23658751.4284   23658755.5554
        34.700          13.5004
 107286046.750 7  83599527.26845  20415856.366    20415855.1374   20415856.3304
        42.500          31.7004
 116699870.896 7  90935013.47145  22207226.601    22207226.1814   22207223.2054
        43.100          34.2004
 112263499.011 6  87478072.20644  21363032.794    21363032.6874   21363031.5474
        40.600          25.4004
 123475169.384 5                  23496539.107
        35.400
 134144418.718 7                  25526814.952
        45.000


 122912531.778 7                  23389459.829
        42.200
 200844074.101 6                  38219350.052
        36.800
 111530482.372 6                  20886060.375    20886060.688
        40.600
 128772576.430 7                  24504608.091
        43.200
 104783699.629 9  81498487.061 8  19629504.787    19629504.812    19629509.608
        54.500          49.700


 111738815.529 6                  20888399.708    20888397.925
        39.000
 198906549.862 7                  37850668.202
        42.500
 202059353.448 7                  38450626.373
        44.800
 117980323.535 8  91932759.00547  22450912.527    22450911.9644   22450914.2594
        49.200          43.2004
 103549893.709 7  80538834.833 7  19384738.971    19384739.375    19384746.141
        45.900          46.300
 119721307.886 5  93116669.948 6  22404226.821                    22404237.039
        33.000          37.300
 134074592.666 6                  25513535.674
        40.700
 123574266.723 8                  23515383.945
        50.400
 120920093.915 5  94049141.824 5  22596816.152    22596819.046    22596850.327
        35.000          31.000
 25  1  1  1 25  0.0000000  0 24G03G06G14G19G12G11G20E27G24E34S35R13
                                E15R22E36R23S31S33G17R12R11E02E30R21
 127024977.214 4                  24172049.585
        29.400
 106191413.593 8  82746604.86648  20207539.772    20207539.4864   20207542.7864
        51.700          53.1004
 124381275.418 5  96920528.39042  23668975.402    23668975.0944   23668976.9204
        33.000          14.2004
 107298121.819 5  83608936.45644  20418154.382    20418153.1574   20418154.1984
        34.100          25.9004
 116657234.852 7  90901790.65546  22199114.934    22199114.5104   22199111.3064
        47.600          39.7004
 112233799.034 6  87454929.41044  21357380.925    21357380.8364   21357379.9534
        39.300          26.0004
 123421618.668 5                  23486349.868
        30.200
 134111099.013 7                  25520475.010
        45.900


 122923822.162 7                  23391607.703
        44.500


 111490470.128 5                  20878566.899    20878563.485
        33.300
 128745716.871 7                  24499496.459
        43.300
 104798316.067 9  81509855.443 8  19632243.607    19632243.601    19632247.498
        54.100          49.700


 111710769.410 6                  20883158.041    20883156.294
        40.900
 198906555.132 6                  37850659.317
        39.800
 202059348.215 7                  38450625.765
        44.900
 118008762.051 8  91954918.90747  22456324.269    22456323.7114   22456325.9784
        50.400          43.6004
 103564072.255 8  80549862.569 7  19387395.095    19387395.336    19387401.341
        48.800          47.500
 119786563.656 6  93167424.452 6  22416441.597    22416443.820    22416449.375
        38.200          38.400
 134111468.119 7                  25520553.348
        42.300
 123576964.294 8                  23515897.463
        50.600
 120968248.940 6  94086535.505 6  22605819.882    22605819.202    22605838.271
        39.600          37.100
 25  1  1  1 25 15.0000000  0 22G06G14G19G12G11E27G24E34S35R13E15R22
                                E36R23S31S33G17R12R11E02E30R21
 106198984.602 8  82752504.37648  20208980.271    20208979.9814   20208983.5214
        51.700          52.3004
 124435040.713 5  96962423.42542  23679204.731    23679204.3784   23679208.0864
        35.200          13.5004
 107310262.980 6  83618397.12644  20420466.077    20420464.8574   20420464.0464
        39.800          27.1004
 116614678.124 7  90868629.63847  22191015.243    22191014.8054   22191015.2014
        47.000          42.0004
 112204200.278 6  87431865.48644  21351748.618    21351748.5204   21351749.2414
        41.700          28.9004
 134077823.537 7                  25514141.354
        43.200


 122935187.709 7                  23393770.602
        44.000
 200844092.152 6                  38219369.535
        36.000
 111450611.505 6                  20871106.958    20871106.277
        40.400
 128718928.206 7                  24494398.789
        43.600
 104813024.201 8  81521295.077 8  19634997.521    19634997.525    19635001.731
        52.500          49.000


 111682817.486 6                  20877927.994    20877927.120
        41.200
 198906562.727 7                  37850664.226
        43.500
 202059344.225 7                  38450618.959
        43.700
 118037229.888 8  91977101.65747  22461740.514    22461739.9644   22461743.1924
        49.400          43.2004
 103578451.381 8  80561046.359 7  19390087.612    19390087.579    19390092.972
        48.300          47.000
 119851877.124 6  93218223.805 6  22428661.126    22428664.398    22428673.861
        37.400          39.800
 134148397.321 7                  25527580.526
        43.900
 123579751.366 8                  23516428.197
        50.500
                  94123989.921 6                                  22614829.442
                        36.100
 25  1  1  1 25 30.0000000  0 21G06G14G19G12G11E27G24E34S35R13E15R22
                                E36R23S31S33G17R12R11E02E30
 106206665.364 8  82758489.40648  20210441.677    20210441.3784   20210444.9724
        51.100          51.4004
 124488842.566 5  97004346.99841  23689443.894    23689443.5734   23689446.5864
        32.300          11.7004
 107322463.888 5  83627904.30743  20422786.638    20422785.4184   20422785.6864
        31.700          20.1004
 116572194.908 7  90835525.89047  22182931.166    22182930.7014   22182932.4664
        46.300          42.8004
 112174696.720 7  87408875.72245  21346134.176    21346134.0924   21346136.7564
        43.300          30.0004
 134044586.261 7                  25507816.805
        43.700


 122946622.067 7                  23395946.850
        44.400
 200844129.005 5                  38219377.973
        35.000
 111410899.456 6                  20863669.027    20863669.061
        40.000
 128692204.299 7                  24489313.063
        44.200
 104827817.475 8  81532800.983 8  19637769.039    19637769.627    19637773.167
        52.700          49.200


 111654953.534 7                  20872719.497    20872720.278
        42.100
 198906565.192 7                  37850664.070
        44.000
 202059336.251 7                  38450615.601
        42.600
 118065720.834 8  91999302.40247  22467162.628    22467162.0834   22467164.4984
        49.100          43.3004
 103593024.754 8  80572381.205 7  19392814.623    19392814.969    19392820.805
        49.300          47.100
 119917241.524 6  93269062.677 6  22440897.756    22440897.962    22440903.016
        41.600          38.400
 134185373.969 6                  25534615.325
        40.400
 123582621.729 8                  23516974.054
        51.300
 25  1  1  1 25 45.0000000  0 23G03G06G14G12G11G20E27G24E34S35R13E15
                                R22E36R23S31S33G17R12R11E02E30R21


 106214464.647 8  82764566.79348  20211925.732    20211925.4374   20211929.3454
        50.800          51.0004


 116529794.445 7  90802486.63047  22174862.260    22174861.8044   22174864.4704
        46.300          43.2004
 112145297.356 7  87385967.13845  21340539.591    21340539.4484   21340542.7784
        44.000          30.5004
 123261095.399 6  96047615.13541  23455807.364    23455806.9534   23455808.9974
        36.500           6.9004
 134011396.307 7                  25501500.750
        44.400


 122958133.988 7                  23398137.435
        43.300
 200844169.516 5                  38219387.077
        35.500
 111371343.646 6                  20856258.646    20856258.227
        39.400
 128665554.107 7                  24484242.411
        44.400
 104842704.673 8  81544379.903 8  19640557.590    19640557.836    19640562.431
        51.500          48.800


 111627186.406 6                  20867529.589    20867530.097
        41.700
 198906571.698 7                  37850665.854
        43.700
 202059332.150 7                  38450611.245
        43.700
 118094243.800 8  92021528.09947  22472590.307    22472589.7534   22472592.5514
        48.200          42.6004
 103607801.261 8  80583874.043 7  19395580.744    19395581.553    19395587.174
        49.000          46.300
 119982665.388 6  93319947.869 6  22453137.758    22453137.097    22453145.987
        36.700          36.600
 134222406.922 6                  25541662.465
        39.000
 123585584.404 8                  23517537.068
        50.100
 121112834.884 6  94198891.412 5  22632820.843    22632820.965    22632821.982
        38.900          33.500
 25  1  1  1 26  0.0000000  0 22G06G14G12G11G20E27G24E34S35R13E15R22
                                E36R23S31S33G17R12R11E02E30R21
 106222377.061 8  82770732.33548  20213431.136    20213430.8414   20213434.9094
        51.000          50.6004
 124596602.837 5  97088277.86741  23709944.670    23709945.0094   23709949.6064
        30.300           6.8004
 116487471.882 7  90769508.05047  22166808.742    22166808.3134   22166811.1804
        46.300          43.0004
 112115997.057 7  87363135.73745  21334963.783    21334963.6094   21334966.6514
        45.900          31.3004
 123207649.353 4  96005968.97441  23445636.539    23445636.2444   23445640.9124
        28.300           9.2004
 133978248.689 7                  25495193.068
        46.100
 124078763.770 6  96684816.62142  23611406.538    23611406.4274   23611413.7734
        37.400          14.0004
 122969718.181 7                  23400342.084
        43.000
 200844209.686 5                  38219395.824
        35.800
 111331939.216 6                  20848878.720    20848880.216
        40.700
 128638972.513 7                  24479184.684
        44.400
 104857680.344 8  81556027.656 8  19643362.948    19643363.068    19643367.712
        51.100          48.700


 111599511.023 7                  20862359.337    20862360.731
        44.700
 198906578.129 7                  37850661.208
        42.400
 202059327.195 7                  38450619.339
        44.700
 118122793.612 7  92043774.69947  22478023.307    22478022.7494   22478025.4654
        47.400          42.6004
 103622775.631 8  80595520.800 7  19398384.195    19398384.290    19398390.573
        48.000          46.200
 120048142.956 6  93370874.830 5  22465391.177    22465389.007    22465397.527
        38.200          35.200
 134259490.844 7                  25548720.923
        42.500
 123588634.310 8                  23518117.601
        49.200
 121160984.701 6  94236341.371 5  22641815.563    22641813.944    22641820.975
        36.900          32.900
 25  1  1  1 26 15.0000000  0 22G06G14G12G11G20E27G24E34S35R13E15R22
                                E36R23S31S33G17R12R11E02E30R21
 106230397.837 8  82776982.30748  20214957.201    20214956.9064   20214961.0474
        50.300          50.1004
 124650524.997 5  97130295.1834   23720205.604    23720206.0514   23720211.2604
        30.400           3.2004
 116445223.050 8  90736586.91947  22158768.196    22158767.7404   22158770.9394
        48.300          43.4004
 112086791.268 8  87340378.02845  21329405.517    21329405.3434   21329407.6294
        48.200          31.1004
 123154224.692 4  95964339.44441  23435468.700    23435468.7894   23435476.1814
        25.600           8.2004
 133945138.979 7                  25488892.604
        47.500
 124109746.718 6  96708959.13643  23617293.617    23617293.3944   23617306.6744
        38.100          20.8004
 122981369.867 7                  23402558.752
        43.300
 200844244.351 6                  38219394.580
        39.700
 111292681.777 6                  20841527.587    20841527.786
        40.400
 128612454.903 7                  24474138.107
        42.300
 104872739.509 8  81567740.348 7  19646184.288    19646184.747    19646188.291
        51.800          47.600


 111571922.193 7                  20857197.303    20857198.825
        42.800
 198906578.923 7                  37850660.976
        42.200
 202059316.790 7                  38450614.206
        44.600
 118151365.827 7  92066038.75047  22483460.758    22483460.1954   22483461.9754
        47.300          42.4004
 103637943.137 8  80607317.759 7  19401223.000    19401224.048    19401229.163
        48.100          44.700
 120113669.152 6  93421839.579 5  22477655.007    22477656.076    22477659.427
        39.100          33.200
 134296621.091 6                  25555785.442
        40.900
 123591766.827 8                  23518713.909
        49.300
 121209127.370 6                  22650807.588    22650808.554
        37.000
 25  1  1  1 26 30.0000000  0 23G06G14G19G12G11E27G24E34S35R13E15R22
                                E36R23S31S33R07G17R12R11E02E30R21
 106238540.090 8  82783326.92548  20216506.698    20216506.4304   20216510.6264
        51.100          50.5004
 124704495.335 5  97172350.1344   23730472.663    23730473.0294   23730483.9144
        31.800           4.4004
 107371937.981 5  83666448.72743  20432195.907    20432195.3574   20432200.7054
        34.500          18.2004
 116403061.537 7  90703733.83747  22150745.291    22150744.8354   22150747.2344
        47.500          42.9004
 112057693.429 7  87317704.43144  21323867.966    21323867.8064   21323869.2964
        47.900          29.8004
 133912080.724 7                  25482601.611
        47.200
 124140824.832 6  96733175.98643  23623207.848    23623207.5584   23623218.9644
        39.400          20.2004
 122993102.231 7                  23404791.567
        43.300
 200844286.537 6                  38219401.887
        38.200
 111253585.476 6                  20834205.727    20834205.781
        40.000
 128586014.678 6                  24469106.880
        41.800
 104887895.481 8  81579528.339 7  19649023.500    19649023.843    19649027.351
        51.400          47.300


 111544433.941 6                  20852058.448    20852060.152
        40.900
 198906587.140 7                  37850665.009
        42.300
 202059315.352 7                  38450614.885
        44.000
 128151584.279 5  99673484.401 5  23939791.266    23939787.499    23939800.019
        34.100          34.700
 118179973.695 7  92088330.57347  22488904.671    22488904.1264   22488905.0214
        47.700          43.3004
 103653316.864 7  80619275.124 7  19404099.866    19404100.308    19404105.906
        47.600          43.900
 120179256.974 6  93472852.386 5  22489928.008    22489930.493    22489938.019
        38.300          34.700
 134333810.902 7                  25562863.901
        42.600
 123594995.457 8                  23519328.158
        48.000
 121257275.653 6                  22659836.112
        37.300
 25  1  1  1 26 45.0000000  0 23G06G14G19G12G11G20E27G24E34S35R13E15
                                R22E36R23S31S33R07G17R12R11E02E30
 106246790.359 8  82789755.71248  20218076.869    20218076.5974   20218080.6174
        51.000          51.1004
 124758500.196 4  97214432.0604   23740752.652    23740753.4654   23740761.6304
        27.700           3.8004
 107384461.514 5  83676207.30142  20434580.844    20434580.0444   20434583.4674
        30.900          17.6004
 116360974.372 7  90670938.66547  22142735.932    22142735.4944   22142738.2814
        47.000          42.5004
 112028690.339 7  87295104.66044  21318349.122    21318348.9624   21318349.5834
        46.400          29.9004
 123047472.658 5  95881180.17542  23415156.112    23415156.0194   23415162.9724
        34.500          15.0004
 133879060.829 7                  25476317.459
        47.000
 124171984.515 5  96757456.33741  23629130.297    23629129.5824   23629149.1764
        34.200          11.0004
 123004901.831 7                  23407037.073
        45.000
 200844324.058 4                  38219414.220
        27.900
 111214637.367 6                  20826911.301    20826911.358
        40.200
 128559638.510 7                  24464087.997
        42.100
 104903134.442 8  81591380.898 7  19651878.470    19651878.303    19651881.472
        51.700          45.800
 140485947.456 5                  26733583.734
        34.500
 111517032.653 6                  20846939.640    20846938.754
        41.200
 198906590.568 6                  37850664.074
        40.300
 202059307.027 7                  38450617.461
        45.400
                  99632976.708 6                  23930070.158    23930072.728
                        37.000
 118208603.988 7  92110639.90347  22494352.881    22494352.3404   22494352.9424
        45.900          43.3004
 103668883.573 8  80631382.547 7  19407016.263    19407016.834    19407021.882
        50.300          44.700
 120244892.360 5  93523902.143 5  22502213.008    22502208.602    22502216.733
        32.800          33.200
 134371046.776 7                  25569949.764
        44.500
 123598306.914 8                  23519958.816
        49.200
 25  1  1  1 27  0.0000000  0 24G06G14G19G12G11G20E27G24E34S35R13E15
                                R22E36R23S31S33R07G17R12R11E02E30R21
 106255152.752 8  82796271.85448  20219668.165    20219667.8884   20219671.8444
        51.700          51.7004


 107397048.597 6  83686015.40443  20436976.707    20436975.9564   20436977.4094
        38.400          23.9004
 116318966.256 7  90638205.13447  22134741.737    22134741.3354   22134744.2454
        46.500          42.6004
 111999786.312 7  87272582.08944  21312848.901    21312848.7144   21312849.3094
        46.200          29.5004
 122994131.973 5  95839616.00242  23405011.086    23405010.6134   23405012.5014
        35.500          15.0004
 133846083.720 7                  25470043.094
        46.900
 124203229.607 5  96781803.19741  23635073.553    23635072.7264   23635095.7234
        33.500           7.3004
 123016772.788 7                  23409296.647
        46.000


 111175842.197 6                  20819645.708    20819643.249
        39.400
 128533330.767 7                  24459081.837
        42.300
 104918460.532 8  81603301.157 7  19654748.911    19654748.866    19654753.680
        49.300          47.800
 140525128.398 5                  26741036.067
        33.400
 111489722.343 6                  20841832.895    20841834.701
        40.800
 198906593.094 6                  37850666.122
        39.400
 202059298.347 7                  38450615.020
        44.300
 128047444.051 4  99592486.519 5  23920347.358    23920344.271    23920345.545
        28.400          34.000
 118237261.066 7  92132970.08547  22499806.082    22499805.5414   22499806.7344
        47.000          42.9004
 103684647.224 8  80643643.165 7  19409967.921    19409967.850    19409973.028
        49.400          44.900


 134408333.007 7                  25577045.071
        43.300
 123601705.545 8                  23520604.989
        48.700


 25  1  1  1 27 15.0000000  0 23G06G14G19G12G11G20E27G24E34S35R13E15
                                R22E36S31S33R07G17R12R11E02E30R21
 106263628.305 8  82802876.18548  20221281.193    20221280.9074   20221285.1784
        51.500          53.2004
 124866618.274 5                  23761327.318
        30.300
 107409700.305 7  83695873.90145  20439385.896    20439384.9804   20439384.6264
        44.500          30.1004
 116277038.751 7  90605534.40146  22126764.013    22126763.6384   22126765.3324
        47.500          41.7004
 111970982.679 7  87250137.75745  21307367.811    21307367.6064   21307368.6074
        46.100          30.5004
 122940819.499 4  95798073.86541  23394864.856    23394864.2844   23394867.4804
        29.000          11.1004
 133813150.912 7                  25463776.765
        46.800
 124234561.072 6  96806216.97942  23641042.353    23641041.5534   23641059.1774
        38.900          16.1004
 123028716.257 7                  23411569.405
        46.600


 111137201.618 6                  20812411.160    20812410.275
        40.200
 128507092.663 6                  24454091.146
        40.900
 104933874.798 8  81615290.018 8  19657636.451    19657636.210    19657641.351
        48.400          48.500
 140564321.368 5                  26748495.249
        33.100
 198906594.780 7                  37850662.854
        42.200
 202059289.263 7                  38450608.379
        43.000
 127995408.906 5  99552015.087 5  23910624.330    23910624.940    23910624.394
        33.400          31.600
 118265946.100 7  92155322.06147  22505264.384    22505263.8264   22505266.4564
        46.100          43.8004
 103700609.046 7  80656057.903 7  19412954.183    19412954.219    19412961.700
        47.400          45.700
 120376319.168 6                  22526805.992    22526804.709
        38.800
 134445670.694 6                  25584148.143
        38.800
 123605192.696 8                  23521269.143
        49.800


 25  1  1  1 27 30.0000000  0 24G06G14G19G12G11G20E27G24R06E34S35R13
                                E15R22E36R23S31S33G17R12R11E02E30R21
 106272221.312 8  82809572.02349  20222916.999    20222916.7314   20222920.7914
        52.400          54.4004


 107422421.130 7  83705786.23744  20441805.130    20441804.1694   20441805.4334
        42.700          29.5004
 116235196.535 7  90572930.13146  22118801.780    22118801.4004   22118801.4174
        47.100          40.7004
 111942283.974 8  87227775.18145  21301905.857    21301905.6434   21301907.8834
        48.400          33.0004
 122887539.980 5  95756557.44641  23384726.179    23384725.6474   23384728.3714
        32.600          10.7004
 133780267.042 7                  25457519.277
        47.100
 124265983.084 6  96830701.81242  23647020.503    23647019.6814   23647041.1044
        39.500          12.4004
 122932614.040 4                  23037518.325
        28.100
 123040736.464 7                  23413856.149
        45.500


 111098720.411 6                  20805205.025    20805204.930
        41.500
 128480928.879 6                  24449110.887
        36.200
 104949381.424 8  81627350.734 8  19660541.878    19660542.103    19660546.707
        48.600          48.900
 140603530.544 5                  26755957.620
        32.800
                                                  20831683.867

 198906601.987 6                  37850672.146
        40.200
 202059285.524 7                  38450609.086
        43.600
 118294663.348 7  92177699.12247  22510729.641    22510729.0914   22510732.0404
        46.400          44.3004
 103716773.498 7  80668630.260 7  19415979.608    19415980.407    19415986.117
        47.500          44.600
 120442115.095 6  93677365.280 6  22539120.267    22539120.992    22539127.415
        41.900          36.600
 134483064.195 6                  25591264.462
        37.000
 123608772.896 8                  23521950.404
        49.300
 121449840.718 6                  22695800.363    22695795.787
        41.700
 25  1  1  1 27 45.0000000  0 23G06G14G19G12G11E27G24R06E34S35R13E15
                                R22E36R23S31S33G17R12R11E02E30R21
 106280922.244 8  82816351.96949  20224572.212    20224571.9444   20224576.3604
        51.100          54.0004


 107435201.667 6  83715745.10644  20444238.137    20444237.1314   20444236.7574
        41.600          27.7004
 116193430.712 7  90540385.38346  22110853.874    22110853.4904   22110853.1574
        47.200          40.9004
 111913680.956 7  87205487.14845  21296462.966    21296462.7164   21296464.9894
        47.000          33.5004
 133747422.937 7                  25451268.996
        47.300
 124297485.804 6  96855249.56242  23653013.880    23653013.1074   23653039.2224
        37.600          17.4004
 122907964.332 4                  23032899.160
        25.300
 123052823.983 7                  23416156.726
        45.300
 200844466.408 5                  38219440.468
        35.800
 111060389.823 6                  20798025.979    20798025.615
        41.200
 128454829.900 5                  24444142.991
        34.600
 104964970.703 8  81639475.737 8  19663462.033    19663462.650    19663466.207
        48.400          48.100
 140642746.473 4                  26763417.961
        27.100
 111408350.205 6                  20826624.871    20826626.766
        39.500
 198906604.430 6                  37850666.037
        39.700
 202059277.194 7                  38450611.800
        43.200
 118323403.543 7  92200094.08247  22516198.321    22516197.7764   22516201.2014
        45.000          43.3004
 103733130.959 8  80681352.755 7  19419043.386    19419044.515    19419048.853
        49.200          45.200
 120507957.642 6  93728576.159 6  22551439.258    22551441.100    22551452.521
        40.300          41.300
 134520503.999 6                  25598388.646
        37.500
 123612436.852 8                  23522647.287
        48.500
 121497969.926 6                  22704780.850    22704785.693
        40.200
 25  1  1  1 28  0.0000000  0 22G06G14G19G12G11G20E27G24E34S35R13E15
                                R22E36R23S31S33G17R12R11E02E30
 106289739.164 8  82823222.30648  20226249.894    20226249.6354   20226253.8044
        51.700          53.6004


 107448050.193 7  83725756.97944  20446683.844    20446682.8124   20446680.4674
        42.300          27.7004
 116151749.982 7  90507906.95746  22102922.660    22102922.2804   22102921.0944
        47.000          40.6004
 111885181.947 7  87183280.16845  21291040.027    21291039.7774   21291041.4744
        47.700          32.4004
 122781058.257 4  95673574.7834   23364456.410    23364456.2944   23364464.8744
        28.700           5.0004
 133714627.062 7                  25445027.872
        44.800
 124329077.203 5  96879866.32443  23659027.472    23659026.7754   23659048.6094
        32.000          18.5004
 123064986.878 7                  23418470.239
        42.900
 200844505.798 5                  38219442.878
        30.600
 111022218.702 7                  20790878.029    20790876.828
        42.900
 128428804.050 5                  24439189.137
        34.200
 104980650.764 7  81651671.377 8  19666399.604    19666399.772    19666404.148
        46.800          48.700
 140681977.409 4                  26770885.244
        27.800
 111381412.560 6                  20821589.980    20821588.415
        38.300
 198906609.480 7                  37850669.727
        42.600
 202059272.153 7                  38450607.507
        44.500
 118352175.026 7  92222513.41747  22521673.683    22521673.1424   22521675.7904
        44.700          42.8004
 103749689.670 7  80694231.759 7  19422142.070    19422143.207    19422149.561
        47.100          46.400
 120573854.536 6  93779829.368 6  22563771.501    22563770.463    22563782.953
        39.600          41.300
 134557998.328 6                  25605522.725
        36.500
 123616192.912 8                  23523362.314
        49.700
 25  1  1  1 28 15.0000000  0 22G06G14G19G12G11G20E27G24E34S35R13E15
                                R22E36R23S31S33G17R12R11E02E30
 106298666.353 8  82830178.55749  20227948.630    20227948.3764   20227952.3994
        51.400          54.1004
 125083350.417 5                  23802572.234
        33.900
 107460961.171 7  83735817.46745  20449139.908    20449138.8674   20449138.1474
        46.000          30.2004
 116110148.839 8  90475490.52747  22095005.824    22095005.4444   22095005.3474
        48.400          42.1004
 111856781.509 7  87161150.00345  21285635.106    21285634.8384   21285635.2064
        46.500          31.2004
 122727863.333 5  95632124.3724   23354336.633    23354336.4464   23354341.4744
        32.700           3.4004
 133681874.111 7                  25438795.349
        45.100


 123077219.531 7                  23420798.509
        43.700
 200844544.134 6                  38219453.275
        37.700
 110984201.677 7                  20783760.277    20783760.348
        44.300
 128402845.903 6                  24434249.825
        37.500
 104996415.819 8  81663933.073 8  19669353.846    19669353.852    19669357.391
        49.500          49.600
 140721217.560 4                  26778352.871
        29.200
                                                  20816567.999

 198906613.715 7                  37850663.676
        42.400
 202059263.285 7                  38450603.232
        44.400
 118380972.173 7  92244952.73346  22527152.978    22527152.4374   22527155.0304
        44.600          41.2004
 103766443.773 7  80707262.736 7  19425277.892    19425279.334    19425285.058
        47.100          46.100
 120639799.788 6  93831120.074 7  22576109.056    22576106.726    22576123.822
        38.200          42.100
 134595541.543 5                  25612667.373
        34.500
 123620035.643 8                  23524093.481
        50.300
 25  1  1  1 28 30.0000000  0 23G06G14G19G12G11G20E27G24E34S35R13E15
                                R22E36R23S31S33G17R12R11E02E30R21
 106307707.214 8  82837223.40049  20229669.238    20229668.9844   20229672.8204
        52.400          54.3004


 107473938.221 7  83745929.48745  20451608.658    20451607.6084   20451607.9724
        44.200          30.8004
 116068631.193 7  90443139.16447  22087105.445    22087105.0564   22087105.5504
        47.600          42.7004
 111828483.232 7  87139099.43645  21280250.590    21280250.3044   21280249.5044
        46.200          31.0004
 122674699.710 5  95590698.3364   23344219.306    23344219.3194   23344224.4774
        35.200           5.3004
 133649167.832 7                  25432571.663
        45.100
 124392532.207 6  96929269.73243  23671104.001    23671103.5684   23671114.7644
        37.900          19.9004
 123089525.272 7                  23423140.207
        44.400
 200844582.851 6                  38219461.552
        36.900
 110946343.047 6                  20776669.564    20776668.846
        41.500
 128376959.022 6                  24429322.289
        38.300
 105012269.099 8  81676263.422 8  19672322.734    19672323.309    19672327.116
        50.100          49.100
 140760470.236 6                  26785824.334
        36.800
 111327810.982 6                  20811571.500    20811572.226
        39.300
 198906618.818 7                  37850667.611
        42.600
 202059259.091 7                  38450603.071
        44.200
 118409798.817 7  92267415.04046  22532638.035    22532637.4814   22532640.3074
        44.700          40.2004
 103783396.849 7  80720448.501 7  19428451.550    19428451.490    19428459.812
        45.500          46.000
 120705796.550 5  93882450.916 6  22588460.858    22588459.360    22588471.828
        34.100          37.800
 134633137.126 5                  25619824.007
        34.200
 123623968.629 8                  23524841.883
        49.700
 121642346.755 5                  22731768.845    22731770.236
        35.100
 25  1  1  1 28 45.0000000  0 23G06G14G19G12G11G20E27G24E34S35R13E15
                                R22E36R23S31S33G17R12R11E02E30R21
 106316857.150 8  82844353.23849  20231410.205    20231409.9464   20231414.2404
        51.600          54.4004


 107486976.997 7  83756089.55745  20454089.511    20454088.4164   20454089.0164
        43.700          30.3004
 116027193.116 7  90410849.79847  22079220.126    22079219.7374   22079220.8994
        45.200          42.8004
 111800282.818 7  87117125.13445  21274884.101    21274883.8064   21274884.3484
        46.100          32.3004
 122621563.538 5  95549293.5554   23334109.584    23334109.6374   23334112.2964
        33.400           5.0004
 133616504.027 7                  25426356.116
        45.600
 124424373.616 6  96954081.19445  23677157.283    23677156.9884   23677164.9454
        40.000          30.2004
 123101899.583 6                  23425495.473
        41.600


 110908638.661 7                  20769611.288    20769609.787
        45.400
 128351139.012 6                  24424409.806
        40.900
 105028206.002 8  81688658.787 8  19675309.050    19675308.966    19675313.056
        48.600          49.600
 140799730.982 5                  26793295.474
        31.800
 111301146.228 6                  20806578.536    20806579.847
        41.300
 198906620.767 6                  37850671.842
        40.100
 202059250.337 7                  38450605.177
        43.300
 118438650.562 7  92289896.90046  22538127.808    22538127.2674   22538130.3114
        44.400          39.5004
 103800544.396 7  80733785.509 7  19431659.547    19431659.857    19431669.399
        42.100          45.800
 120771840.023 6  93933817.898 6  22600823.554    22600820.731    22600829.662
        36.500          39.100
 134670780.562 5                  25626986.697
        35.200
 123627987.563 8                  23525607.080
        49.900


 25  1  1  1 29  0.0000000  0 23G03G06G14G19G12G11E27G24E34S35R13E15
                                R22E36R23S31S33G17R12R11E02E30R21


 106326125.366 8  82851575.24849  20233174.123    20233173.8644   20233177.7814
        51.300          54.1004


 107500086.944 7  83766305.10945  20456584.311    20456583.2034   20456583.4394
        43.100          30.0004
 115985844.499 7  90378630.15747  22071351.608    22071351.2244   22071352.2844
        47.900          43.6004
 111772189.771 7  87095234.48745  21269538.412    21269538.1354   21269538.7164
        46.100          32.0004
 133583892.302 7                  25420150.469
        45.000
 124456305.427 6  96978963.17345  23683232.603    23683232.4164   23683238.1244
        41.200          33.7004
 123114351.754 7                  23427865.846
        43.700


 110871098.452 7                  20762579.174    20762578.522
        42.200
 128325395.340 6                  24419511.992
        41.000
 105044235.768 8  81701126.391 8  19678310.908    19678310.977    19678316.117
        48.200          49.600
 140839009.124 5                  26800770.193
        33.100
 111274579.953 6                  20801611.204    20801611.186
        37.700
 198906630.516 7                  37850677.324
        43.300
 202059248.532 7                  38450601.394
        42.700
 118467536.829 6  92312405.68046  22543626.260    22543625.7604   22543627.0624
        41.900          39.2004
 103817895.844 7  80747281.069 7  19434909.700    19434909.345    19434917.550
        45.000          45.200
 120837938.922 6  93985228.170 6  22613191.959    22613190.205    22613199.887
        40.800          38.300
 134708481.126 6                  25634162.411
        40.000
 123632101.931 8                  23526389.622
        50.400
                                                  22749741.942

 25  1  1  1 29 15.0000000  0 23G03G06G14G19G12G11E27G24E34S35R13E15
                                R22E36R23S31S33G17R12R11E02E30R21


 106335497.332 8  82858878.08848  20234957.774    20234957.5114   20234960.6354
        52.400          53.5004


 107513253.592 7  83776564.82944  20459090.260    20459089.1384   20459088.9034
        43.000          27.2004
 115944571.480 7  90346469.38547  22063497.896    22063497.5254   22063498.2814
        47.800          43.6004
 111744189.792 7  87073416.29545  21264209.845    21264209.5824   21264211.2834
        47.000          33.0004
 133551318.529 7                  25413951.381
        47.500
 124488312.657 6  97003903.91344  23689321.153    23689320.9934   23689327.5984
        39.000          29.0004
 123126867.311 7                  23430246.628
        44.500


 110833708.601 7                  20755577.990    20755578.085
        45.200
 128299713.687 7                  24414624.766
        43.100
 105060343.491 8  81713654.621 8  19681328.406    19681329.215    19681332.633
        48.200          48.500
 140878289.997 5                  26808240.638
        30.800
 111248097.842 6                  20796663.824    20796663.032
        38.500
 198906631.851 7                  37850675.321
        42.000
 202059239.441 7                  38450607.825
        46.200
 118496443.165 7  92334930.10046  22549126.813    22549126.3224   22549127.6634
        42.100          40.0004
 103835436.248 7  80760923.613 7  19438193.887    19438194.396    19438201.389
        47.200          45.500
 120904078.566 5  94036670.104 6  22625568.774    22625565.729    22625577.258
        34.400          39.700
 134746224.369 6                  25641342.737
        38.900
 123636297.416 8                  23527187.846
        50.300
 121786585.459 6                  22758739.497    22758742.321
        38.700
 25  1  1  1 29 30.0000000  0 22G03G06G14G19G12G11E27G24E34S35R13E15
                                R22E36R23S31S33G17R12R11E02E30


 106344980.917 8  82866267.90448  20236762.270    20236761.9934   20236764.9704
        51.800          53.0004


 107526485.074 6  83786875.08844  20461607.262    20461606.0694   20461605.3624
        40.000          25.6004
 115903382.371 7  90314374.02047  22055659.763    22055659.3794   22055660.1754
        46.000          43.3004
 111716290.998 7  87051676.98545  21258901.035    21258900.7494   21258902.5284
        45.900          34.7004
 133518790.921 7                  25407761.318
        45.500
 124520403.189 6  97028909.51944  23695428.671    23695428.6094   23695434.6854
        38.500          27.1004
 123139454.003 7                  23432641.468
        44.000


 110796477.338 7                  20748605.536    20748606.325
        45.500
 128274102.153 7                  24409750.605
        43.700
 105076537.249 7  81726249.756 8  19684360.940    19684360.326    19684366.620
        46.200          50.000


 111221707.751 7                  20791732.413    20791734.136
        45.600
 198906633.117 6                  37850674.574
        40.600
 202059229.845 6                  38450605.727
        41.600
 118525377.817 7  92357476.59146  22554633.805    22554633.3324   22554634.0904
        42.000          41.4004
 103853173.654 8  80774719.338 7  19441516.272    19441516.610    19441520.903
        48.700          44.100
 120970266.589 7  94088149.657 6  22637955.402    22637954.467    22637963.925
        42.800          37.800
 134784018.370 6                  25648534.591
        38.300
 123640582.153 8                  23528002.915
        49.800
 25  1  1  1 29 45.0000000  0 22G06G14G19G12G11G20E27G24E34S35R13E15
                                R22E36R23S31S33G17R12R11E02E30
 106354580.332 8  82873747.99348  20238589.192    20238588.9114   20238591.8384
        52.100          52.6004
 125409646.007 5                  23864661.840
        32.700
 107539786.014 6  83797239.47544  20464139.339    20464138.1464   20464135.7234
        41.900          26.0004
 115862281.388 7  90282347.32547  22047838.733    22047838.3184   22047838.6324
        46.700          42.6004
 111688497.843 8  87030020.00746  21253612.888    21253612.6074   21253613.6044
        48.100          36.1004
 122409353.859 5  95383913.85441  23293724.285    23293723.7094   23293726.5734
        35.200           9.6004
 133486314.101 7                  25401581.044
        44.100
 124552581.080 6  97053983.29244  23701550.783    23701550.6454   23701559.2694
        37.400          27.8004
 123152116.265 7                  23435050.250
        42.600
 200844679.278 6                  38219478.437
        38.300
 110759409.873 7                  20741661.683    20741661.256
        42.100
 128248565.143 7                  24404892.402
        44.800
 105092821.282 7  81738915.129 8  19687413.623    19687413.890    19687417.604
        47.800          50.500


 111195414.194 7                  20786813.834    20786814.167
        44.100
 198906639.525 6                  37850665.067
        38.400
 202059225.547 7                  38450595.988
        43.600
 118554345.078 7  92380048.46346  22560145.745    22560145.2764   22560146.3534
        43.600          41.1004
 103871112.611 8  80788671.861 7  19444874.611    19444876.113    19444879.525
        50.600          44.800
 121036507.002 6  94139669.916 6  22650349.978    22650349.715    22650360.265
        38.300          36.700
 134821867.250 6                  25655737.481
        40.400
 123644960.648 8                  23528836.465
        49.500
 25  1  1  1 30  0.0000000  0 24G06G14G19G12G11G20E27G24E34S35R13E15
                                R22E36R23S31S33R07G17R12R11E02E30R21
 106364291.818 8  82881315.40448  20240437.133    20240436.8344   20240439.8754
        51.700          52.0004
 125464153.340 5  97764309.73741  23875030.895    23875030.9974   23875042.2784
        33.000           7.9004
 107553152.620 7  83807655.06144  20466682.852    20466681.6904   20466679.7594
        43.900          28.4004
 115821265.480 7  90250386.95747  22040033.220    22040032.8004   22040032.9724
        46.400          42.5004
 111660806.840 7  87008442.63346  21248342.480    21248342.1904   21248344.5354
        47.000          37.3004
 122356378.696 5  95342634.52141  23283647.151    23283646.1864   23283645.1574
        35.600           9.1004
 133453884.688 7                  25395409.831
        44.600
 124584842.433 5  97079121.97943  23707690.798    23707690.7144   23707699.1434
        30.100          22.3004
 123164850.319 6                  23437473.933
        41.100
 200844721.243 5                  38219504.819
        33.100
 110722502.960 6                  20734750.626    20734752.581
        40.800
 128223099.107 7                  24400045.816
        46.300
 105109191.581 8  81751647.595 8  19690480.426    19690480.238    19690483.921
        48.000          50.000


 111169213.664 7                  20781916.075    20781914.927
        44.200
 198906647.071 6                  37850676.327
        41.800
 202059221.586 7                  38450598.819
        43.600
 127424794.518 5                  23804023.395
        33.900
 118583341.467 6  92402643.06546  22565662.940    22565662.4404   22565664.0224
        40.700          38.9004
 103889249.222 8  80802778.094 7  19448269.165    19448269.704    19448274.564
        49.500          44.500
 121102795.663 6  94191227.646 5  22662755.389    22662759.845    22662763.276
        40.800          34.300
 134859767.400 6                  25662949.388
        40.400
 123649429.350 8                  23529686.813
        50.300
 121931010.949 6                  22785713.493    22785707.297
        39.500
 25  1  1  1 30 15.0000000  0 23G06G14G19G12G11G20E27G24E34S35R13E15
                                R22E36R23S31S33G17R12R11E02E30R21
 106374108.849 8  82888965.04048  20242304.981    20242304.6824   20242307.5154
        51.400          51.0004
 125518691.842 5  97806807.33741  23885409.298    23885409.5844   23885420.3284
        34.200           7.1004
 107566578.578 7  83818116.88645  20469239.100    20469237.9604   20469235.4794
        45.100          31.8004
 115780328.677 7  90218488.21047  22032243.353    22032242.9564   22032243.2314
        47.300          43.2004
 111633211.735 7  86986939.98446  21243091.467    21243091.1864   21243093.9604
        47.100          37.4004
 122303430.530 6  95301376.29041  23273570.818    23273569.6424   23273568.3824
        38.300          10.1004
 133421496.522 7                  25389246.053
        46.000
 124617180.321 5  97104320.22543  23713845.044    23713844.9514   23713849.9404
        35.500          18.5004
 123177649.562 6                  23439909.117
        40.000
 200844757.786 5                  38219523.059
        32.900
 110685750.542 6                  20727864.995    20727867.709
        39.500
 128197697.723 7                  24395212.002
        46.800
 105125641.482 8  81764441.952 8  19693561.787    19693561.969    19693566.085
        49.700          50.800


 111143099.739 7                  20777034.398    20777035.363
        45.600
 198906649.729 6                  37850669.396
        41.100
 202059212.960 7                  38450596.176
        43.900
 118612360.461 6  92425255.27746  22571185.217    22571184.7354   22571185.4084
        41.900          37.0004
 103907576.843 8  80817032.921 7  19451699.562    19451699.832    19451705.949
        49.100          44.100
                  94242817.534 5                  22675170.816    22675174.470
                        31.000
 134897712.341 6                  25670171.214
        41.500
 123653981.962 8                  23530553.154
        50.900


 25  1  1  1 30 30.0000000  0 24G06G14G19G12G11G20E27G24E34S35R13E15
                                R22E36R23S31S33R07G17R12R11E02E30R21
 106384037.999 8  82896702.04648  20244194.118    20244193.8234   20244197.0444
        51.400          51.4004


 107580070.572 7  83828630.14045  20471805.445    20471804.3054   20471804.0694
        44.700          33.2004
 115739478.176 7  90186656.68547  22024469.187    22024468.8034   22024469.0704
        47.900          43.0004
 111605719.315 8  86965517.36746  21237860.104    21237859.8184   21237862.0774
        48.200          37.6004
 122250516.575 5  95260144.67841  23263500.110    23263499.1894   23263498.9684
        31.400          10.6004
 133389156.575 7                  25383091.575
        45.000


 123190520.732 6                  23442357.021
        39.400


 110649159.940 6                  20721015.502    20721015.345
        40.700
 128172367.788 7                  24390391.624
        46.300
 105142177.649 8  81777303.411 8  19696660.120    19696659.623    19696663.972
        50.000          50.700


 111117079.071 6                  20772167.721    20772167.609
        41.900
 198906653.329 6                  37850674.377
        39.700
 202059207.284 7                  38450594.718
        44.500
 127321420.404 5                  23784708.273    23784710.005
        31.000
 118641409.028 7  92447890.51946  22576712.699    22576712.1904   22576712.9144
        42.300          38.0004
 103926102.289 8  80831441.578 7  19455168.223    19455168.568    19455173.809
        50.100          43.400


 134935708.734 6                  25677401.705
        39.800
 123658625.346 8                  23531436.860
        50.900


 25  1  1  1 30 45.0000000  0 22G06G14G19G12G11E27G24E34S35R13E15R22
                                E36R23S31S33G17R12R11E02E30R21
 106394078.450 8  82904525.77348  20246104.532    20246104.2514   20246107.5714
        50.900          51.0004


 107593628.094 8  83839194.44345  20474385.488    20474384.3394   20474384.5804
        48.300          35.8004
 115698713.670 8  90154892.17647  22016711.698    22016711.3054   22016711.3904
        48.200          42.5004
 111578329.103 7  86944174.37446  21232648.119    21232647.8244   21232649.1454
        46.000          37.4004
 133356864.499 7                  25376946.798
        46.200


 123203463.026 6                  23444819.509
        39.600


 110612730.808 6                  20714192.890    20714193.013
        39.400
 128147108.791 7                  24385585.095
        47.000
 105158799.140 8  81790231.265 8  19699774.259    19699773.813    19699777.911
        51.500          50.700


 111091151.023 6                  20767324.124    20767321.447
        41.500
 198906658.689 6                  37850677.163
        39.900
 202059200.006 7                  38450592.393
        44.600
 118670486.537 7  92470548.34046  22582245.117    22582244.6484   22582246.0334
        43.200          36.7004
 103944824.718 8  80846003.450 7  19458673.111    19458672.804    19458677.137
        49.300          42.700


 134973755.952 5                  25684639.928
        34.700
 123663358.981 8                  23532337.842
        50.700
                                                  22812665.891

 25  1  1  1 31  0.0000000  0 23G03G06G14G19G12G11E27G24E34S35R13E15
                                R22E36R23S31S33G17R12R11E02E30R21


 106404228.466 8  82912434.88248  20248036.320    20248036.0254   20248039.1074
        50.200          50.9004


 107607249.642 7  83849808.61946  20476977.678    20476976.5164   20476976.6764
        47.500          36.8004
 115658034.014 8  90123193.78947  22008970.975    22008970.5644   22008970.5114
        48.400          42.6004
 111551039.548 7  86922909.80146  21227455.710    21227455.4064   21227455.6144
        44.800          37.0004
 133324618.832 7                  25370810.618
        45.400
 124714607.965 5  97180229.26344  23732398.339    23732398.4284   23732405.5464
        35.800          25.2004
 123216474.735 6                  23447297.142
        41.000


 110576462.540 6                  20707400.728    20707399.572
        39.800
 128121919.121 7                  24380791.886
        46.800
 105175504.170 8  81803224.051 8  19702903.344    19702903.474    19702907.242
        50.700          50.700


 111065313.842 6                  20762493.709    20762491.120
        41.600
 198906663.006 7                  37850687.461
        42.000
 202059193.192 7                  38450597.137
        44.900
 118699591.335 6  92493227.39045  22587784.973    22587784.5084   22587784.9874
        40.900          34.7004
 103963742.308 7  80860717.138 7  19462213.332    19462212.845    19462219.498
        46.000          44.000
 121368557.776 6  94397806.195 6  22712464.413    22712465.069    22712468.209
        38.300          36.000
 135011852.287 6                  25691891.420
        36.100
 123668181.323 8                  23533255.285
        50.400
 122123351.804 5  94984772.981 5  22821647.101    22821646.076    22821653.049
        34.700          34.900
 25  1  1  1 31 15.0000000  0 24G03G06G14G19G12G11E27G24E34S35R13E15
                                R22E36R23S31S33R07G17R12R11E02E30R21


 106414485.826 8  82920427.63748  20249989.588    20249989.2804   20249991.1584
        49.800          49.3004


 107620933.237 7  83860471.14346  20479581.159    20479579.9834   20479580.2564
        47.100          36.7004
 115617437.469 7  90091560.17047  22001245.848    22001245.4194   22001246.2344
        46.500          43.1004
 111523848.727 7  86901722.16646  21222280.708    21222280.3694   21222281.7154
        47.200          37.1004
 133292417.811 7                  25364683.574
        45.900
 124747269.213 5  97205679.58044  23738614.687    23738614.6254   23738619.8854
        35.900          26.4004
 123229553.678 6                  23449786.820
        39.000
 200844948.410 6                  38219529.914
        38.300
 110540352.946 6                  20700638.884    20700637.594
        40.200
 128096796.825 7                  24376010.476
        43.100
 105192290.447 8  81816280.050 8  19706047.395    19706047.477    19706052.590
        51.100          50.900


 111039565.639 6                  20757678.521    20757676.408
        40.700
 198906664.755 7                  37850683.678
        42.100
 202059184.220 7                  38450587.291
        43.100
 127166629.544 4                  23755792.360    23755793.011
        29.700
 118728721.457 6  92515926.19645  22593328.918    22593328.4944   22593329.1554
        39.800          34.8004
 103982853.036 7  80875581.057 7  19465792.412    19465791.628    19465797.069
        47.800          43.400
 121435068.898 6  94449536.995 6  22724905.287    22724907.462    22724917.461
        36.800          39.400
 135049995.499 5                  25699147.863
        31.800
 123673090.442 8                  23534189.048
        50.100
 122171422.060 5  95022160.975 6  22830633.582    22830636.045    22830639.776
        35.800          37.300
 25  1  1  1 31 30.0000000  0 23G03G06G14G19G12G11E27G24E34S35R13E15
                                R22E36R23S31S33G17R12R11E02E30R21


 106424855.302 8  82928507.75848  20251962.114    20251961.7844   20251964.4134
        51.000          49.0004


 107634683.794 7  83871185.82346  20482197.994    20482196.8014   20482196.8084
        46.100          36.7004
 115576929.383 7  90059995.43847  21993538.267    21993537.8474   21993538.9324
        46.700          42.9004
 111496761.671 7  86880615.38846  21217126.150    21217125.8204   21217127.9414
        46.800          38.4004
 133260266.613 7                  25358564.971
        45.800
 124780013.009 5  97231194.22444  23744846.091    23744846.2474   23744852.7104
        35.000          29.2004
 123242704.749 6                  23452289.888
        39.600
 200844986.933 6                  38219549.035
        36.500
 110504408.047 6                  20693907.671    20693904.967
        38.600
 128071746.866 7                  24371244.298
        44.300
 105209162.785 8  81829402.978 8  19709208.175    19709208.324    19709212.534
        51.000          50.200


 111013911.482 7                  20752883.470    20752881.755
        43.000
 198906669.153 6                  37850677.901
        40.700
 202059178.598 7                  38450587.832
        43.300
 118757882.118 7  92538648.81045  22598878.313    22598877.8984   22598879.2714
        43.000          34.6004
 104002161.753 7  80890598.899 7  19469407.381    19469407.391    19469412.233
        46.100          45.300
 121501627.041 6  94501304.344 6  22737365.815    22737365.804    22737371.950
        41.100          38.100
 135088190.609 5                  25706416.055
        34.600
 123678091.416 8                  23535140.643
        49.000
 122219489.383 5  95059546.716 5  22839616.303                    22839620.368
        33.200          35.600
 25  1  1  1 31 45.0000000  0 23G06G14G19G12G11G20E27G24E34S35R13E15
                                R22E36R23S31S33G17R12R11E02E30R21
 106435334.537 8  82936673.40948  20253956.064    20253955.7254   20253958.3414
        52.400          48.8004


 107648499.298 7  83881951.12946  20484826.998    20484825.8094   20484825.8854
        46.500          36.9004
 115536507.802 7  90028498.15447  21985845.608    21985845.1754   21985847.3304
        45.500          42.9004
 111469776.263 7  86859587.84046  21211990.736    21211990.4194   21211992.3774
        46.200          37.0004
 121986577.735 5                  23213269.782
        31.200
 133228163.256 7                  25352455.949
        45.700
 124812836.557 5  97256771.02045  23751092.627    23751092.7704   23751098.4854
        34.700          32.4004
 123255925.538 6                  23454806.271
        40.600
 200845025.693 5                  38219538.518
        32.100
 110468625.634 7                  20687210.503    20687208.904
        43.700
 128046767.147 7                  24366490.872
        42.500
 105226118.682 8  81842590.904 8  19712384.260    19712384.714    19712388.585
        51.300          49.400


 110988348.797 6                  20748105.774    20748102.892
        40.000
 198906673.794 6                  37850676.085
        38.800
 202059171.451 7                  38450593.663
        43.200
 118787070.891 6  92561393.27645  22604432.102    22604431.6914   22604434.8684
        41.900          35.0004
 104021665.960 7  80905768.855 7  19473057.799    19473056.583    19473064.239
        43.800          45.200
 121568229.098 6  94553105.926 6  22749828.164    22749830.323    22749834.912
        38.500          38.000
 135126435.265 5                  25713693.588
        31.700
 123683182.041 8                  23536109.280
        49.000
 122267551.058 4  95096928.019 5  22848586.196    22848587.217    22848602.784
        29.700          33.500
 25  1  1  1 32  0.0000000  0 23G06G14G19G12G11E27G24E34S35R13E15R22
                                E36R23S31S33R07G17R12R11E02E30R21
 106445926.766 8  82944927.07847  20255971.539    20255971.2044   20255973.8714
        52.400          47.8004


 107662383.238 7  83892769.77046  20487468.355    20487467.1714   20487467.9484
        46.500          36.3004
 115496176.613 7  89997071.29847  21978171.226    21978170.7484   21978172.8234
        45.400          42.1004
 111442895.937 7  86838642.18046  21206875.988    21206875.6804   21206876.8144
        46.600          36.2004
 133196111.361 7                  25346356.730
        46.000
 124845743.193 6  97282412.52745  23757353.776    23757353.9684   23757359.7854
        41.000          35.2004
 123269219.349 7                  23457334.693
        43.500
 200845068.058 5                  38219568.455
        35.000
 110433009.611 7                  20680539.208    20680539.148
        44.800
 128021861.062 6                  24361750.902
        41.500
 105243161.354 8  81855846.345 8  19715577.196    19715577.725    19715581.663
        51.600          49.500


 110962881.295 7                  20743344.800    20743343.744
        43.600
 198906682.185 6                  37850689.294
        41.900
 202059168.516 7                  38450587.725
        44.000
 127012073.767 4                  23726921.353    23726918.563
        29.200
 118816291.314 6  92584162.42245  22609992.697    22609992.2774   22609994.2844
        39.400          32.5004
 104041369.148 7  80921093.547 7  19476746.497    19476745.529    19476752.384
        44.200          45.200
 121634878.258 6  94604944.141 6  22762301.105    22762301.866    22762305.565
        39.500          36.600
 135164732.750 5                  25720985.003
        31.300
 123688365.891 7                  23537095.818
        47.700
 122315610.947 5  95134307.988 5  22857582.346    22857576.395    22857583.587
        33.000          33.100
 25  1  1  1 32 15.0000000  0 24G06G14G19G12G11G20E27G24E34S35R13E15
                                R22E36R23S31S33R07G17R12R11E02E30R21
 106456624.876 8  82953263.25947  20258007.405    20258007.0794   20258009.6854
        51.600          46.3004
 125956281.586 4                  23968683.103
        29.100
 107676328.300 7  83903636.03546  20490121.625    20490120.4234   20490121.5884
        45.800          36.1004
 115455929.098 7  89965709.64946  21970511.942    21970511.4064   21970513.5694
        45.400          41.9004
 111416113.925 7  86817773.11945  21201778.622    21201778.2924   21201780.0184
        45.900          34.6004
 121881194.031 5                  23193189.239
        32.500
 133164104.216 7                  25340266.298
        45.600
 124878725.474 6  97308113.02145  23763629.967    23763630.1864   23763636.4184
        41.400          35.7004
 123282579.137 7                  23459876.696
        44.300
 200845107.134 6                  38219569.094
        37.700
 110397553.496 7                  20673899.663    20673898.820
        42.600
 127997021.771 7                  24357023.200
        43.200
 105260283.573 8  81869163.661 8  19718784.625    19718785.556    19718789.636
        51.300          50.400
 141350452.967 4                  26898097.152
        27.600
 110937501.820 7                  20738600.313    20738599.491
        45.100
 198906686.476 7                  37850681.930
        42.400
 202059162.941 7                  38450585.677
        43.600
 126960638.204 5  98747194.935 5  23717316.846    23717316.755    23717319.907
        34.900          31.200
 118845536.479 6  92606950.85945  22615557.345    22615556.9074   22615557.5374
        40.900          32.3004
 104061264.059 7  80936567.380 7  19480471.931    19480472.389    19480475.327
        44.700          43.700
 121701566.971 5  94656813.095 6  22774779.348    22774777.881    22774789.007
        35.200          37.100


 123693636.063 8                  23538098.960
        48.300
 122363661.654 5                  22866574.732
        34.400
 25  1  1  1 32 30.0000000  0 24G06G14G19G12G11G20E27G24E34S35R13E15
                                R22E36R23S31S33R07G17R12R11E02E30R21
 106467430.215 8  82961683.04147  20260063.704    20260063.3784   20260066.2424
        51.500          43.8004
 126011138.562 5                  23979118.442
        31.200
 107690336.277 7  83914551.32345  20492787.716    20492786.5004   20492786.8494
        46.000          35.6004
 115415767.223 7  89934414.74346  21962868.563    21962868.0054   21962870.8284
        46.700          41.5004
 111389431.817 7  86796981.87845  21196700.148    21196699.8184   21196702.7464
        47.800          35.5004
 121828551.685 5                  23183170.994
        30.600
 133132143.571 7                  25334183.874
        43.500
 124911784.624 6  97333873.37545  23769922.213    23769922.4414   23769927.1904
        38.800          32.7004
 123296006.223 7                  23462432.248
        47.800
 200845144.572 5                  38219551.333
        32.700
 110362259.355 7                  20667289.879    20667289.534
        46.500
 127972250.802 7                  24352310.562
        43.300
 105277486.696 8  81882543.871 8  19722008.403    19722008.987    19722012.196
        52.600          49.600
 141389858.661 5                  26905598.659
        33.600
 110912211.679 7                  20733871.536    20733870.630
        44.400
 198906690.117 6                  37850680.754
        39.900
 202059154.852 7                  38450587.063
        42.200
 126909236.268 5  98707215.594 5  23707717.381    23707718.985    23707719.691
        35.100          33.000
 118874808.095 7  92629759.84545  22621128.045    22621127.5634   22621127.0734
        43.900          34.7004
 104081352.055 7  80952191.364 7  19484228.985    19484229.813    19484238.068
        44.500          45.100
 121768218.383 6  94708713.681 5  22787266.898    22787265.879    22787270.442
        37.000          33.700


 123698994.147 8                  23539118.404
        48.700
 122411562.860 3                  22875530.291
        23.400
 25  1  1  1 32 45.0000000  0 24G06G14G19G12G11G20E27G24E34S35R13E15
                                R22E36R23S31S33R07G17R12R11E02E30R21
 106478344.955 8  82970188.01047  20262140.647    20262140.3304   20262142.9804
        51.000          42.6004
 126066030.391 6                  23989562.917
        37.000
 107704409.587 7  83925517.54345  20495465.521    20495464.3054   20495464.7484
        44.800          34.4004
 115375693.736 7  89903188.69546  21955242.604    21955242.0374   21955244.9504
        45.800          41.5004
 111362852.083 7  86776270.41545  21191642.081    21191641.7604   21191645.1624
        46.900          35.0004
 121775945.607 5  94890218.68241  23173163.543    23173163.2304   23173160.8974
        32.500           9.7004
 133100232.053 7                  25328111.456
        46.300
 124944922.754 6  97359695.25445  23776227.417    23776227.6274   23776232.9434
        40.400          32.9004
 123309502.938 8                  23465001.027
        48.900


 110327129.955 7                  20660708.693    20660709.340
        44.400
 127947550.555 7                  24347610.119
        44.400
 105294772.832 8  81895988.630 8  19725246.563    19725246.630    19725249.794
        51.600          48.700
 141429273.281 5                  26913099.350
        32.700
 110887013.405 6                  20729160.453    20729158.421
        41.300
 198906694.405 6                  37850688.404
        40.400
 202059147.593 7                  38450582.886
        46.100


 118904108.396 6  92652591.28445  22626703.968    22626703.4864   22626703.2854
        40.800          34.8004
 104101635.235 7  80967967.237 7  19488026.497    19488025.371    19488034.113
        42.000          42.500
 121835027.459 5  94760647.387 5  22799764.981    22799755.528    22799767.652
        34.400          35.200


 123704442.639 8                  23540155.339
        48.800
 122459599.592 6                  22884514.507    22884512.278
        38.600
 25  1  1  1 33  0.0000000  0 23G06G14G19G12G11G20E27G24E34S35R13E15
                                R22E36R23S31S33G17R12R11E02E30R21
 106489367.385 8  82978776.98147  20264238.107    20264237.7944   20264239.4244
        51.400          42.2004
 126120955.190 5                  24000015.247
        33.000
 107718546.578 7  83936533.39645  20498156.154    20498154.9384   20498154.5764
        43.600          33.3004
 115335707.405 7  89872030.53346  21947634.233    21947633.6834   21947635.5364
        45.400          39.4004
 111336373.143 7  86755637.52245  21186604.227    21186603.9284   21186606.4664
        45.600          34.9004
 121723374.430 6  94849254.25141  23163159.363    23163158.8764   23163157.8284
        36.800           7.0004
 133068368.212 7                  25322048.461
        46.500
 124978137.808 6  97385577.06945  23782548.189    23782548.3544   23782553.4654
        37.700          30.4004
 123323067.494 7                  23467581.456
        46.400


 110292164.078 7                  20654160.232    20654158.950
        42.500
 127922919.611 7                  24342923.318
        43.500
 105312140.099 8  81909496.565 8  19728499.218    19728499.199    19728503.266
        50.600          49.500
 141468695.132 6                  26920598.556
        36.200
 110861905.665 7                  20724468.764    20724467.219
        45.100
 198906697.153 6                  37850676.845
        37.700
 202059139.976 7                  38450582.327
        44.000
 118933435.839 6  92675443.83445  22632283.972    22632283.4904   22632284.1384
        40.100          30.7004
 104122112.148 7  80983893.705 6  19491860.208    19491860.794    19491866.678
        43.700          40.900
 121901829.153 6  94812612.734 5  22812267.025                    22812269.320
        38.000          30.200
 135318345.301 5                  25750225.971
        35.400
 123709980.014 8                  23541208.953
        48.100


 25  1  1  1 33 15.0000000  0 21G06G19G12G11E27G24E34S35R13E15R22E36
                                R23S31S33G17R12R11E02E30R21
 106500502.092 8  82987453.45747  20266356.837    20266356.5244   20266357.0114
        51.700          42.4004
 107732752.248 6  83947602.74845  20500860.581    20500859.3924   20500857.8154
        38.200          30.7004
 115295813.542 7  89840944.46245  21940042.287    21940041.7374   21940043.0204
        44.400          34.9004
 111309999.908 7  86735086.95746  21181585.741    21181585.4514   21181587.7094
        46.200          36.4004
 133036557.175 7                  25315994.147
        43.700
 125011434.339 6  97411522.41444  23788885.706    23788885.8044   23788890.7834
        38.700          29.0004
 123336704.639 7                  23470176.861
        47.600


 110257367.446 7                  20647645.316    20647644.851
        44.500
 127898362.697 6                  24338250.980
        40.900
 105329593.285 8  81923071.299 8  19731769.298    19731769.498    19731773.686
        50.200          48.100
 141508129.075 5                  26928101.137
        34.200
 110836892.874 7                  20719793.322    20719792.741
        43.700
 198906703.808 6                  37850693.095
        40.600
 202059135.639 7                  38450585.842
        44.700
 118962795.289 6  92698321.37145  22637870.901    22637870.4284   22637872.3564
        40.700          31.7004
 104142787.315 7  80999974.398 7  19495731.019    19495730.733    19495738.375
        44.200          42.100
 121968686.858 5  94864613.169 5  22824782.830    22824782.162    22824786.501
        35.500          34.100
 135356886.088 6                  25757559.607
        40.100
 123715611.178 8                  23542280.534
        48.100
                  95321111.527 5                  22902467.693    22902466.170
                        32.000
 25  1  1  1 33 30.0000000  0 24G06G14G19G12G11G20E27G24E34S35R13E15
                                R22E36R23S31S33R07G17R12R11E02E30R21
 106511740.018 8  82996210.28247  20268494.912    20268494.5994   20268495.5374
        52.200          43.5004


 107747017.675 6  83958718.68344  20503574.939    20503573.7554   20503571.8574
        40.900          29.1004
 115256003.359 7  89809923.68245  21932466.727    21932466.1774   21932466.0534
        47.700          35.8004
 111283723.602 7  86714611.96545  21176585.282    21176584.9924   21176587.2954
        44.900          35.0004
 121618344.425 5  94767427.8824   23143180.236    23143179.6374   23143172.9844
        33.400           5.6004
 133004790.174 6                  25309949.267
        41.500
 125044803.197 4  97437524.18343  23795229.527    23795229.4564   23795241.1894
        26.200          18.9004
 123350405.243 7                  23472783.884
        46.600
 200845292.006 5                  38219613.923
        34.000
 110222731.098 7                  20641159.864    20641158.799
        43.900
 127873870.998 6                  24333588.768
        41.200
 105347123.021 8  81936705.502 8  19735053.320    19735054.182    19735057.171
        51.200          48.500
 141547565.982 5                  26935607.146
        32.200
 110811966.143 7                  20715131.633    20715130.963
        42.500
 198906706.494 6                  37850685.645
        41.700
 202059126.713 7                  38450577.342
        44.700


 118992177.977 6  92721216.96345  22643461.530    22643461.0924   22643464.9204
        39.300          31.1004
 104163651.555 7  81016202.100 6  19499634.584    19499635.153    19499642.781
        44.100          39.800
 122035580.165 6  94916641.199 6  22837296.737    22837300.031    22837306.498
        37.000          39.300
 135395470.609 7                  25764901.788
        42.900
 123721327.309 7                  23543368.561
        47.300
 122603737.865 6  95358457.273 5  22911441.664                    22911441.593
        39.700          32.500
 25  1  1  1 33 45.0000000  0 25G03G06G14G19G12G11G20E27G24E34S35R13
                                E15R22E36R23S31S33R07G17R12R11E02E30
                                R21


 106523087.238 8  83005052.27847  20270654.642    20270654.3474   20270655.6134
        52.400          45.6004


 107761349.216 6  83969886.11344  20506300.994    20506299.8274   20506299.2974
        40.600          28.7004
 115216283.474 7  89778973.23346  21924908.136    21924907.5784   21924906.7444
        46.700          39.2004
 111257550.536 7  86694217.39545  21171604.448    21171604.1404   21171606.5604
        45.400          34.6004
 121565883.489 5  94726549.21441  23133186.968    23133186.4274   23133186.9254
        34.400           8.4004
 132973073.770 7                  25303913.447
        43.300


 123364175.527 7                  23475404.361
        47.200
 200845329.829 5                  38219621.149
        34.900
 110188261.944 7                  20634704.353    20634704.052
        42.700
 127849450.796 6                  24328941.657
        39.100
 105364735.408 8  81950404.054 8  19738351.632    19738352.200    19738356.884
        50.200          48.400
 141587012.061 4                  26943113.666
        29.200
 110787131.821 7                  20710490.787    20710492.232
        42.200
 198906710.207 6                  37850686.339
        40.400
 202059119.924 7                  38450579.452
        43.700
 126652807.993 5  98507776.608 5  23659807.760                    23659822.488
        34.000          33.300
 119021590.236 6  92744135.60345  22649059.323    22649058.8544   22649061.8094
        41.300          32.3004
 104184711.011 7  81032581.601 6  19503580.574    19503579.969    19503582.799
        46.800          38.500
 122102515.294 4  94968701.582 6  22849850.287    22849849.510    22849830.570
        29.300          37.600
 135434104.885 7                  25772252.902
        42.400
 123727134.680 7                  23544473.649
        46.100


 25  1  1  1 34  0.0000000  0 25G03G06G14G19G12G11G20E27G24E34S35R13
                                E15R22E36R23S31S33R07G17R12R11E02E30
                                R21


 106534540.175 8  83013976.63847  20272833.989    20272833.6994   20272835.6144
        52.300          46.6004


 107775743.335 7  83981102.32344  20509040.314    20509039.1434   20509038.6134
        43.200          29.8004
 115176650.867 7  89748090.74846  21917366.353    21917365.8084   21917364.6774
        45.500          39.0004
 111231477.381 7  86673900.66045  21166643.840    21166643.5234   21166645.1214
        44.600          35.4004
 121513457.790 6  94685698.11441  23123215.996    23123215.5144   23123210.7444
        36.300          11.7004
 132941404.697 7                  25297886.161
        42.600


 123378011.913 7                  23478036.853
        47.500
 200845365.404 6                  38219620.903
        38.200
 110153956.847 7                  20628278.374    20628278.581
        43.100
 127825098.790 6                  24324307.409
        40.900
 105382426.871 7  81964164.084 7  19741664.440    19741664.854    19741671.242
        47.700          47.900
 141626463.643 4                  26950621.657
        29.700
 110762386.445 6                  20705865.513    20705867.139
        37.700
 198906711.371 6                  37850686.991
        39.900
 202059110.493 7                  38450573.840
        45.300
 126601629.991 5  98467971.640 4  23650257.159    23650256.901    23650251.802
        35.200          29.300
 119051028.457 6  92767074.46045  22654660.109    22654659.6224   22654663.8314
        41.300          33.1004
 104205962.120 7  81049110.219 6  19507556.317    19507556.167    19507563.035
        46.600          38.600


 135472785.498 6                  25779613.444
        41.300
 123733030.023 8                  23545595.301
        48.100


 25  1  1  1 34 15.0000000  0 25G03G06G14G19G12G11G20E27G24E34S35R13
                                E15R22E36R23S31S33R07G17R12R11E02E30
                                R21


 106546103.567 8  83022987.08547  20275034.321    20275034.0354   20275036.0634
        52.500          46.8004
 126396068.548 5  98490482.42142  24052371.959    24052371.7454   24052379.3484
        34.100          12.2004
 107790204.996 7  83992371.13444  20511792.079    20511790.9264   20511790.6604
        42.100          29.4004
 115137110.715 7  89717280.29346  21909843.332    21909842.8274   21909841.5974
        43.300          40.9004
 111205509.109 7  86653665.64645  21161703.157    21161702.8274   21161703.5314
        45.100          35.2004
 121461072.633 6  94644878.58042  23113246.777    23113246.3754   23113243.2564
        37.300          14.4004
 132909788.159 7                  25291870.657
        43.200


 123391919.157 7                  23480683.292
        47.200
 200845404.307 6                  38219622.714
        40.200
 110119821.368 7                  20621885.081    20621885.658
        42.200
 127800819.828 6                  24319688.010
        39.900
 105400202.145 7  81977989.313 7  19744995.390    19744994.724    19745000.012
        47.300          46.900


 110737734.813 5                  20701256.161    20701251.695
        34.900
 198906716.085 6                  37850688.990
        41.600
 202059103.459 7                  38450579.206
        42.200
 126550494.708 5                  23640695.937    23640698.897
        35.500
 119080497.739 6  92790037.54545  22660269.001    22660268.5014   22660271.4654
        41.700          34.2004
 104227409.752 8  81065791.762 6  19511572.939    19511573.424    19511578.141
        48.500          38.800
 122236593.717 5  95072913.703 5  22874891.083                    22874902.412
        33.100          33.100
 135511517.195 6                  25786983.306
        41.500
 123739018.312 7                  23546733.998
        47.600
 122747827.319 6                  22938346.892    22938348.333
        36.200
 25  1  1  1 34 30.0000000  0 24G03G06G14G19G12G11G20E27G24E34S35R13
                                E15R22E36R23S31S33G17R12R11E02E30R21


 106557771.700 8  83032079.15747  20277254.794    20277254.5224   20277256.0904
        52.700          47.2004
 126451189.776 5  98533433.95341  24062862.481    24062862.2894   24062867.3774
        30.700          11.9004
 107804728.900 6  84003688.44344  20514555.742    20514554.5754   20514553.8904
        41.900          26.6004
 115097658.179 7  89686538.08747  21902334.131    21902333.6174   21902335.7644
        45.200          42.1004
 111179640.290 7  86633508.12645  21156778.959    21156778.6114   21156780.8694
        46.300          35.3004
 121408722.915 6  94604086.65842  23103284.872    23103284.4664   23103282.8514
        37.800          16.8004
 132878218.837 7                  25285863.766
        44.800


 123405891.633 7                  23483342.496
        47.500
 200845440.385 5                  38219624.382
        31.200
 110085850.232 7                  20615527.195    20615525.683
        46.100
 127776608.534 6                  24315081.576
        41.200
 105418055.312 8  81991875.115 7  19748340.137    19748339.779    19748343.757
        48.400          46.200


 110713168.467 6                  20696667.987    20696664.642
        38.700
 198906718.168 7                  37850694.620
        42.100
 202059095.351 7                  38450573.827
        42.500
 119109992.607 7  92813020.53945  22665881.511    22665881.0204   22665884.1204
        43.600          35.7004
 104249048.124 8  81082621.672 6  19515623.477    19515624.674    19515628.488
        48.100          38.100
 122303644.318 6  95125064.337 5  22887448.232    22887443.134    22887454.417
        37.100          31.200
 135550294.500 7                  25794361.810
        42.100
 123745094.112 7                  23547889.884
        47.000
 122795814.804 5                  22947314.397    22947315.197
        35.600
 25  1  1  1 34 45.0000000  0 25G03G06G14G19G12G11G20E27G24E34S35R13
                                E15R22E36R23S31S33R07G17R12R11E02E30
                                R21


 106569550.703 8  83041257.62248  20279495.872    20279495.6004   20279497.3524
        53.200          48.3004
 126506346.716 4  98576413.40441  24073358.582    24073358.1134   24073362.5084
        29.400          11.8004
 107819321.356 7  84015059.20444  20517332.801    20517331.6254   20517331.1794
        42.400          26.7004
 115058299.797 7  89655869.25347  21894844.454    21894843.9134   21894846.8694
        45.000          42.4004
 111153877.287 7  86613433.08746  21151876.099    21151875.7694   21151877.6864
        47.800          36.7004
 121356415.230 6  94563327.49342  23093331.505    23093331.0454   23093330.0794
        36.100          15.1004
 132846703.253 7                  25279865.678
        45.900
 125212862.032 4  97568515.08541  23827217.203    23827217.3864   23827225.2304
        29.300           8.5004
 123419935.530 7                  23486014.971
        47.000


 110052050.437 7                  20609195.952    20609195.323
        45.200
 127752471.201 7                  24310487.839
        42.200
 105435992.599 8  82005826.344 7  19751700.634    19751700.061    19751703.578
        48.100          44.800
 141744902.146 5                  26973151.692
        31.400
 110688699.722 7                  20692094.210    20692093.812
        45.500
 198906724.123 7                  37850697.741
        42.800
 202059089.017 7                  38450571.515
        43.900
 126448343.463 5                  23621620.727    23621615.555
        35.900
 119139519.486 7  92836028.48746  22671501.108    22671500.6124   22671503.4924
        44.100          37.4004
 104270883.336 8  81099604.647 6  19519711.259    19519712.188    19519716.615
        48.100          40.300
 122370737.092 5                  22899994.236    22899996.928
        34.400
 135589123.517 6                  25801750.619
        37.800
 123751263.791 7                  23549064.480
        47.400
                                                  22956280.809

 25  1  1  1 35  0.0000000  0 25G03G06G14G19G12G11G20E27G24E34S35R13
                                E15R22E36R23S31S33R07G17R12R11E02E30
                                R21


 106581434.786 8  83050517.97348  20281757.761    20281757.4934   20281759.7114
        53.300          50.5004


 107833976.733 6  84026479.00644  20520121.449    20520120.2914   20520119.9554
        40.800          25.7004
 115019029.975 7  89625269.45347  21887370.956    21887370.3984   21887374.2384
        46.100          43.2004
 111128214.554 8  86593436.17346  21146993.347    21146993.0174   21146994.3394
        49.400          39.4004
 121304144.554 5  94522597.09341  23083380.147    23083379.6384   23083383.7024
        31.000          11.9004
 132815236.014 7                  25273877.707
        45.200


 123434045.027 7                  23488700.452
        45.500
 200845588.952 5                  38219647.647
        32.500
 110018416.609 7                  20602899.402    20602898.818
        46.700
 127728402.244 7                  24305907.597
        44.100
 105454008.102 8  82019838.395 7  19755075.746    19755076.055    19755079.738
        49.500          45.600
 141784384.901 5                  26980662.737
        30.600
 110664319.670 6                  20687531.434    20687531.769
        41.900
 198906728.085 6                  37850696.212
        41.300
 202059082.162 7                  38450566.641
        43.600
 126397329.592 5  98309083.817 6  23612081.402    23612082.328    23612090.890
        31.600          36.700
 119169072.819 7  92859057.07346  22677124.850    22677124.3814   22677127.7474
        44.800          38.2004
 104292909.593 7  81116736.250 6  19523832.639    19523832.994    19523839.782
        46.100          40.700
 122437865.547 5                  22912562.692    22912561.866
        35.000
 135627998.502 6                  25809148.163
        37.900
 123757521.803 7                  23550255.702
        47.300
 122891773.181 5                  22965249.227    22965245.907
        30.300
 25  1  1  1 35 15.0000000  0 24G03G06G14G19G12G11G20E27G24E34S35R13
                                E15R22E36R23S31S33R07G17R12R11E02E30


 106593427.433 8  83059862.88548  20284039.801    20284039.5334   20284042.8734
        53.000          51.5004


 107848698.810 6  84037950.78144  20522922.446    20522921.2844   20522922.3084
        40.400          25.3004
 114979853.055 7  89594742.00447  21879916.431    21879915.8994   21879918.8674
        45.600          43.4004
 111102655.937 7  86573520.39746  21142129.608    21142129.2824   21142130.8274
        47.700          38.8004
 121251914.570 5  94481898.44641  23073442.985    23073442.3514   23073445.0154
        32.900           9.2004
 132783821.003 7                  25267899.194
        44.700
 125280615.665 6  97621259.50645  23840092.456    23840092.6974   23840100.4664
        41.100          31.3004
 123448223.728 7                  23491398.099
        45.100
 200845629.302 5                  38219652.906
        34.300
 109984952.968 7                  20596630.782    20596630.413
        47.700
 127704405.388 6                  24301340.269
        41.900
 105472105.275 8  82033913.958 7  19758465.601    19758465.491    19758469.402
        50.200          45.500
 141823876.325 5                  26988179.060
        31.200
 110640032.355 7                  20682991.234    20682992.486
        42.600
 198906733.682 6                  37850693.314
        40.700
 202059077.191 7                  38450568.908
        42.900
 126346359.665 5  98269440.594 6  23602555.797    23602553.367    23602566.701
        34.000          36.200
 119198656.126 7  92882108.98046  22682753.986    22682753.5394   22682756.6484
        45.000          37.5004
 104315130.391 7  81134019.070 7  19527993.545    19527994.206    19528000.685
        46.700          42.000
 122505033.451 6                  22925130.147    22925128.373
        36.200
 135666923.141 5                  25816557.589
        34.900
 123763871.923 7                  23551463.936
        47.200
 25  1  1  1 35 30.0000000  0 24G03G06G14G19G12G11G20E27G24E34S35R13
                                E15R22E36R23S31S33R07G17R12R11E02E30


 106605524.739 8  83069289.35748  20286341.932    20286341.6824   20286345.8214
        52.800          52.8004


 107863484.080 7  84049471.78844  20525737.262    20525736.0694   20525735.7954
        42.000          25.2004
 114940765.735 7  89564284.40147  21872478.560    21872478.0824   21872479.4024
        46.600          43.2004
 111077197.646 7  86553682.77246  21137285.133    21137284.8034   21137286.6384
        47.500          37.6004
 121199722.055 5  94441229.09441  23063510.023    23063509.2284   23063513.0944
        30.000           8.9004
 132752454.743 7                  25261930.960
        42.400
 125314589.882 6  97647732.90445  23846554.444    23846554.4094   23846562.4934
        37.500          30.4004
 123462467.795 7                  23494109.359
        44.800
 200845668.005 5                  38219668.244
        34.900
 109951656.052 8                  20590396.205    20590395.974
        48.700
 127680476.974 6                  24296786.656
        41.300
 105490280.111 8  82048049.963 7  19761870.451    19761869.988    19761874.248
        49.100          45.700
 141863372.468 4                  26995692.893
        27.500
 110615833.556 6                  20678465.088    20678465.568
        39.000
 198906738.491 7                  37850696.476
        42.400
 202059070.294 7                  38450573.165
        43.900
 126295430.018 6  98229828.632 5  23593044.790    23593047.780    23593054.326
        37.000          35.700
 119228265.898 7  92905181.51846  22688388.025    22688387.6054   22688390.4814
        44.700          37.0004
 104337541.929 7  81151450.229 6  19532189.799    19532189.728    19532195.174
        46.900          41.800
 122572236.446 5  95333986.661 6  22937704.346    22937702.866    22937728.539
        34.100          36.400
 135705893.492 5                  25823972.307
        35.600
 123770310.480 7                  23552689.573
        47.100
 25  1  1  1 35 45.0000000  0 24G03G06G14G19G12G11G20E27G24E34S35R13
                                E15R22E36R23S31S33R07G17R12R11E02E30


 106617727.497 8  83078798.00348  20288663.626    20288663.3814   20288668.4134
        51.600          53.1004


 107878333.262 7  84061042.60444  20528562.048    20528560.8504   20528561.0644
        44.800          26.8004
 114901769.184 7  89533897.53747  21865057.952    21865057.4564   21865057.8284
        47.600          43.6004
 111051840.772 7  86533924.18146  21132460.167    21132459.8194   21132461.8964
        47.200          37.3004
 121147568.419 5  94400589.90641  23053587.650    23053586.9664   23053588.1184
        34.900           8.2004
 132721138.389 7                  25255972.002
        44.100
 125348636.960 5  97674263.11944  23853033.054    23853033.2464   23853040.1034
        34.600          28.7004
 123476778.036 7                  23496832.468
        45.500
 200845705.575 6                  38219679.973
        36.300
 109918527.482 8                  20584192.071    20584192.179
        48.300
 127656617.986 7                  24292247.360
        42.800
 105508533.420 8  82062246.970 7  19765290.673    19765290.507    19765293.872
        50.700          45.900
 141902874.531 4                  27003209.385
        25.400
 110591724.477 7                  20673963.115    20673964.182
        44.600
 198906741.758 6                  37850686.155
        41.100
 202059062.952 7                  38450568.711
        43.900
 126244542.405 5  98190249.453 5  23583537.609    23583540.636    23583549.740
        34.500          32.000
 119257903.261 7  92928275.53045  22694028.160    22694027.7184   22694030.0554
        43.400          35.8004
 104360144.782 8  81169030.206 6  19536422.145    19536422.960    19536426.514
        49.300          41.700
 122639474.735 5  95386283.225 6  22950283.987    22950283.432    22950306.999
        30.800          36.000
 135744910.669 6                  25831394.409
        37.300
 123776838.546 7                  23553931.950
        47.700
 25  1  1  1 36  0.0000000  0 24G06G14G19G12G11G20E27G24E34S35R13E15
                                R22E36R23S31S33R07G17R12R11E02E30R21
 106630034.417 8  83088387.82148  20291005.070    20291004.8164   20291010.4934
        49.500          52.3004


 107893245.235 6  84072662.30644  20531398.295    20531397.0974   20531398.2244
        41.200          26.0004
 114862862.640 7  89503580.79947  21857653.610    21857653.1194   21857654.3454
        47.100          43.1004
 111026584.248 8  86514243.79046  21127654.027    21127653.6744   21127655.8234
        48.300          37.4004
 121095452.791 6  94359980.42541  23043668.664    23043668.0524   23043670.6764
        38.700          10.2004
 132689871.048 7                  25250022.091
        46.200


 123491153.174 7                  23499568.035
        47.000
 200845741.243 5                  38219681.033
        35.400
 109885566.297 7                  20578017.997    20578017.275
        44.900
 127632827.325 7                  24287720.077
        45.500
 105526863.790 8  82076503.928 7  19768725.084    19768725.612    19768727.519
        52.200          46.600


 110567703.835 7                  20669470.703    20669471.087
        43.800
 198906742.847 7                  37850687.492
        42.000
 202059053.212 7                  38450567.500
        44.300
 126193696.359 5                  23574060.484    23574057.796
        30.800
 119287566.837 6  92951389.98245  22699672.801    22699672.2964   22699674.6694
        40.600          35.3004
 104382937.738 7  81186758.040 7  19540687.187    19540687.076    19540694.137
        45.200          42.600
 122706747.174 6  95438606.096 5  22962875.184    22962876.026    22962893.726
        37.100          32.900
 135783973.231 6                  25838828.915
        37.400
 123783455.032 8                  23555190.793
        48.100
 123083527.427 5                  23001103.421    23001101.188
        34.000
 25  1  1  1 36 15.0000000  0 23G03G06G14G19G12G11G20E27G24E34S35R13
                                E15R22E36R23S31S33G17R12R11E02E30


 106642449.402 8  83098061.83548  20293368.662    20293368.4084   20293372.7444
        48.000          51.7004
 126837931.398 5                  24136458.004
        34.000
 107908224.203 6  84084334.18844  20534250.681    20534249.5234   20534248.6244
        38.400          24.6004
 114824050.744 7  89473337.79447  21850267.174    21850266.6834   21850269.2244
        45.500          42.1004
 111001432.294 8  86494644.87946  21122867.710    21122867.3484   21122869.0274
        48.400          36.4004
 121043379.689 6  94319404.03842  23033759.549    23033758.9324   23033761.6504
        39.200          15.0004
 132658657.086 7                  25244081.901
        45.900


 123505597.215 7                  23502316.586
        47.000
 200845779.178 5                  38219693.361
        34.900
 109852777.366 7                  20571877.443    20571877.389
        44.100
 127609109.160 7                  24283206.115
        45.100
 105545275.197 8  82090823.925 8  19772173.857    19772174.511    19772177.537
        51.500          48.100


 110543775.900 7                  20664997.126    20664995.561
        42.500
 198906746.460 7                  37850696.123
        43.200
 202059045.720 7                  38450563.565
        44.100
 119317260.862 7  92974528.16645  22705324.518    22705324.0804   22705325.6244
        42.300          35.7004
 104405924.901 7  81204636.952 7  19544992.743    19544992.198    19544997.157
        46.200          42.300
 122774057.325 6                  22975477.625    22975476.518
        39.000
 135823085.233 6                  25846272.832
        37.200
 123790164.150 7                  23556467.311
        47.700
 25  1  1  1 36 30.0000000  0 25G03G06G14G19G12G11G20E27G24E34S35R13
                                E15R22E36R23S31S33R07G17R12R11E02E30
                                R21


 106654970.849 8  83107818.80648  20295751.504    20295751.2594   20295755.2784
        49.500          52.2004
 126893304.387 5                  24146994.381
        34.100
 107923268.816 6  84096057.21744  20537113.672    20537112.5144   20537111.7734
        41.200          24.3004
 114785332.061 7  89443167.43247  21842899.497    21842899.0104   21842901.9134
        46.200          42.0004
 110976383.508 8  86475126.34845  21118100.695    21118100.3244   21118101.8174
        48.100          35.4004
 120991347.987 6  94278859.93342  23023859.461    23023858.8624   23023860.6374
        37.500          15.4004
 132627495.277 7                  25238152.028
        45.500


 123520108.567 7                  23505078.143
        47.400
 200845818.184 5                  38219709.562
        33.000
 109820159.451 7                  20565770.326    20565769.532
        44.300
 127585462.071 7                  24278706.577
        45.400
 105563765.941 8  82105205.611 8  19775637.742    19775637.685    19775641.417
        50.700          48.000


 110519939.240 6                  20660543.202    20660539.249
        40.500
 198906751.000 6                  37850693.627
        41.600
 202059038.433 7                  38450564.150
        44.800
                  98071674.575 5                                  23555072.744
                        33.400
 119346983.934 7  92997688.98946  22710979.513    22710979.0804   22710982.4284
        43.600          37.8004
 104429104.362 8  81222665.410 7  19549333.335    19549333.853    19549336.710
        49.000          43.200


 135862245.218 6                  25853726.733
        38.000
 123796964.493 7                  23557761.458
        47.800
 123179387.257 5                  23019010.624    23019013.291
        32.600
 25  1  1  1 36 45.0000000  0 24G03G06G14G19G12G11G20E27G24E34S35R13
                                E15R22E36R23S31S33R07G17R12R11E02E30


 106667597.344 8  83117657.64048  20298153.371    20298153.1264   20298157.6934
        49.000          51.6004
 126948707.023 5                  24157536.739
        35.400
 107938377.832 7  84107830.48344  20539988.585    20539987.4414   20539987.1604
        43.300          25.5004
 114746705.886 7  89413069.15846  21835549.238    21835548.7474   21835552.3324
        44.100          41.8004
 110951436.793 7  86455687.36645  21113352.893    21113352.5134   21113354.2284
        46.300          33.1004
 120939356.904 7  94238347.46342  23013967.324    23013966.6404   23013967.2934
        42.100          16.6004
 132596384.609 7                  25232231.894
        45.300
 125485467.656 5                  23879090.668
        35.200
 123534685.905 8                  23507852.159
        48.000
 200845856.382 5                  38219719.332
        30.300
 109787711.960 7                  20559692.591    20559692.070
        42.700
 127561884.905 7                  24274220.286
        45.900
 105582334.561 8  82119647.907 7  19779115.422    19779115.167    19779119.440
        50.000          47.300


 110496192.419 7                  20656103.928    20656102.264
        43.400
 198906755.338 6                  37850695.765
        41.300
 202059031.879 7                  38450562.129
        44.600
                  98032233.950 4                                  23545598.136
                        29.400
 119376734.915 7  93020871.56346  22716641.332    22716640.9124   22716644.1154
        44.500          38.3004
 104452474.879 7  81240842.456 7  19553706.020    19553706.219    19553711.053
        47.200          43.800


 135901451.853 6                  25861188.077
        39.200
 123803854.945 8                  23559072.596
        48.200
 25  1  1  1 37  0.0000000  0 25G03G06G14G19G12G11G20E27G24E34S35R13
                                E15R22E36R23S31S33R07G17R12R11E02E30
                                R21


 106680331.247 8  83127580.15548  20300576.814    20300576.5694   20300580.4804
        49.700          51.7004
 127004141.614 5                  24168083.889
        32.600
 107953553.827 7  84119655.92044  20542875.658    20542874.5324   20542875.1404
        43.500          25.2004
 114708175.124 7  89383045.24346  21828217.223    21828216.7584   21828220.3014
        43.300          40.9004
 110926594.689 7  86436329.90745  21108626.062    21108625.6874   21108626.4094
        46.700          32.4004
 120887409.314 6  94197868.92042  23004079.514    23004078.8084   23004082.2844
        40.700          15.8004
 132565327.840 7                  25226322.358
        45.900
 125519881.051 6  97807726.72744  23885639.772    23885639.2494   23885641.4114
        41.200          24.9004
 123549331.601 8                  23510638.902
        48.700


 109755437.549 7                  20553648.478    20553649.258
        43.900
 127538380.215 7                  24269747.308
        46.300
 105600983.394 8  82134152.583 7  19782608.782    19782608.851    19782612.690
        50.000          47.200


 110472537.856 7                  20651680.053    20651680.052
        43.100
 198906761.627 6                  37850685.552
        39.200
 202059027.421 7                  38450560.882
        45.500
 125990756.139 5                  23536130.616
        35.600
 119406516.462 7  93044077.95846  22722308.440    22722308.0784   22722311.1814
        45.700          38.5004
 104476038.748 7  81259169.898 7  19558117.657    19558117.224    19558122.921
        47.800          44.800
 122976095.378 5                  23013300.104
        35.800
 135940707.539 6                  25868656.852
        39.300
 123810838.118 8                  23560400.849
        48.600
 123275215.249 4                  23036922.229    23036930.944
        29.100
