     2.11           OBSERVATION DATA    M (MIXED)           RINEX VERSION / TYPE
teqc  2019Feb25                         20260317 16:18:01UTCPGM / RUN BY / DATE
Linux 2.4.21-27.ELsmp|Opteron|gcc -static|Linux 64|=+       COMMENT
BIT 2 OF LLI FLAGS DATA COLLECTED UNDER A/S CONDITION       COMMENT
-Unknown-                                                   MARKER NAME
-Unknown-           -Unknown-                               OBSERVER / AGENCY
-Unknown-           -Unknown-           -Unknown-           REC # / TYPE / VERS
-Unknown-           -Unknown-                               ANT # / TYPE
        0.0000        0.0000        0.0000                  APPROX POSITION XYZ
        0.0000        0.0000        0.0000                  ANTENNA: DELTA H/E/N
     1     1                                                WAVELENGTH FACT L1/2
     7    L1    L2    C1    P1    P2    S1    S2            # / TYPES OF OBSERV
 SNR is mapped to RINEX snr flag value [0-9]                COMMENT
  L1 & L2: min(max(int(snr_dBHz/6), 0), 9)                  COMMENT
  2025     1     1    19     0    0.0000000     GPS         TIME OF FIRST OBS
    18                                                      LEAP SECONDS
                                                            END OF HEADER
 25  1  1 19  0  0.0000000  0 25E31G07G30G08G27G04R19E24R10E09G09E04
                                R07R09S35G14S31E05E06S33R08R11R01R20
                                E26
 125083864.428 8                  23802657.623
        48.800
 110433580.712 8  86052093.23947  21014800.452    21014799.9254   21014801.1394
        48.400          47.3004
 120823109.032 5  94147876.10944  22991870.917    22991870.5694   22991878.5634
        34.000          28.3004
 105941041.105 8  82551519.43048  20159893.870    20159893.1914   20159896.4694
        50.900          48.8004
 113388850.837 6  88354966.55145  21577175.952    21577175.3354   21577182.4114
        40.100          34.7004
 117415988.163 6  91493083.62541  22343530.208    22343530.5344   22343533.5644
        39.700           6.5004
                  91978730.789 4                                  22107153.713
                        27.600


 106356355.568 7                  19952181.170    19952180.463
        46.400
 128970168.740 8                  24542210.028
        49.600
 110461696.718 7  86074035.74147  21020176.356    21020175.8024   21020179.8994
        44.700          43.5004
 126466271.139 7                  24065718.858
        46.600
 119461778.787 8  92914609.129 6  22316428.898    22316430.396    22316447.428
        48.500          40.200
 113420004.518 5  88215589.797 7  21239921.432                    21239933.187
        32.600          42.000


 127332345.695 6  99220071.74943  24230519.368    24230519.0114   24230529.2814
        38.100          23.6004
 198901834.895 7                  37849785.114
        44.400


 124458512.152 8                  23683672.617
        49.300
 202046578.199 7                  38448202.239
        43.200
 109397424.104 7  85086898.807 7  20429201.162    20429201.722    20429208.900
        47.700          47.800


 118942821.176 6  92511114.254 6  22250716.789    22250716.254    22250725.240
        39.900          37.700
 117785268.789 4  91610843.226 6  22026436.035    22026437.836    22026455.109
        29.400          38.200


 25  1  1 19  0 15.0000000  0 24E31G07G30G08G27G04E24R10E09G09E04R07
                                R09S35G14S31E05E06S33R08R11R01R20E26
 125071700.913 8                  23800343.484
        50.400
 110410435.232 8  86034057.78347  21010395.698    21010395.1754   21010396.7474
        48.300          46.8004
 120781150.346 6  94115180.96745  22983887.535    22983887.1114   22983892.5624
        37.700          30.2004
 105939465.270 8  82550291.54048  20159593.687    20159593.0034   20159596.8754
        50.800          49.6004
 113421653.199 6  88380526.85945  21583418.285    21583417.6644   21583425.0564
        37.000          35.0004
 117467558.415 6  91533267.91342  22353346.806    22353347.0834   22353347.3894
        38.700          12.7004


 106358257.792 7                  19952538.694    19952537.424
        45.100
 128956699.112 8                  24539646.609
        49.300
 110496279.514 7  86100983.29447  21026755.885    21026755.3444   21026761.5334
        44.400          44.1004
 126493476.373 7                  24070895.790
        44.700
 119525707.170 7  92964330.806 6  22328370.371    22328371.672    22328391.847
        45.700          41.700
 113451549.656 5  88240005.127 6  21245807.737    21245800.672    21245809.177
        35.100          38.800


 127290486.847 6  99187454.78744  24222553.871    24222553.5724   24222564.2164
        38.100          25.2004
 198901826.947 7                  37849787.703
        44.100


 124465125.185 8                  23684930.673
        50.000
 202046588.830 7                  38448207.158
        43.800
 109421640.255 8  85105733.525 7  20433723.399    20433723.977    20433731.324
        48.100          47.500
 117315436.386 7  91245382.761 5  21953991.317    21953991.659    21953994.271
        46.700          34.400
 118907290.866 5  92483479.546 6  22244068.258    22244069.375    22244077.623
        35.000          36.900
 117733922.325 4  91570907.483 6  22016833.373    22016834.987    22016852.885
        29.300          38.500


 25  1  1 19  0 30.0000000  0 24E31G07G30G08G27G04E24R10E09G09E04R07
                                R09S35G14S31E05E06S33R08R11R01R20E26
 125059591.540 8                  23798039.311
        49.300
 110387346.212 8  86016066.34248  21006002.207    21006001.6844   21006003.2664
        50.400          48.2004
 120739211.952 7  94082501.65945  22975906.778    22975906.3494   22975910.2914
        42.300          33.6004
 105938052.188 8  82549190.47048  20159324.531    20159323.8564   20159328.6444
        50.200          50.5004






 106360221.114 7                  19952908.260    19952907.942
        46.900
 128943330.371 8                  24537103.066
        49.400
 110530983.169 7  86128025.01047  21033360.358    21033359.8354   21033365.3684
        46.000          44.6004
 126520769.692 7                  24076089.887
        43.600
 119589685.771 7  93014091.491 6  22340324.331    22340323.939    22340342.352
        46.100          40.800
 113482975.054 6  88264447.113 6  21251689.518    21251687.671    21251693.286
        37.300          39.500


 127248660.680 6  99154863.26943  24214593.553    24214593.3254   24214604.3754
        40.200          23.2004
 198901821.500 7                  37849787.270
        44.600


 124471844.875 8                  23686209.429
        49.000
 202046602.452 7                  38448206.975
        42.700
 109446047.041 8  85124716.539 7  20438281.151    20438281.920    20438288.579
        48.500          46.900
 117281876.997 7  91219281.030 5  21947712.192    21947711.672    21947712.965
        47.000          34.200
 118871927.562 6  92455974.664 6  22237455.609    22237458.220    22237463.360
        40.100          37.200
 117682676.966 5  91531050.377 6  22007254.254    22007256.396    22007268.141
        34.200          38.400


 25  1  1 19  0 45.0000000  0 23E31G07G30G08G27G04E24R10E09G09E04R07
                                R09S35G14S31E05E06S33R08R11R01R20
 125047530.218 8                  23795744.091
        50.100
 110364307.843 8  85998114.35248  21001618.750    21001618.2184   21001618.9524
        49.900          48.3004
 120697287.881 7  94049833.51845  22967928.597    22967928.1504   22967931.5894
        43.400          33.5004
 105936795.724 8  82548211.43448  20159084.794    20159084.1374   20159089.3194
        49.700          49.6004






 106362239.782 7                  19953286.468    19953286.192
        46.500
 128930056.516 8                  24534576.977
        48.800
 110565801.301 7  86155155.93747  21039986.043    21039985.5524   21039991.0964
        47.300          46.0004
 126548144.875 7                  24081300.796
        45.800
 119653708.179 7  93063886.289 6  22352284.836    22352283.951    22352302.413
        46.700          40.000
 113514428.292 5  88288910.796 6  21257579.393    21257577.357    21257583.312
        32.800          38.100


 127206861.224 6  99122292.58143  24206638.829    24206638.5974   24206648.8624
        36.300          21.0004
 198901812.420 7                  37849784.211
        43.800


 124478665.170 8                  23687506.974
        48.700
 202046612.872 7                  38448214.585
        44.300
 109470637.710 8  85143842.512 7  20442874.144    20442875.443    20442881.351
        50.200          46.600
 117248347.299 7  91193202.636 5  21941435.407    21941434.019    21941446.116
        42.400          34.500
 118836725.275 6  92428595.117 6  22230868.174    22230868.265    22230877.679
        38.700          36.100
 117631526.914 5  91491267.440 6  21997687.827    21997685.831    21997701.646
        32.300          37.600
 25  1  1 19  1  0.0000000  0 24E31G07G30G08G27G04E24R10E09G09E04R07
                                R09S35G14S31E05E06S33R08R11R01R20E26
 125035523.511 8                  23793459.468
        50.500
 110341326.969 8  85980207.17347  20997245.046    20997244.5104   20997245.7634
        49.100          47.7004
 120655385.094 6  94017181.96945  22959955.025    22959954.5924   22959955.2074
        41.100          31.9004
 105935702.500 8  82547359.60148  20158876.505    20158875.8264   20158881.2504
        48.300          49.1004
 113521000.551 5  88457878.85344  21602295.648    21602295.3314   21602306.4374
        34.800          26.6004




 106364319.990 7                  19953676.703    19953676.646
        46.800
 128916884.378 8                  24532070.675
        50.200
 110600740.252 7  86182381.03847  21046633.440    21046632.9714   21046640.4754
        43.600          46.2004
 126575608.406 7                  24086526.364
        45.000
 119717780.223 7  93113719.740 6  22364254.474    22364251.117    22364273.604
        42.600          41.400
 113545916.638 5  88313401.731 6  21263476.062    21263474.944    21263478.673
        35.500          36.800


 127165095.280 6  99089747.98243  24198693.385    24198693.1714   24198701.1254
        38.000          22.6004
 198901807.030 7                  37849782.248
        44.100


 124485592.676 8                  23688826.256
        48.300
 202046626.256 7                  38448208.424
        46.400
 109495419.017 8  85163116.833 7  20447500.939    20447501.807    20447505.872
        49.400          45.100
 117214854.138 7  91167152.260 5  21935171.983    21935171.547    21935173.082
        47.500          33.600
 118801691.114 6  92401346.335 5  22224311.517    22224317.145    22224321.919
        37.500          34.100
 117580479.822 5  91451564.574 6  21988142.909    21988142.163    21988155.313
        30.900          39.200


 25  1  1 19  1 15.0000000  0 23E31G07G30G08G27G04E24R10E09G09E04R07
                                R09S35G14S31E05E06S33R08R11R01R20
 125023567.370 8                  23791183.963
        49.600
 110318399.863 8  85962341.89847  20992882.551    20992882.0064   20992882.6364
        48.200          46.7004
 120613499.459 6  93984543.81644  22951983.984    22951983.5554   22951981.8834
        39.800          28.0004
 105934768.494 7  82546631.83947  20158699.653    20158698.9694   20158703.8164
        46.200          47.1004
 113554326.828 5  88483847.29644  21608637.871    21608637.0084   21608642.6424
        35.000          27.4004
 117674758.242 6  91694477.06142  22392718.492    22392718.7024   22392729.2954
        38.600          12.9004


 106366457.888 7                  19954078.138    19954078.497
        47.800
 128903810.070 8                  24529582.767
        49.900
 110635795.700 7  86209696.90147  21053305.221    21053304.7344   21053312.5524
        42.300          46.2004
 126603156.206 7                  24091768.205
        45.500
 119781898.003 7  93163588.718 6  22376228.965    22376228.085    22376252.822
        44.100          41.500
 113577435.724 6  88337916.494 6  21269385.630    21269382.301    21269385.431
        41.800          40.500


 127123358.694 6  99057226.24943  24190751.215    24190750.9204   24190757.8244
        36.900          19.7004
 198901800.523 7                  37849777.835
        43.700


 124492623.434 8                  23690163.920
        48.300
 202046638.857 7                  38448211.894
        46.300
 109520386.203 8  85182535.733 7  20452163.728    20452163.630    20452169.984
        48.000          45.400
 117181393.363 7  91141127.243 6  21928903.682    21928904.461    21928916.191
        43.500          40.400
 118766821.326 5  92374225.370 5  22217785.213    22217788.357    22217795.264
        35.200          30.400
 117529532.120 5  91411938.938 6  21978615.205    21978612.590    21978627.975
        32.400          39.200
 25  1  1 19  1 30.0000000  0 23E31G07G30G08G27G04E24R10E09G09E04R07
                                R09S35G14S31E05E06S33R08R11R01R20
 125011659.888 8                  23788917.905
        49.600
 110295524.748 8  85944517.12847  20988528.905    20988528.3424   20988529.6954
        48.700          46.3004
 120571629.467 6  93951917.88744  22944016.566    22944016.1554   22944012.0174
        39.200          26.0004
 105933991.890 7  82546026.71847  20158551.823    20158551.1264   20158555.7294
        45.900          45.9004
 113587780.229 6  88509914.84844  21615005.676    21615004.9484   21615006.7314
        36.400          26.6004
 117726643.306 6  91734906.69342  22402591.752    22402591.8504   22402603.8054
        38.000          14.2004
 146121786.703 5                  27806049.905
        34.300
 106368651.473 7                  19954489.345    19954489.233
        47.700
 128890831.862 8                  24527113.148
        48.600
 110670965.574 7  86237101.96647  21059998.640    21059998.1354   21060005.8154
        42.800          44.7004
 126630786.310 7                  24097025.129
        45.500
 119846058.654 7  93213490.941 6  22388214.100    22388217.239    22388237.222
        45.700          40.400
 113608983.536 6  88362453.677 6  21275283.230    21275285.796    21275290.517
        37.700          40.400


 127081649.702 6  99024725.99143  24182812.516    24182812.1414   24182820.2704
        36.600          18.8004
 198901791.379 7                  37849779.815
        44.600


 124499755.567 8                  23691520.849
        48.900
 202046648.896 7                  38448208.160
        44.900
 109545537.414 7  85202097.743 7  20456860.122    20456860.018    20456866.400
        46.200          45.400
 117147963.123 7  91115125.940 6  21922649.154    21922648.218    21922659.452
        43.200          40.900
 118732114.854 6                  22211297.502
        38.300
 117478682.531 5  91372389.609 6  21969101.851    21969102.048    21969119.651
        31.200          37.000
 25  1  1 19  1 45.0000000  0 25E31G07G30G08G16G27G04R19E24R10E09G09
                                E04R07R09S35G14S31E05E06S33R08R11R01
                                R20
 124999807.306 8                  23786662.199
        48.600
 110272708.201 8  85926737.99547  20984187.090    20984186.5324   20984187.4634
        49.300          46.6004
 120529781.538 6  93919309.10744  22936053.224    22936052.7954   22936049.3804
        40.400          25.5004
 105933378.800 8  82545548.99847  20158434.644    20158433.9514   20158438.6044
        48.100          45.2004
 127029965.090 4                  24173001.070
        26.000
 113621366.634 6  88536086.03544  21621394.459    21621393.5964   21621396.2374
        39.300          26.2004
 117778594.118 5  91775387.68242  22412479.469    22412479.4524   22412490.3664
        34.500          12.9004
                  92033703.738 5                                  22120370.917
                        35.000
 146088345.344 5                  27799689.152
        35.700
 106370907.047 7                  19954911.941    19954911.507
        46.600
 128877956.155 8                  24524663.436
        48.600
 110706255.883 7  86264600.88147  21066712.878    21066712.3784   21066721.2984
        44.700          44.7004
 126658504.870 7                  24102300.376
        45.900
 119910267.863 7  93263430.915 6  22400210.687    22400210.613    22400230.842
        42.600          37.200
 113640566.518 6  88387018.140 6  21281199.678    21281202.906    21281205.374
        39.700          40.600


 127039974.816 6  98992252.35842  24174881.506    24174881.0684   24174889.0734
        39.900          16.5004
 198901786.271 7                  37849772.097
        43.100


 124506995.355 8                  23692898.849
        48.100
 202046662.865 7                  38448217.362
        46.100
 109570878.555 8  85221807.440 7  20461593.224    20461593.419    20461598.173
        48.900          45.600
 117114569.746 5  91089153.377 7  21916395.024    21916397.565    21916409.528
        35.400          43.300
                                                  22204832.412

 117427937.834 4  91332921.920 6  21959615.733    21959612.500    21959627.872
        29.400          36.300
 25  1  1 19  2  0.0000000  0 24E31G07G30G08G27G04E24R10E09G09E04R07
                                R09S35G14S31E05E06S33R08R11R01R20E26
 124988005.662 8                  23784415.882
        48.600
 110249946.498 8  85909001.63147  20979855.823    20979855.2734   20979855.7894
        49.200          46.8004
 120487952.167 6  93886714.81544  22928091.613    22928091.1664   22928092.6604
        38.400          27.6004
 105932925.476 8  82545195.80547  20158348.837    20158348.1534   20158351.3494
        49.000          45.4004
 113655081.970 6  88562357.68644  21627810.672    21627809.7874   21627812.4124
        39.100          29.4004
 117830606.478 5  91815916.54541  22422376.489    22422376.3694   22422387.8954
        35.100           9.1004
 146054931.135 5                  27793328.236
        33.800
 106373221.015 7                  19955345.872    19955345.634
        46.400
 128865179.262 8                  24522232.043
        49.600
 110741662.442 7  86292190.34447  21073451.631    21073451.1624   21073458.3294
        42.100          44.4004
 126686307.849 7                  24107591.377
        45.900
 119974521.219 7  93313405.335 6  22412220.388    22412221.311    22412235.843
        45.600          39.900
 113672180.891 7  88411607.049 6  21287121.694    21287122.874    21287126.455
        44.000          40.600


 126998330.174 5  98959802.24842  24166955.935    24166955.4844   24166962.7564
        35.000          13.0004
 198901780.303 7                  37849770.814
        43.000


 124514338.973 8                  23694296.182
        49.100
 202046676.370 7                  38448225.680
        45.700
 109596405.292 7  85241661.514 7  20466360.156    20466360.808    20466366.733
        46.000          46.400
 117081209.586 6  91063206.499 7  21910160.514    21910160.045    21910167.300
        38.600          43.300
 118663207.683 6                  22198407.263    22198407.925
        40.400
 117377295.059 4  91293533.595 6  21950140.051                    21950158.894
        27.900          37.000


 25  1  1 19  2 15.0000000  0 24E31G07G30G08G27G04E24R10E09G09E04R07
                                R09S35G14S31E05E06S33R08R11R01R20E26
 124976252.823 8                  23782179.731
        49.100
 110227237.882 8  85891306.63947  20975534.879    20975534.3434   20975534.0424
        50.300          47.4004
 120446139.107 5  93854133.15844  22920135.283    22920134.7924   22920137.5054
        32.300          25.0004
 105932629.681 7  82544965.35847  20158291.605    20158290.9214   20158294.7524
        47.900          43.9004
 113688923.753 6  88588727.87344  21634250.931    21634250.0914   21634254.0884
        40.500          28.1004


 146021541.865 5                  27786974.234
        30.900
 106375590.617 7                  19955789.450    19955789.134
        47.700
 128852499.146 8                  24519818.850
        48.800
 110777182.807 6  86319868.48547  21080212.253    21080211.7974   21080216.9284
        39.400          43.7004
 126714193.032 7                  24112897.520
        44.900
 120038816.096 7  93363411.994 6  22424225.615    22424226.808    22424246.984
        44.800          41.500
 113703824.232 7  88436218.542 7  21293047.833    21293047.326    21293053.667
        43.700          42.700


 126956713.709 5  98927374.12442  24159032.466    24159031.9794   24159043.1994
        35.500          15.3004
 198901772.582 7                  37849770.962
        42.500
 140412091.869 5                  26719532.737
        33.200
 124521784.272 8                  23695712.914
        49.700
 202046687.700 6                  38448228.452
        41.400
 109622115.228 7  85261658.082 7  20471161.643    20471162.409    20471167.226
        47.000          46.400
 117047880.082 7  91037283.539 7  21903923.459    21903922.105    21903929.127
        42.100          43.600
 118629001.661 6                  22192007.176    22192008.152
        40.200
                  91254222.759 5                                  21940703.993
                        35.300


 25  1  1 19  2 30.0000000  0 25E31G07G30G08G27G04R19E24R10E09G09E04
                                R07R09S35G14S31E05E06S33R08R11R01R20
                                E26
 124964551.966 8                  23779952.945
        48.800
 110204585.680 8  85873655.58047  20971224.272    20971223.7314   20971223.3084
        50.000          47.4004
 120404346.096 6  93821567.18044  22912181.460    22912180.9694   22912186.5444
        36.600          29.7004
 105932494.617 8  82544860.11347  20158266.304    20158265.6074   20158269.2734
        48.900          44.8004
 113722894.873 6  88615198.95944  21640714.633    21640713.8554   21640719.3974
        39.900          27.1004
 117934568.581 6  91897137.92142  22442200.855    22442200.6144   22442218.8084
        39.800          12.5004
                  92059600.997 6                                  22126591.298
                        36.000
 145988180.901 5                  27780626.697
        34.600
 106378019.441 7                  19956246.276    19956245.669
        47.200
 128839919.110 8                  24517424.866
        48.500
 110812819.932 7  86347637.60347  21086993.254    21086992.8214   21086997.6604
        46.500          45.0004
 126742163.514 7                  24118220.867
        46.600
 120103155.200 6  93413453.002 6  22436247.961    22436245.461    22436267.658
        41.000          40.100
 113735499.843 7  88460855.149 6  21298981.047    21298978.643    21298983.548
        42.500          39.900


 126915128.515 6  98894970.30842  24151125.624    24151125.2624   24151129.6614
        40.000          16.7004
 198901766.070 7                  37849780.674
        43.000
 140371255.983 6                  26711766.720
        36.600
 124529334.417 8                  23697149.841
        49.300
 202046700.595 7                  38448229.257
        42.000
 109648011.266 7  85281799.444 7  20475995.681    20475996.157    20476002.812
        44.900          46.100
 117014584.820 6  91011387.197 7  21897694.578    21897693.519    21897697.617
        40.000          43.000
 118594963.748 7                  22185641.189    22185640.991
        42.000
                  91214992.877 6                                  21931274.244
                        37.400


 25  1  1 19  2 45.0000000  0 25E31G07G30G08G27G04R19E24R10E09G09E04
                                R07R09S35G14S31E05E06S33R08R11R01R20
                                E26
 124952901.608 8                  23777735.939
        48.800
 110181988.750 8  85856047.61148  20966924.518    20966923.9774   20966923.5704
        50.300          48.9004
 120362571.605 6  93789015.63944  22904234.707    22904234.2294   22904238.9694
        36.700          28.3004
 105932518.851 7  82544879.02647  20158270.494    20158269.8104   20158274.4784
        47.900          45.5004
 113756993.565 5  88641769.39443  21647202.533    21647201.7784   21647208.0304
        35.600          22.7004
 117986762.310 5  91937808.16442  22452135.784    22452135.6684   22452152.1024
        33.000          12.8004
                  92068532.116 6                                  22128734.757
                        36.600
 145954846.751 5                  27774281.538
        35.100
 106380505.983 8                  19956712.812    19956712.050
        49.000
 128827437.978 8                  24515049.286
        48.000
 110848572.180 7  86375496.45947  21093796.213    21093795.7624   21093800.5324
        45.800          44.2004
 126770217.718 7                  24123559.460
        47.400
 120167536.532 6  93463527.033 6  22448273.978    22448270.924    22448295.951
        41.100          41.100
 113767206.184 6  88485515.667 6  21304917.050    21304915.066    21304919.564
        40.400          39.300


 126873573.425 6  98862590.05443  24143216.886    24143216.5384   24143222.5094
        37.200          18.3004
 198901758.592 7                  37849773.618
        44.200
 140330453.483 5                  26704000.755
        31.100
 124536988.066 8                  23698606.538
        50.000
 202046712.322 6                  38448222.514
        41.500
 109674091.552 7  85302084.021 7  20480868.410    20480869.050    20480873.097
        45.700          46.300
 116981321.851 6  90985516.136 7  21891467.270    21891465.815    21891471.182
        39.400          42.000
 118561092.948 6  92214233.688 5  22179304.618    22179303.454    22179316.751
        38.300          32.700
                  91175843.031 6                                  21921862.905
                        37.900


 25  1  1 19  3  0.0000000  0 25E31G07G30G08G27G04R19E24R10E09G09E04
                                R07R09E21S35G14S31E05E06S33R08R11R01
                                E26
 124941303.634 8                  23775529.157
        49.200
 110159449.144 8  85838484.27248  20962635.271    20962634.7264   20962634.6894
        50.100          48.6004
 120320818.003 6  93756480.40444  22896288.184    22896287.6934   22896293.0074
        38.300          27.5004
 105932704.307 8  82545023.54547  20158306.104    20158305.4204   20158309.9384
        50.200          46.5004


 118039018.100 6  91978526.80642  22462081.474    22462081.1934   22462098.3814
        36.400          15.4004
                  92077617.813 5                                  22130920.674
                        34.500
 145921541.472 6                  27767945.340
        38.300
 106383052.075 7                  19957189.257    19957188.537
        47.500
 128815057.754 8                  24512693.285
        48.000
 110884441.177 7  86403446.24447  21100622.480    21100622.0024   21100626.4954
        47.200          45.1004
 126798357.580 7                  24128913.889
        46.300
 120231961.879 6  93513635.154 6  22460308.404    22460306.480    22460330.071
        41.900          40.000
 113798945.606 6  88510201.821 6  21310855.478    21310855.706    21310865.105
        38.800          40.300




 126832050.266 7  98830234.56043  24135313.873    24135313.4674   24135321.8944
        42.000          19.0004
 198901752.673 7                  37849776.824
        42.900
 140289686.501 5                  26696242.316
        33.000
 124544747.173 7                  23700082.476
        47.700
 202046726.070 7                  38448229.029
        43.400
 109700357.859 7  85322513.293 7  20485772.724    20485773.150    20485779.093
        44.800          46.700
 116948093.874 6  90959672.053 7  21885246.065    21885246.928    21885252.362
        40.600          42.300
 118527391.458 6  92188021.442 5  22172997.113    22172999.048    22173009.518
        36.200          31.200
 145163619.663 4                  27623715.863
        25.900
 25  1  1 19  3 15.0000000  0 26E31G07G30G08G27G04R19E24R10E09G09E04
                                R07R09E21S35G14S31E05E06S33R08R11R01
                                R20E26
 124929755.714 8                  23773332.169
        49.500
 110136964.885 8  85820964.06548  20958356.063    20958355.5004   20958356.1834
        50.900          48.8004
 120279082.886 6  93723959.56344  22888345.995    22888345.4684   22888350.2254
        37.200          28.5004
 105933048.659 8  82545291.90047  20158371.569    20158370.8944   20158375.8764
        50.300          47.1004
 113825576.385 5  88695152.53442  21660262.096    21660261.5294   21660258.3714
        34.000          17.4004
 118091333.157 6  92019291.52142  22472038.796    22472038.5954   22472053.6394
        40.700          16.1004
                  92086856.347 5                                  22133140.589
                        30.000
 145888262.747 6                  27761612.258
        38.100
 106385655.606 8                  19957678.355    19957677.858
        48.700
 128802776.323 7                  24510356.495
        46.300
 110920424.317 7  86431485.03347  21107469.555    21107469.0824   21107474.0744
        45.600          44.2004
 126826580.552 7                  24134284.503
        47.700
 120296427.946 8  93563774.989 6  22472354.452    22472356.438    22472372.254
        48.200          39.900
 113830715.505 7  88534911.770 6  21316809.599    21316809.314    21316816.446
        44.400          39.600




 126790557.071 6  98797902.49443  24127417.310    24127416.8684   24127425.1794
        41.200          20.5004
 198901746.175 6                  37849773.484
        40.800
 140248952.966 4                  26688490.670
        29.900
 124552609.413 8                  23701579.087
        49.100
 202046738.757 6                  38448236.443
        40.000
 109726807.491 7  85343085.159 7  20490709.379    20490711.181    20490717.737
        45.600          47.400
 116914897.995 7  90933853.043 7  21879036.642    21879036.251    21879039.655
        44.700          43.700
 118493857.536 5  92161939.498 5  22166725.613    22166725.348    22166734.504
        35.800          31.400
                  91097788.897 5                                  21903104.404
                        33.700


 25  1  1 19  3 30.0000000  0 24E31G07G30G08G27G04R19E24R10E09G09E04
                                R07R09S35G14S31E05E06S33R08R11R01E26
 124918258.333 8                  23771144.071
        50.100
 110114536.741 8  85803487.60148  20954088.061    20954087.5114   20954087.9834
        49.900          48.7004
 120237367.395 6  93691454.04044  22880409.046    22880408.6084   22880411.2484
        38.900          29.0004
 105933552.412 8  82545684.46248  20158467.608    20158466.9384   20158471.5064
        50.900          48.4004


 118143707.535 7  92060102.85741  22482004.465    22482004.2824   22482020.9404
        43.100          11.3004
                  92096241.092 5                                  22135396.817
                        32.300
 145855011.197 6                  27755282.843
        37.300
 106388316.694 8                  19958178.248    19958177.638
        49.900
 128790594.358 7                  24508038.321
        46.800
 110956521.899 7  86459612.92147  21114338.529    21114338.0294   21114343.5464
        46.900          45.8004
 126854887.126 7                  24139670.458
        44.200
 120360935.021 7  93613946.704 6  22484406.086    22484403.785    22484423.616
        44.900          40.900
 113862516.277 7  88559645.589 6  21322764.305    21322763.932    21322770.908
        45.000          37.700


 126749094.235 6  98765594.09343  24119527.508    24119527.0704   24119534.6484
        39.700          21.6004
 198901739.384 6                  37849758.781
        40.300
 140208253.354 5                  26680746.496
        35.600
 124560575.330 8                  23703095.075
        50.000
 202046751.767 7                  38448230.768
        45.400
 109753440.826 7  85363799.867 7  20495684.211    20495684.828    20495691.742
        44.500          47.900
 116881734.920 8  90908059.607 7  21872829.886    21872831.566    21872835.664
        49.900          45.700
 118460491.908 5  92135988.356 5  22160486.542    22160484.090    22160497.283
        35.800          33.800


 25  1  1 19  3 45.0000000  0 25E31G07G30G08G27G04R19E24R10E09G09E04
                                R07R09S35G14S31E05E06S33R08R11R01R20
                                E26
 124906811.108 8                  23768965.133
        48.600
 110092164.523 8  85786054.72048  20949830.645    20949830.1004   20949830.4584
        49.800          48.2004
 120195670.975 7  93658963.34244  22872473.590    22872473.1434   22872474.9414
        42.200          27.1004
 105934215.117 8  82546200.87447  20158593.419    20158592.7444   20158596.1264
        50.200          47.3004
 113894665.546 5  88748988.42943  21673413.930    21673413.2064   21673403.5644
        34.800          19.6004
 118196140.787 6  92100959.82242  22491980.725    22491980.5514   22492000.9444
        41.000          14.7004
                  92105785.515 5                                  22137692.750
                        32.400
 145821786.398 6                  27748961.130
        37.200
 106391035.262 8                  19958687.745    19958687.184
        49.500
 128778511.571 7                  24505738.701
        47.800
 110992733.191 7  86487829.44447  21121229.891    21121229.4044   21121234.7514
        46.300          45.2004
 126883276.790 7                  24145071.574
        43.500
 120425481.853 7  93664149.453 6  22496458.546    22496460.058    22496479.889
        43.400          38.100
 113894347.817 7  88584403.343 5  21328723.130    21328723.657    21328725.763
        42.600          30.200


 126707661.597 6  98733309.22043  24111642.120    24111641.7274   24111650.2514
        39.700          22.0004
 198901732.399 7                  37849763.253
        43.300
 140167587.876 6                  26673009.151
        36.500
 124568644.547 8                  23704629.774
        48.700
 202046763.845 7                  38448237.811
        44.400
 109780256.936 7  85384656.828 8  20500693.136    20500693.604    20500699.919
        46.600          49.000
 116848604.414 8  90882291.417 7  21866629.229    21866629.936    21866635.786
        48.800          46.900
 118427294.740 6  92110168.285 5  22154278.353    22154277.952    22154285.310
        40.800          31.500
                  91020061.500 5                                  21884403.398
                        32.200


 25  1  1 19  4  0.0000000  0 24E31G07G30G08G27G04R19E24R10E09G09E04
                                R07R09S35G14S31E05E06S33R08R11R01E26
 124895413.468 8                  23766796.320
        48.800
 110069847.847 8  85768665.12447  20945584.267    20945583.7264   20945583.3284
        49.900          47.3004
 120153993.547 6  93626487.44044  22864542.717    22864542.2174   22864541.5364
        40.200          27.7004
 105935036.221 8  82546840.71647  20158750.905    20158750.2214   20158751.3274
        48.400          46.1004


 118248631.909 6  92141861.86842  22501970.531    22501970.4514   22501990.7994
        38.700          17.7004
                  92115482.354 5                                  22140025.483
                        31.600
 145788587.899 5                  27742643.313
        34.400
 106393810.581 8                  19959208.575    19959208.311
        49.200
 128766527.610 7                  24503457.761
        47.300
 111029057.471 7  86516134.02747  21128141.927    21128141.4714   21128146.5554
        46.700          43.1004
 126911748.924 6                  24150491.241
        41.600
 120490067.704 7  93714382.439 6  22508526.204    22508530.590    22508546.115
        46.000          39.300




 126666258.454 6  98701047.26243  24103761.883    24103761.5124   24103772.3534
        36.900          18.8004
 198901724.020 7                  37849761.710
        42.700
 140126956.056 5                  26665275.494
        34.600
 124576816.588 7                  23706185.105
        47.600
 202046775.008 7                  38448240.329
        46.600
 109807254.813 7  85405655.123 8  20505736.024    20505735.569    20505741.307
        45.900          48.600
 116815505.637 7  90856547.974 7  21860434.855    21860435.290    21860441.877
        47.300          46.300
 118394265.560 6  92084478.936 4  22148099.793    22148098.720    22148111.408
        41.700          29.700


 25  1  1 19  4 15.0000000  0 25E31G07G30G08G27G04R19E24R10E09G09E04
                                R07R09E21S35G14S31E05E06S33R08R11R01
                                E26
 124884066.970 8                  23764637.268
        49.500
 110047588.726 8  85751320.35447  20941348.184    20941347.6304   20941347.5974
        49.200          46.7004
 120112336.816 6  93594027.64244  22856615.764    22856615.2554   22856614.8024
        37.900          29.4004
 105936017.391 8  82547605.29747  20158937.325    20158936.6324   20158938.2594
        48.300          46.3004
 113964095.062 5  88803211.83243  21686642.622    21686643.1134   21686651.3234
        35.300          19.9004
 118301182.224 5  92182810.03042  22511970.603    22511970.6074   22511991.1584
        32.900          16.0004


 145755417.508 5                  27736331.068
        31.700
 106396644.387 8                  19959739.587    19959739.491
        48.500
 128754644.250 8                  24501196.677
        48.300
 111065496.057 7  86544527.66347  21135075.089    21135074.6074   21135080.2584
        47.500          42.7004
 126940304.982 6                  24155925.964
        41.100
 120554693.559 7  93764646.515 6  22520597.940    22520599.875    22520622.537
        43.800          41.400
 113958103.165 7  88634009.392 5  21340667.358    21340666.355    21340672.713
        43.100          35.000




 126624886.766 5  98668809.89442  24095892.290    24095891.7944   24095899.5154
        34.700          14.2004
 198901716.121 7                  37849750.795
        42.200
 140086359.816 5                  26657550.816
        35.800
 124585093.032 7                  23707759.992
        47.500
 202046786.500 7                  38448244.000
        46.200
 109834436.116 8  85426796.067 7  20510812.328    20510813.110    20510816.706
        48.500          47.800
 116782440.601 7  90830830.742 7  21854246.123    21854245.911    21854253.420
        44.900          44.000
 118361406.795 6  92058922.190 4  22141948.719    22141947.734    22141956.814
        38.300          28.800
 145011791.096 5                  27594825.862
        33.200
 25  1  1 19  4 30.0000000  0 25E31G07G30G08G27G04E24R10E09G09E04R07
                                R09E21S35G14S31E05E06S33R08R11R01R20
                                E26
 124872771.032 8                  23762487.950
        50.200
 110025386.765 7  85734020.13247  20937123.674    20937123.1294   20937123.1174
        47.600          46.6004
 120070700.496 5  93561583.80244  22848691.660    22848691.0524   22848692.4464
        33.300          27.4004
 105937157.994 8  82548494.10847  20159154.081    20159153.3974   20159156.3004
        49.400          47.0004
 113999080.787 5  88830473.40543  21693304.990    21693305.2354   21693309.3634
        30.900          22.3004
 118353790.968 5  92223803.75442  22521983.751    22521983.6494   22522001.9234
        34.700          12.7004
 145722274.422 5                  27730022.887
        33.900
 106399535.829 8                  19960282.172    19960281.577
        48.100
 128742861.030 8                  24498954.552
        49.200
 111102048.056 7  86573009.69347  21142030.844    21142030.3974   21142035.6794
        44.600          42.0004
 126968944.307 7                  24161377.230
        44.100
 120619358.328 7  93814940.954 7  22532681.750    22532681.681    22532704.069
        43.800          42.300
 113990027.687 6  88658839.619 6  21346642.217    21346640.640    21346650.830
        40.100          38.100




 126583545.894 6  98636596.57242  24088035.810    24088035.2564   24088032.3664
        38.100          13.3004
 198901709.025 7                  37849758.566
        43.500
 140045798.839 6                  26649832.361
        37.700
 124593473.367 7                  23709354.560
        46.700
 202046798.480 7                  38448244.527
        44.800
 109861799.676 7  85448078.819 7  20515921.244    20515921.040    20515926.988
        46.200          46.500
 116749408.563 7  90805139.155 7  21848066.362    21848066.419    21848070.271
        44.700          42.600
 118328717.965 6                  22135835.237    22135836.037
        38.100
 116876559.756 5  90904090.677 5  21856501.466                    21856547.014
        34.100          31.300
 144981582.923 5                  27589073.295
        31.200
 25  1  1 19  4 45.0000000  0 24E31G07G30G08G27G04E24R10E09G09E04R07
                                R09S35G14S31E05E06S33R08R11R01R20E26
 124861524.196 8                  23760347.835
        49.300
 110003240.749 7  85716763.51447  20932909.578    20932909.0554   20932908.7874
        47.500          45.4004
 120029083.244 7  93529154.79444  22840774.493    22840773.8504   22840771.2174
        42.000          26.3004
 105938456.544 8  82549505.97447  20159401.046    20159400.3764   20159403.8714
        50.800          47.8004
 114034190.640 6  88857831.69843  21699986.924    21699987.0084   21699991.1664
        37.800          23.0004
 118406456.229 6  92264841.49643  22532006.546    22532006.4264   22532022.7264
        36.200          18.2004
 145689157.371 5                  27723720.456
        35.000
 106402483.644 7                  19960834.940    19960834.171
        47.300
 128731176.673 8                  24496730.912
        50.200
 111138711.849 7  86601578.80546  21149007.904    21149007.4754   21149012.3584
        45.500          39.9004
 126997665.362 7                  24166841.204
        47.700
 120684059.911 7  93865264.063 7  22544765.365    22544765.123    22544790.364
        43.000          42.500
 114021981.969 6  88683692.948 5  21352628.030    21352628.406    21352636.714
        38.500          35.800
 200824991.344 5                  38215718.527
        34.400
 126542234.700 4  98604406.27241  24080155.980    24080155.1534   24080170.6194
        27.900           9.1004
 198901699.483 7                  37849757.368
        43.100
 140005271.833 5                  26642119.206
        34.500
 124601956.188 7                  23710968.453
        47.000
 202046809.248 7                  38448242.891
        43.100
 109889343.790 7  85469502.050 7  20521063.356    20521063.281    20521069.403
        45.400          44.600
 116716408.040 7  90779472.123 6  21841890.669    21841891.216    21841894.106
        45.100          38.800
 118296198.183 6  92008195.684 5  22129752.853    22129755.891    22129758.022
        39.300          32.500
 116827072.231 4                  21847246.318
        26.600


 25  1  1 19  5  0.0000000  0 25E31G07G30G08G16G27G04R19E24R10E09G09
                                E04R07R09S35G14S31E05E06S33R08R11R01
                                E26
 124850328.657 8                  23758217.942
        50.000
 109981153.198 7  85699552.45047  20928705.944    20928705.4304   20928705.7034
        46.100          45.3004
 119987487.526 7  93496742.53145  22832857.470    22832856.8364   22832857.9844
        43.600          32.6004
 105939915.327 8  82550642.70048  20159678.649    20159677.9884   20159682.1854
        50.200          48.0004
 127684291.684 5                  24297515.641
        33.100
 114069426.630 6  88885288.33244  21706690.950    21706690.7674   21706696.0064
        39.500          26.8004
 118459207.109 5  92305935.83543  22542038.530    22542038.4144   22542052.1954
        35.200          22.6004
                  92155808.307 5                                  22149712.659
                        30.100
 145656068.651 6                  27717424.862
        38.500
 106405489.921 7                  19961398.425    19961398.235
        46.600
 128719593.614 8                  24494526.340
        48.600
 111175489.364 7  86630236.54646  21156007.134    21156006.6614   21156010.6174
        44.300          39.7004
 127026470.351 7                  24172321.615
        44.500
 120748800.255 6  93915617.208 6  22556858.913    22556858.071    22556883.514
        39.800          39.200
 114053967.905 5  88708571.065 5  21358612.813    21358613.150    21358626.247
        35.600          34.500




 198901691.077 7                  37849748.791
        43.700
 139964781.379 5                  26634414.964
        35.500
 124610543.684 7                  23712603.746
        46.800
 202046820.330 7                  38448245.301
        46.300
 109917070.420 7  85491067.159 7  20526240.926    20526239.783    20526247.752
        44.300          45.000
 116683441.409 7  90753831.456 6  21835721.666    21835722.027    21835728.253
        43.700          38.700
 118263849.947 6  91983035.924 5  22123699.034    22123699.477    22123703.239
        36.100          30.000


 25  1  1 19  5 15.0000000  0 26E31G07G30G08G16G27G04R19E24R10E09G09
                                E04R07R09S35G14S31E05E06S33R08R11R01
                                R20E26
 124839185.108 8                  23756097.188
        50.900
 109959124.980 7  85682387.60747  20924513.724    20924513.2064   20924513.8524
        47.300          45.3004
 119945914.346 7  93464347.86645  22824946.341    22824945.6984   22824947.7774
        43.900          31.3004
 105941534.973 8  82551904.76047  20159987.242    20159986.5814   20159990.9734
        50.600          46.7004
 127734592.448 4                  24307086.194
        29.800
 114104788.996 6  88912843.36244  21713419.009    21713418.6074   21713424.3054
        39.300          28.5004
 118511989.948 6  92347065.06543  22552083.861    22552083.9194   22552095.6394
        36.300          18.5004
                  92166271.293 4                                  22152229.897
                        29.100
 145623009.082 6                  27711134.826
        40.400
 106408555.675 7                  19961974.436    19961974.368
        46.500
 128708112.685 8                  24492342.241
        48.100
 111212381.001 7  86658983.20946  21163027.563    21163027.0814   21163030.0904
        44.300          39.3004
 127055359.765 7                  24177819.562
        44.800
 120813579.561 7  93966000.754 6  22568960.100    22568961.068    22568984.879
        42.200          39.300
 114085986.966 6  88733474.924 5  21364615.245    21364613.777    21364620.407
        40.600          32.500


 126459580.397 5  98539938.64642  24064457.132    24064457.4714   24064462.6674
        35.500          15.0004
 198901684.925 7                  37849746.462
        43.700
 139924328.453 6                  26626717.008
        36.600
 124619236.633 7                  23714257.795
        46.900
 202046833.618 7                  38448249.960
        45.900
 109944979.915 7  85512774.475 7  20531453.011    20531452.282    20531459.477
        45.700          44.900
 116650509.428 7  90728217.713 6  21829563.222    21829563.015    21829565.498
        46.500          38.700
 118231674.676 6  91958010.694 4  22117687.390    22117684.223    22117684.230
        36.500          29.200
 116728427.735 5                  21828796.807    21828796.779
        31.100


 25  1  1 19  5 30.0000000  0 24E31G07G30G08G16G27G04E24R10E09G09E04
                                R07R09S35G14S31E05E06S33R08R11R20E26
 124828091.570 8                  23753985.945
        51.000
 109937154.392 7  85665267.67147  20920333.333    20920332.8104   20920333.2254
        46.700          45.9004
 119904361.933 7  93431969.39744  22817038.781    22817038.1114   22817038.5194
        43.800          28.9004
 105943313.486 8  82553290.65247  20160325.425    20160324.7554   20160329.0824
        51.900          46.4004
 127784887.632 5  99572579.8164   24316661.363    24316661.4614   24316645.3664
        32.000           1.1004
 114140275.519 6  88940495.13544  21720172.479    21720172.1134   21720176.5084
        37.000          26.6004
 118564829.362 6  92388238.44242  22562139.224    22562138.7194   22562150.0154
        39.400          17.8004
 145589976.656 6                  27704848.238
        40.500
 106411678.866 7                  19962560.376    19962559.435
        45.300
 128696732.016 7                  24490176.871
        47.600
 111249384.593 7  86687817.11946  21170068.655    21170068.1594   21170071.8274
        46.800          40.8004
 127084331.573 7                  24183333.164
        45.100
 120878395.440 7  94016412.695 6  22581071.074    22581070.052    22581092.682
        42.100          39.700
 114118036.883 6  88758402.643 5  21370615.592    21370617.672    21370620.037
        39.500          30.200


 126418364.152 5  98507822.40042  24056617.771    24056617.9544   24056622.0354
        35.000          15.3004
 198901678.263 7                  37849753.563
        43.200
 139883911.276 6                  26619024.980
        36.600
 124628033.036 7                  23715931.636
        47.200
 202046846.646 7                  38448256.744
        46.400
 109973070.000 7  85534622.210 7  20536698.513    20536699.602    20536704.373
        47.200          44.700
 116617610.091 7  90702629.413 6  21823405.471    21823405.676    21823405.753
        46.400          37.600
 116679270.847 4                  21819601.752    21819601.943
        26.500


 25  1  1 19  5 45.0000000  0 24E31G07G30G08G27G04E24R10E09G09E04R07
                                R09S35G14S31E05E06S33R08R11R01R20E26
 124817048.132 8                  23751884.376
        50.400
 109915241.843 7  85648192.96847  20916163.907    20916163.3934   20916163.2584
        47.600          46.7004
 119862830.625 6  93399607.37044  22809137.185    22809136.4884   22809132.8474
        37.800          27.3004
 105945250.966 8  82554800.41247  20160693.585    20160692.9284   20160697.3114
        51.900          44.9004
 114175886.034 5  88968243.59843  21726948.861    21726948.4644   21726953.2484
        34.200          21.9004
 118617725.241 6  92429455.76042  22572204.012    22572203.5744   22572215.1954
        36.500          12.6004
 145556971.561 6                  27698566.576
        40.400
 106414859.497 7                  19963156.638    19963156.150
        46.300
 128685451.910 7                  24488030.176
        46.900
 111286499.943 7  86716738.09646  21177131.328    21177130.8144   21177135.5114
        45.300          41.6004
 127113385.798 7                  24188862.345
        46.300
 120943247.194 7  94066852.492 6  22593187.810    22593186.723    22593207.730
        43.200          40.400
 114150117.649 5  88783354.357 5  21376623.980    21376625.454    21376630.837
        35.300          33.700


 126377179.033 5  98475730.41141  24048782.780    24048782.6824   24048786.1694
        32.900          11.1004
 198901671.147 7                  37849750.182
        42.600
 139843530.244 5                  26611340.607
        35.000
 124636933.027 7                  23717624.881
        46.700
 202046859.002 7                  38448255.554
        43.800
 110001340.553 8  85556610.335 7  20541979.125    20541980.959    20541985.328
        48.600          44.900
 116584743.464 6  90677066.583 6  21817250.547    21817249.790    21817254.491
        41.400          37.700
                  91908359.602 5                                  22105744.524
                        31.100
 116630224.816 4                  21810436.004    21810434.343
        29.000
 144831319.707 5                  27560481.804
        35.500
 25  1  1 19  6  0.0000000  0 24G21E31G07G30G08G27G04E24R10E09G09E04
                                R07R09S35G14S31E05E06S33R08R11R20E26
 124445183.753 5                  23681131.035
        33.700
 124806053.690 8                  23749792.204
        49.900
 109893386.492 8  85631162.82148  20912005.136    20912004.6004   20912004.2204
        50.500          48.9004
 119821319.627 5  93367261.11944  22801239.209    22801238.5794   22801235.3534
        34.800          28.4004
 105947346.325 8  82556433.20147  20161092.537    20161091.8764   20161095.2494
        50.200          42.7004
 114211619.264 6  88996087.73044  21733750.803    21733750.3744   21733753.6564
        36.400          26.1004
 118670676.260 6  92470716.11041  22582280.380    22582279.8844   22582291.5714
        39.400          11.0004
 145523992.743 6                  27692290.310
        41.300
 106418096.547 7                  19963764.194    19963764.099
        46.100
 128674271.506 7                  24485902.853
        47.700
 111323725.737 7  86745745.14746  21184215.081    21184214.5724   21184219.8804
        42.400          41.2004
 127142521.282 7                  24194406.232
        45.900
 121008133.446 7  94117319.191 6  22605306.036    22605305.423    22605329.015
        43.000          39.700
 114182228.265 5  88808329.347 5  21382648.104    21382648.577    21382641.306
        30.300          34.100




 198901662.811 7                  37849745.536
        43.600
 139803184.528 5                  26603664.958
        34.100
 124645935.680 7                  23719338.353
        46.600
 202046870.876 7                  38448262.114
        46.100
 110029789.930 8  85578737.626 7  20547291.869    20547292.661    20547298.394
        48.700          45.500
 116551908.616 7  90651528.405 6  21811109.636    21811109.827    21811108.281
        47.000          36.800
                  90674400.954 6                                  21801302.407
                        37.200
 144801444.440 5                  27554798.569
        34.000
 25  1  1 19  6 15.0000000  0 26G21E31G07G30G08G27G04R19E24R10E09G09
                                E04R07R09S35G14S31E05E06S33R08R11R01
                                R20E26
 124401957.587 5                  23672905.762
        31.000
 124795109.040 8                  23747709.462
        50.100
 109871589.392 8  85614178.07648  20907857.157    20907856.6074   20907857.3674
        51.100          50.7004
 119779829.795 6  93334931.44544  22793342.810    22793342.2114   22793342.8864
        37.300          29.7004
 105949600.383 8  82558189.69146  20161522.163    20161521.5024   20161523.8504
        48.500          41.1004
 114247475.656 5  89024027.75144  21740579.813    21740579.3804   21740578.0314
        30.200          26.8004
 118723682.828 6  92512019.66741  22592366.918    22592366.4674   22592378.0944
        41.000           9.5004


 145491041.202 7                  27686020.243
        42.200
 106421390.845 7                  19964382.162    19964381.697
        46.400
 128663191.704 8                  24483794.229
        48.600
 111361062.489 6  86774838.66146  21191321.349    21191320.8404   21191325.7584
        41.200          41.0004
 127171738.714 7                  24199966.594
        46.900
 121073054.438 7  94167812.768 6  22617435.897    22617438.729    22617458.850
        47.300          40.000




 126294924.448 5  98411654.72541  24033119.914    24033119.8884   24033130.6034
        35.200          11.0004
 198901654.766 7                  37849746.645
        43.100
 139762875.372 5                  26595994.385
        32.900
 124655041.680 7                  23721070.904
        47.800
 202046882.891 7                  38448261.046
        46.100
 110058418.666 8  85601004.391 7  20552638.146    20552638.571    20552644.943
        48.100          45.700
 116519106.261 7  90626015.509 6  21804968.806    21804969.740    21804969.589
        47.700          38.900
 118104679.526 5  91859241.967 4  22093923.819    22093923.363    22093928.641
        35.900          29.800
                  90636426.492 6                                  21792169.677
                        39.000
 144771625.207 4                  27549121.490
        27.200
 25  1  1 19  6 30.0000000  0 25G21E31G07G30G08G27G04R19E24R10E09G09
                                E04R07R09S35G14S31E05E06S33R08R11R01
                                E26
 124358765.137 5                  23664686.546
        32.100
 124784215.648 8                  23745636.649
        50.500
 109849852.241 8  85597240.04848  20903720.625    20903720.0804   20903721.5684
        51.300          50.6004
 119738362.931 5  93302619.64045  22785450.888    22785450.2184   22785453.5484
        35.400          31.0004
 105952014.552 8  82560070.94347  20161981.518    20161980.8794   20161984.1284
        49.600          43.0004


 118776746.113 6  92553367.46841  22602462.936    22602462.5614   22602475.7294
        38.500           6.5004
                  92220879.624 5                                  22165348.350
                        30.500
 145458118.375 6                  27679755.561
        38.400
 106424743.725 8                  19965012.002    19965011.225
        48.100
 128652214.118 7                  24481705.317
        47.500
 111398511.464 7  86804019.64046  21198446.919    21198446.4374   21198452.8444
        44.600          41.6004
 127201039.452 8                  24205542.238
        48.800
 121138011.119 7  94218334.170 6  22629573.192    22629571.215    22629594.722
        44.900          40.400
                  88858351.726 5                                  21394688.680
                        34.100




 198901647.735 7                  37849755.928
        43.800
 139722604.332 5                  26588330.326
        34.200
 124664252.568 8                  23722824.027
        48.700
 202046895.528 6                  38448266.716
        41.300
 110087228.151 8  85623411.675 7  20558018.381    20558018.827    20558023.008
        48.000          43.100
 116486338.129 6  90600529.222 7  21798835.351    21798833.694    21798840.613
        38.600          42.600
 118073363.950 5                  22088066.785    22088074.065
        35.700


 25  1  1 19  6 45.0000000  0 25G21E31G07G30G08G27G04R19E24R10E09G09
                                E04R07R09S35G14S31E05E06S33R08R11R01
                                E26
 124315605.279 5                  23656474.163
        32.200
 124773371.654 8                  23743573.326
        50.500
 109828173.506 8  85580347.52748  20899595.369    20899594.8334   20899596.3084
        50.700          50.3004
 119696917.575 6  93270324.47945  22777561.806    22777561.0914   22777567.2964
        39.700          32.9004
 105954587.011 8  82562075.48447  20162470.335    20162469.7144   20162475.3444
        48.500          44.3004


 118829864.156 5  92594758.2094   22612568.195    22612567.8024   22612584.4624
        35.700           5.1004
 118584285.749 5                  22168080.405    22168080.771
        30.200
 145425222.443 6                  27673495.002
        38.000
 106428153.416 7                  19965651.261    19965650.480
        46.100
 128641337.180 8                  24479635.243
        48.700
 111436070.534 7  86833286.37147  21205592.603    21205592.0984   21205600.3804
        44.500          42.2004
 127230421.599 7                  24211132.989
        46.800
 121203001.114 7  94268881.560 6  22641711.937    22641711.630    22641734.614
        44.400          41.300
 114278683.119 6  88883399.279 6  21400711.192    21400713.557    21400722.772
        40.600          40.500




 198901640.065 7                  37849751.957
        44.900
 139682369.774 4                  26580674.425
        29.500
 124673566.577 8                  23724596.278
        48.500
 202046908.034 7                  38448260.353
        45.300
 110116216.062 7  85645957.764 7  20563428.770    20563430.143    20563437.173
        45.100          43.400
 116453602.246 7  90575068.050 7  21792710.601    21792709.597    21792713.913
        45.100          42.600




 25  1  1 19  7  0.0000000  0 25G21E31G07G30G08G27G04R19E24R10E09G09
                                E04R07R09S35G14S31E05E06S33R08R11R01
                                E26
 124272476.201 5                  23648264.134
        30.500
 124762574.522 8                  23741517.703
        49.400
 109806550.964 8  85563498.76348  20895480.677    20895480.1234   20895481.2134
        50.800          49.6004
 119655491.176 7  93238044.12445  22769679.850    22769679.1444   22769684.8324
        42.300          35.8004
 105957315.192 7  82564201.31146  20162989.402    20162988.7724   20162994.5314
        47.000          40.3004


 118883033.913 5  92636189.04741  22622687.006    22622686.7474   22622702.8184
        35.200           7.0004


 145392351.066 6                  27667238.915
        39.900
 106431617.632 7                  19966301.767    19966301.163
        46.700
 128630558.407 8                  24477584.106
        50.200
 111473736.903 7  86862636.70246  21212761.594    21212761.0764   21212766.2274
        46.800          41.4004
 127259882.470 7                  24216739.380
        47.300
 121268021.435 7  94319452.481 6  22653858.395    22653859.728    22653880.127
        45.700          38.900
 114310914.803 7  88908468.491 5  21406750.797    21406750.793    21406758.537
        44.500          35.600


 126171693.721 5  98315636.03842  24009677.323    24009677.3764   24009681.9964
        35.000          13.3004
 198901629.457 6                  37849742.035
        41.900


 124682981.146 8                  23726387.896
        48.900
 202046916.848 7                  38448266.389
        45.000
 110145379.395 7  85668640.312 7  20568878.238    20568879.200    20568886.261
        47.200          44.400
 116420896.192 7  90549630.032 7  21786588.250    21786588.339    21786595.562
        45.400          46.100
 118011248.000 5                  22076444.385    22076441.715
        31.500


 25  1  1 19  7 15.0000000  0 25G21E31G07G30G08G27G04E24R10E09G09E04
                                R07R09S35G14S31E05E06S33R08R11R01R20
                                E26
 124229382.536 4                  23640064.917
        26.900
 124751828.926 8                  23739473.107
        49.600
 109784989.616 8  85546697.72547  20891377.011    20891376.4574   20891377.7304
        50.400          47.8004
 119614088.869 6  93205782.55345  22761800.587    22761799.8854   22761805.4084
        40.800          34.7004
 105960203.727 8  82566452.10946  20163539.075    20163538.4634   20163542.0464
        49.200          39.5004
 114392158.633 6  89136741.74243  21768101.383    21768100.9274   21768102.7694
        37.300          20.8004
 118936259.999 4  92677663.70841  22632819.163    22632818.9404   22632831.4774
        28.900           9.8004
 145359508.782 7                  27660988.822
        42.200
 106435141.022 7                  19966961.907    19966961.398
        44.500
 128619882.678 8                  24475552.646
        49.400
 111511514.975 7  86892074.08946  21219949.799    21219949.2324   21219954.4364
        47.100          41.2004
 127289426.767 7                  24222362.125
        46.500
 121333076.384 6  94370050.363 6  22666008.251    22666007.955    22666036.143
        41.400          40.600
 114343179.152 6                  21412789.968    21412789.294
        38.600


 126130693.558 6  98283688.19442  24001875.030    24001875.0704   24001879.5734
        39.100          14.0004
 198901620.821 7                  37849745.733
        44.000
 139602021.752 5                  26565382.140
        34.200
 124692501.056 8                  23728199.371
        49.200
 202046928.237 7                  38448271.800
        45.200
 110174722.638 7  85691462.796 7  20574358.279    20574359.352    20574365.215
        47.600          43.200
 116388224.642 7  90524218.881 7  21780473.876    21780471.557    21780482.116
        43.000          46.100
 117980450.832 6  91762611.894 5  22070687.508    22070686.930    22070692.883
        40.900          34.800




 25  1  1 19  7 30.0000000  0 23E31G07G30G08G27G04E24R10E09G09E04R07
                                R09S35G14S31E05E06S33R08R11R01E26
 124741134.468 8                  23737437.960
        48.600
 109763489.187 8  85529944.16647  20887285.594    20887285.0584   20887285.6144
        49.500          47.3004
 119572710.382 6  93173539.59345  22753927.388    22753926.6864   22753930.1834
        39.500          33.9004
 105963252.213 8  82568827.59846  20164118.148    20164117.5314   20164120.5224
        48.000          38.3004
 114428628.027 5  89165159.43843  21775042.473    21775042.1784   21775042.1244
        33.700          23.4004


 145326695.485 6                  27654743.544
        39.600
 106438722.941 7                  19967632.563    19967632.441
        42.500
 128609309.758 8                  24473540.916
        49.300
 111549404.150 7  86921598.06046  21227160.280    21227159.7264   21227164.0334
        46.400          41.8004
 127319053.961 7                  24228000.017
        45.800
 121398165.112 7  94420674.518 6  22678171.407    22678173.831    22678194.825
        44.800          39.300
 114375475.739 6                  21418839.719    21418834.731
        36.700


 126089726.077 5  98251765.75842  23994079.159    23994079.1284   23994084.1624
        33.800          14.6004
 198901613.112 7                  37849743.238
        44.600
 139561899.861 6                  26557746.329
        36.000
 124702125.906 8                  23730030.651
        48.100
 202046940.634 7                  38448273.857
        44.500
 110204245.090 7  85714424.658 6  20579868.863    20579868.602    20579875.962
        42.300          41.700
 116355587.278 7  90498834.308 7  21774366.270    21774366.402    21774372.945
        46.200          44.200
 117949829.017 6  91738794.939 5  22064957.661    22064956.639    22064961.243
        40.500          32.300


 25  1  1 19  7 45.0000000  0 23E31G07G30G08G27G04E24R10E09G09E04R07
                                R09S35G14S31E05E06S33R08R11R01R20
 124730487.297 8                  23735411.930
        48.900
 109742046.149 8  85513235.28547  20883205.400    20883204.8824   20883205.0534
        50.100          46.9004
 119531352.090 6  93141312.39545  22746056.825    22746056.1154   22746058.3394
        41.300          31.6004
 105966456.943 7  82571324.81246  20164728.317    20164727.7004   20164729.3374
        46.000          37.5004
 114465216.407 6  89193669.87344  21782000.287    21782000.1354   21782005.1874
        38.100          24.4004
 119042867.333 6  92760753.55141  22653107.603    22653107.8044   22653122.7484
        37.800          11.8004
 145293907.361 5                  27648506.135
        35.200
 106442359.830 7                  19968316.184    19968314.860
        42.400
 128598836.026 8                  24471548.166
        50.600
 111587400.372 7  86951205.43546  21234390.428    21234389.8744   21234394.9464
        44.000          40.4004
 127348760.126 7                  24233651.642
        45.500
 121463283.058 6  94471321.430 6  22690337.037    22690336.725    22690361.654
        41.700          37.900
 114407800.535 6                  21424893.779    21424895.072
        38.900


 126048787.645 6  98219865.99242  23986288.959    23986288.9554   23986294.3414
        39.300          17.2004
 198901603.361 7                  37849741.409
        45.400
 139521813.634 5                  26550119.013
        35.500
 124711851.884 7                  23731881.513
        46.200
 202046950.981 7                  38448269.010
        43.700
 110233942.576 8  85737522.648 6  20585417.354    20585417.925    20585422.661
        48.200          40.400
 116322980.317 7  90473473.362 7  21768265.627    21768265.110    21768271.912
        47.100          44.800
 117919379.233 7  91715111.847 6  22059261.905    22059261.536    22059267.427
        43.100          36.300


 25  1  1 19  8  0.0000000  0 23E31G07G30G08G27G04E24R10E09G09E04R07
                                R09S35G14S31E05E06S33R08R11R01R20
 124719892.922 8                  23733395.709
        48.200
 109720666.211 8  85496575.56347  20879136.337    20879135.8234   20879136.8244
        50.000          45.5004
 119490019.864 7  93109105.47845  22738192.825    22738192.1284   22738191.5034
        46.400          35.1004
 105969823.133 7  82573947.83846  20165369.542    20165368.9124   20165370.8954
        46.000          38.9004


 119096256.799 6  92802355.36741  22663267.398    22663267.5674   22663283.4424
        40.700          11.2004
 145261149.831 6                  27642271.026
        39.500
 106446057.120 7                  19969008.496    19969007.819
        42.000
 128588467.102 8                  24469574.938
        50.400
 111625508.681 7  86980900.15646  21241642.066    21241641.4994   21241647.2974
        47.300          41.0004
 127378550.557 7                  24239321.173
        46.800
 121528435.466 7  94521995.084 6  22702510.745    22702510.950    22702533.325
        45.500          39.000
 114440159.670 7                  21430953.486    21430954.009
        44.700


 126007883.698 6  98187993.08543  23978504.861    23978504.8174   23978511.4334
        41.600          20.9004
 198901596.624 7                  37849737.384
        42.900
 139481768.727 6                  26542499.619
        37.300
 124721684.516 7                  23733752.791
        47.900
 202046964.026 7                  38448264.368
        44.600
 110263820.140 7  85760760.724 6  20590995.311    20590995.358    20591001.082
        45.700          40.700
 116290409.283 6  90448140.407 6  21762162.969    21762163.706    21762172.749
        39.700          41.200
 117889107.496 7  91691567.210 5  22053597.764    22053597.716    22053603.706
        44.200          34.500
                  90373076.979 5                                  21728844.142
                        35.400
 25  1  1 19  8 15.0000000  0 25E31G07G30G08G27G04R19E24R10E09G09E04
                                R07R09S35G14S31E05E06S33R08R11R01R20
                                E26
 124709346.893 8                  23731389.923
        49.700
 109699345.298 8  85479961.83747  20875079.879    20875079.3614   20875079.9184
        48.900          46.5004
 119448709.401 7  93076915.53946  22730331.093    22730330.3874   22730331.7274
        46.800          37.1004
 105973346.501 7  82576693.33246  20166040.032    20166039.4154   20166042.2244
        46.400          39.6004


 119149698.112 6  92843997.72942  22673439.802    22673440.1234   22673453.8074
        37.500          14.2004
                  92303678.958 5                                  22185258.196
                        30.000
 145228418.648 6                  27636042.477
        36.800
 106449810.386 7                  19969712.819    19969712.086
        42.700
 128578198.714 8                  24467620.698
        50.100
 111663724.645 7  87010678.78846  21248914.192    21248913.6074   21248919.4294
        43.900          39.4004
 127408420.880 7                  24245005.936
        47.100
 121593617.250 7  94572691.661 6  22714685.110    22714686.288    22714709.267
        43.500          38.100
 114472548.344 6                  21437015.788    21437017.055
        41.900


 125967010.064 5  98156143.81543  23970727.604    23970727.6004   23970733.3004
        35.800          19.2004
 198901588.492 7                  37849734.031
        42.700
 139441761.017 6                  26534885.707
        37.000
 124731619.403 7                  23735643.306
        47.200
 202046976.621 7                  38448266.827
        42.600
 110293873.247 7  85784135.351 6  20596608.612    20596607.960    20596611.493
        46.300          36.600
 116257870.015 7  90422832.051 7  21756080.273    21756081.450    21756086.875
        42.200          43.400
 117859009.501 7  91668157.655 5  22047968.145    22047968.248    22047971.474
        45.900          32.600
 116145934.988 5  90335814.946 6  21719875.706                    21719885.210
        34.600          38.800


 25  1  1 19  8 30.0000000  0 24E31G07G30G08G27G04E24R10E09G09E04R07
                                R09S35G14S31E05E06S33R08R11R01R20E26
 124698852.947 8                  23729392.498
        50.800
 109678087.319 8  85463397.17347  20871034.788    20871034.2744   20871035.2014
        50.700          47.0004
 119407424.675 7  93044745.67346  22722475.174    22722474.4774   22722476.9024
        47.300          37.2004
 105977030.709 7  82579564.13646  20166740.643    20166740.0094   20166744.0094
        46.100          40.6004
 114575716.601 6  89279700.67342  21803030.926    21803031.0424   21803021.2904
        38.000          17.1004
 119203194.816 6  92885683.28342  22683623.382    22683623.8154   22683634.3734
        37.000          12.4004
 145195717.595 6                  27629819.731
        38.500
 106453623.205 7                  19970428.602    19970428.994
        43.700
 128568034.748 8                  24465686.983
        49.300
 111702051.544 7  87040543.88446  21256209.630    21256209.0854   21256212.9454
        45.300          40.4004
 127438374.663 7                  24250705.435
        45.000
 121658831.883 6  94623413.840 6  22726868.526    22726866.975    22726890.683
        40.700          36.400
 114504970.483 6                  21443086.929    21443086.988
        41.700


 125926170.421 6  98124320.77642  23962956.504    23962956.4784   23962961.1104
        38.100          13.4004
 198901583.607 6                  37849733.029
        41.800
 139401794.480 6                  26527280.909
        39.000
 124741660.321 7                  23737553.239
        46.900
 202046991.470 8                  38448280.367
        48.200
 110324105.118 7  85807648.927 6  20602253.187    20602254.524    20602258.951
        46.900          41.300
 116225365.923 7  90397551.125 7  21749999.208    21749999.288    21750004.288
        43.000          44.100
 117829089.630 7  91644886.654 5  22042370.349    22042370.170    22042376.620
        46.500          34.100
 116098145.964 5  90298645.958 7  21710936.640    21710936.829    21710951.548
        30.700          42.200


 25  1  1 19  8 45.0000000  0 25E31G07G30G08G16G27G04E24R10E09G09E04
                                R07R09S35G14S31E05E06S33R08R11R01R20
                                E26
 124688406.386 8                  23727403.912
        49.000
 109656887.993 8  85446878.22847  20867000.202    20866999.6884   20867001.5654
        50.800          47.1004
 119366161.306 7  93012592.42446  22714623.093    22714622.4144   22714626.6334
        45.400          38.7004
 105980871.073 8  82582556.65047  20167471.813    20167471.1874   20167475.5044
        49.200          43.7004
 128438154.266 4                  24440967.110
        28.200
 114612789.707 7  89308588.90544  21810084.437    21810083.9904   21810084.1554
        42.200          24.2004
 119256741.870 6  92927407.96842  22693810.982    22693811.2864   22693825.1604
        38.000          15.0004
 145163042.096 5                  27623603.812
        33.400
 106457491.259 7                  19971154.175    19971154.068
        42.800
 128557970.717 8                  24463771.384
        49.800
 111740484.558 7  87070491.64246  21263522.395    21263521.8324   21263526.7714
        43.100          39.8004
 127468407.159 7                  24256420.489
        46.200
 121724074.056 6  94674157.261 5  22739055.388    22739054.163    22739080.174
        41.000          33.200
 114537421.206 6  89084627.856 5  21449165.320    21449164.343    21449171.220
        40.400          35.600


 125885344.423 5                  23955186.749
        31.300
 198901575.971 6                  37849731.178
        41.700
 139361864.785 6                  26519682.410
        39.400
 124751802.564 7                  23739483.935
        46.600
 202047003.602 7                  38448284.361
        45.600
 110354510.789 8  85831297.707 6  20607932.516    20607933.493    20607935.613
        48.600          40.300
 116192892.537 7  90372294.082 7  21743924.567    21743921.275    21743928.314
        45.400          44.100
 117799343.367 7  91621750.690 5  22036805.985    22036806.819    22036811.180
        46.900          31.900
                  90261566.623 7                                  21702034.708
                        42.300


 25  1  1 19  9  0.0000000  0 25E31G07G30G08G16G27G04E24R10E09G09E04
                                R07R09S35G14S31E05E06S33R08R11R01R20
                                E26
 124678007.080 8                  23725425.705
        49.200
 109635747.371 8  85430404.99347  20862977.474    20862976.9744   20862978.9424
        50.200          47.8004
 119324919.379 7  92980455.84746  22706775.676    22706774.9974   22706780.0674
        44.800          37.1004
 105984867.436 8  82585670.73747  20168232.197    20168231.5634   20168236.2884
        50.300          45.4004
 128488356.791 4                  24450525.328
        26.000
 114649980.525 6  89337568.81344  21817163.093    21817162.9374   21817166.6604
        39.800          25.5004
 119310339.048 6  92969171.67341  22704016.385    22704016.6984   22704025.1424
        36.300          11.4004
 145130391.962 5                  27617388.865
        34.600
 106461414.095 7                  19971889.312    19971889.534
        43.300
 128548006.643 8                  24461874.934
        48.900
 111779023.232 7  87100521.73146  21270857.952    21270857.4254   21270860.9394
        44.100          41.2004
 127498518.160 7                  24262150.222
        44.800
 121789343.062 6                  22751247.424    22751248.264
        41.100
 114569900.554 7  89109889.512 6  21455248.355    21455249.738    21455252.774
        44.300          36.600


 125844563.822 5                  23947424.092
        33.300
 198901566.727 6                  37849724.394
        41.300
 139321972.008 6                  26512091.573
        38.800
 124762046.083 7                  23741433.248
        47.800
 202047014.391 7                  38448289.579
        45.700
 110385089.706 8  85855081.307 7  20613641.719    20613643.031    20613648.402
        48.500          42.700
 116160449.818 8  90347060.865 6  21737851.236    21737851.593    21737855.024
        48.400          41.600
 117769770.954 7  91598750.009 5  22031271.807    22031271.357    22031277.516
        44.700          31.500
                  90224577.692 6                                  21693140.494
                        40.400


 25  1  1 19  9 15.0000000  0 24E31G07G30G08G27G04R19E24R10E09G09E04
                                R09S35G14S31E05E06S33R08R11R01R20E26
 124667658.088 8                  23723456.040
        49.200
 109614668.771 8  85413980.12347  20858966.922    20858966.4314   20858967.4414
        50.100          47.5004
 119283702.180 7  92948338.60346  22698932.465    22698931.7954   22698936.8544
        43.100          37.3004
 105989022.791 8  82588908.70148  20169022.872    20169022.2294   20169027.4664
        50.700          48.1004
 114687291.648 6  89366642.54043  21824262.119    21824262.3734   21824266.7874
        39.800          21.1004
 119363988.832 6  93010976.38442  22714224.148    22714224.3764   22714235.0504
        38.800          13.6004


 145097770.506 5                  27611178.952
        34.400
 106465394.845 7                  19972635.607    19972635.704
        42.100
 128538145.683 7                  24459998.384
        46.800
 111817670.391 7  87130636.36446  21278210.347    21278209.8204   21278215.9044
        44.300          41.7004
 127528710.593 7                  24267896.166
        44.100
 114602411.790 7  89135175.959 5  21461336.540    21461337.378    21461339.788
        44.700          35.900


 125803815.929 5                  23939672.462
        35.300
 198901558.068 6                  37849722.476
        40.800
 139282119.461 6                  26504508.071
        37.100
 124772393.960 7                  23743402.401
        47.000
 202047026.589 7                  38448291.927
        45.600
 110415844.706 8  85879001.830 7  20619385.721    20619387.000    20619392.988
        48.100          45.200
 116128040.686 8  90321853.813 6  21731786.158    21731787.017    21731789.241
        49.100          38.400
 117740375.890 7  91575887.105 5  22025776.657    22025776.229    22025778.485
        46.700          31.300
 115955477.982 5  90187681.838 6  21684257.670    21684259.482    21684268.178
        34.000          38.400


 25  1  1 19  9 30.0000000  0 25E31G07G30G08G27G04R19E24R10E09G09E04
                                R07R09S35G14S31E05E06S33R08R11R01R20
                                E26
 124657357.587 8                  23721495.368
        48.600
 109593650.652 8  85397602.36847  20854967.262    20854966.7844   20854967.3734
        49.000          47.7004
 119242508.210 7  92916239.40145  22691092.540    22691091.8704   22691096.9824
        43.400          33.9004
 105993335.294 8  82592269.11148  20169843.507    20169842.8644   20169848.2194
        51.000          49.1004
 114724721.124 6  89395808.51842  21831388.204    21831388.5304   21831389.5184
        37.800          17.0004
 119417689.118 6  93052820.56341  22724440.875    22724441.1164   22724455.1044
        36.800           8.2004
                  92367430.554 5                                  22200568.464
                        30.000
 145065175.782 5                  27604974.925
        35.100
 106469432.277 7                  19973395.492    19973394.136
        42.400
 128528386.254 7                  24458141.832
        44.900
 111856423.951 7  87160833.90846  21285585.509    21285584.9864   21285590.9384
        46.000          41.6004
 127558982.574 7                  24273655.954
        45.900
 121919967.908 5  94826694.630 6  22775647.470    22775650.298    22775687.049
        34.700          36.100
 114634952.901 5  89160485.737 5  21467427.350    21467424.728    21467432.258
        32.900          35.800


 125763098.919 6                  23931926.214
        40.200
 198901549.108 6                  37849729.300
        40.800
 139242305.638 6                  26496930.784
        36.500
 124782844.406 7                  23745391.804
        47.300
 202047037.365 7                  38448291.032
        43.900
 110446773.453 7  85903057.516 7  20625161.333    20625159.597    20625169.005
        44.300          46.900
 116095663.547 7  90296671.654 6  21725726.018    21725725.885    21725730.018
        46.600          39.700
 117711156.664 7  91553161.016 5  22020307.455    22020308.544    22020314.287
        44.700          31.000
 115908158.524 5  90150878.076 6  21675414.243    21675410.682    21675418.318
        30.100          36.200


 25  1  1 19  9 45.0000000  0 27G21E31G07G02G30G08G27G04R19E24R10E09
                                G09E04R07R09S35G14S31E05E06S33R08R11
                                R01R20E26
 123800422.018 6                  23558433.969
        36.000
 124647105.008 8                  23719545.137
        48.800
 109572692.747 8  85381271.51947  20850978.396    20850977.9184   20850978.5474
        49.400          46.2004
 129772906.863 5                  24694962.418
        32.800
 119201337.131 7  92884158.13244  22683256.750    22683256.1074   22683258.7564
        42.600          27.6004
 105997804.426 8  82595751.59448  20170694.514    20170693.8804   20170698.5114
        50.500          49.3004
 114762268.113 5  89425065.85143  21838529.251    21838529.6314   21838537.3804
        31.900          19.3004
 119471439.410 5  93094703.72841  22734662.111    22734662.5444   22734684.0444
        35.100          10.3004
                  92380623.219 5                                  22203740.593
                        33.900
 145032607.466 6                  27598779.155
        40.000
 106473525.392 7                  19974164.179    19974163.770
        46.200
 128518727.979 7                  24456303.997
        45.800
 111895283.106 7  87191113.69847  21292980.422    21292979.8904   21292985.7544
        45.600          42.2004
 127589333.444 7                  24279432.049
        46.500
 121985320.038 6  94877523.627 6  22787863.811    22787859.048    22787893.971
        36.000          37.200
 114667523.556 5  89185818.506 6  21473525.868    21473521.857    21473533.621
        33.700          36.900


 125722412.181 6                  23924182.578
        40.300
 198901538.624 6                  37849722.306
        41.900
 139202530.299 5                  26489361.604
        35.200
 124793396.925 7                  23747399.265
        46.400
 202047047.587 7                  38448292.204
        46.500
 110477875.353 8  85927247.839 7  20630970.403    20630970.434    20630977.330
        48.800          47.100
 116063317.878 7  90271513.993 6  21719671.820    21719671.965    21719676.885
        47.000          38.300
 117682113.298 6  91530571.697 5  22014871.764    22014872.151    22014882.634
        39.800          32.300
 115860957.973 4  90114166.819 5  21666581.151    21666583.221    21666587.646
        29.800          33.200


 25  1  1 19 10  0.0000000  0 25G21E31G07G02G30G08G27G04E24R10E09G09
                                E04R07R09S35G14S31E05E06S33R08R11R01
                                E26
 123757729.563 5                  23550310.962
        32.800
 124636902.752 8                  23717604.027
        48.400
 109551797.696 8  85364989.65947  20847002.273    20847001.8044   20847002.1484
        48.400          45.9004
 129728524.741 4                  24686511.873
        27.200
 119160191.582 6  92852096.69744  22675428.006    22675427.3454   22675426.2264
        41.900          26.8004
 106002432.491 8  82599357.92148  20171575.610    20171574.9894   20171579.0994
        50.000          48.9004


 119525241.283 6  93136627.12842  22744901.232    22744901.7734   22744922.7544
        41.700          16.2004
 145000067.836 6                  27592586.568
        39.800
 106477676.298 7                  19974942.633    19974942.118
        45.800
 128509173.345 7                  24454485.763
        44.400
 111934249.969 7  87221477.40947  21300395.211    21300394.6484   21300400.8044
        47.100          42.9004
 127619765.511 7                  24285222.350
        45.700
                  94928374.507 6                                  22800108.163
                        37.000
 114700126.066 6  89211175.880 6  21479632.782    21479633.313    21479638.660
        41.700          37.700


 125681758.409 6                  23916447.645
        40.800
 198901529.574 7                  37849722.431
        42.100
 139162796.089 6                  26481799.797
        36.700
 124804053.853 7                  23749427.375
        46.100
 202047058.751 7                  38448292.204
        44.600
 110509152.195 8  85951574.221 7  20636809.649    20636810.982    20636818.204
        49.300          47.100
 116031006.096 7  90246382.525 6  21713626.518    21713625.795    21713632.727
        46.000          41.400
 117653248.526 6  91508121.322 5  22009472.765    22009473.248    22009482.283
        41.400          32.600


 25  1  1 19 10 15.0000000  0 25G21E31G07G30G08G27G04E24R10E09G09E04
                                R07R09S35G14S31E05E06S33R08R11R01R20
                                E26
 123715077.165 4                  23542192.282
        29.800
 124626750.447 8                  23715672.137
        48.600
 109530965.460 8  85348756.75147  20843038.050    20843037.5944   20843037.9524
        48.600          46.1004
 119119071.421 6  92820055.04744  22667604.671    22667604.0194   22667601.2984
        41.300          29.3004
 106007219.048 8  82603087.73448  20172486.457    20172485.8314   20172490.0674
        49.500          49.2004


 119579094.358 6  93178590.30242  22755150.526    22755151.0044   22755169.8034
        40.900          17.1004
 144967556.749 6                  27586401.500
        41.800
 106481885.377 7                  19975729.927    19975729.678
        42.700
 128499722.172 7                  24452686.756
        44.100
 111973323.914 7  87251924.60947  21307830.186    21307829.6414   21307836.7194
        46.500          43.6004
 127650278.309 7                  24291028.298
        45.300
 122115957.289 5  94979246.446 5  22812286.382    22812287.616    22812319.874
        31.500          32.200
 114732760.100 7  89236557.804 6  21485745.516    21485745.784    21485749.602
        44.800          38.900


 125641137.405 6                  23908718.416
        40.200
 198901521.421 7                  37849711.306
        42.900
 139123102.845 6                  26474245.986
        38.000
 124814814.863 7                  23751475.132
        45.800
 202047070.163 7                  38448297.203
        45.300
 110540603.312 8  85976036.195 7  20642682.976    20642684.042    20642691.765
        49.100          46.500
 115998727.907 7  90221277.313 6  21707585.210    21707585.004    21707588.784
        45.700          39.900
 117624562.118 6  91485809.660 5  22004109.099    22004106.720    22004112.982
        40.300          30.800
                  90041028.438 6                                  21649007.337
                        38.700


 25  1  1 19 10 30.0000000  0 24E31G07G30G08G27G04E24R10E09G09E04R07
                                R09S35G14S31E05E06S33R08R11R01R20E26
 124616646.176 8                  23713749.082
        49.300
 109510194.107 8  85332571.29347  20839085.349    20839084.8894   20839085.8604
        49.000          46.8004
 119077974.963 7  92788031.88745  22659782.414    22659781.7444   22659781.9504
        45.000          32.7004
 106012162.229 8  82606939.58448  20173427.459    20173426.8334   20173430.4674
        49.600          48.9004
 114875595.945 5  89513497.58842  21860099.276    21860099.4414   21860111.5824
        35.000          16.7004
 119632996.375 6  93220591.69942  22765404.861    22765405.1914   22765426.1224
        39.400          14.2004
 144935072.293 6                  27580219.941
        41.800
 106486150.212 7                  19976531.101    19976530.134
        44.200
 128490372.732 7                  24450907.471
        43.700
 112012502.765 7  87282453.52047  21315284.985    21315284.5034   21315292.7204
        45.900          42.6004
 127680869.831 7                  24296850.120
        45.100
 122181389.807 6                  22824518.435    22824518.470
        40.700
 114765423.764 7  89261962.841 6  21491861.731    21491860.974    21491866.621
        43.100          40.300




 198901512.057 7                  37849721.108
        43.400
 139083448.993 6                  26466699.928
        37.400
 124825678.110 7                  23753542.601
        46.600
 202047082.048 7                  38448297.378
        45.800
 110572226.489 8  86000631.948 7  20648588.995    20648589.338    20648596.771
        49.900          45.900
 115966481.442 7  90196196.737 6  21701552.314    21701550.997    21701554.437
        46.400          39.200
 117596052.489 7  91463635.590 5  21998776.181    21998774.135    21998781.592
        42.100          34.100
                  90004600.476 6                                  21640248.908
                        39.800


 25  1  1 19 10 45.0000000  0 24E31G07G30G08G27G04E24R10E09G09E04R07
                                R09S35G14S31E05E06S33R08R11R01R20E26
 124606593.997 8                  23711835.969
        50.100
 109489488.136 8  85316436.78047  20835145.027    20835144.5584   20835146.3074
        49.200          47.4004
 119036906.571 7  92756030.58445  22651967.344    22651966.6694   22651967.3384
        46.400          34.7004
 106017266.063 8  82610916.61347  20174397.200    20174396.5664   20174401.3954
        49.600          47.8004
 114913618.488 6  89543125.63941  21867333.052    21867332.7444   21867349.5564
        37.000          11.8004
 119686951.205 5  93262634.21741  22775675.198    22775675.3994   22775692.7044
        34.600          11.5004
 144902618.683 6                  27574044.279
        40.300
 106490474.900 7                  19977342.421    19977343.040
        45.700
 128481129.222 7                  24449148.720
        43.900
 112051790.368 7  87313067.20847  21322761.606    21322761.1194   21322768.9564
        42.700          42.0004
 127711544.051 7                  24302688.644
        43.600
 122246850.484 6                  22836749.308    22836748.160
        37.200
 114798121.242 7  89287394.206 7  21497985.661    21497983.949    21497991.738
        43.000          42.900


 125559992.213 5  97838971.95941  23893273.820    23893274.0744   23893276.5884
        34.000           9.1004
 198901506.126 7                  37849709.893
        42.700
 139043838.837 6                  26459163.154
        37.000
 124836647.678 8                  23755630.259
        48.100
 202047096.567 7                  38448302.126
        44.600
 110604025.534 8  86025364.474 7  20654527.552    20654528.717    20654535.291
        50.000          45.800
 115934270.914 7  90171144.092 6  21695523.741    21695523.366    21695528.849
        46.800          41.100
 117567724.343 7  91441602.583 5  21993475.726    21993475.325    21993484.807
        43.100          35.500
                  89968269.922 6                                  21631514.273
                        41.500


 25  1  1 19 11  0.0000000  0 23E31G07G30G08G27G04E24R10E09G09E04R07
                                R09S35G14S31E05E06S33R08R11R01E26
 124596590.410 8                  23709932.202
        49.500
 109468844.594 8  85300350.91547  20831216.868    20831216.4174   20831218.1974
        50.000          47.8004
 118995862.998 7  92724048.61846  22644157.292    22644156.6264   22644158.1814
        46.000          36.2004
 106022527.005 8  82615016.06047  20175398.042    20175397.3854   20175402.4534
        48.000          46.3004
 114951757.696 5  89572844.70841  21874593.561    21874592.9314   21874607.7284
        35.200           9.0004
 119740955.069 5  93304715.05541  22785952.395    22785952.5874   22785969.0654
        32.500           6.8004
 144870192.358 6                  27567873.796
        40.300
 106494856.249 7                  19978164.680    19978165.018
        46.100
 128471988.298 7                  24447409.169
        44.300
 112091182.895 7  87343762.66547  21330258.419    21330257.9144   21330265.7074
        45.100          42.4004
 127742297.389 7                  24308541.241
        45.000
 122312335.667 5  95131964.601 6  22848983.748    22848983.378    22849009.438
        34.900          37.400
 114830849.130 6  89312849.235 7  21504114.519    21504112.495    21504121.836
        41.100          45.800


 125519468.739 6  97807395.37741  23885562.889    23885563.4164   23885564.6314
        40.000          10.0004
 198901500.423 7                  37849717.758
        43.900
 139004269.280 5                  26451635.070
        34.600
 124847720.055 7                  23757736.977
        47.700
 202047110.847 7                  38448300.687
        44.700
 110635996.511 7  86050230.759 7  20660497.115    20660498.217    20660505.855
        47.700          43.600
 115902092.669 7  90146116.654 6  21689501.697    21689500.676    21689504.974
        46.400          39.600
 117539574.468 7  91419708.239 5  21988209.856    21988210.410    21988218.533
        42.100          35.600


 25  1  1 19 11 15.0000000  0 23E31G07G30G08G27G04E24R10E09G09E04R07
                                R09S35G14S31E05E06S33R08R11R01E26
 124586631.038 8                  23708037.184
        48.900
 109448259.236 8  85284310.39447  20827299.630    20827299.1834   20827300.3804
        49.500          47.0004
 118954840.135 7  92692082.78146  22636350.568    22636349.8714   22636353.6354
        45.500          36.7004
 106027940.616 7  82619234.46247  20176428.857    20176428.2184   20176432.3844
        47.700          45.7004
 114990008.901 5  89602650.98043  21881873.040    21881872.2364   21881884.2074
        33.900          18.3004
 119795003.230 5  93346830.26241  22796236.045    22796236.3314   22796254.2934
        34.400           6.4004
 144837789.086 6                  27561708.237
        39.600
 106499289.678 7                  19978996.321    19978996.744
        45.300
 128462945.778 7                  24445688.828
        45.700
 112130675.761 7  87374536.29847  21337773.883    21337773.3834   21337781.8214
        45.500          42.4004
 127773125.388 7                  24314407.455
        47.300
                  95182912.303 6                                  22861249.141
                        38.700
 114863603.168 6  89338324.574 7  21510248.817    21510245.330    21510254.836
        40.900          46.000


 125478972.621 7  97775840.13942  23877856.612    23877856.7684   23877859.4084
        42.400          14.6004
 198901489.487 7                  37849715.196
        42.300
 138964736.106 5                  26444110.822
        35.400
 124858890.937 7                  23759862.342
        46.600
 202047120.363 7                  38448301.178
        44.400
 110668134.548 7  86075226.918 6  20666497.696    20666498.258    20666503.898
        45.800          40.600
 115869942.464 8  90121110.969 6  21683486.032    21683486.040    21683488.205
        48.500          39.700
 117511598.770 6  91397949.362 5  21982977.704    21982977.319    21982984.695
        39.800          35.900


 25  1  1 19 11 30.0000000  0 22E31G07G30G08G27G04E24R10E09G09E04R07
                                R09S35G14S31E05E06S33R08R11R01
 124576722.376 8                  23706151.296
        48.700
 109427738.802 8  85268320.45747  20823394.078    20823393.6404   20823394.6914
        48.900          46.0004
 118913844.700 7  92660138.31445  22628549.770    22628549.0464   22628553.2164
        46.300          35.9004
 106033513.408 8  82623576.90947  20177488.979    20177488.3764   20177491.8994
        49.000          46.0004
 115028378.429 5  89632549.35442  21889173.963    21889173.2304   21889184.1584
        33.400          15.1004


 144805415.482 6                  27555545.520
        40.000
 106503781.914 7                  19979838.271    19979838.241
        44.500
 128454008.299 7                  24443988.233
        46.000
 112170275.198 7  87405392.89146  21345309.583    21345309.0924   21345316.0534
        45.000          40.5004
 127804034.437 8                  24320289.315
        48.800
 122443378.796 6  95233880.130 5  22873457.789    22873457.892    22873485.499
        40.300          35.900
 114896389.673 6  89363825.225 7  21516385.028    21516384.519    21516394.834
        41.700          45.700


 125438510.473 7  97744311.48342  23870156.168    23870156.5394   23870160.7674
        43.200          16.1004
 198901480.883 7                  37849720.008
        43.700
 138925246.095 6                  26436594.083
        36.500
 124870166.804 7                  23762008.027
        47.400
 202047132.724 7                  38448306.339
        43.600
 110700445.948 7  86100357.913 7  20672532.128    20672531.801    20672542.314
        45.400          43.900
 115837826.979 7  90096132.335 6  21677475.414    21677476.013    21677479.337
        44.400          41.000
 117483804.153 5  91376331.462 5  21977774.353    21977772.440    21977782.705
        32.900          33.100
 25  1  1 19 11 45.0000000  0 24E31G07G30G08G27G04E24R10E09G09E04R07
                                R09S35G14S31E05E06S33R08R11R01R20E26
 124566861.766 8                  23704274.881
        48.700
 109407280.884 8  85252379.22647  20819501.752    20819501.3234   20819501.0084
        49.400          46.0004
 118872874.323 6  92628213.38845  22620752.826    22620752.1164   22620756.6154
        41.900          33.9004
 106039242.579 7  82628041.20047  20178579.503    20178578.9184   20178581.7544
        47.900          44.9004
 115066863.340 5  89662537.40042  21896524.667    21896523.9924   21896506.7314
        33.500          12.2004
 119903248.835 6  93431176.7114   22816852.930    22816853.1624   22816852.6624
        36.400           5.0004
 144773068.784 6                  27549389.264
        36.100
 106508330.292 7                  19980690.544    19980690.300
        45.000
 128445173.314 7                  24442307.141
        45.300
 112209978.242 7  87436330.24346  21352865.239    21352864.7574   21352868.2434
        44.900          39.9004
 127835021.751 8                  24326185.575
        48.300
 122508932.068 7  95284865.583 5  22885712.993    22885712.937    22885725.144
        42.000          30.900
 114929206.164 7  89389349.020 7  21522533.218    21522534.449    21522540.319
        44.600          45.100


 125398079.733 6  97712807.19342  23862462.893    23862463.2594   23862467.5554
        38.900          16.1004
 198901471.705 7                  37849714.194
        43.100
 138885796.934 5                  26429086.813
        33.400
 124881545.033 7                  23764173.469
        46.900
 202047143.604 7                  38448307.372
        46.400
 110732927.637 7  86125621.436 7  20678598.182    20678599.180    20678607.332
        46.100          43.000
 115805743.415 6  90071178.391 7  21671469.415    21671468.384    21671476.497
        41.500          43.100
 117456188.351 4  91354852.524 5  21972608.740    21972603.799    21972613.836
        28.000          30.500
 115487727.994 5  89823897.464 6  21596787.301    21596789.058    21596798.492
        34.600          38.700


 25  1  1 19 12  0.0000000  0 24E31G07G30G08G27G04R19E24R10E09G09E04
                                R09S35G14S31E05E06S33R08R11R01R20E26
 124557050.000 8                  23702408.020
        49.300
 109386886.578 8  85236487.59847  20815621.244    20815620.8204   20815620.0914
        49.100          46.0004
 118831929.914 6  92596308.65145  22612960.570    22612959.8774   22612965.3504
        37.700          30.8004
 106045128.958 7  82632627.99647  20179699.959    20179699.3924   20179701.4844
        46.600          44.3004


 119957443.280 5  93473405.69541  22827170.296    22827170.2294   22827165.9544
        33.600           6.0004
                  92506101.598 5                                  22233906.754
                        33.600
 144740749.983 6                  27543240.400
        40.100
 106512936.018 7                  19981556.216    19981555.107
        44.600
 128436441.839 7                  24440644.951
        47.200
 112249785.407 7  87467348.76046  21360440.807    21360440.3474   21360443.6914
        44.300          40.8004
 127866088.102 7                  24332096.942
        47.300
 114962053.323 7  89414896.771 7  21528682.872    21528684.450    21528690.446
        45.900          43.900


 125357681.276 5  97681328.08842  23854776.284    23854776.6684   23854780.2554
        35.600          15.6004
 198901462.913 7                  37849712.155
        44.700
 138846389.502 5                  26421589.704
        32.600
 124893026.447 7                  23766358.182
        47.300
 202047155.038 6                  38448300.888
        41.100
 110765580.020 8  86151017.691 7  20684697.608    20684698.254    20684703.303
        48.200          42.600
 115773692.863 7  90046250.122 7  21665474.132    21665474.281    21665475.508
        42.500          42.200
 117428733.594 6  91333513.606 5  21967476.168    21967478.859    21967481.871
        37.400          32.900
 115441633.172 6  89788046.185 6  21588169.698    21588168.405    21588180.352
        36.000          41.800


 25  1  1 19 12 15.0000000  0 24E31G07G30G08G27G04R19E24R10E09G09E04
                                R07R09S35G14S31E05E06S33R08R11R01R20
 124547286.812 8                  23700549.937
        48.200
 109366555.856 8  85220645.49147  20811752.711    20811752.2914   20811751.7264
        50.200          46.2004
 118791011.676 6  92564424.37544  22605174.979    22605174.2464   22605177.9614
        39.100          28.7004
 106051172.194 7  82637337.01847  20180849.732    20180849.1604   20180851.4474
        47.000          44.8004


 120011685.531 5  93515672.0684   22837487.089    22837486.9784   22837488.2294
        34.900           4.3004
 118955274.914 5  92520796.964 6  22237435.075    22237434.364    22237435.955
        34.200          36.300
 144708458.887 7                  27537095.367
        42.300
 106517598.271 7                  19982430.857    19982430.414
        46.900
 128427813.727 7                  24439003.443
        47.500
 112289696.282 7  87498448.07047  21368035.012    21368034.5394   21368039.7934
        46.800          42.9004
 127897233.065 7                  24338023.298
        45.900
                  95386951.793 5                                  22910249.128
                        34.700
 114994931.000 7  89440468.271 7  21534841.434    21534841.919    21534847.226
        43.300          44.300


 125317314.948 5  97649873.95642  23847094.611    23847094.9284   23847099.0274
        35.800          16.9004
 198901454.379 7                  37849712.924
        46.200
 138807024.196 5                  26414098.995
        35.800
 124904610.813 7                  23768562.811
        47.000
 202047167.227 6                  38448296.841
        41.400
 110798402.520 7  86176546.371 6  20690826.094    20690825.594    20690833.549
        45.600          41.700
 115741674.932 7  90021347.302 7  21659484.925    21659484.480    21659484.620
        43.400          42.400
 117401477.848 6  91312314.784 6  21962380.289    21962379.018    21962386.707
        36.000          36.400
 115395664.008 6  89752292.544 6  21579571.323    21579571.398    21579583.541
        36.100          40.700
 25  1  1 19 12 30.0000000  0 23E31G07G30G08G04E24R10E09G09E04R07R09
                                S35G14S31E05E06S33R08R11R01R20E26
 124537569.863 8                  23698700.895
        48.400
 109346286.739 8  85204851.38147  20807895.338    20807894.9274   20807894.9614
        48.500          45.0004
 118750117.445 7  92532558.78244  22597393.042    22597392.2914   22597391.3594
        43.600          26.4004
 106057370.017 8  82642166.47547  20182028.092    20182027.5164   20182031.4414
        48.300          44.4004


 144676193.256 7                  27530955.576
        42.200
 106522314.870 7                  19983316.144    19983315.026
        45.700
 128419286.812 7                  24437381.186
        46.900
 112329708.178 7  87529626.14346  21375649.030    21375648.5434   21375653.6914
        46.700          41.2004
 127928454.227 7                  24343965.122
        47.400
 122705992.404 6  95437987.031 5  22922487.961    22922463.956    22922504.052
        36.700          32.600
 115027837.302 7  89466061.947 7  21541004.143    21541004.553    21541009.775
        43.800          44.700


 125276978.575 6  97618443.22543  23839417.947    23839418.2424   23839424.7434
        39.700          20.8004
 198901443.183 7                  37849709.517
        42.500
 138767698.626 5                  26406614.643
        34.800
 124916295.815 8                  23770786.507
        48.600
 202047176.627 7                  38448310.345
        43.800
 110831392.557 7  86202205.199 7  20696987.114    20696986.720    20696995.159
        45.200          42.300
 115709687.219 7  89996468.020 6  21653493.033    21653494.693    21653497.498
        43.700          40.300
 117374400.195 6  91291254.370 6  21957319.077    21957316.681    21957322.371
        37.200          37.300
 115349818.813 5  89716635.382 6  21570992.800    21570993.176    21571006.321
        32.200          36.300
 144045172.152 5                  27410885.724
        31.100
 25  1  1 19 12 45.0000000  0 25E31G07G30G08G16G27G04R19E24R10E09G09
                                E04R07R09S35G14S31E05E06S33R08R11R01
                                E26
 124527902.560 7                  23696861.131
        47.100
 109326082.864 8  85189108.10147  20804050.391    20804049.9584   20804050.3224
        50.200          46.1004
 118709250.834 7  92500714.70244  22589616.349    22589615.5894   22589614.3854
        45.500          29.2004
 106063725.568 8  82647118.87047  20183236.966    20183236.3904   20183241.0064
        48.500          44.2004
 129240455.812 4                  24593641.453
        29.500
 115222128.203 5  89783414.90743  21926011.421    21926011.4744   21926020.2134
        35.100          19.4004


                  92550617.984 4                                  22244608.228
                        28.900
 144643956.497 7                  27524820.849
        44.000
 106527089.345 7                  19984211.561    19984211.497
        47.200
 128410864.642 7                  24435777.844
        46.800
 112369824.226 8  87560885.29346  21383281.620    21383281.1154   21383286.9394
        48.000          40.4004
 127959754.911 7                  24349920.887
        44.900
 122771631.825 6  95489039.654 6  22934724.678    22934735.528    22934761.073
        39.400          36.700
 115060775.261 6  89491680.428 7  21547171.424    21547170.831    21547178.361
        40.600          45.900


 125236675.558 6  97587038.48242  23831748.570    23831748.8114   23831756.2504
        38.300          17.6004
 198901433.545 7                  37849710.845
        44.100
 138728416.628 5                  26399140.263
        34.000
 124928084.873 7                  23773029.659
        46.700
 202047187.378 7                  38448316.552
        44.400
 110864553.020 7  86227996.618 5  20703178.643    20703179.627    20703179.118
        45.200          34.300
 115677733.551 7  89971615.151 6  21647516.203    21647516.267    21647516.380
        46.900          38.100
 117347520.428 5  91270335.379 6  21952282.520    21952280.780    21952290.222
        30.400          37.500


 25  1  1 19 13  0.0000000  0 25E31G07G30G08G16G27G04R19E24R10E09G09
                                E04R07R09S35G14S31E05E06S33R08R11R01
                                E26
 124518286.406 8                  23695031.025
        48.300
 109305946.010 7  85173417.05647  20800218.204    20800217.7664   20800218.2674
        47.900          44.2004
 118668413.632 7  92468893.55845  22581845.159    22581844.3994   22581846.2244
        45.600          34.4004
 106070240.583 8  82652195.50547  20184477.296    20184476.7024   20184480.9524
        48.100          45.1004
 129290526.505 4                  24603167.885
        29.900
 115261189.450 6  89813852.13943  21933442.989    21933442.9184   21933446.0804
        38.200          22.9004
 120174796.759 7                  22868495.037
        42.000


 144611750.125 7                  27518691.484
        43.500
 106531922.997 7                  19985118.517    19985117.720
        46.100
 128402548.884 7                  24434195.419
        47.300
 112410045.738 7  87592226.67747  21390935.938    21390935.4384   21390941.2394
        45.800          42.1004
 127991136.515 7                  24355893.259
        44.200
 122837294.663 7  95540110.406 6  22947000.518    22947001.595    22947024.047
        44.500          38.000
 115093746.730 6  89517324.839 7  21553345.969    21553346.759    21553352.831
        40.600          46.200


 125196407.618 6  97555660.99642  23824085.453    23824085.7074   23824093.3834
        40.700          16.6004
 198901426.633 7                  37849703.096
        44.600
 138689179.885 6                  26391673.411
        36.500
 124939979.458 7                  23775293.385
        44.700
 202047201.599 7                  38448319.856
        42.000
 110897885.254 7  86253921.528 6  20709404.667    20709405.575    20709409.157
        46.000          38.900
 115645815.230 7  89946789.867 6  21641541.698    21641542.859    21641544.904
        45.100          36.600
 117320808.066 6  91249559.235 6  21947286.823    21947282.678    21947294.391
        36.500          41.500


 25  1  1 19 13 15.0000000  0 26E31G07G30G08G16G27G04R19E24R10E09G09
                                E04R07R09S35G14S31E05E06S33R08R11R01
                                R20E26
 124508718.317 7                  23693210.691
        47.200
 109285873.393 8  85157776.07647  20796399.083    20796398.6324   20796398.8264
        49.800          47.0004
 118627603.003 7  92437093.09546  22574079.100    22574078.3404   22574082.7004
        46.800          37.3004
 106076911.640 8  82657393.74747  20185747.228    20185746.6384   20185751.0444
        49.500          46.4004
 129340587.527 5                  24612697.228
        34.000
 115300364.216 6  89844377.90643  21940899.668    21940899.4364   21940898.5724
        37.600          22.6004
 120229226.941 6                  22878859.539    22878859.4464
        38.900
                  92581114.398 5                                  22251930.443
                        32.000
 144579571.241 6                  27512567.756
        41.800
 106536813.214 7                  19986035.829    19986035.820
        47.100
 128394336.597 7                  24432632.081
        46.600
 112450369.270 7  87623647.55546  21398609.559    21398609.0724   21398613.9934
        43.800          41.0004
 128022595.866 7                  24361880.148
        44.700
 122902979.352 6  95591196.642 5  22959259.850    22959263.571    22959290.083
        38.900          34.600
 115126748.117 6  89542992.613 7  21559523.294    21559523.639    21559533.548
        38.200          44.800
 200823936.189 5                  38215527.588
        32.100
 125156171.812 6  97524308.60342  23816427.340    23816427.6354   23816437.0044
        40.000          14.6004
 198901420.048 7                  37849697.511
        43.000
 138649985.682 6                  26384216.108
        38.400
 124951976.596 8                  23777576.660
        48.500
 202047215.022 7                  38448312.742
        42.800
 110931385.413 7  86279977.241 7  20715662.334    20715662.886    20715666.383
        45.800          42.100
 115613929.367 7  89921989.735 6  21635577.453    21635577.764    21635580.967
        44.100          40.300
 117294277.026 7  91228923.913 6  21942325.158    21942324.950    21942331.807
        42.700          40.000
 115213065.934 5  89610190.233 5  21545423.264    21545423.951    21545430.406
        34.700          32.300


 25  1  1 19 13 30.0000000  0 25E31G07G30G08G16G27G04E24R10E09G09E04
                                R07R09S35G14S31E05E06S33R08R11R01R20
                                E26
 124499192.156 7                  23691397.862
        46.400
 109265859.056 8  85142180.51447  20792590.541    20792590.0814   20792590.7704
        50.600          47.5004
 118586813.119 7  92405308.75745  22566317.229    22566316.5054   22566321.2694
        47.000          33.5004
 106083732.735 8  82662708.92448  20187045.477    20187044.8924   20187048.9204
        50.300          48.3004
 129390632.879 4                  24622219.933
        27.900
 115339646.075 5  89874987.08643  21948369.293    21948369.1734   21948372.6564
        35.100          18.0004


 144547413.710 6                  27506448.954
        41.500
 106541753.358 7                  19986962.267    19986961.419
        43.900
 128386221.779 7                  24431089.042
        47.500
 112490788.393 7  87655142.90146  21406301.659    21406301.1864   21406306.3334
        43.200          40.8004
 128054126.694 7                  24367880.343
        44.800
 122968675.071 6  95642292.862 5  22971532.143    22971535.179    22971564.043
        39.200          33.500
 115159774.059 6  89568679.392 7  21565711.690    21565710.107    21565718.164
        37.400          43.100


 125115961.801 6  97492976.27341  23808775.472    23808775.7624   23808786.0404
        41.700          10.0004
 198901406.360 6                  37849711.699
        40.500
 138610828.105 6                  26376764.326
        40.200
 124964070.094 7                  23779877.522
        46.100
 202047222.326 7                  38448321.028
        46.600
 110965047.200 8  86306158.469 7  20721947.033    20721948.874    20721952.662
        48.300          42.500
 115582069.445 6  89897209.865 6  21629610.956    21629609.136    21629618.653
        40.500          37.600
 117267920.911 6  91208424.778 6  21937395.342    21937392.406    21937399.366
        41.700          39.000
 115167728.138 5  89574910.929 5  21536942.848    21536944.001    21536953.422
        34.600          35.400
 143932476.480 4                  27389434.817
        25.900
 25  1  1 19 13 45.0000000  0 26G21E31G07G30G08G27G04R19E24R10E09G09
                                E04R07R09S35G14S31E05E06S33R08R11R01
                                R20E26
 123122245.212 5                  23429384.284
        34.400
 124489721.873 7                  23689595.903
        46.300
 109245917.373 8  85126641.54047  20788795.668    20788795.1994   20788795.8164
        49.100          47.6004
 118546058.235 7  92373551.70145  22558561.657    22558560.9334   22558566.0224
        45.600          35.2004
 106090717.760 8  82668151.83548  20188373.830    20188373.2404   20188377.8104
        48.500          48.7004


 120338208.356 6                  22899596.979
        38.200
                  92612143.333 5                                  22259382.093
                        30.900
 144515291.688 6                  27500336.328
        41.200
 106546757.897 7                  19987901.413    19987901.498
        45.900
 128378218.630 8                  24429566.170
        48.700
 112531316.908 7  87686723.52746  21414013.983    21414013.5144   21414018.5594
        44.400          41.5004
 128085742.985 7                  24373896.240
        44.900
 123034397.568 5  95693410.140 5  22983812.505    22983813.656    22983841.504
        35.100          33.600
 115192838.011 6  89594395.790 6  21571901.471    21571900.773    21571908.987
        39.100          41.600


 125075791.958 6  97461675.49141  23801130.542    23801130.9264   23801143.1114
        39.200           7.4004
 198901401.101 7                  37849701.607
        42.400
 138571721.433 6                  26369323.087
        40.800
 124976273.968 7                  23782199.338
        45.700
 202047238.279 7                  38448333.048
        44.600
 110998884.194 7  86332476.106 7  20728264.330    20728264.200    20728272.487
        42.700          42.400
 115550250.307 7                  21623659.924    21623658.994
        44.400
 117241754.489 7  91188073.028 6  21932497.735    21932497.853    21932505.358
        44.900          39.500
 115122527.082 5  89539754.774 6  21528493.718    21528494.370    21528503.947
        33.500          40.600


 25  1  1 19 14  0.0000000  0 27G21E31G07G30G08G27G04R19E33E24R10E09
                                G09E04R07R09S35G14S31E05E06S33R08R11
                                R01R20E26
 123080231.926 5                  23421389.640
        34.400
 124480299.086 7                  23687802.668
        47.300
 109226040.096 8  85111152.75248  20785013.099    20785012.6344   20785013.1404
        49.900          48.7004
 118505330.035 7  92341815.38545  22550810.464    22550809.7094   22550815.8824
        44.600          35.8004
 106097858.213 8  82673715.83048  20189733.051    20189732.4754   20189736.2494
        48.400          49.1004
 115418372.883 5  89936404.56643  21963394.061    21963394.0534   21963390.8824
        34.500          18.7004
 120392775.706 6                  22909986.494
        38.100
                  92627835.430 5                                  22263167.045
                        34.100
 147975470.548 4                  28158792.485
        25.800
 144483196.686 7                  27494227.183
        42.200
 106551818.497 7                  19988851.156    19988850.523
        44.500
 128370318.851 7                  24428062.372
        47.400
 112571946.083 7  87718382.53446  21421745.962    21421745.4574   21421750.1244
        44.100          41.2004
 128117436.115 7                  24379927.315
        46.800
 123100137.955 7  95744541.067 5  22996113.886    22996117.187    22996121.514
        44.100          34.100
 115225932.028 7  89620135.365 6  21578102.431    21578104.179    21578105.730
        42.800          40.600


 125035653.810 6                  23793493.770
        40.000
 198901395.014 6                  37849691.496
        41.700
 138532657.559 6                  26361888.923
        39.400
 124988579.824 8                  23784542.049
        49.200
 202047252.771 7                  38448334.447
        46.300
 111032887.755 7  86358923.249 7  20734616.136    20734616.672    20734619.181
        45.000          42.000
 115518462.944 7                  21617712.273    21617713.113
        47.700
 117215769.445 7  91167862.374 6  21927637.339    21927636.264    21927644.749
        44.300          38.100
 115077455.103 5  89504698.895 7  21520059.768    21520058.542    21520073.744
        31.400          42.500


 25  1  1 19 14 15.0000000  0 26G21E31G07G30G08G27G04R19E33E24R10E09
                                G09E04R07R09S35G14S31E05E06S33R08R11
                                R01R20
 123038262.427 5                  23413400.204
        31.500
 124470922.106 7                  23686017.883
        46.900
 109206225.789 8  85095713.02948  20781242.456    20781241.9784   20781243.0174
        50.300          49.1004
 118464627.238 7  92310098.95546  22543064.804    22543064.0314   22543070.2454
        44.800          36.9004
 106105152.459 8  82679399.69848  20191120.775    20191120.2034   20191124.7774
        48.300          48.3004
 115457997.977 5  89967281.35743  21970934.474    21970934.1844   21970931.2104
        32.000          18.2004
 120447385.687 6  93855148.13541  22920369.674    22920369.6824   22920385.1494
        40.000           6.9004
                  92643742.026 4                                  22266987.161
                        29.000
 147935008.108 5                  28151093.961
        31.100
 144451127.186 6                  27488124.566
        41.100
 106556933.168 7                  19989807.902    19989807.925
        43.700
 128362520.952 7                  24426578.610
        47.400
 112612673.997 7  87750118.53747  21429495.723    21429495.1964   21429500.8454
        47.300          43.2004
 128149204.362 7                  24385972.744
        46.500
                                                  23008389.810

 115259054.275 6  89645897.014 6  21584300.370    21584301.982    21584309.847
        37.300          41.600


 124995545.929 6  97399172.9824   23785860.826    23785861.1474   23785873.0034
        37.100           4.1004
 198901386.929 7                  37849700.100
        43.800
 138493635.086 6                  26354462.880
        38.000
 125000986.022 8                  23786902.706
        48.400
 202047265.168 7                  38448338.816
        44.800
 111067055.808 7  86385498.416 7  20740994.235    20740994.239    20741001.085
        42.700          42.300
 115486705.993 7                  21611769.468    21611768.520
        43.800
 117189964.423 7  91147791.818 6  21922810.614    21922807.793    21922817.025
        42.500          37.500
 115032510.615 5  89469742.193 6  21511656.121    21511656.681    21511668.006
        33.500          41.200
 25  1  1 19 14 30.0000000  0 25G21E31G07G30G08G27G04E33E24R10E09G09
                                E04R07R09S35G14S31E05E06S33R08R11R01
                                R20
 122996337.729 5                  23405424.924
        32.300
 124461591.413 8                  23684242.726
        48.100
 109186475.330 7  85080323.03748  20777484.102    20777483.6204   20777484.7484
        47.900          48.0004
 118423950.689 6  92278402.91745  22535325.586    22535324.8314   22535328.9454
        41.700          34.7004
 106112600.807 8  82685203.60747  20192538.793    20192538.2304   20192542.2634
        48.100          46.9004
 115497733.556 5  89998244.15643  21978494.840    21978494.6304   21978492.9254
        31.600          23.2004
 120502038.255 6  93897734.3854   22930768.139    22930768.3894   22930783.1794
        40.300           5.7004
 147894528.384 4                  28143389.363
        24.800
 144419083.691 6                  27482027.243
        40.600
 106562102.671 7                  19990778.604    19990777.847
        43.700
 128354825.523 7                  24425114.099
        47.800
 112653500.881 7  87781931.64247  21437265.044    21437264.5084   21437270.2054
        47.800          45.0004
 128181048.094 7                  24392032.627
        45.300
 123231665.435 6  95846839.445 5  23020669.940    23020668.979    23020694.337
        41.300          35.500
 115292205.364 6  89671681.129 6  21590508.924    21590509.251    21590518.444
        39.100          41.800


 124955468.825 5  97367944.0954   23778233.148    23778233.3494   23778244.0214
        34.600           4.7004
 198901377.250 7                  37849702.881
        44.200
 138454654.761 6                  26347045.393
        40.900
 125013493.049 8                  23789282.702
        48.200
 202047277.163 7                  38448322.079
        44.000
 111101388.272 7  86412201.296 7  20747408.099    20747407.713    20747412.730
        43.800          42.200
 115454979.935 7  89798333.676 5  21605833.466    21605834.440    21605831.544
        45.500          35.500
 117164340.247 7  91127861.893 6  21918016.435    21918015.028    21918024.125
        42.200          38.400
 114987695.119 5  89434885.968 6  21503278.743    21503275.671    21503284.988
        34.200          40.800
 25  1  1 19 14 45.0000000  0 25G21E31G07G30G08G27G04E24R10E09G09E04
                                R07R09S35G14S31E05E06S33R08R11R01R20
                                E26
 122954457.029 5                  23397451.820
        32.700
 124452305.822 8                  23682475.637
        48.800
 109166787.812 8  85064982.09347  20773737.529    20773737.0424   20773737.9584
        48.200          47.7004
 118383299.284 7  92246726.53346  22527589.578    22527588.8324   22527592.4084
        43.600          37.7004
 106120202.103 7  82691126.70347  20193985.447    20193984.8754   20193988.5784
        46.600          47.6004


 120556732.375 6  93940353.47341  22941176.864    22941177.0604   22941191.2344
        37.800           6.0004
 144387065.127 7                  27475932.916
        42.000
 106567325.862 7                  19991760.157    19991759.739
        46.000
 128347231.535 7                  24423668.906
        47.700
 112694425.292 7  87813820.72147  21445053.195    21445052.6504   21445058.8054
        46.200          44.3004
 128212965.984 7                  24398107.474
        43.900
 123297450.807 6  95898005.491 5  23032955.953    23032956.425    23032983.331
        38.900          35.300
 115325384.096 7  89697486.806 7  21596724.848    21596725.553    21596731.540
        42.000          43.100


 124915421.397 5  97336738.43141  23770613.285    23770613.5134   23770622.9144
        34.000          10.9004
 198901365.197 7                  37849693.862
        43.000
 138415715.737 6                  26339634.573
        38.500
 125026099.702 7                  23791681.427
        47.200
 202047284.846 6                  38448336.504
        40.200
 111135883.636 7  86439030.988 7  20753848.031    20753847.806    20753856.415
        42.500          45.000
 115423283.558 7  89773680.968 6  21599902.489    21599903.437    21599903.308
        44.100          41.100
 117138895.864 7  91108071.851 6  21913255.403    21913253.121    21913263.269
        43.000          36.800
 114943008.206 5  89400129.630 6  21494918.004    21494919.255    21494929.131
        32.000          41.400
 143793059.829 4                  27362906.317
        29.800
 25  1  1 19 15  0.0000000  0 22E31G07G30G08G27G04E24R10E09G09E04R09
                                S35G14S31E05E06S33R08R11R01E26
 124443072.557 8                  23680718.277
        49.900
 109147170.608 8  85049695.95147  20770004.288    20770003.7974   20770004.7574
        50.700          47.4004
 118342680.410 7  92215075.42746  22519860.038    22519859.3324   22519863.4144
        42.800          36.6004
 106127963.417 7  82697174.51147  20195462.063    20195461.4784   20195465.3324
        47.600          46.4004
 115577623.387 5  90060496.66443  21993678.932    21993678.9724   21993686.5684
        35.200          21.0004
 120611475.153 6                  22951593.848
        36.400
 144355078.723 7                  27469847.487
        42.000
 106572609.655 7                  19992751.062    19992750.668
        45.500
 128339746.345 8                  24422244.969
        48.700
 112735454.075 7  87845791.16447  21452860.594    21452860.0624   21452866.6214
        47.400          42.7004
 128244965.308 7                  24404194.844
        43.100
 115358597.784 6  89723319.641 7  21602946.141    21602947.235    21602951.764
        41.700          43.300


 124875411.045 5  97305561.79241  23762997.097    23762997.4504   23763008.2874
        32.000          10.2004
 198901357.208 7                  37849691.282
        44.700
 138376825.315 6                  26332234.290
        39.800
 125038813.246 7                  23794100.570
        47.400
 202047298.038 7                  38448335.055
        42.000
 111170548.961 7  86465992.811 7  20760322.587    20760322.922    20760328.936
        44.200          44.800
 115391624.151 5  89749057.204 6  21593974.921    21593976.243    21593979.106
        33.900          41.400
 117113639.526 7  91088427.912 5  21908531.386    21908530.206    21908538.459
        45.500          34.000
 143765358.682 4                  27357637.283
        29.800
 25  1  1 19 15 15.0000000  0 22E31G07G30G08G27G04E24R10E09G09E04R07
                                R09S35G14S31E05E06S33R08R11R01
 124433884.208 8                  23678970.191
        49.700
 109127616.757 8  85034459.20648  20766283.675    20766283.1844   20766283.7814
        50.300          49.8004
 118302087.296 7  92183444.41145  22512136.077    22512135.3714   22512138.1494
        42.100          35.2004
 106135877.307 7  82703341.17247  20196967.383    20196966.8074   20196971.0394
        47.600          45.4004
 115617691.879 6  90091718.84245  22001304.436    22001304.1464   22001308.7484
        37.900          30.3004
 120666217.826 5                  22962019.037
        33.500
 144323117.224 6                  27463765.108
        40.300
 106577947.236 7                  19993751.146    19993750.836
        45.800
 128332362.692 8                  24420839.344
        49.000
 112776579.686 8  87877837.01146  21460686.025    21460685.4934   21460691.9694
        49.400          41.9004
 128277038.379 6                  24410298.812
        41.700
 123429074.936 6  96000379.986 6  23057560.612    23057557.455    23057575.023
        37.000          37.100
 115391839.173 7  89749174.021 7  21609170.146    21609171.479    21609178.315
        43.500          42.400


 124835430.375 6  97274408.06243  23755395.020    23755395.4624   23755399.7674
        37.500          18.2004
 198901346.594 7                  37849689.042
        43.000
 138337976.708 6                  26324841.202
        39.900
 125051626.332 7                  23796538.776
        47.000
 202047308.794 7                  38448334.215
        43.600
 111205376.198 7  86493080.595 7  20766826.438    20766827.898    20766834.119
        43.700          44.500
 115359994.951 7  89724456.500 7  21588054.362    21588055.180    21588059.210
        43.400          44.600
 117088563.517 7  91068924.492 5  21903839.148    21903839.439    21903846.859
        45.800          32.000
 25  1  1 19 15 30.0000000  0 24E31G07G30G08G27G04R19E24R10E09G09E04
                                R07R09S35G14S31E05E06S33R08R11R01R20
 124424741.180 8                  23677229.839
        48.300
 109108126.883 8  85019272.29748  20762575.015    20762574.5374   20762574.8074
        50.900          50.3004
 118261520.382 6  92151833.86845  22504416.589    22504415.8614   22504417.4864
        40.300          33.1004
 106143944.196 8  82709627.06447  20198503.216    20198502.6494   20198505.7044
        48.300          45.0004
 115657868.501 7  90123025.32045  22008951.270    22008951.1104   22008952.7904
        42.100          30.7004
 120721040.767 5                  22972452.323
        35.700


 144291181.109 6                  27457687.243
        41.400
 106583338.705 7                  19994763.919    19994763.328
        46.300
 128325081.221 8                  24419454.224
        49.200
 112817802.177 8  87909958.34947  21468530.681    21468530.1634   21468535.9824
        48.700          42.4004
 128309185.589 7                  24416416.615
        42.900
 123494906.881 6  96051582.358 6  23069851.975    23069855.861    23069871.623
        39.400          37.000
 115425108.743 7  89775050.390 6  21615400.912    21615402.394    21615405.640
        43.600          36.700


 124795479.831 6  97243277.91042  23747792.763    23747793.1564   23747795.8584
        36.000          17.9004
 198901333.728 7                  37849689.015
        43.400
 138299170.304 6                  26317456.362
        38.300
 125064539.282 8                  23798995.870
        48.100
 202047316.625 7                  38448343.730
        43.100
 111240365.275 7  86520294.261 6  20773356.901    20773359.495    20773365.733
        42.100          41.000
 115328395.707 7  89699879.279 7  21582143.604    21582143.252    21582147.063
        46.700          45.200
 117063668.634 7  91049561.838 4  21899183.801    21899184.739    21899186.740
        47.100          29.300
 114809728.295 4  89296481.982 7  21470000.755    21469998.267    21470007.924
        29.100          43.600
 25  1  1 19 15 45.0000000  0 22E31G07G30G08G27G04E24R10E09G09E04R09
                                S35G14S31E05E06S33R08R11R01E26
 124415654.991 8                  23675501.009
        48.900
 109088712.802 8  85004144.43048  20758880.511    20758880.0384   20758880.5404
        51.900          50.8004
 118220991.390 7  92120252.85245  22496704.013    22496703.3074   22496701.9204
        43.900          33.1004
 106152175.432 8  82716041.03747  20200068.819    20200068.2474   20200072.3194
        49.400          46.7004
 115698164.616 6  90154424.90644  22016614.855    22016614.5604   22016620.4204
        36.400          26.5004
 120775915.602 6  94111160.02041  22982892.773    22982892.8574   22982906.4644
        37.600           6.0004
 144259281.732 7                  27451617.512
        42.900
 106588795.729 7                  19995787.891    19995787.763
        47.500
 128317913.470 8                  24418089.970
        48.800
 112859132.771 7  87942163.91547  21476395.854    21476395.3544   21476401.0304
        47.800          42.1004
 128341418.349 7                  24422550.719
        45.600
 115458418.019 7  89800957.587 6  21621637.952    21621639.404    21621643.898
        46.000          36.900


 124755571.351 5  97212180.60442  23740194.715    23740195.0684   23740202.1044
        34.500          16.7004
 198901330.309 6                  37849692.910
        41.300
 138260418.000 6                  26310081.972
        39.600
 125077563.663 7                  23801474.496
        45.200
 202047333.966 7                  38448340.292
        42.900
 111275527.902 7  86547642.888 6  20779927.901    20779929.404    20779933.120
        46.300          41.900
 115296838.215 8  89675334.598 7  21576237.903    21576238.948    21576239.584
        50.800          43.600
 117038967.274 7                  21894562.538    21894560.831
        43.400


 25  1  1 19 16  0.0000000  0 24E31G07G02G30G08G27G04R19E24R10E09G09
                                E04R09S35G14S31E05E06S33R08R11R20E26
 124406611.624 8                  23673780.508
        48.200
 109069360.687 8  84989064.89448  20755198.030    20755197.5524   20755197.9314
        49.400          49.9004
 128660436.737 5                  24483261.487
        32.000
 118180486.641 7  92088690.78445  22488995.045    22488994.3704   22488994.8334
        42.300          34.9004
 106160557.031 8  82722572.18748  20201663.695    20201663.1284   20201667.4774
        49.100          48.0004
 115738512.809 6  90185882.48443  22024305.521    22024305.3074   22024313.5524
        37.200          23.7004


                  92759055.115 5                                  22294705.878
                        32.200
 144227405.463 7                  27445551.955
        43.400
 106594304.391 7                  19996821.378    19996821.419
        45.500
 128310845.639 8                  24416745.189
        50.600
 112900557.264 7  87974442.65747  21484278.930    21484278.4254   21484282.9174
        47.400          42.7004
 128373722.491 7                  24428697.457
        46.300
 115491752.856 7  89826884.673 5  21627879.630    21627879.876    21627882.290
        44.800          35.700


 124715690.625 5  97181104.83442  23732605.463    23732605.7584   23732612.9914
        34.800          15.3004
 198901322.107 7                  37849682.213
        43.500
 138221706.102 6                  26302716.040
        37.300
 125090685.512 7                  23803971.387
        47.200
 202047346.976 7                  38448342.510
        45.000
 111310849.196 7  86575114.855 7  20786521.795    20786522.910    20786530.221
        42.000          44.900
 115265308.520 8  89650811.533 7  21570335.457    21570335.700    21570341.174
        49.200          45.000
                  89227908.543 6                                  21453518.955
                        39.100


 25  1  1 19 16 15.0000000  0 25E31G07G02G30G08G27G04R19E24R10E09G09
                                E04R07R09S35G14S31E05E06S33R08R11R20
                                E26
 124397614.224 7                  23672067.516
        47.500
 109050074.050 8  84974036.36947  20751527.423    20751526.9414   20751527.5524
        48.200          47.5004
 128615850.534 5                  24474779.631
        30.000
 118140009.609 6  92057150.25946  22481293.541    22481292.8574   22481295.8394
        37.600          36.2004
 106169091.948 8  82729222.79148  20203288.347    20203287.7754   20203292.4024
        48.000          48.4004
 115779022.342 6  90217448.25443  22032013.074    22032012.6944   22032023.7074
        39.400          21.0004


                  92776121.084 5                                  22298810.867
                        32.400
 144195555.281 6                  27439490.385
        40.200
 106599867.850 7                  19997863.286    19997863.785
        44.500
 128303880.980 8                  24415419.668
        49.700
 112942078.442 8  88006796.79347  21492179.272    21492178.7904   21492184.5874
        48.200          42.9004
 128406101.183 7                  24434859.273
        45.500
 123692246.949 6  96205268.858 6  23106760.642    23106766.011    23106786.647
        40.200          39.500
 115525116.566 7                  21634128.376    21634129.160
        45.800


 124675841.097 6  97150053.42041  23725019.171    23725019.3004   23725029.6074
        38.300          11.0004
 198901312.200 7                  37849676.128
        43.100
 138183038.030 6                  26295358.194
        39.300
 125103907.920 7                  23806488.039
        47.900
 202047357.883 7                  38448346.995
        46.000
 111346331.933 7  86602712.478 7  20793149.609    20793148.168    20793156.553
        42.300          45.400
 115233809.770 7  89626312.541 6  21564441.776    21564440.514    21564444.030
        46.400          39.600
                  89193775.497 6                                  21445313.000
                        37.600


 25  1  1 19 16 30.0000000  0 25G21E31G07G30G08G27G04E24R10E09G09E04
                                R07R09S35G14S31E05E06S33R08R11R21R20
                                E26
 122662624.760 5                  23341922.592
        34.200
 124388662.825 7                  23670364.576
        47.900
 109030853.273 7  84959059.17147  20747869.196    20747868.7054   20747869.8364
        47.600          46.6004
 118099560.449 6  92025631.43346  22473597.104    22473596.4384   22473601.7244
        41.500          39.0004
 106177780.262 8  82735992.92848  20204941.405    20204940.8294   20204946.3034
        50.100          49.3004
 115819639.472 5  90249098.04641  22039743.194    22039742.2964   22039752.8394
        34.300          11.2004


 144163731.418 7                  27433435.381
        42.200
 106605485.916 6                  19998915.578    19998914.635
        41.200
 128297019.771 8                  24414114.322
        48.800
 112983696.150 8  88039226.08946  21500098.731    21500098.2584   21500104.7704
        48.000          41.7004
 128438554.245 7                  24441034.680
        44.100
 123758135.913 7  96256515.487 6  23119071.090    23119072.865    23119095.217
        43.400          38.600
 115558509.216 7  89878799.344 5  21640382.674    21640382.523    21640386.283
        44.600          32.900


 124636022.854 6  97119026.35842  23717444.886    23717445.0114   23717451.4724
        38.600          12.9004
 198901301.468 7                  37849686.497
        43.400
 138144414.014 6                  26288008.637
        38.700
 125117230.995 7                  23809023.257
        46.600
 202047368.070 7                  38448348.676
        43.900
 111381975.776 7  86630435.411 7  20799804.727    20799805.502    20799812.304
        43.700          45.800
 115202342.094 7  89601837.740 6  21558554.110    21558552.138    21558555.484
        44.700          41.900
 128309836.572 4                  23977759.976
        28.900
                  89159746.372 6                                  21437133.642
                        39.100


 25  1  1 19 16 45.0000000  0 25G21E31G07G30G08G27G04R19E24R10E09G09
                                E04R07R09S35G14S31E05E06S33R08R11R01
                                E26
 122621141.070 6                  23334029.397
        37.200
 124379764.654 8                  23668671.028
        48.300
 109011705.804 8  84944139.06347  20744225.878    20744225.3964   20744226.1394
        48.500          47.1004
 118059146.879 6  91994140.35545  22465905.369    22465904.7174   22465912.4074
        37.100          34.4004
 106186629.092 8  82742888.14948  20206625.517    20206624.9184   20206630.1464
        49.300          48.7004






 144131941.189 6                  27427384.536
        38.400
 106611166.043 6                  19999982.857    19999980.987
        40.200
 128290269.265 8                  24412829.565
        49.500
 113025417.302 7  88071736.00946  21508036.650    21508036.0874   21508043.6714
        43.600          38.4004
 128471088.890 7                  24447226.558
        46.100
 123824043.414 7  96307776.512 6  23131382.816    23131384.596    23131408.488
        44.700          36.600
 115591938.275 7  89904799.669 5  21646643.884    21646645.652    21646646.604
        43.700          32.700
 200823526.530 5                  38215455.202
        34.500
 124596243.251 6  97088029.52142  23709874.575    23709874.7354   23709880.9174
        40.100          14.5004
 198901296.146 7                  37849683.698
        44.600
 138105841.705 6                  26280668.022
        41.000
 125130661.947 7                  23811579.518
        46.800
 202047384.260 7                  38448349.986
        44.000
 111417787.796 7  86658289.081 7  20806493.690    20806493.574    20806499.258
        44.000          45.200
 115170913.022 7  89577392.919 6  21552670.829    21552669.612    21552672.823
        45.400          39.100
 116941984.351 7                  21876419.428    21876419.351
        44.400


 25  1  1 19 17  0.0000000  0 23G21E31G07G30G08G04E33E24R10E09G09E04
                                R07R09S35G14S31E05E06S33R08R11E26
 122579702.050 5                  23326142.483
        35.500
 124370907.722 8                  23666985.744
        48.700
 108992619.824 8  84929266.86448  20740593.874    20740593.3964   20740594.6134
        48.700          48.4004
 118018757.034 6  91962667.67545  22458218.089    22458217.3964   22458226.2464
        38.700          34.4004
 106195626.352 8  82749899.01248  20208338.103    20208337.5274   20208341.6514
        49.500          48.2004
 121050943.699 5                  23035226.597
        34.200


 144100172.558 6                  27421339.382
        40.700
 106616896.667 6                  20001057.812    20001056.904
        40.800
 128283617.696 8                  24411564.157
        49.000
 113067229.553 6  88104316.88646  21515994.082    21515993.4794   21516001.6164
        41.000          38.7004
 128503692.900 7                  24453430.561
        45.400
 123889956.641 7  96359042.065 5  23143697.261    23143697.428    23143718.869
        43.100          35.200
 115625391.410 7  89930818.884 6  21652905.180    21652906.407    21652914.138
        42.100          39.000


 124556490.390 6  97057053.51842  23702309.837    23702309.9664   23702314.6454
        40.300          16.4004
 198901284.793 7                  37849678.882
        42.700
 138067309.260 6                  26273335.686
        39.800
 125144188.763 7                  23814152.838
        47.200
 202047394.872 7                  38448360.579
        47.000
 111453755.372 7  86686263.858 7  20813209.271    20813210.904    20813215.595
        42.300          44.600
 115139510.298 7  89552968.655 6  21546798.858    21546799.511    21546796.222
        47.700          36.700


 25  1  1 19 17 15.0000000  0 27G21E31G07G30G08G27G04E33E24R10E09G09
                                E04R07R09S35G14S31E05E06S33R08R11R21
                                R01R20E26
 122538314.450 6                  23318265.676
        37.300
 124362098.370 7                  23665309.561
        47.800
 108973602.000 7  84914447.76847  20736974.778    20736974.3134   20736975.9844
        47.900          47.8004
 117978397.480 6  91931218.65245  22450540.118    22450539.3674   22450544.5354
        37.800          33.0004
 106204778.390 8  82757030.48348  20210079.531    20210078.9554   20210082.7804
        49.800          48.2004
 115942119.563 5  90344559.87342  22063051.043    22063051.1954   22063063.3054
        34.500          16.4004
 121106059.583 6                  23045712.822
        36.800


 144068432.053 6                  27415297.980
        39.000
 106622683.751 7                  20002143.384    20002143.526
        43.600
 128277071.555 8                  24410318.297
        48.500
 113109139.152 6  88136973.65146  21523970.509    21523969.8394   21523976.6164
        39.300          38.0004
 128536372.661 7                  24459649.454
        45.900
 123955881.840 6  96410316.880 5  23156014.544    23156011.034    23156035.122
        39.200          34.200
 115658875.431 7  89956861.994 6  21659178.296    21659179.633    21659185.414
        45.800          40.300


 124516770.691 5  97026103.21442  23694749.534    23694749.6364   23694756.0874
        34.000          15.8004
 198901274.555 7                  37849678.439
        44.500
 138028823.387 6                  26266011.869
        39.900
 125157817.866 7                  23816746.706
        46.700
 202047405.754 7                  38448361.653
        46.800
 111489884.397 6  86714364.176 7  20819956.840    20819954.504    20819962.849
        39.200          45.200
 115108140.420 7  89528569.913 6  21540927.743    21540928.235    21540927.713
        45.000          41.100
 128113272.795 5                  23941029.299
        34.600
 116894597.816 6  90918053.188 5  21867552.459    21867551.547    21867560.693
        40.700          32.400
                  89058298.347 5                                  21412738.079
                        35.200


 25  1  1 19 17 30.0000000  0 26G21E31G07G30G08G27G04E33E24R10E09G09
                                E04R07R09S35G14S31E05E06S33R08R11R21
                                R01E26
 122496977.323 5                  23310399.378
        31.600
 124353335.068 8                  23663642.034
        48.100
 108954650.984 7  84899680.72148  20733368.558    20733368.0624   20733369.9114
        47.900          48.1004
 117938066.981 7  91899792.31245  22442864.808    22442864.0624   22442866.2594
        44.700          34.0004
 106214083.533 8  82764281.24847  20211849.936    20211849.3694   20211853.3014
        50.100          47.1004
 115983169.020 5  90376546.47442  22070865.403    22070865.0194   22070873.2264
        32.800          17.0004
 121161214.524 6                  23056206.070
        38.900


 144036718.077 6                  27409263.822
        39.100
 106628525.506 7                  20003239.514    20003239.132
        43.600
 128270629.392 7                  24409092.345
        46.900
 113151144.102 7  88169704.69646  21531965.077    21531964.3624   21531970.1874
        42.100          38.0004
 128569126.420 7                  24465882.031
        45.100
 124021816.710 5  96461599.347 6  23168328.896    23168323.888    23168354.987
        35.700          36.700
 115692388.820 7  89982927.957 6  21665455.507    21665457.035    21665461.059
        47.200          39.600


 124477082.702 5  96995177.67843  23687198.227    23687198.2444   23687204.4964
        34.300          18.2004
 198901262.906 7                  37849673.811
        44.500
 137990382.842 6                  26258696.442
        39.000
 125171547.638 7                  23819359.181
        46.900
 202047414.431 7                  38448360.427
        46.200
 111526173.244 6  86742588.767 7  20826733.447    20826731.601    20826740.250
        41.300          45.600
 115076802.274 5  89504195.781 6  21535054.726    21535054.021    21535064.200
        34.000          41.000
 128047745.510 5                  23928784.566    23928785.759
        32.100
 116871181.888 7  90899840.870 5  21863172.115    21863170.967    21863181.101
        42.800          33.900


 25  1  1 19 17 45.0000000  0 28G21E31G07G30G08G27G04R19E33E24R10E09
                                G09E04R07R09S35G14S31E05E06S33R08R11
                                R21R01R20E26
 122455696.855 5                  23302542.745
        32.800
 124344623.440 8                  23661984.214
        49.200
 108935772.968 8  84884970.57148  20729776.602    20729776.1024   20729777.3614
        48.000          48.1004
 117897771.477 7  91868393.29845  22435197.205    22435196.4274   22435195.0474
        46.300          35.7004
 106223547.345 8  82771655.64647  20213651.380    20213650.8264   20213654.3994
        50.300          47.1004
 116024330.544 5  90408606.39943  22078698.526    22078698.5974   22078704.4864
        31.300          23.0004


                  92881600.110 5                                  22324157.268
                        31.600


 144005036.396 6                  27403234.793
        38.900
 106634428.669 7                  20004348.424    20004347.504
        45.000
 128264297.023 8                  24407887.296
        48.600
 113193249.911 7  88202514.31446  21539977.650    21539976.9264   21539983.4474
        45.200          41.1004
 128601959.785 7                  24472129.295
        43.900
 124087767.051 6  96512893.710 6  23180644.727    23180645.412    23180679.114
        41.900          41.400
 115725937.360 6  90009021.181 6  21671736.817    21671737.201    21671741.211
        40.800          39.600


 124437432.174 6  96964281.25643  23679655.026    23679655.0184   23679660.8374
        39.300          21.9004
 198901255.993 7                  37849671.450
        44.300
 137951993.434 6                  26251391.335
        38.300
 125185383.774 7                  23821991.867
        47.600
 202047429.293 7                  38448354.695
        44.700
 111562627.039 7  86770941.636 7  20833541.320    20833542.772    20833548.349
        45.200          45.900
                  89479850.557 6                                  21529207.050
                        40.600
 127982205.862 4                  23916541.889    23916541.164
        29.300
 116847956.589 6  90881776.748 5  21858824.075    21858823.691    21858835.628
        41.000          32.400
                  88991198.445 6                                  21396602.882
                        36.100


 25  1  1 19 18  0.0000000  0 25G21E31G07G30G08G27G04E33E24R10E09G09
                                E04R07R09S35G14S31E05E06S33R08R11R01
                                E26
 122414466.621 5                  23294696.461
        31.300
 124335956.679 8                  23660334.845
        49.700
 108916961.182 8  84870312.03048  20726197.520    20726197.0334   20726197.5544
        49.000          48.4004
 117857504.444 7  91837016.42646  22427535.068    22427534.2904   22427530.5884
        47.500          36.7004
 106233162.960 8  82779148.32647  20215480.901    20215480.3474   20215484.0854
        48.600          45.0004
 116065596.853 5  90440762.01644  22086553.213    22086553.1334   22086556.7324
        33.500          27.3004
 121271654.568 4                  23077223.738
        28.800


 143973380.263 6                  27397211.481
        40.900
 106640385.414 7                  20005465.229    20005465.235
        46.300
 128258067.784 8                  24406701.914
        48.500
 113235449.369 7  88235396.95746  21548006.355    21548005.6274   21548012.8804
        47.200          40.1004
 128634865.752 7                  24478391.179
        46.700
 124153725.032 7  96564194.058 6  23192972.929    23192980.343    23192997.634
        45.200          39.100
 115759514.002 5  90035136.316 6  21678019.859    21678020.430    21678030.007
        34.600          39.700


 124397812.533 6  96933408.93544  23672116.161    23672116.1694   23672122.2944
        40.000          25.0004
 198901247.133 7                  37849671.258
        44.300
 137913648.761 6                  26244094.310
        39.700
 125199319.458 7                  23824643.636
        46.400
 202047441.430 7                  38448371.803
        45.600
 111599238.332 7  86799417.014 7  20840377.951    20840380.138    20840386.037
        45.300          47.200
 115014229.771 7  89455529.009 5  21523345.009    21523350.828    21523351.004
        45.100          31.900
 116824915.254 6  90863855.772 5  21854513.808    21854513.601    21854526.289
        40.700          31.700
 143438255.246 5                  27295390.026
        30.800
 25  1  1 19 18 15.0000000  0 25E31G07G30G08G27G04E33E24R10E09G09E04
                                R07R09S35G14S31E05E06S33R08R11R01R20
                                E26
 124327339.914 8                  23658695.296
        50.400
 108898221.045 8  84855709.33247  20722631.008    20722630.5394   20722630.9164
        49.700          47.5004
 117817271.290 7  91805665.93745  22419877.521    22419876.7794   22419875.4344
        46.200          35.8004
 106242935.381 8  82786763.21147  20217340.845    20217340.2824   20217343.1974
        50.200          45.5004
 116106972.801 6  90473002.96345  22094427.878    22094427.5834   22094430.3964
        39.800          30.0004




 143941754.938 6                  27391191.685
        37.800
 106646401.144 7                  20006593.288    20006592.827
        45.200
 128251946.889 7                  24405536.668
        46.800
 113277747.403 7  88268356.35947  21556055.197    21556054.5224   21556061.5104
        46.000          42.1004
 128667849.421 7                  24484667.517
        43.000
 124219695.585 7  96615504.174 6  23205297.253    23205297.410    23205325.079
        42.400          41.500
 115793124.274 5  90061277.502 6  21684312.337    21684313.626    21684324.518
        35.700          41.300


 124358228.880 5  96902564.73643  23664580.403    23664580.4034   23664590.1914
        35.400          22.6004
 198901241.638 7                  37849669.129
        43.800
 137875354.185 6                  26236807.238
        40.300
 125213359.838 7                  23827316.034
        46.400
 202047457.642 7                  38448368.517
        44.000
 111636012.131 7  86828018.823 7  20847246.052    20847245.702    20847253.501
        44.400          45.900


 116802063.585 7  90846082.190 5  21850241.390    21850241.717    21850249.719
        42.200          33.700
                  88924531.781 6                                  21380577.513
                        37.800


 25  1  1 19 18 30.0000000  0 26E31G07G30G08G27G04E33E24R10E09G09E04
                                R07R09S35G14S31E05E06S33R08R11R21R01
                                R20E26
 124318765.617 8                  23657063.645
        50.300
 108879545.422 8  84841156.89847  20719077.388    20719076.9324   20719076.7544
        49.500          47.2004
 117777064.729 6  91774336.15646  22412226.697    22412225.9824   22412225.8424
        41.100          36.1004
 106252857.065 8  82794494.40047  20219228.999    20219228.4364   20219230.9154
        50.100          45.1004
 116148450.677 6  90505323.38744  22102317.191    22102316.7004   22102322.8324
        36.100          29.7004
 121382309.968 5                  23098271.344
        35.800


 143910152.901 7                  27385179.154
        42.100
 106652468.572 7                  20007731.378    20007730.756
        46.300
 128245927.025 7                  24404391.637
        47.400
 113320136.119 7  88301386.43946  21564121.624    21564121.0034   21564127.5534
        44.100          40.0004
 128700903.149 7                  24490957.989
        42.200
 124285670.485 6  96666817.777 7  23217619.386    23217620.942    23217649.421
        38.800          42.100
 115826760.363 6  90087438.853 7  21690616.991    21690617.988    21690625.195
        38.100          43.500


 124318673.855 7  96871742.79944  23657056.139    23657056.1974   23657062.3174
        42.300          24.7004
 198901230.868 7                  37849668.351
        46.300
 137837102.452 6                  26229528.546
        40.400
 125227497.350 7                  23830006.601
        45.200
 202047468.069 7                  38448370.462
        45.800
 111672940.397 7  86856740.766 7  20854141.931    20854142.433    20854150.187
        46.000          44.300
 114951787.580 7  89406982.061 4  21511665.165    21511666.671    21511668.751
        46.100          29.900
 127785485.196 5                  23879771.458    23879772.591
        33.100
 116779394.002 7  90828450.341 6  21846001.414    21846000.857    21846010.612
        43.900          37.100
                  88891358.315 6                                  21372599.794
                        36.700


 25  1  1 19 18 45.0000000  0 26E31G07G30G08G27G04E33E24R10E09G09E04
                                R07R09S35G14S31E05E06S33R08R11R21R01
                                R20E26
 124310238.041 8                  23655440.811
        50.100
 108860938.851 8  84826658.27347  20715536.283    20715535.8274   20715535.6854
        50.700          47.3004
 117736889.230 7  91743030.60046  22404581.879    22404581.1774   22404582.3554
        45.500          36.2004
 106262932.131 8  82802345.11147  20221146.178    20221145.6114   20221148.3294
        49.300          45.5004
 116190034.505 5  90537726.36444  22110232.904    22110232.3504   22110235.3734
        35.100          27.2004
 121437661.317 5                  23108800.618
        34.800
 147204203.385 5                  28012025.830
        31.400
 143878578.486 5                  27379169.108
        35.700
 106658592.134 7                  20008881.619    20008880.607
        47.300
 128240012.444 7                  24403265.811
        46.800
 113362619.581 7  88334490.43646  21572206.362    21572205.7634   21572212.1214
        43.700          40.1004
 128734031.124 7                  24497262.322
        44.300
 124351653.497 6  96718137.720 6  23229945.277    23229945.852    23229973.857
        40.200          38.200
 115860426.669 6  90113623.754 6  21696921.920    21696924.670    21696928.815
        37.900          41.900


 124279151.660 6  96840946.50043  23649533.995    23649534.0884   23649540.3904
        41.200          21.5004
 198901221.068 7                  37849663.969
        45.000
 137798898.091 6                  26222258.186
        40.600
 125241736.292 7                  23832715.619
        44.400
 202047479.661 6                  38448356.470
        41.800
 111710026.886 7  86885585.797 7  20861068.075    20861068.051    20861075.904
        45.500          45.100
 114920613.063 7  89382735.254 5  21505829.782    21505831.118    21505836.132
        46.000          34.500
 127719879.182 4                  23867503.460    23867507.100
        28.400
 116756911.184 6  90810963.698 5  21841794.928    21841794.326    21841804.358
        39.900          33.900
                  88858294.212 6                                  21364650.327
                        36.400
 143358004.414 5                  27280122.104
        33.000
 25  1  1 19 19  0.0000000  0 26E31G07G30G08G27G04R19E33E24R10E09G09
                                E04R07R09S35G14S31E05E06S33R08R11R01
                                R20E26
 124301758.859 8                  23653827.042
        48.900
 108842403.286 8  84812215.04247  20712009.096    20712008.6234   20712007.8974
        49.500          46.7004
 117696746.877 7  91711750.77746  22396941.721    22396941.0024   22396945.3564
        44.400          38.4004
 106273162.230 7  82810316.64347  20223093.044    20223092.4994   20223095.3544
        47.900          45.4004
 116231725.460 5  90570212.86244  22118164.361    22118163.7714   22118167.5624
        35.500          26.8004
 121493052.705 6                  23119336.863
        38.900
                  92973511.800 5                                  22346254.193
                        33.200


 143847033.334 5                  27373168.438
        33.600
 106664773.260 7                  20010040.021    20010039.701
        45.500
 128234205.122 7                  24402161.092
        45.600
 113405199.156 7  88367669.27846  21580308.774    21580308.2164   21580313.6104
        43.600          40.3004
 128767234.858 7                  24503581.319
        42.700
 124417646.084 7  96769464.874 6  23242276.415    23242276.811    23242297.237
        42.000          36.100
 115894125.263 5  90139833.620 6  21703231.628    21703230.275    21703238.757
        34.200          41.000
 200823322.012 6                  38215388.534
        37.000
 124239664.171 6  96810177.17343  23642023.278    23642023.3764   23642025.0464
        41.200          18.5004
 198901213.034 7                  37849665.302
        46.900
 137760743.065 6                  26214997.801
        41.100
 125256078.316 7                  23835444.806
        45.700
 202047492.628 7                  38448369.854
        43.000
 111747273.278 7  86914555.078 7  20868022.590    20868023.888    20868031.924
        46.500          44.800
 114889472.451 6  89358514.913 6  21500000.076    21499999.228    21500010.118
        37.900          40.800
 116734617.259 7  90793624.049 6  21837625.452    21837625.249    21837634.910
        44.900          37.200
                  88825340.454 5                                  21356730.815
                        35.100
 143331390.266 5                  27275054.006
        34.100
 25  1  1 19 19 15.0000000  0 26E31G07G30G08G27G04E33E24R10E09G09E04
                                R07R09S35G14S31E05E06S33R08R11R21R01
                                R20E26
 124293323.881 8                  23652221.535
        49.100
 108823934.749 8  84797823.97747  20708494.872    20708494.3854   20708493.4394
        49.100          46.6004
 117656633.546 7  91680493.75445  22389308.207    22389307.4524   22389313.4454
        42.900          34.6004
 106283543.092 7  82818405.61947  20225067.731    20225067.1684   20225070.7114
        43.000          42.4004
 116273519.339 6  90602779.58444  22126112.790    22126112.2494   22126120.1644
        36.500          24.3004
 121548479.067 6                  23129886.671
        38.100




 106671008.002 8                  20011209.398    20011209.053
        48.000
 128228500.988 7                  24401076.178
        47.800
 113447870.457 7  88400919.60746  21588429.346    21588428.8284   21588433.8664
        45.900          41.3004
 128800509.976 7                  24509913.086
        44.400
 124483643.304 6  96820795.779 5  23254603.037    23254607.150    23254629.945
        41.900          35.800
 115927851.414 6  90166065.069 6  21709552.409    21709549.228    21709554.763
        40.800          41.900




 198901201.963 7                  37849662.918
        44.700
 137722633.483 7                  26207746.675
        43.100
 125270519.229 7                  23838192.560
        46.000
 202047502.943 6                  38448368.575
        41.200
 111784674.421 7  86943644.812 6  20875006.697    20875006.604    20875016.920
        43.700          40.700
 114858362.318 7  89334318.149 6  21494182.366    21494181.969    21494189.004
        45.400          39.300
 127588625.748 5                  23843002.922    23843000.395
        32.700
 116712508.217 7  90776428.066 5  21833489.191    21833490.577    21833494.872
        45.700          30.800
                  88792494.366 6                                  21348828.935
                        39.400
 143304842.937 5                  27270005.086
        35.400
 25  1  1 19 19 30.0000000  0 25E31G07G30G08G27G04E33E24R10E09G09E04
                                R07R09S35G14S31E05E06S33R08R11R01R20
                                E26
 124284935.234 8                  23650625.681
        48.400
 108805535.673 8  84783487.04247  20704993.680    20704993.2074   20704992.6464
        50.300          47.3004
 117616551.873 7  91649261.19746  22381681.877    22381681.1084   22381685.9214
        45.900          38.5004
 106294076.674 7  82826613.59946  20227071.818    20227071.2374   20227075.4034
        44.800          40.5004


 121603942.605 6  94756277.21641  23140440.179    23140440.0364   23140451.4934
        37.200           6.0004




 106677298.387 7                  20012388.904    20012387.893
        45.000
 128222902.196 7                  24400010.657
        46.500
 113490635.164 7  88434242.70647  21596567.640    21596567.1534   21596572.6584
        47.100          42.9004
 128833858.639 7                  24516259.538
        43.900
 124549646.954 6                  23266933.444    23266935.105
        38.800
 115961607.558 5  90192319.797 6  21715870.317    21715869.361    21715875.379
        35.900          38.700




 198901191.221 7                  37849659.582
        44.700
 137684571.811 6                  26200502.910
        41.300
 125285061.178 7                  23840959.962
        47.600
 202047513.524 7                  38448365.275
        44.400
 111822232.374 7  86972856.481 6  20882021.519    20882022.222    20882027.807
        45.500          41.000
 114827284.105 7  89310146.124 6  21488366.762    21488366.772    21488373.024
        44.000          41.600
 116690586.435 6  90759377.901 5  21829386.140    21829384.371    21829399.478
        39.600          33.200
                  88759758.652 6                                  21340957.171
                        36.400
 143278364.556 6                  27264969.436
        36.100
 25  1  1 19 19 45.0000000  0 26E31G07G30G08G16G27G04R19E24R10E09G09
                                E04R07R09S35G14S31E05E06S33R08R11R01
                                R20E26
 124276596.493 8                  23649038.647
        49.000
 108787210.086 8  84769207.40547  20701506.480    20701506.0114   20701505.3574
        50.200          46.5004
 117576505.498 7  91618056.18846  22374061.490    22374060.7084   22374066.4204
        47.300          41.3004
 106304766.462 7  82834943.28046  20229105.280    20229104.6904   20229110.6264
        47.000          41.2004
 130638424.445 5                  24859665.414
        32.900
 116357472.056 5  90668164.86143  22142090.555    22142089.7014   22142091.6194
        33.500          18.7004
 121659446.506 5  94799526.7744   23151000.472    23151000.2494   23151014.5074
        30.400           1.8004
                  93030418.591 5                                  22359926.685
                        35.000


 106683648.263 7                  20013578.984    20013577.895
        43.600
 128217412.576 7                  24398965.566
        46.500
 113533496.748 7  88467641.27346  21604722.950    21604722.4944   21604729.5864
        45.400          41.1004
 128867284.320 7                  24522620.822
        43.600
 124615660.630 6                  23279274.935    23279276.501
        39.600
 115995397.612 6  90218600.897 5  21722196.642    21722197.557    21722200.946
        36.300          34.200


 124121364.699 5                  23619511.521    23619511.6144
        33.100
 198901184.306 7                  37849665.145
        43.200
 137646561.829 6                  26193270.814
        40.800
 125299707.757 8                  23843747.504
        48.600
 202047527.549 7                  38448380.644
        46.300
 111859950.319 7  87002192.583 6  20889066.833    20889066.423    20889069.781
        46.100          41.200
 114796242.008 7  89286002.230 7  21482557.883    21482557.494    21482564.856
        43.200          43.300
 116668855.821 6  90742476.304 5  21825323.116    21825322.045    21825334.384
        41.800          35.600
                  88727135.916 6                                  21333112.639
                        37.900
 143251959.427 4                  27259947.976
        27.000
 25  1  1 19 20  0.0000000  0 26E31G07G02G30G08G27G04R19E24R10E09G09
                                E04R09S35G14S31E05E06S33R08R11R21R01
                                R20E26
 124268306.055 8                  23647461.213
        48.200
 108768956.439 8  84754983.77147  20698032.467    20698032.0114   20698032.0294
        49.600          46.8004
 127946838.321 5                  24347473.218
        35.600
 117536493.269 8  91586877.80646  22366447.730    22366446.9614   22366452.5304
        48.800          41.2004
 106315610.817 7  82843393.40146  20231168.523    20231167.9294   20231173.7214
        46.300          40.8004
 116399584.058 5  90701013.45442  22150105.947    22150105.5184   22150111.9174
        30.500          17.8004


                  93049670.935 5                                  22364549.672
                        33.100
 143721137.981 5                  27349216.220
        35.100
 106690055.947 7                  20014783.402    20014782.434
        46.000
 128212030.603 7                  24397941.130
        45.800
 113576453.226 7  88501113.74946  21612897.106    21612896.6864   21612904.4594
        44.200          40.9004
 128900785.212 7                  24528995.437
        42.100




 124082012.145 5  96687314.13742  23612023.985    23612024.1374   23612029.4384
        31.900          16.3004
 198901178.805 7                  37849662.874
        44.300
 137608602.302 6                  26186046.355
        40.600
 125314457.295 7                  23846554.297
        47.000
 202047543.681 7                  38448383.532
        44.400
 111897826.180 7  87031651.556 6  20896137.125    20896138.093    20896145.319
        45.900          39.400
 114765234.301 7  89261885.210 6  21476757.404    21476755.949    21476758.731
        46.100          41.900
 127391601.246 5                  23806166.217    23806166.602
        34.100
 116647314.958 6  90725722.246 5  21821294.852    21821293.739    21821304.352
        40.500          31.700
                  88694625.575 6                                  21325295.935
                        36.800


 25  1  1 19 20 15.0000000  0 26G21E31G07G02G30G08G27G04R19E24R10E09
                                G09E04R09S35G14S31E05E06S33R08R11R21
                                R01E26
 122045804.695 5                  23224544.519
        30.100
 124260054.824 8                  23645890.867
        49.900
 108750765.859 8  84740809.26847  20694571.429    20694570.9874   20694570.7874
        48.700          47.3004
 127902239.236 5                  24338988.640
        34.200
 117496506.198 8  91555719.07046  22358838.294    22358837.5394   22358841.6364
        48.700          40.7004
 106326600.582 7  82851956.85846  20233260.814    20233260.2424   20233264.2854
        43.900          40.2004




                  93069061.570 5                                  22369207.998
                        33.900
 143689655.413 5                  27343233.817
        31.800
 106696512.377 7                  20015993.626    20015992.879
        45.500
 128206747.315 7                  24396935.709
        44.200
 113619495.171 7  88534652.83546  21621087.184    21621086.7694   21621094.9564
        43.900          39.2004
 128934352.148 7                  24535383.595
        42.200
 116063064.851 6  90271230.659 5  21734868.490    21734867.716    21734876.453
        38.000          35.700


 124042685.688 6  96656670.25542  23604540.523    23604540.8534   23604545.9324
        39.200          17.0004
 198901166.751 7                  37849652.097
        42.000
 137570684.289 6                  26178831.756
        37.700
 125329300.762 8                  23849379.270
        48.200
 202047552.384 7                  38448380.219
        46.100
 111935850.492 7  87061225.987 6  20903237.357    20903238.381    20903244.919
        46.100          39.800
 114734251.929 7  89237787.667 6  21470957.148    21470956.107    21470961.125
        43.300          41.000
 127325913.283 6  99031392.175 5  23793892.619    23793892.490    23793921.445
        36.800          33.800
 116625955.150 7  90709109.101 4  21817301.935    21817296.426    21817309.579
        42.500          29.800


 25  1  1 19 20 30.0000000  0 28G21E31G07G02G30G08G27G04R19E24R10E09
                                G09E04R07R09S35G14S31E05E06S33R08R11
                                R21R01R20E26
 122005117.229 5                  23216801.796
        32.100
 124251849.289 8                  23644329.493
        50.600
 108732645.316 8  84726689.34448  20691123.092    20691122.6544   20691122.9564
        48.500          48.1004
 127857641.871 6                  24330502.183
        38.500
 117456551.234 6  91524585.40046  22351234.612    22351233.8304   22351235.3484
        40.400          36.4004
 106337742.064 7  82860638.54546  20235381.875    20235381.3304   20235383.6824
        47.200          40.0004
 116484039.964 5  90766810.07143  22166176.905    22166176.3824   22166181.6994
        33.000          19.6004


                  93088595.396 5                                  22373900.850
                        34.800
 143658270.909 6                  27337261.434
        37.900
 106703024.093 7                  20017215.570    20017214.911
        46.700
 128201569.321 7                  24395949.843
        46.000
 113662628.845 7  88568263.42846  21629296.998    21629296.5654   21629302.3684
        43.400          41.6004
 128967991.467 6                  24541784.039
        40.200
 124813806.393 5  97077505.622 5  23316257.989                    23316300.136
        35.800          32.300
 116096939.673 7  90297577.662 6  21741216.594    21741216.235    21741217.339
        42.600          36.400


 124003391.765 6  96626051.78542  23597062.017    23597062.4464   23597068.5114
        38.800          16.2004
 198901154.227 7                  37849654.476
        43.800
 137532814.613 6                  26171625.117
        36.700
 125344244.582 8                  23852222.841
        48.300
 202047560.689 7                  38448386.515
        45.100
 111974029.123 7  87090920.271 5  20910369.385    20910369.899    20910372.274
        46.900          35.000
 114703301.370 6  89213714.967 6  21465164.336    21465163.231    21465169.243
        38.900          41.000
 127260213.267 6  98980292.319 5  23781628.674    23781630.174    23781641.386
        38.600          33.100
 116604783.142 7  90692641.954 5  21813340.144    21813341.084    21813348.075
        44.900          33.000
                  88629927.278 6                                  21309742.657
                        40.300


 25  1  1 19 20 45.0000000  0 27E31G07G02G30G08G27G04R19E24R10E09G09
                                E04R07R09S35G14S31E05E06S33R08R11R21
                                R01R20E26
 124243696.410 8                  23642778.034
        50.200
 108714601.902 8  84712629.55748  20687689.741    20687689.2854   20687689.6944
        49.300          48.2004
 127813054.122 5                  24322018.040
        35.200
 117416635.492 6  91493482.23945  22343639.117    22343638.3754   22343639.7834
        41.900          35.2004
 106349042.200 7  82869443.83146  20237531.515    20237530.9614   20237533.4414
        47.300          40.6004
 116526460.831 6  90799865.20243  22174251.121    22174250.4914   22174256.0364
        37.800          22.9004


                  93108277.853 5                                  22378632.806
                        34.500
 143626920.523 6                  27331293.586
        40.500
 106709597.936 7                  20018448.912    20018448.686
        46.500
 128196503.747 7                  24394986.158
        44.400
 113705860.990 7  88601950.73747  21637523.696    21637523.2674   21637528.7504
        45.700          42.3004
 129001710.072 6                  24548200.982
        41.400
 124879840.840 6  97128865.413 5  23328619.857    23328609.695    23328627.232
        38.000          31.800
 116130851.535 7  90323953.471 6  21747567.010    21747567.710    21747571.479
        43.600          38.600


 123964137.534 6  96595464.28242  23589592.399    23589592.4924   23589597.8884
        36.500          16.5004
 198901147.925 7                  37849649.342
        43.700
 137495000.494 5                  26164428.139
        35.400
 125359295.749 7                  23855086.953
        47.600
 202047575.813 7                  38448388.983
        45.000
 112012368.799 7  87120739.811 6  20917529.156    20917530.174    20917535.688
        46.700          39.200
 114672389.958 7  89189672.727 6  21459378.596    21459378.973    21459383.446
        44.200          41.300
 127194508.752 5  98929188.974 5  23769342.862    23769347.427    23769363.907
        34.700          31.700
 116583806.319 7  90676326.676 5  21809415.906    21809417.669    21809427.213
        44.700          34.500
 113911348.936 5  88597751.199 6  21301993.370    21301994.365    21302006.508
        34.200          38.100
 143147022.737 5                  27239974.039
        33.200
 25  1  1 19 21  0.0000000  0 26E31G07G02G30G08G27G04E24R10E09G09E04
                                R07R09S35G14S31E05E06S33R08R11R21R01
                                R20E26
 124235590.275 8                  23641235.696
        49.600
 108696630.006 8  84698625.47848  20684269.846    20684269.3464   20684269.7434
        48.700          48.0004
 127768470.244 4  99559963.9694   24313530.273    24313530.0324   24313558.2514
        28.400           3.6004
 117376753.318 7  91462405.21846  22336049.842    22336049.1094   22336051.2874
        47.700          39.1004
 106360494.917 7  82878368.01146  20239711.057    20239710.4944   20239712.5664
        46.600          40.3004
 116568984.920 6  90833000.77144  22182344.055    22182343.8274   22182349.3154
        37.600          24.8004


 143595598.312 6                  27325332.635
        40.700
 106716228.508 7                  20019693.375    20019693.187
        47.500
 128191544.785 7                  24394042.531
        44.900
 113749185.282 7  88635709.81847  21645767.391    21645766.9674   21645773.4254
        47.100          43.4004
 129035501.966 6                  24554629.861
        40.900
 124945879.382 6  97180228.514 5  23340934.064    23340937.761    23340960.942
        37.500          30.400
 116164794.240 6  90350353.298 6  21753920.848    21753922.011    21753930.238
        40.600          39.700


 123924917.093 5  96564903.09342  23582125.155    23582125.1204   23582134.4504
        35.500          15.4004
 198901142.482 7                  37849646.288
        43.800
 137457236.343 5                  26157242.707
        35.400
 125374448.369 7                  23857970.524
        46.600
 202047591.090 7                  38448392.015
        44.800
 112050863.058 7  87150679.696 7  20924714.532    20924715.481    20924728.047
        43.500          42.200
 114641511.507 7  89165656.185 6  21453600.669    21453602.258    21453605.846
        46.500          41.300
 127128794.321 5  98878077.916 4  23757082.583    23757084.110    23757084.934
        33.000          29.900
 116563018.994 7  90660158.798 5  21805526.721    21805527.165    21805534.827
        43.400          35.700
 113870124.773 5  88565688.110 5  21294287.857    21294284.071    21294297.073
        33.700          34.900
 143120970.014 5                  27235014.804
        32.800
 25  1  1 19 21 15.0000000  0 26E31G07G30G08G27G04R19E24R10E09G09E04
                                R07R09S35G14S31E05E06S33R08R11R21R01
                                R20E26
 124227523.710 8                  23639700.765
        48.700
 108678722.869 8  84684671.86648  20680861.337    20680860.8374   20680862.0184
        49.400          48.1004
 117336897.860 8  91431349.03747  22328465.150    22328464.4444   22328468.0594
        50.200          42.6004
 106372093.026 8  82887405.48746  20241917.920    20241917.3534   20241919.4104
        48.400          40.8004
 116611604.662 6  90866210.89244  22190455.421    22190455.4794   22190459.5604
        38.100          24.2004
 121993105.171 5  95059659.35141  23214522.395    23214522.2524   23214540.4484
        35.300           9.1004
                  93148068.638 5                                  22388194.029
                        34.600
 143564297.244 6                  27319375.527
        38.900
 106722908.199 7                  20020946.154    20020946.355
        47.700
 128186685.438 7                  24393117.458
        45.500
 113792594.336 7  88669534.91847  21654027.360    21654026.9184   21654034.6274
        44.900          42.5004
 129069359.810 6                  24561073.528
        39.900
 125011914.323 6                  23353274.325    23353274.883
        38.400
                  90376771.605 5                                  21760290.079
                        34.800


 123885723.430 5  96534362.68742  23574669.980    23574669.9274   23574676.6964
        35.800          15.4004
 198901130.416 7                  37849644.307
        43.400
 137419515.362 5                  26150064.013
        34.200
 125389695.230 7                  23860871.880
        47.000
 202047600.479 7                  38448392.619
        45.900
 112089504.448 7  87180734.075 7  20931930.999    20931931.285    20931941.870
        42.100          43.100
 114610658.983 7  89141659.789 6  21447827.264    21447828.531    21447831.327
        46.300          41.300
 127063063.258 4                  23744795.218    23744792.187
        27.100
 116542414.079 7  90644132.824 6  21801673.809    21801674.951    21801679.622
        42.600          36.100
 113829038.917 5  88533732.402 5  21286601.775    21286601.139    21286608.722
        31.300          30.500
 143094981.940 5                  27230066.780
        33.600
 25  1  1 19 21 30.0000000  0 26E31G07G30G08G27G04R19E33E24R10E09G09
                                E04R09S35G14S31E05E06S33R08R11R21R01
                                R20E26
 124219506.129 8                  23638175.169
        48.200
 108660890.062 7  84670776.17248  20677467.743    20677467.2344   20677468.4594
        47.500          48.1004
 117297078.789 7  91400321.20247  22320887.181    22320886.5024   22320891.4094
        47.200          42.0004
 106383845.815 8  82896563.51346  20244154.352    20244153.7854   20244156.3134
        48.000          41.9004
 116654329.323 6  90899502.79844  22198584.501    22198584.5234   22198589.8504
        36.600          24.8004


                  93168178.223 5                                  22393026.628
                        31.400


 143533026.754 6                  27313426.390
        41.100
 106729646.875 7                  20022210.817    20022210.662
        46.700
 128181935.238 7                  24392213.574
        46.300
 113836097.305 7  88703433.25247  21662306.756    21662306.3364   21662313.8634
        42.700          42.7004
 129103292.957 6                  24567530.653
        41.300
                                                  21766648.123



 123846566.183 5  96503850.47241  23567246.415    23567246.3174   23567225.6184
        33.100          10.5004
 198901121.734 7                  37849646.932
        45.100
 137381847.095 6                  26142895.973
        37.400
 125405045.757 8                  23863793.076
        48.500
 202047612.731 7                  38448394.877
        44.700
 112128301.907 7  87210909.738 7  20939177.795    20939179.168    20939185.407
        43.700          44.300
 114579842.048 7  89117690.974 7  21442060.936    21442060.661    21442065.581
        45.900          42.900


 116522001.579 6  90628256.358 5  21797850.362    21797850.185    21797858.616
        37.500          34.200
 113788102.099 5  88501892.674 5  21278946.290    21278946.138    21278958.241
        32.700          33.100
 143069068.109 5                  27225133.392
        32.100
 25  1  1 19 21 45.0000000  0 27E31G07G02G30G08G27G04R19E33E24R10E09
                                G09E04R07R09S35G14S31E05E06S33R08R11
                                R01R20E26
 124211533.572 8                  23636657.873
        48.800
 108643128.107 7  84656935.71548  20674088.764    20674088.2684   20674088.2704
        47.800          48.0004
 127634730.732 5                  24288080.018
        30.000
 117257292.493 8  91369318.87447  22313317.002    22313316.3454   22313320.0094
        49.300          42.6004
 106395749.271 7  82905838.94647  20246419.722    20246419.1414   20246421.0914
        47.500          42.1004
 116697154.558 5  90932873.08044  22206733.718    22206733.6654   22206738.3094
        34.900          25.8004
 122104638.480 5                  23235739.530
        31.500
                  93188429.977 5                                  22397896.395
                        34.800


 143501782.930 6                  27307478.607
        36.500
 106736440.624 7                  20023484.936    20023484.578
        47.400
 128177290.354 7                  24391329.968
        47.000
 113879689.945 7  88737401.47346  21670601.867    21670601.4654   21670609.7064
        42.600          40.7004
 129137297.325 6                  24574000.537
        41.500
 125143996.459 5                  23377945.034    23377943.720
        34.000
 116266851.410 5                  21773019.041    21773013.746
        32.100




 198901111.945 7                  37849645.475
        43.900
 137344227.964 5                  26135737.609
        34.900
 125420495.989 7                  23866732.596
        46.700
 202047623.938 7                  38448392.444
        45.400
 112167251.097 7  87241203.471 7  20946451.779    20946453.063    20946460.066
        43.800          44.100
 114549056.718 7  89093746.848 7  21436299.180    21436299.221    21436303.595
        45.800          42.700
 116501777.454 6  90612526.476 5  21794071.087    21794068.985    21794073.607
        38.300          31.700
 113747310.812 5  88470166.216 6  21271320.423    21271319.056    21271329.380
        31.800          37.200
 143043224.734 4                  27220215.145
        29.300
 25  1  1 19 22  0.0000000  0 27E31G07G02G30G08G27G04R19E33E24R10E09
                                G09E04R09S35G14S31E05E06S33R08R11R21
                                R01R20E26
 124203603.257 8                  23635149.226
        48.600
 108625434.297 8  84643148.34848  20670721.453    20670720.9534   20670721.2284
        48.600          48.7004
 127590155.777 4                  24279595.030
        28.800
 117217536.429 7  91338340.12246  22305751.358    22305750.7154   22305754.0234
        47.800          41.6004
 106407800.447 8  82915229.49547  20248713.093    20248712.4994   20248714.4524
        49.600          43.1004
 116740077.291 6  90966319.39844  22214909.395    22214909.3114   22214907.5304
        38.500          26.0004
 122160452.222 5                  23246379.530
        32.900
                  93208821.443 5                                  22402799.717
                        35.300


 143470563.083 5                  27301542.845
        33.400
 106743286.382 7                  20024769.143    20024768.367
        47.100
 128172748.080 7                  24390465.503
        46.000
 113923369.147 7  88771437.11546  21678913.498    21678913.0694   21678921.9034
        43.900          41.4004
 129171370.009 6                  24580485.380
        41.900
 116300907.145 6                  21779398.182    21779398.530
        40.000


 123768473.065 4                  23552359.257
        29.500
 198901098.728 7                  37849638.709
        42.800
 137306655.420 5                  26128587.464
        34.300
 125436043.105 7                  23869692.128
        47.800
 202047631.757 7                  38448400.887
        45.400
 112206348.757 7  87271612.739 7  20953753.128    20953755.223    20953761.492
        44.500          45.300
 114518300.214 7  89069825.142 6  21430540.518    21430541.247    21430547.539
        44.100          41.900
 126865865.808 5                  23707924.488    23707922.756
        34.700
                  90596941.285 4                                  21790324.540
                        29.600
 113706662.764 5  88438551.253 5  21263715.828    21263713.457    21263724.500
        30.900          32.600
 143017434.627 5                  27215312.732
        33.500
 25  1  1 19 22 15.0000000  0 27E31G07G30G08G27G04R19E33E24R10E09G09
                                E04R07R09S35G14S31E05E06S33R08R11R21
                                R01R20E26
 124195726.105 8                  23633650.144
        48.700
 108607819.859 8  84629422.82348  20667369.596    20667369.1054   20667369.4114
        48.900          49.2004
 117177821.753 7  91307393.61546  22298194.377    22298193.7114   22298195.7474
        46.700          41.8004
 106420010.170 8  82924743.58247  20251036.719    20251036.1294   20251037.6794
        49.400          44.1004
 116783108.265 5  90999849.98343  22223088.333    22223088.0124   22223096.9274
        33.600          23.3004
 122216306.929 5                  23257010.108
        33.400
                  93229361.205 5                                  22407737.019
                        32.000


 143439378.070 3                  27295629.066
        23.800
 106750195.328 7                  20026065.365    20026065.200
        46.700
 128168319.494 7                  24389623.064
        46.200
 113967145.500 6  88805548.46246  21687243.948    21687243.4794   21687253.1444
        41.000          40.8004
 129205521.804 6                  24586983.913
        41.400
 125276039.391 5  97437047.607 5  23402619.156    23402620.164    23402650.110
        35.300          35.000
 116335000.484 6                  21785784.705    21785784.249
        40.300


 123729418.667 4                  23544890.892
        25.600
 198901092.824 7                  37849633.535
        42.400
 137269140.559 5                  26121448.253
        30.700
 125451698.034 7                  23872670.306
        46.500
 202047647.188 7                  38448409.794
        47.500
 112245605.372 7  87302145.522 7  20961087.043    20961088.013    20961092.847
        45.800          45.800
 114487583.713 7  89045934.530 7  21424796.603    21424796.334    21424800.816
        45.400          43.200


 116461898.634 5                  21786640.129    21786620.792
        32.000
 113666169.123 5  88407056.288 5  21256142.479    21256141.618    21256154.661
        30.800          34.200
 142991738.680 5                  27210422.843
        33.600
 25  1  1 19 22 30.0000000  0 26E31G07G30G08G27G04E33E24R10E09G09E04
                                R07R09S35G14S31E05E06S33R08R11R21R01
                                R20E26
 124187888.672 8                  23632158.631
        49.500
 108590271.715 8  84615748.92948  20664030.432    20664029.9594   20664030.0934
        50.600          50.6004
 117138135.370 7  91276469.17246  22290641.855    22290641.1894   22290642.7924
        45.000          39.9004
 106432364.911 8  82934370.64447  20253387.813    20253387.2234   20253388.7784
        49.400          45.4004
 116826233.551 5  91033454.13044  22231297.449    22231297.0114   22231303.4454
        34.100          27.3004






 106757154.180 7                  20027369.684    20027369.685
        46.700
 128163991.317 7                  24388799.558
        46.300
 114011005.405 7  88839724.93346  21695591.488    21695591.0104   21695600.0764
        42.000          40.7004
 129239739.172 6                  24593496.605
        40.400
 125342081.763 6  97488413.719 5  23414958.459    23414962.307    23414990.375
        41.100          34.500
 116369118.237 7  90509276.424 5  21792174.052    21792172.538    21792185.658
        42.200          35.000


 123690391.616 5  96382052.84541  23537478.725    23537478.4574   23537481.0464
        32.600           9.1004
 198901081.238 7                  37849632.163
        43.300
 137231670.487 5                  26114317.419
        31.000
 125467447.341 7                  23875667.354
        46.900
 202047656.002 7                  38448406.347
        46.000
 112285007.000 6  87332791.199 7  20968440.688    20968441.484    20968450.128
        41.500          44.900
 114456893.700 7  89022064.495 7  21419051.884    21419051.846    21419056.073
        45.900          43.000
 126734332.150 5                  23683372.175
        31.900


 113625817.542 5  88375671.826 5  21248603.172    21248601.340    21248611.284
        35.300          35.200
 142966108.812 5                  27205547.028
        33.000
 25  1  1 19 22 45.0000000  0 27E31G07G02G30G08G27G04E33E24R10E09G09
                                E04R07R09S35G14S31E05E06S33R08R11R21
                                R01R20E26
 124180099.448 8                  23630676.113
        49.900
 108572798.514 8  84602133.42648  20660705.047    20660704.5654   20660705.1154
        50.200          50.6004
 127456482.233 5                  24254161.125
        32.600
 117098485.982 7  91245573.53546  22283095.952    22283095.3004   22283097.0544
        45.800          39.4004
 106444873.043 8  82944117.23147  20255767.823    20255767.2384   20255770.3104
        48.900          47.6004
 116869461.459 5  91067138.21644  22239525.999    22239525.7004   22239529.4554
        34.800          29.7004






 106764171.035 7                  20028687.004    20028686.747
        47.600
 128159772.132 7                  24387996.771
        46.400
 114054956.948 7  88873972.80946  21703955.737    21703955.2054   21703963.3784
        43.100          40.7004
 129274030.468 6                  24600022.573
        40.100
 125408127.061 6  97539782.088 5  23427296.890    23427297.497    23427327.242
        40.700          32.900
 116403268.740 7  90535837.904 5  21798568.020    21798567.178    21798578.441
        42.900          33.400


 123651400.677 6  96351670.41442  23530056.428    23530056.3084   23530063.2414
        36.500          13.8004
 198901071.752 6                  37849624.342
        41.200
 137194253.698 5                  26107197.921
        32.100
 125483299.457 7                  23878683.973
        45.200
 202047668.443 7                  38448413.237
        45.900
 112324561.997 6  87363556.179 7  20975827.093    20975825.573    20975836.462
        36.700          45.200
 114426238.718 7  88998221.725 7  21413314.310    21413315.202    21413320.573
        46.300          44.600




 113585616.664 5  88344404.772 5  21241079.220    21241079.651    21241090.238
        30.300          32.800
 142940553.844 5                  27200686.867
        34.700
 25  1  1 19 23  0.0000000  0 27E31G07G02G30G08G27G04E33E24R10E09G09
                                E04R07R09S35G14S31E05E06S33R08R11R21
                                R01R20E26
 124172360.659 8                  23629203.993
        50.000
 108555402.862 8  84588578.36748  20657394.952    20657394.4794   20657394.8764
        50.600          50.5004
 127411939.092 5                  24245684.516
        34.900
 117058876.132 7  91214708.72046  22275558.783    22275558.1174   22275559.1954
        45.000          39.3004
 106457536.681 8  82953984.99048  20258177.904    20258177.3014   20258181.8704
        48.900          49.0004
 116912793.888 5  91100903.74344  22247771.077    22247770.7734   22247775.3294
        35.600          28.2004




 143345964.466 6                  27277833.315
        38.900
 106771248.536 7                  20030013.732    20030013.183
        46.400
 128155664.307 7                  24387215.285
        46.500
 114099002.125 7  88908293.62647  21712336.814    21712336.2644   21712344.0534
        45.800          42.1004
 129308397.831 7                  24606563.265
        42.600
 125474176.615 6  97591153.737 5  23439638.310    23439638.607    23439664.515
        40.600          34.000




 123612447.909 6  96321317.68742  23522643.857    23522643.7904   23522651.1384
        38.100          15.0004
 198901067.904 7                  37849630.642
        42.700
 137156892.965 5                  26100089.647
        34.300
 125499256.674 7                  23881720.310
        45.800
 202047685.230 7                  38448414.351
        45.400
 112364272.043 6  87394441.624 7  20983243.814    20983241.536    20983252.295
        41.200          44.200
 114395621.215 7  88974408.128 7  21407582.894    21407584.741    21407590.135
        45.100          44.900


                  90536088.911 5                                  21775690.489
                        33.200
                  88313257.180 5                                  21233600.235
                        35.100
 142915076.340 5                  27195840.013
        32.100
 25  1  1 19 23 15.0000000  0 27E31G07G02G30G08G27G04E33E24R10E09G09
                                E04R07R09S35G14S31E05E06S33R08R11R21
                                R01R20E26
 124164663.489 8                  23627739.246
        50.400
 108538076.241 8  84575077.09248  20654097.320    20654096.8294   20654097.6714
        49.000          49.5004
 127367398.711 5                  24237217.218
        34.400
 117019297.306 7  91183868.08247  22268028.148    22268027.5054   22268028.0844
        46.000          42.2004
 106470346.904 8  82963966.98248  20260615.149    20260614.5594   20260620.4344
        48.600          49.6004
 116956221.671 6  91134743.55744  22256035.606    22256035.3114   22256037.7024
        37.400          26.1004
 122440329.076 6  95407897.43242  23299569.219    23299569.2114   23299584.8744
        37.200          12.6004


 143314887.335 6                  27271914.382
        38.000
 106778378.039 7                  20031352.380    20031350.842
        46.500
 128151659.141 7                  24386452.696
        47.100
 114143131.814 7  88942680.31747  21720734.305    21720733.7734   21720739.9894
        46.800          43.0004
 129342832.308 7                  24613113.602
        42.800
 125540221.438 6  97642521.786 5  23451974.408    23451974.397    23452001.373
        38.000          33.000
 116471666.451 7                  21811378.670    21811379.803
        46.700


 123573524.778 6  96290988.13143  23515238.607    23515238.3084   23515243.9364
        40.300          19.2004
 198901059.957 7                  37849625.567
        42.100
 137119579.616 5                  26092988.275
        35.600
 125515310.098 7                  23884775.741
        45.400
 202047697.593 7                  38448413.076
        45.000
 112404127.699 7  87425440.328 7  20990684.137    20990686.058    20990694.309
        43.000          43.400
 114365032.261 7  88950616.760 7  21401860.655    21401860.269    21401866.521
        44.600          45.700
 126536946.057 5                  23646454.660    23646454.692
        35.500
 116384548.917 6  90521247.502 5  21772116.253    21772113.458    21772121.200
        40.000          34.200
                  88282222.597 6                                  21226140.276
                        39.600


 25  1  1 19 23 30.0000000  0 28G21E31G07G30G08G27G04R19E33E24R10E09
                                G09E04R07R09S35G14S31E05E06S33R08R11
                                R21R01R20E26
 121521454.918 5                  23124765.666
        34.500
 124157010.198 8                  23626282.897
        50.400
 108520821.121 8  84561631.55747  20650814.294    20650813.7984   20650813.8374
        48.700          47.8004
 116979752.002 7  91153053.56247  22260503.041    22260502.4154   22260504.4404
        47.900          43.6004
 106483305.865 8  82974064.87648  20263080.835    20263080.2904   20263086.8914
        48.300          49.6004
 116999746.826 6  91168659.25843  22264317.701    22264317.4334   22264318.4094
        37.900          23.9004
 122496341.567 4  95451543.25041  23310226.589    23310226.5814   23310247.0064
        28.500          11.9004
                  93334166.684 5                                  22432933.070
                        33.100


 143283836.265 5                  27266002.947
        35.800
 106785561.676 7                  20032700.312    20032699.228
        46.500
 128147759.042 7                  24385710.092
        46.500
 114187348.020 7  88977134.39847  21729148.174    21729147.6564   21729153.8754
        46.900          43.0004
 129377336.086 7                  24619679.309
        43.200
 125606263.156 6  97693887.337 5  23464311.956    23464312.726    23464340.489
        40.200          32.700
 116505907.249 7                  21817787.937    21817788.103
        42.600


 123534633.636 7  96260683.46043  23507839.193    23507838.9394   23507843.2444
        42.700          21.1004
 198901050.388 7                  37849621.659
        42.700
 137082316.116 6                  26085896.863
        38.000
 125531462.011 7                  23887849.685
        45.200
 202047709.456 7                  38448418.447
        46.100
 112444131.125 7  87456554.015 7  20998154.560    20998155.761    20998166.229
        43.100          44.200
 114334474.354 7  88926849.504 7  21396142.511    21396141.511    21396147.700
        45.000          46.300
 126471149.450 6                  23634162.432    23634159.241
        38.200
 116365656.439 6  90506553.404 5  21768581.585    21768580.818    21768588.135
        39.600          35.700
                  88251303.479 6                                  21218704.782
                        40.000


 25  1  1 19 23 45.0000000  0 28G21E31G07G30G08G27G04R19E33E24R10E09
                                G09E04R07R09S35G14S31E05E06S33R08R11
                                R21R01R20E26
 121481546.883 6                  23117169.793
        36.000
 124149403.556 8                  23624835.275
        50.800
 108503640.540 8  84548244.08847  20647544.461    20647543.9474   20647543.8734
        50.400          47.6004
 116940243.277 8  91122267.54247  22252984.593    22252983.9504   22252987.5454
        48.900          44.6004
 106496416.216 7  82984280.74147  20265575.190    20265574.6494   20265581.6414
        46.800          47.6004
 117043371.788 6  91202652.76743  22272619.611    22272619.4244   22272617.6344
        39.100          19.3004
 122552386.723 5  95495214.48641  23320898.626    23320899.0464   23320912.3184
        31.400           6.4004
                  93355553.585 5                                  22438068.415
                        34.600


 143252814.006 5                  27260102.277
        35.400
 106792802.103 7                  20034057.883    20034057.184
        46.500
 128143966.870 7                  24384988.284
        46.100
 114231653.231 7  89011657.82846  21737578.725    21737578.2204   21737584.4894
        45.200          41.3004
 129411911.798 7                  24626259.168
        42.500
 125672304.063 6  97745252.374 5  23476647.752    23476647.321    23476680.021
        36.800          34.300
 116540179.651 6                  21824204.732    21824203.960
        40.500


 123495777.282 6  96230405.87743  23500443.189    23500442.9794   23500448.8264
        40.400          20.4004
 198901042.450 7                  37849622.723
        42.900
 137045105.620 6                  26078816.369
        39.900
 125547715.134 7                  23890941.874
        44.900
 202047721.982 7                  38448417.351
        45.100
 112484284.561 7  87487784.427 7  21005654.847    21005654.301    21005667.390
        42.100          45.000
 114303950.174 7  88903108.466 7  21390431.311    21390432.782    21390436.321
        45.100          46.800
 126405349.328 6                  23621860.156    23621865.365
        37.100
 116346956.164 6  90492008.807 6  21765085.635    21765083.844    21765089.842
        39.900          36.300
                  88220502.271 6                                  21211296.801
                        39.600


 25  1  1 19 24  0.0000000  0 27G21E31G07G30G08G27G04R19E33E24R10E09
                                G09E04R07R09S35G14S31E05E06S33R08R11
                                R21R01E26
 121441698.530 6                  23109588.707
        36.300
 124141839.276 8                  23623395.818
        50.600
 108486530.544 8  84534911.62648  20644288.644    20644288.1354   20644287.6384
        50.700          48.1004
 116900767.144 8  91091506.91047  22245473.154    22245472.4884   22245475.7644
        48.700          44.7004
 106509673.562 7  82994611.14747  20268097.936    20268097.4094   20268103.6814
        45.100          45.8004
 117087091.977 6  91236720.49642  22280937.841    22280937.6984   22280939.1134
        37.800          16.2004
 122608459.770 5  95538907.59541  23331580.243    23331580.7614   23331583.0314
        35.100           6.9004
                  93377079.167 5                                  22443243.106
                        34.800


 143221816.353 5                  27254203.587
        34.000
 106800095.422 7                  20035425.656    20035424.977
        45.100
 128140278.461 7                  24384286.617
        45.200
 114276042.823 7  89046247.02046  21746027.091    21746026.5734   21746031.2364
        45.400          41.2004
 129446555.036 7                  24632852.730
        42.200
 125738339.460 5  97796613.154 5  23488982.837    23488980.463    23489013.749
        34.900          35.000
 116574479.332 6                  21830627.964    21830629.034
        41.700


 123456951.580 6  96200152.20842  23493055.906    23493055.7634   23493059.3494
        38.600          17.2004
 198901031.230 7                  37849622.253
        43.000
 137007944.109 6                  26071744.664
        40.000
 125564065.218 7                  23894052.759
        42.400
 202047731.964 7                  38448423.146
        44.900
 112524583.023 7  87519127.516 7  21013179.776    21013181.253    21013191.480
        43.100          42.900
 114273455.583 7  88879390.515 7  21384722.900    21384723.893    21384728.871
        44.200          46.000
 126339541.584 6                  23609567.502    23609568.908
        36.400
 116328444.257 6  90477610.712 6  21761618.793    21761618.162    21761628.520
        37.200          36.800


 25  1  1 19 24 15.0000000  0 28G21E31G07G30G08G27G04R19E33E24R10E09
                                G09E04R07R09S35G14S31E05E06S33R08R11
                                R21R01R20E26
 121401914.913 5                  23102017.651
        30.500
 124134321.915 8                  23621965.423
        51.000
 108469495.950 8  84521637.91348  20641047.245    20641046.7454   20641046.1904
        50.500          48.2004
 116861328.469 7  91060775.46447  22237968.387    22237967.7034   22237969.8194
        47.400          43.6004
 106523082.349 7  83005059.55947  20270650.143    20270649.6114   20270654.0174
        44.100          43.8004
 117130911.665 5  91270865.76942  22289278.063    22289277.9964   22289281.7884
        35.200          15.1004
 122664565.260 5                  23342254.663
        34.600
                  93398746.421 5                                  22448451.094
                        33.100


 143190847.901 5                  27248312.612
        34.800
 106807446.154 7                  20036803.465    20036802.823
        44.200
 128136698.512 7                  24383605.458
        44.200
 114320521.086 7  89080905.28447  21754490.817    21754490.2944   21754495.7184
        46.200          42.7004
 129481270.264 7                  24639458.771
        43.300
 125804373.755 6  97847972.910 5  23501319.639    23501319.807    23501348.966
        40.000          34.600




 123418161.213 6  96169926.13641  23485672.948    23485672.8014   23485676.4274
        38.600          11.8004
 198901022.362 7                  37849618.582
        43.300
 136970836.454 6                  26064683.828
        40.500
 125580516.800 6                  23897183.726
        37.300
 202047744.131 7                  38448421.174
        45.200
 112565030.756 7  87550586.644 6  21020732.765    21020733.274    21020738.689
        43.000          37.100
 114242995.329 7  88855699.184 7  21379027.405    21379026.496    21379027.977
        45.700          44.900
 126273731.522 6                  23597279.321    23597276.834
        36.300
 116310125.352 6  90463362.657 5  21758195.629    21758194.616    21758198.638
        39.900          33.700
                  88159249.871 6                                  21196569.333
                        40.400


 25  1  1 19 24 30.0000000  0 28G21E31G07G30G08G27G04R19E33E24R10E09
                                G09E04R07R09S35G14S31E05E06S33R08R11
                                R21R01R20E26
 121362193.097 5                  23094462.241
        33.300
 124126848.169 8                  23620542.872
        51.400
 108452533.716 8  84508420.59848  20637819.655    20637819.1774   20637818.6404
        51.100          48.6004
 116821924.218 7  91030070.85646  22230469.699    22230469.0244   22230469.9784
        46.300          41.8004
 106536639.193 7  83015623.33547  20273230.062    20273229.5044   20273232.9904
        43.500          42.8004
 117174827.242 6  91305085.67241  22297635.710    22297635.5944   22297641.4244
        36.500          11.6004
 122720699.551 5                  23352933.608
        30.900
                  93420552.784 5                                  22453691.710
                        31.400


 143159905.428 6                  27242424.060
        36.900
 106814851.309 7                  20038193.834    20038193.743
        45.500
 128133223.835 7                  24382945.102
        43.100
 114365084.445 7  89115629.87047  21762970.135    21762969.6214   21762976.8484
        45.800          43.2004
 129516054.045 7                  24646078.246
        43.900
 125870402.946 7  97899328.763 5  23513656.162    23513659.795    23513682.398
        42.100          35.100




 123379402.950 6  96139725.06241  23478297.172    23478297.0964   23478299.8014
        38.500          10.1004
 198901011.107 7                  37849619.883
        43.700
 136933779.629 6                  26057632.124
        40.900
 125597066.532 6                  23900333.877
        37.300
 202047753.963 7                  38448427.672
        45.900
 112605624.270 7  87582159.202 6  21028314.199    21028314.991    21028322.333
        42.600          36.900
 114212565.945 7  88832031.950 7  21373323.718    21373326.241    21373334.014
        42.400          44.000


 116291996.458 6  90449262.398 5  21754796.895    21754799.760    21754806.345
        38.700          32.000
                  88128800.248 6                                  21189248.384
                        40.600


 25  1  1 19 24 45.0000000  0 28G21E31G07G30G08G27G04R19E33E24R10E09
                                G09E04R07R09S35G14S31E05E06S33R08R11
                                R21R01R20E26
 121322533.910 4                  23086911.819
        27.400
 124119418.158 8                  23619129.111
        51.900
 108435644.252 8  84495259.98148  20634605.710    20634605.2284   20634605.2434
        51.600          49.1004
 116782554.776 7  90999393.38246  22222977.277    22222976.5984   22222977.4884
        44.800          39.5004
 106550344.084 7  83026302.46447  20275838.363    20275837.8054   20275841.0054
        45.200          43.3004
 117218838.520 6  91339380.07242  22306008.431    22306008.2574   22306018.4864
        36.200          12.7004
 122776862.356 4                  23363617.629
        24.800
 120140328.831 5                  22458964.747    22458965.453
        31.000


 143128989.158 6                  27236540.526
        38.700
 106822310.346 7                  20039594.021    20039593.639
        45.600
 128129854.673 7                  24382303.292
        44.200
 114409732.675 7  89150420.59947  21771467.125    21771466.6434   21771473.6954
        46.700          42.9004
 129550906.394 7                  24652710.666
        44.200
 125936426.835 7  97950680.598 5  23525990.260    23525993.272    23526017.382
        42.600          35.900
 116677560.104 7  90749130.860 5  21849934.719    21849935.121    21849939.020
        43.600          31.800


 123340676.962 6  96109549.0884   23470927.158    23470927.0384   23470929.4764
        37.400           5.6004
 198900999.021 7                  37849615.975
        43.100
 136896773.982 6                  26050590.374
        40.500
 125613714.521 6                  23903500.942
        40.000
 202047762.682 7                  38448430.337
        46.400
 112646363.082 7  87613844.788 6  21035925.530    21035923.577    21035935.007
        43.600          38.800
 114182167.898 6  88808388.999 7  21367638.861    21367637.573    21367645.949
        40.900          44.200


 116274057.904 6  90435310.177 4  21751444.580    21751444.219    21751452.288
        39.600          29.400
                  88098467.970 6                                  21181954.689
                        40.600
 142738762.982 5                  27162283.242
        33.000
 25  1  1 19 25  0.0000000  0 26G21E31G07G30G08G27G04E33E24R10E09G09
                                E04R07R09S35G14S31E05E06S33R08R11R21
                                R01E26
 121282943.730 4                  23079378.174
        25.100
 124112037.858 8                  23617724.471
        51.900
 108418833.976 8  84482161.08148  20631406.492    20631406.0104   20631406.5214
        50.800          48.8004
 116743226.448 7  90968747.95646  22215492.919    22215492.1954   22215492.6234
        45.600          37.1004
 106564202.861 7  83037101.48747  20278475.719    20278475.1694   20278479.3974
        45.300          45.1004
 117262951.234 5  91373753.49042  22314405.054    22314404.8944   22314415.6924
        35.200          16.6004
 122833059.497 4                  23374298.819
        24.600


 143098105.077 6                  27230662.419
        38.900
 106829830.178 7                  20041005.686    20041005.558
        47.100
 128126597.166 7                  24381683.566
        45.900
 114454471.516 7  89185281.92646  21779979.118    21779978.5914   21779987.9564
        42.600          41.7004
 129585833.165 7                  24659356.468
        42.300
 126002451.071 6  98002032.618 6  23538325.321    23538323.123    23538353.095
        39.000          37.100
 116711984.548 7  90775905.414 5  21856381.324    21856381.568    21856387.117
        44.400          33.600


 123301989.324 6  96079402.95541  23463564.848    23463564.7994   23463566.6734
        40.800          11.1004
 198900992.234 7                  37849617.987
        43.100
 136859825.839 6                  26043559.078
        41.000
 125630466.753 6                  23906688.219
        40.300
 202047776.258 7                  38448427.944
        44.600
 112687252.637 6  87645647.736 6  21043557.501    21043557.849    21043570.379
        41.500          40.600
 114151807.163 7  88784775.092 7  21361961.150    21361958.706    21361964.959
        43.600          44.200


 116256316.217 7                  21748127.171    21748127.858
        43.400
 142713870.870 5                  27157543.181
        34.200
 25  1  1 19 25 15.0000000  0 27E31G07G02G30G08G27G04E33E24R10E09G09
                                E04R07R09S35G14S31E05E06S33R08R11R21
                                R01R20E26
 124104698.212 8                  23616327.611
        50.900
 108402094.145 8  84469117.08648  20628221.215    20628220.7374   20628221.0404
        49.600          48.1004
 127011328.562 5                  24169451.296
        35.000
 116703930.415 7  90938127.68046  22208014.835    22208014.0804   22208014.0804
        47.100          37.2004
 106578206.335 8  83048013.26247  20281141.148    20281140.6074   20281145.2624
        48.500          47.1004






 143067244.199 6                  27224788.399
        36.900
 106837400.953 7                  20042423.919    20042423.523
        44.300
 128123442.305 7                  24381083.170
        44.700
 114499291.541 6  89220206.50946  21788510.269    21788509.7334   21788517.1334
        39.300          41.3004
 129620825.200 6                  24666016.244
        40.300
 126068465.636 5  98053377.283 6  23550654.267    23550652.576    23550685.781
        33.300          36.300
 116746434.697 7  90802699.940 5  21862831.707    21862833.199    21862839.159
        44.100          33.300


 123263331.120 6  96049279.83042  23456207.966    23456207.9834   23456210.2504
        40.800          12.9004
 198900980.360 7                  37849613.060
        42.400
 136822926.392 6                  26036537.099
        40.300
 125647314.128 7                  23909896.097
        43.000
 202047785.957 7                  38448431.495
        46.500
 112728283.494 6  87677560.564 6  21051220.788    21051219.741    21051231.270
        41.100          40.800
 114121474.602 7  88761183.174 7  21356283.057    21356280.926    21356288.426
        44.700          43.000
 126010456.986 5                  23548080.911    23548083.060
        35.800
 116238762.136 7                  21744844.076    21744844.109
        45.600
                  88038165.533 6                                  21167456.956
                        40.400
 142689049.094 5                  27152820.379
        33.100
 25  1  1 19 25 30.0000000  0 26E31G07G02G30G08G27G04E33E24R10E09G09
                                E04R07R09S35G14S31E05E06S33R08R11R21
                                R01E26
 124097405.303 8                  23614940.016
        51.300
 108385430.810 8  84456132.67547  20625050.632    20625050.1414   20625050.0874
        48.000          47.1004
 126966863.159 6                  24160991.621
        40.600
 116664673.109 7  90907537.59646  22200544.220    22200543.4474   22200542.9024
        45.500          36.0004
 106592360.517 8  83059042.47147  20283833.929    20283833.3574   20283837.8944
        49.300          47.8004






 143036412.707 6                  27218919.163
        36.000
 106845029.401 7                  20043856.059    20043855.046
        44.100
 128120396.327 7                  24380503.809
        45.800
 114544198.675 7  89255198.96046  21797056.540    21797056.0224   21797062.8024
        43.400          41.6004
 129655888.429 7                  24672687.776
        43.200
 126134476.576 4  98104719.075 6  23562981.438    23562982.547    23563020.363
        29.900          38.500
 116780916.988 7  90829519.381 5  21869289.664    21869290.879    21869297.546
        44.600          33.600


 123224708.451 6  96019184.51641  23448860.965    23448860.9654   23448860.7134
        41.000          10.3004
 198900970.574 7                  37849616.896
        44.500
 136786081.992 6                  26029525.778
        38.500
 125664262.749 6                  23913121.097
        41.900
 202047796.777 7                  38448426.084
        43.200
 112769461.429 7  87709587.799 6  21058910.475    21058911.156    21058918.105
        42.800          39.700
 114091176.656 7  88737618.098 6  21350613.211    21350612.442    21350619.088
        46.600          40.900


 116221402.189 7  90394365.652 5  21741593.814    21741595.229    21741602.752
        43.000          34.100
 142664304.078 5                  27148108.336
        32.700
 25  1  1 19 25 45.0000000  0 27G21E31G07G02G30G08G27G04E33E24R10E09
                                G09E04R07R09S35G14S31E05E06S33R08R11
                                R21R01E26
 121164567.881 4                  23056847.529
        28.100
 124090158.173 8                  23613560.829
        50.900
 108368843.480 7  84443207.46347  20621894.373    20621893.8504   20621893.8784
        46.400          45.7004
 126922409.253 5                  24152530.613
        35.800
 116625453.738 7  90876977.07346  22193082.186    22193081.4354   22193081.0704
        47.100          37.8004
 106606664.295 8  83070188.26247  20286556.039    20286555.4494   20286558.2104
        49.200          47.0004
 117395817.414 5  91477361.91142  22339691.883    22339691.5574   22339706.9394
        30.100          13.6004




 143005609.660 5                  27213058.499
        35.300
 106852714.194 7                  20045298.956    20045298.875
        46.300
 128117458.363 7                  24379945.132
        46.500
 114589191.568 7  89290258.25447  21805617.192    21805616.7014   21805624.3984
        46.700          43.2004
 129691021.816 6                  24679372.716
        41.000
                  98156056.976 6                  23575325.665    23575350.026
                        38.000
 116815430.536 7  90856363.298 5  21875754.054    21875755.866    21875759.277
        45.800          32.100


 123186120.542 7  95989116.07741  23441518.793    23441518.7974   23441516.8874
        43.400           9.7004
 198900962.430 7                  37849617.478
        44.600
 136749291.976 6                  26022525.877
        38.400
 125681311.632 7                  23916365.085
        44.600
 202047809.245 7                  38448427.681
        44.500
 112810784.829 7  87741728.148 6  21066628.651    21066628.220    21066634.243
        42.600          40.300
 114060912.241 8  88714079.128 6  21344951.005    21344950.975    21344955.685
        49.000          40.300
 125878899.409 4                  23523489.266
        28.500
 116204235.780 7  90381013.964 6  21738384.315    21738384.434    21738393.281
        44.600          36.500
 142639635.062 5                  27143414.999
        34.800
 25  1  1 19 26  0.0000000  0 27E31G07G02G30G08G27G04R19E33E24R10E09
                                G09E04R07R09S35G14S31E05E06S33R08R11
                                R01R20E26
 124082956.130 8                  23612190.276
        50.300
 108352331.589 7  84430341.05247  20618751.889    20618751.3534   20618751.8564
        45.900          45.3004
 126877966.387 5                  24144074.479
        34.500
 116586271.970 7  90846445.84546  22185625.966    22185625.2204   22185626.1504
        47.900          40.4004
 106621116.838 8  83081449.99147  20289305.703    20289305.1184   20289307.9634
        49.800          47.6004


 123057874.001 5                  23417136.623
        30.000
                  93554313.561 5                                  22485843.960
                        30.600


 142974834.407 5                  27207202.590
        35.800
 106860455.192 7                  20046750.513    20046749.943
        45.100
 128114627.894 7                  24379406.064
        45.200
 114634269.271 7  89325383.65347  21814195.865    21814195.3784   21814202.6834
        46.800          45.1004
 129726224.461 6                  24686072.834
        36.400
 126266482.577 6  98207389.963 5  23587657.989    23587660.256    23587675.566
        38.400          35.000
 116849974.806 7                  21882222.950    21882223.415
        43.700


 123147566.787 7  95959074.06241  23434180.756    23434180.7484   23434179.7064
        42.500           9.5004
 198900953.975 7                  37849607.922
        43.600
 136712555.995 6                  26015534.275
        38.000
 125698460.020 7                  23919628.080
        45.300
 202047821.929 7                  38448438.954
        45.800
 112852252.714 6  87773980.866 7  21074371.331    21074370.405    21074378.213
        39.800          42.000
 114030680.792 7  88690565.853 6  21339291.404    21339292.660    21339296.730
        47.900          37.900
 116187262.267 7  90367812.329 6  21735209.161    21735209.131    21735218.832
        46.400          38.400
                  87948611.372 6                                  21145925.481
                        41.900
 142615041.616 6                  27138734.014
        36.900
 25  1  1 19 26 15.0000000  0 27E31G07G02G30G08G27G04R19E33E24R10E09
                                G09E04R07R09S35G14S31E05E06S33R08R11
                                R01R20E26
 124075799.121 8                  23610828.655
        50.100
 108335895.503 7  84417533.69947  20615623.395    20615622.8544   20615624.3684
        46.600          45.8004
 126833535.137 6                  24135619.641
        37.300
 116547128.051 8  90815944.10747  22178176.979    22178176.2554   22178179.0924
        50.100          42.3004
 106635717.999 8  83092827.50547  20292084.494    20292083.9094   20292087.0814
        49.000          47.9004


 123114212.861 5                  23427857.942
        34.200


 145978857.967 5                  27778848.214
        33.400
 142944087.054 4                  27201352.590
        28.600
 106868252.285 7                  20048213.077    20048212.329
        44.700
 128111904.950 7                  24378888.559
        46.200
 114679431.446 7  89360574.82647  21822789.620    21822789.1554   21822796.8554
        46.500          45.5004
 129761496.354 6                  24692783.781
        36.300
 126332475.483 5  98258717.700 5  23599975.983    23599978.418    23600000.646
        34.200          34.100
 116884549.729 7  90910134.565 5  21888696.388    21888696.607    21888700.453
        42.200          32.700


 123109047.266 6  95929058.9544   23426847.555    23426847.4174   23426849.4604
        36.400           4.7004
 198900945.799 7                  37849612.241
        42.900
 136675874.212 6                  26008554.927
        40.300
 125715707.897 7                  23922910.129
        46.100
 202047835.388 7                  38448440.376
        47.100
 112893864.570 7  87806345.575 7  21082141.983    21082142.939    21082151.628
        43.400          42.500
 114000482.422 7  88667078.220 5  21333640.797    21333641.803    21333644.264
        47.600          35.500
 116170481.717 7  90354760.844 6  21732069.336    21732069.242    21732078.049
        44.900          38.300
 113038633.149 5  87919002.020 7  21138796.995    21138798.109    21138806.206
        34.600          42.000
 142590524.084 6                  27134066.685
        36.000
 25  1  1 19 26 30.0000000  0 27E31G07G02G30G08G27G04E33E24R10E09G09
                                E04R07R09S35G14S31E05E06S33R08R11R21
                                R01R20E26
 124068687.247 8                  23609475.734
        49.300
 108319535.576 7  84404785.68547  20612510.116    20612509.5844   20612511.5464
        47.900          46.6004
 126789116.077 5                  24127167.279
        35.400
 116508022.356 8  90785472.16647  22170735.739    22170735.0334   22170737.8744
        51.000          44.2004
 106650467.733 8  83104320.81148  20294891.501    20294890.9344   20294894.1834
        48.400          48.4004
 117529672.609 6  91581638.76642  22365151.737    22365151.1744   22365168.5544
        39.300          16.2004
 123170579.801 5  95977103.66841  23438581.067    23438581.6754   23438595.3624
        32.000          10.0004
 145937920.340 5                  27771056.168
        30.800
 142913367.499 5                  27195511.172
        30.900
 106876105.631 7                  20049685.431    20049685.058
        42.800
 128109289.719 7                  24378391.533
        47.100
 114724677.877 7  89395831.67147  21831400.281    21831399.8164   21831406.8084
        46.400          45.0004
 129796837.299 6                  24699510.890
        37.100
 126398461.426 4  98310040.010 5  23612311.856    23612301.123    23612328.082
        25.100          33.500
 116919155.480 6  90937050.027 5  21895178.633    21895176.096    21895183.751
        41.300          35.900


 123070562.066 6  95899070.4984   23419523.859    23419523.6674   23419524.9514
        37.800           4.0004
 198900939.649 7                  37849602.408
        42.300
 136639247.025 6                  26001583.526
        39.300
 125733055.311 7                  23926210.886
        46.100
 202047848.761 7                  38448446.649
        47.500
 112935620.003 7  87838821.956 7  21089937.703    21089939.428    21089949.990
        43.500          43.400
 113970317.285 7  88643616.503 5  21327993.827    21327994.466    21327998.719
        44.100          34.500


 116153894.791 7  90341859.887 6  21728967.776    21728965.999    21728973.509
        45.900          36.200
 113000720.536 5  87889514.562 7  21131706.449    21131707.444    21131715.956
        34.000          42.100
 142566082.835 5                  27129417.003
        35.900
 25  1  1 19 26 45.0000000  0 26E31G07G30G08G27G04E33E24R10E09G09E04
                                R07R09S35G14S31E05E06S33R08R11R21R01
                                R20E26
 124061618.196 8                  23608130.184
        48.200
 108303249.919 7  84392095.56747  20609410.786    20609410.2454   20609412.7124
        46.100          46.7004
 116468952.890 8  90755028.38747  22163300.623    22163299.9174   22163303.3104
        49.000          44.0004
 106665363.673 8  83115928.06348  20297726.421    20297725.8714   20297728.6374
        52.400          49.3004
 117574449.842 6  91616529.89842  22373672.720    22373672.3814   22373684.1164
        37.000          12.8004
 123226972.264 5  96021045.49441  23449314.012    23449314.4854   23449330.0204
        33.800          11.1004




 106884012.897 7                  20051170.508    20051169.941
        43.900
 128106780.141 7                  24377912.836
        47.800
 114770005.976 7  89431152.14147  21840025.845    21840025.3804   21840032.5554
        46.100          45.0004
 129832244.967 6                  24706247.013
        40.700
                  98361354.679 5                                  23624656.851
                        34.600
 116953789.601 6  90963987.612 6  21901664.232    21901663.481    21901671.820
        40.600          40.000


 123032108.849 6  95869107.18641  23412205.081    23412205.0234   23412206.8054
        36.500           9.9004
 198900930.920 7                  37849610.448
        42.100
 136602672.395 6                  25994623.661
        40.000
 125750499.904 7                  23929530.858
        46.100
 202047860.754 7                  38448443.264
        43.900
 112977516.289 7  87871407.846 6  21097761.815    21097764.369    21097771.985
        43.900          40.300
 113940183.007 7                  21322355.353    21322355.777
        46.700
 125615767.447 4                  23474277.782    23474274.678
        27.400
 116137499.323 7  90329107.824 6  21725900.586    21725899.096    21725905.967
        42.600          36.300
                  87860147.184 7                                  21124655.600
                        42.500
 142541715.840 6                  27124779.797
        36.700
 25  1  1 19 27  0.0000000  0 26E31G07G30G08G27G04R19E33E24R10E09G09
                                E04R07R09S35G14S31E05E06S33R08R11R01
                                R20E26
 124054594.859 8                  23606794.096
        48.500
 108287041.451 7  84379465.57247  20606326.749    20606326.2354   20606328.2534
        47.700          46.7004
 116429922.773 8  90724615.34247  22155873.998    22155873.3284   22155876.7994
        49.300          44.9004
 106680408.481 8  83127651.29148  20300589.503    20300588.9624   20300591.1644
        53.300          49.8004
 117619322.153 6  91651495.39343  22382212.221    22382212.0694   22382223.9364
        38.400          18.5004
 123283392.450 5  96065008.99841  23460050.010    23460050.3904   23460067.6744
        30.700           8.6004
                  93646278.461 5                                  22507952.570
                        35.600


 142852008.952 5                  27183827.251
        31.200
 106891976.756 6                  20052662.002    20052660.914
        37.700
 128104378.996 7                  24377455.903
        45.800
 114815418.287 7  89466538.25147  21848666.766    21848666.2754   21848674.5384
        46.800          43.9004
 129867722.220 5                  24712998.138
        31.800
 126530441.358 5  98412663.636 5  23636949.463    23636947.647    23636978.934
        32.500          34.100
 116988455.461 7  90990949.832 6  21908157.299    21908158.012    21908161.768
        42.600          38.100


 122993690.903 6  95839171.25542  23404895.973    23404895.9424   23404896.4144
        36.500          13.9004
 198900923.000 6                  37849610.193
        41.500
 136566153.528 6                  25987674.470
        38.000
 125768044.562 7                  23932868.908
        45.700
 202047874.222 7                  38448445.147
        44.900
 113019555.756 7  87904105.094 6  21105615.337    21105616.538    21105620.876
        44.200          41.100
 113910082.706 7  88596743.472 6  21316723.971    21316724.282    21316728.670
        45.300          40.300
 116121298.194 7  90316506.920 6  21722871.153    21722871.039    21722875.186
        46.000          37.900
 112925360.896 5  87830903.240 7  21117613.139    21117612.393    21117626.044
        31.800          43.100
 142517426.216 5                  27120157.966
        34.900
 25  1  1 19 27 15.0000000  0 25E31G07G30G08G27G04E33E24R10E09G09E04
                                R07R09S35G14S31E05E06S33R08R11R01R20
                                E26
 124047613.688 8                  23605465.171
        49.200
 108270907.093 8  84366893.35247  20603256.934    20603256.4164   20603257.4964
        50.400          47.5004
 116390928.726 8  90694230.41147  22148453.894    22148453.2424   22148456.3564
        49.600          45.4004
 106695598.499 8  83139487.66148  20303479.772    20303479.2184   20303481.8094
        51.800          49.3004
 117664285.453 6  91686531.73443  22390768.021    22390767.6154   22390778.4454
        36.800          18.6004
 123339836.963 5  96108991.54241  23470793.063    23470793.5904   23470809.9374
        35.700           9.7004


 142821369.055 5                  27178001.319
        33.900
 106899994.113 6                  20054167.822    20054165.986
        37.800
 128102082.957 7                  24377019.309
        44.900
 114860910.998 6  89501986.95347  21857323.998    21857323.4934   21857331.1254
        41.800          42.0004
 129903265.197 6                  24719760.655
        36.600
 126596399.149 6  98463963.925 6  23649283.047    23649286.271    23649302.127
        37.100          36.900
 117023149.297 5  91017933.860 6  21914655.217    21914657.958    21914660.583
        35.000          40.400


 122955304.629 5  95809259.94042  23397593.101    23397593.0174   23397592.8724
        31.300          14.0004
 198900913.473 7                  37849606.527
        43.100
 136529687.171 6                  25980734.193
        38.400
 125785685.742 7                  23936225.624
        46.700
 202047885.690 7                  38448446.560
        44.700
 113061734.509 6  87936910.601 6  21113492.318    21113494.048    21113497.215
        41.900          39.900
 113880012.635 8  88573355.667 6  21311096.432    21311097.282    21311101.258
        49.700          40.700
 116105288.340 6  90304054.888 6  21719874.369    21719873.326    21719882.258
        41.300          40.300
 112887916.570 5  87801779.909 6  21110611.699    21110614.049    21110621.730
        35.700          41.300
 142493210.749 5                  27115550.127
        35.600
 25  1  1 19 27 30.0000000  0 26E31G07G30G08G27G04R19E33E24R10E09G09
                                E04R07R09S35G14S31E05E06S33R08R11R01
                                R20E26
 124040673.348 8                  23604143.934
        50.000
 108254845.907 8  84354378.15748  20600200.297    20600199.7834   20600200.2614
        50.400          48.0004
 116351969.847 7  90663872.84347  22141039.626    22141038.9694   22141041.7444
        46.800          44.1004
 106710932.360 8  83151436.14548  20306397.944    20306397.3944   20306400.0574
        52.900          49.7004
 117709338.324 6  91721638.16742  22399342.004    22399341.5314   22399348.8774
        37.100          17.0004


 120462569.198 4                  22519191.925
        27.600


 142790753.172 6                  27172176.115
        36.600
 106908063.678 6                  20055681.603    20055682.197
        39.400
 128099890.878 7                  24376602.448
        46.400
 114906482.596 7  89537497.22947  21865996.871    21865996.3934   21866003.5114
        43.900          42.8004
 129938872.580 6                  24726537.082
        40.800
 126662344.707 4  98515254.156 5  23661604.017                    23661616.846
        29.200          32.500
 117057870.129 5  91044938.793 6  21921156.728    21921155.986    21921163.194
        33.600          41.300


 122916948.897 6  95779372.49342  23390294.181    23390294.1104   23390294.6704
        37.700          16.8004
 198900901.118 7                  37849604.322
        43.000
 136493272.217 6                  25973804.766
        36.700
 125803422.096 7                  23939601.009
        45.800
 202047893.430 7                  38448450.660
        42.600
 113104050.762 7  87969823.197 6  21121394.510    21121395.879    21121402.757
        42.300          41.500
 113849971.887 7  88549990.702 6  21305473.948    21305475.500    21305477.759
        46.100          39.100
 116089468.462 7  90291750.583 6  21716911.852    21716912.745    21716922.173
        42.900          38.500
 112850626.930 5  87772776.946 6  21103637.931    21103637.326    21103648.297
        33.600          40.200
 142469068.423 6                  27110955.198
        36.800
 25  1  1 19 27 45.0000000  0 25E31G07G30G08G27G04E33E24R10E09G09E04
                                R07R09S35G14S31E05E06S33R08R11R01R20
                                E26
 124033780.713 8                  23602832.808
        49.700
 108238864.799 8  84341925.29548  20597159.297    20597158.7884   20597159.3214
        50.900          48.0004
 116313053.109 7  90633548.09047  22133634.413    22133633.7564   22133635.9284
        47.000          44.8004
 106726416.701 8  83163501.84048  20309343.971    20309343.4084   20309347.4024
        52.600          50.1004
 117754487.217 6  91756819.06243  22407934.448    22407933.9614   22407937.6934
        41.600          23.5004




 142760168.216 5                  27166351.810
        32.400
 106916192.257 6                  20057204.923    20057204.275
        36.900
 128097809.631 7                  24376205.705
        44.500
 114952139.421 7  89573073.86347  21874684.216    21874683.7344   21874692.7944
        46.000          43.8004
 129974551.051 6                  24733328.259
        38.400
 126728282.782 6  98566539.129 5  23673922.709    23673919.049    23673938.751
        38.900          35.500




 122878630.471 6  95749514.01243  23383001.359    23383001.3554   23383004.8884
        40.900          18.6004
 198900891.326 7                  37849610.269
        45.400
 136456915.765 5                  25966887.567
        34.500
 125821260.375 7                  23942997.489
        45.400
 202047904.331 6                  38448456.210
        41.300
 113146511.002 7  88002847.785 6  21129322.813    21129323.565    21129331.266
        44.700          38.800
 113819967.260 7  88526653.747 6  21299858.141    21299857.769    21299864.518
        45.700          41.300
 116073845.793 6  90279599.618 6  21713990.868    21713988.143    21713997.643
        37.700          38.500
 112813499.433 5  87743900.064 6  21096695.181    21096694.613    21096706.206
        34.400          39.900
 142445006.383 5                  27106375.789
        34.200
 25  1  1 19 28  0.0000000  0 25G21E31G07G30G08G27G04E33E24R10E09G09
                                E04R09S35G14S31E05E06S33R08R11R01R20
                                E26
 120812996.088 5                  22989947.755
        32.800
 124026935.680 8                  23601529.942
        49.400
 108222964.009 8  84329535.12747  20594133.753    20594133.2574   20594133.5664
        50.400          47.0004
 116274178.833 8  90603256.45347  22126237.220    22126236.5594   22126238.2234
        49.500          44.8004
 106742051.334 8  83175684.63848  20312318.688    20312318.1074   20312323.0114
        50.100          49.0004
 117799731.874 6  91792074.58644  22416541.580    22416541.1024   22416546.1524
        40.400          27.2004




 142729613.985 6                  27160541.349
        38.700
 106924379.840 6                  20058742.797    20058741.364
        41.800
 128095839.227 7                  24375831.082
        46.900
 114997881.320 7  89608716.75447  21883388.749    21883388.2674   21883397.1744
        43.000          42.8004
 130010300.236 6                  24740128.951
        36.900
 117127415.146 6  91099027.597 6  21934185.777    21934187.622    21934184.773
        40.600          40.500


 122840349.501 5  95719684.82842  23375716.645    23375716.6374   23375720.4854
        34.700          15.4004
 198900885.154 7                  37849596.054
        42.200
 136420618.198 5                  25959980.954
        32.200
 125839200.532 7                  23946409.876
        43.100
 202047919.344 7                  38448453.267
        43.400
 113189114.787 7  88035983.937 6  21137281.869    21137281.413    21137286.926
        43.600          40.100
 113789998.829 7  88503345.052 7  21294250.683    21294250.600    21294256.933
        46.900          42.900
 116058420.518 6  90267602.066 6  21711106.084    21711103.960    21711114.036
        38.900          38.200
 112776534.202 5  87715149.506 6  21089779.494    21089782.084    21089793.382
        34.300          39.400
 142421024.804 5                  27101811.506
        30.700
 25  1  1 19 28 15.0000000  0 26E31G07G30G08G27G04E33E24R10E09G09E04
                                R07R09S35G14S31E05E06S33R08R11R21R01
                                R20E26
 124020130.838 7                  23600234.750
        47.100
 108207136.531 8  84317202.03247  20591121.728    20591121.2324   20591121.7774
        50.700          47.0004
 116235339.951 7  90572992.37447  22118845.469    22118844.8174   22118848.1564
        45.600          44.6004
 106757828.687 8  83187978.69448  20315321.905    20315321.3114   20315324.5394
        51.500          48.6004
 117845064.342 6  91827398.50845  22425169.126    22425168.6304   22425173.2714
        41.300          30.0004




 142699083.284 6                  27154730.421
        40.300
 106932619.123 7                  20060287.292    20060287.588
        43.600
 128093972.514 7                  24375475.301
        44.900
 115043700.430 7  89644419.89247  21892108.322    21892107.8574   21892116.1014
        43.600          44.7004
 130046112.981 5                  24746942.916
        35.900
                  98669123.351 5                  23698553.044    23698571.081
                        33.900
 117162229.602 6  91126105.651 6  21940696.856    21940696.682    21940702.011
        36.200          39.000


 122802098.564 6  95689878.97342  23368434.645    23368434.7164   23368441.7794
        39.300          15.9004
 198900875.594 7                  37849598.353
        43.000
 136384372.231 5                  25953083.576
        34.000
 125857235.142 7                  23949842.937
        44.100
 202047929.932 7                  38448452.239
        42.200
 113231853.867 7  88069225.339 5  21145260.177    21145259.592    21145263.890
        43.400          35.400
 113760059.205 7  88480058.689 6  21288649.075    21288648.189    21288649.948
        46.400          38.800
                  97393981.356 5                                  23400495.836
                        33.000
 116043185.234 7  90255752.467 6  21708257.460    21708257.687    21708264.598
        44.300          37.100
 112739724.093 5  87686519.499 6  21082898.464    21082893.884    21082910.258
        32.000          38.000
 142397116.440 5                  27097263.680
        32.900
 25  1  1 19 28 30.0000000  0 27G21E31G07G30G08G27G04E33E24R10E09G09
                                E04R07R09S35G14S31E05E06S33R08R11R21
                                R01R20E26
 120735620.061 5                  22975227.617
        34.700
 124013371.813 8                  23598948.769
        48.700
 108191388.065 8  84304930.50347  20588124.728    20588124.2374   20588124.8594
        49.400          47.2004
 116196542.210 7  90542760.37447  22111462.236    22111461.6284   22111464.9254
        46.900          43.4004
 106773754.262 8  83200388.21247  20318351.665    20318351.0714   20318354.7394
        51.300          47.7004
 117890490.093 6  91862795.08444  22433812.303    22433811.7674   22433817.0834
        36.100          26.1004
 123622522.368 5  96329273.22841  23524574.843    23524574.9364   23524592.4634
        31.700           9.0004


 142668581.699 6                  27148925.618
        36.300
 106940915.671 7                  20061844.886    20061844.634
        43.200
 128092215.013 7                  24375140.451
        42.400
 115089602.110 7  89680187.25347  21900843.913    21900843.4664   21900851.3084
        43.000          45.5004


 126926143.703 6  98720383.563 5  23710856.011    23710856.020    23710880.278
        37.400          30.600
 117197076.256 6  91153208.584 6  21947224.243    21947224.754    21947230.052
        38.900          39.300


 122763883.563 7  95660101.22042  23361165.441    23361165.4764   23361168.8464
        42.200          16.2004
 198900867.275 7                  37849609.335
        42.500
 136348183.798 5                  25946195.478
        34.500
 125875369.815 7                  23953292.639
        45.100
 202047942.601 7                  38448447.181
        42.600
 113274733.726 6  88102576.241 6  21153269.522    21153266.936    21153274.574
        40.900          39.300
 113730154.059 7  88456799.110 6  21283050.190    21283049.687    21283052.970
        44.900          36.400
 125154953.356 4                  23388171.401    23388177.265
        27.300
 116028145.690 6  90244055.188 5  21705444.452    21705442.398    21705448.594
        39.200          33.500
 112703076.053 5  87658015.537 5  21076044.879    21076046.636    21076052.269
        31.600          32.900
 142373287.476 5                  27092729.284
        35.600
 25  1  1 19 28 45.0000000  0 27G21E31G07G02G30G08G27G04E33E24R10E09
                                G09E04R07R09S35G14S31E05E06S33R08R11
                                R21R20E26
 120697046.788 5                  22967885.881
        30.800
 124006658.971 8                  23597671.548
        49.300
 108175719.328 8  84292721.08948  20585143.199    20585142.7124   20585143.7054
        48.700          48.0004
 126389940.467 4                  24051200.688
        25.400
 116157786.343 7  90512561.00747  22104088.855    22104088.2614   22104090.8174
        47.300          44.7004
 106789828.304 8  83212913.42947  20321410.334    20321409.7404   20321413.8344
        50.000          46.5004
 117935983.280 6  91898192.50744  22442475.198    22442474.8684   22442477.3014
        38.200          25.4004
 123679121.552 6  96373376.33942  23535344.439    23535344.8904   23535364.5214
        38.100          16.6004


 142638109.784 7                  27143127.916
        42.600
 106949270.142 7                  20063410.698    20063410.578
        44.000
 128090567.308 6                  24374827.837
        41.100
 115135586.472 8  89716019.15847  21909594.426    21909593.9884   21909601.8574
        48.700          46.8004
 130117943.067 5                  24760614.160
        35.900
 126992040.388 5  98771636.400 5  23723161.898    23723165.060    23723191.348
        32.500          31.800
 117231955.744 6  91180337.003 6  21953756.289    21953755.791    21953762.445
        40.500          40.700


 122725704.757 7  95630351.54542  23353901.756    23353901.8004   23353902.5444
        43.500          17.5004
 198900861.478 7                  37849596.466
        43.900
 136312053.509 6                  25939321.310
        38.900
 125893604.794 7                  23956763.016
        44.500
 202047957.793 6                  38448467.178
        41.600
 113317754.358 7  88136036.574 6  21161301.495    21161300.308    21161307.074
        42.000          36.000
 113700283.928 7  88433566.808 6  21277463.163    21277462.689    21277464.457
        45.800          36.900
                                                  23375883.089

 112666590.799 5  87629629.580 5  21069221.220    21069219.936    21069233.590
        31.500          34.700
 142349538.407 5                  27088209.420
        31.100
 25  1  1 19 29  0.0000000  0 26E31G07G30G08G27G04R19E33E24R10E09G09
                                E04R07R09S35G14S31E05E06S33R08R11R01
                                R20E26
 123999986.715 8                  23596401.431
        48.800
 108160125.101 8  84280569.73847  20582175.995    20582175.5134   20582176.4704
        49.800          47.6004
 116119067.071 7  90482390.10847  22096718.228    22096717.6254   22096723.7614
        44.600          43.1004
 106806045.038 8  83225549.84847  20324496.078    20324495.4884   20324500.5194
        49.900          46.9004
 117981595.763 6  91933733.98643  22451152.397    22451151.8744   22451156.7124
        37.400          23.1004
 123735741.538 6  96417495.45542  23546117.690    23546117.9984   23546140.3894
        36.900          17.4004
                  93836828.257 5                                  22553748.702
                        31.900


 142607661.814 5                  27137331.797
        34.100
 106957676.811 7                  20064988.502    20064988.690
        46.400
 128089023.887 7                  24374533.981
        44.700
 115181647.671 7  89751910.83847  21918358.939    21918358.5194   21918366.6584
        47.500          45.9004
 130153957.033 6                  24767467.122
        39.100
 127057920.858 5  98822876.824 5  23735476.941    23735474.753    23735502.355
        30.400          32.300
 117266862.009 6  91207486.268 6  21960292.944    21960292.034    21960298.070
        39.700          39.900


 122687556.777 6  95600626.02342  23346640.923    23346640.9154   23346642.2434
        40.300          17.8004
 198900852.796 7                  37849594.453
        43.400
 136275976.013 5                  25932455.349
        31.700
 125911934.533 7                  23960250.870
        44.800
 202047969.686 6                  38448450.830
        39.500
 113360909.404 7  88169601.525 6  21169360.385    21169359.053    21169369.978
        42.700          39.900
 113670443.208 7  88410357.390 7  21271878.780    21271877.208    21271883.206
        42.900          42.600
 115998650.872 7                  21699925.310    21699924.944
        42.400
 112630263.023 5  87601374.641 6  21062427.764    21062428.717    21062435.275
        31.900          37.700
 142325863.900 4                  27083702.201
        29.900
 25  1  1 19 29 15.0000000  0 26E31G07G30G08G27G04R19E33E24R10E09G09
                                E04R07R09S35G14S31E05E06S33R08R11R21
                                R20E26
 123993357.636 8                  23595141.013
        49.800
 108144608.199 8  84268478.67147  20579223.272    20579222.7944   20579223.7914
        49.700          47.8004
 116080387.294 7  90452250.09046  22089359.363    22089358.7554   22089362.1204
        45.100          40.9004
 106822406.953 8  83238299.42347  20327610.128    20327609.5344   20327614.7274
        49.000          47.4004
 118027291.954 6  91969341.37743  22459848.949    22459847.9844   22459852.8954
        36.500          22.6004
 123792384.311 5  96461632.34342  23556898.657    23556899.2654   23556920.1704
        32.500          14.7004
                  93861254.894 5                                  22559617.259
                        34.100


 142577240.619 5                  27131542.090
        35.800
 106966138.640 7                  20066575.336    20066574.895
        46.400
 128087587.445 7                  24374260.408
        45.300
 115227787.859 7  89787864.08647  21927139.578    21927139.1764   21927146.8284
        47.600          46.0004
 130190036.994 4                  24774331.839
        29.700
 127123788.001 6  98874106.600 5  23747782.332    23747785.407    23747809.445
        37.900          35.600
 117301798.039 6  91234658.661 6  21966834.427    21966835.605    21966839.969
        41.000          37.100


 122649442.193 7  95570926.40143  23339389.281    23339389.2774   23339389.0124
        43.800          22.3004
 198900842.795 7                  37849599.153
        44.000
 136239954.407 5                  25925601.195
        34.100
 125930361.576 7                  23963756.854
        45.200
 202047980.568 7                  38448468.180
        44.400
 113404201.086 7  88203272.681 7  21177443.209    21177443.653    21177456.000
        42.900          42.400
 113640634.590 7  88387172.874 7  21266301.027    21266301.748    21266305.398
        45.600          44.300
 124957463.613 5                  23351286.048    23351286.880
        34.100
 112594096.001 5  87573244.798 6  21055665.266    21055665.804    21055673.681
        34.700          37.300
 142302266.751 5                  27079212.195
        35.700
 25  1  1 19 29 30.0000000  0 26E31G07G30G08G27G04E33E24R10E09G09E04
                                R07R09S35G14S31E05E06S33R08R11R21R01
                                R20E26
 123986770.669 8                  23593887.370
        50.200
 108129167.958 8  84256447.29248  20576285.470    20576285.0054   20576285.7654
        50.100          49.3004
 116041746.163 7  90422140.14047  22082005.619    22082004.9854   22082007.2404
        46.400          42.2004
 106838912.841 8  83251161.15447  20330751.470    20330750.8584   20330755.6534
        48.300          46.6004
 118073076.576 5  92005017.59343  22468560.203    22468559.3094   22468566.0404
        34.600          22.6004
 123849048.763 6  96505786.15742  23567681.030    23567681.6784   23567703.3274
        36.700          12.4004
 145446401.704 5                  27677529.491
        34.300
 142546845.070 6                  27125759.790
        36.200
 106974654.120 8                  20068174.880    20068174.565
        49.100
 128086257.074 7                  24374007.453
        45.400
 115274005.773 7  89823877.89747  21935934.138    21935933.7494   21935941.9014
        46.700          45.0004


 127189639.730 6  98925324.493 5  23760090.824    23760089.058    23760105.875
        37.600          32.500
 117336762.743 6  91261853.237 6  21973384.339    21973384.877    21973387.640
        38.000          37.100


 122611360.120 7  95541252.20044  23332142.438    23332142.4644   23332143.2534
        43.100          24.4004
 198900831.928 7                  37849589.611
        43.500
 136203987.656 5                  25918757.399
        34.400
 125948884.835 7                  23967282.154
        46.000
 202047990.100 7                  38448472.504
        44.500
 113447628.048 7  88237048.995 6  21185554.500    21185555.914    21185562.595
        44.700          41.100
 113610857.142 6  88364012.633 7  21260725.262    21260724.463    21260732.280
        37.900          44.800
 124891686.627 5  97138115.483 6  23338998.535    23338997.547    23339028.948
        31.200          36.300
 115969927.821 7                  21694553.358    21694551.328
        44.100
 112558089.315 5  87545239.676 6  21048933.958    21048931.648    21048939.910
        34.400          37.800
 142278746.405 5                  27074736.094
        33.500
 25  1  1 19 29 45.0000000  0 27E31G07G02G30G08G27G04R19E33E24R10E09
                                G09E04R09S35G14S31E05E06S33R08R11R21
                                R01R20E26
 123980228.249 8                  23592642.296
        49.800
 108113806.969 8  84244477.67848  20573362.088    20573361.6194   20573362.8574
        50.600          49.9004
 126212809.864 4                  24017506.345
        27.400
 116003146.467 7  90392062.43947  22074660.100    22074659.3984   22074661.8804
        46.600          42.6004
 106855564.974 8  83264136.83447  20333919.639    20333919.0224   20333924.3744
        49.300          46.1004
 118118951.584 5  92040764.27344  22477292.675    22477292.0494   22477296.2614
        33.400          25.4004
 123905737.011 5  96549958.50642  23578467.381    23578467.9804   23578490.6824
        35.500          12.2004
                  93910512.147 5                                  22571458.733
                        30.100
 145405438.752 5                  27669736.228
        32.200
 142516477.744 6                  27119981.334
        36.800
 106983226.215 8                  20069781.402    20069781.478
        48.800
 128085035.260 7                  24373774.739
        44.000
 115320303.533 7  89859953.95447  21944744.635    21944744.2734   21944751.7934
        45.000          44.0004
 130262443.998 5                  24788103.759
        34.000
 117371758.764 5  91289072.089 6  21979944.869    21979947.136    21979943.012
        35.500          38.100


 122573313.037 7  95511605.22544  23324902.193    23324902.2284   23324905.1854
        43.400          25.3004
 198900821.986 6                  37849585.036
        41.500
 136168078.625 5                  25911923.948
        32.100
 125967506.684 7                  23970825.707
        44.300
 202048000.419 7                  38448475.630
        46.000
 113491192.027 7  88270931.961 6  21193689.845    21193691.079    21193697.161
        44.800          40.600
 113581113.370 7  88340878.618 7  21255161.681    21255161.702    21255166.537
        43.500          45.200
 124825943.296 6  97086962.489 5  23326717.138    23326716.508    23326739.337
        36.400          35.800
 115955858.386 7                  21691920.571    21691918.736
        43.600
 112522245.648 5  87517361.349 6  21042228.045    21042229.025    21042239.201
        31.000          39.500
 142255305.413 5                  27070279.556
        32.600
 25  1  1 19 30  0.0000000  0 27E31G07G02G30G08G27G04E33E24R10E09G09
                                E04R07R09S35G14S31E05E06S33R08R11R21
                                R01R20E26
 123973733.416 8                  23591406.103
        50.100
 108098528.489 8  84232572.34048  20570454.341    20570453.8504   20570455.9274
        50.000          49.5004
 126168593.145 5                  24009096.967
        32.900
 115964591.486 7  90362019.58147  22067323.844    22067323.0894   22067325.8034
        45.000          43.3004
 106872366.204 7  83277228.68247  20337117.633    20337117.0254   20337121.0744
        47.900          45.6004
 118164919.762 6  92076583.59843  22486039.982    22486039.3924   22486044.1644
        36.500          23.8004
 123962451.820 6  96594151.43041  23589258.529    23589259.0794   23589282.3534
        36.400           8.5004


 142486141.682 5                  27114208.435
        33.400
 106991857.965 8                  20071401.744    20071401.399
        50.100
 128083925.151 7                  24373563.548
        43.400
 115366683.787 7  89896094.29347  21953570.248    21953569.8734   21953577.6504
        43.400          43.2004
 130298725.272 6                  24795007.683
        37.700
 127321306.346 5                  23784683.844    23784683.886
        35.900
                  91316317.802 6                                  21986502.176
                        37.300


 122535304.077 7  95481987.94444  23317667.219    23317667.2414   23317673.8744
        42.200          24.1004
 198900815.331 7                  37849586.619
        43.600
 136132230.628 4                  25905107.536
        27.200
 125986230.109 7                  23974389.000
        46.000
 202048015.203 7                  38448475.929
        45.700
 113534895.831 7  88304923.664 7  21201852.871    21201855.041    21201860.805
        45.400          42.200
 113551406.392 6  88317773.204 7  21249602.922    21249601.847    21249606.445
        41.600          44.200
 124760186.457 6  97035818.766 5  23314423.112    23314422.622    23314450.661
        36.600          33.700
 115941987.828 7                  21689326.167    21689325.553
        45.100
 112486569.187 5  87489613.034 6  21035562.077    21035561.384    21035567.594
        34.700          38.600
 142231947.220 5                  27065834.109
        33.300
 25  1  1 19 30 15.0000000  0 26E31G07G02G30G08G27G04E33E24R10E09G09
                                E04R07R09S35G14S31E05E06S33R08R11R21
                                R20E26
 123967279.357 8                  23590177.966
        49.900
 108083326.021 8  84220726.23848  20567561.750    20567561.2454   20567563.3244
        50.000          49.0004
 126124391.020 5                  24000686.959
        35.000
 115926074.754 7  90332006.54047  22059995.223    22059994.4594   22059997.5204
        45.000          43.7004
 106889309.677 8  83290431.37647  20340342.118    20340341.4844   20340345.1414
        49.200          45.4004
 118210974.184 6  92112470.11344  22494804.394    22494803.7774   22494807.9764
        38.400          26.0004
 124019186.110 5  96638359.6924   23600053.987    23600054.4164   23600077.7044
        33.000           5.6004


 142455830.129 5                  27108441.845
        34.900
 107000542.559 8                  20073031.035    20073030.675
        50.200
 128082920.047 7                  24373372.404
        44.300
 115413139.525 7  89932293.43847  21962410.777    21962410.3934   21962417.6234
        43.900          42.1004
 130335069.616 6                  24801920.972
        38.600
 127387116.931 5                  23796981.349    23796980.293
        32.600
                  91343584.840 6                                  21993067.162
                        36.200


 122497326.602 6  95452395.20743  23310440.763    23310440.7554   23310445.8634
        41.100          22.2004
 198900806.802 7                  37849582.380
        42.000
 136096437.115 5                  25898293.989
        31.900
 126005048.358 7                  23977969.747
        46.000
 202048027.101 7                  38448478.568
        46.400
 113578731.879 7  88339018.277 7  21210036.449    21210036.903    21210046.477
        43.700          42.400
 113521729.569 7  88294691.232 7  21244050.500    21244048.910    21244052.364
        44.000          44.600
 124694435.679 6  96984679.501 5  23302144.091    23302142.787    23302162.973
        38.200          33.100
 112451053.208 5  87461989.628 4  21028915.197    21028914.948    21028921.149
        30.700          29.600
 142208665.191 5                  27061400.212
        31.700
 25  1  1 19 30 30.0000000  0 25E31G07G30G08G27G04E33E24R10E09G09E04
                                R09S35G14S31E05E06S33R08R11R21R01R20
                                E26
 123960870.696 8                  23588957.917
        48.700
 108068204.553 8  84208943.27848  20564684.507    20564684.0024   20564685.8844
        50.600          49.4004
 115887601.167 7  90302027.13147  22052673.925    22052673.1744   22052676.5664
        47.700          44.4004
 106906399.807 8  83303748.33247  20343594.179    20343593.5454   20343597.1294
        50.100          44.9004
 118257118.944 6  92148426.99544  22503586.972    22503586.3154   22503590.5334
        36.900          26.8004
 124075944.171 5  96682586.33141  23610854.807    23610855.2724   23610877.6344
        35.000           8.7004


 142425547.815 5                  27102676.238
        35.000
 107009284.367 8                  20074670.494    20074670.361
        49.200
 128082024.711 7                  24373202.217
        45.700
 115459675.064 7  89968554.76047  21971267.572    21971267.1704   21971273.1574
        43.100          42.1004
 130371481.395 6                  24808852.327
        39.800




 122459385.133 6  95422830.50043  23303221.599    23303221.5414   23303226.2454
        36.500          21.7004
 198900799.994 6                  37849584.213
        40.000
 136060702.999 5                  25891493.529
        31.600
 126023965.961 7                  23981569.482
        45.700
 202048040.475 7                  38448485.932
        45.000
 113622704.657 6  88373219.263 7  21218247.317    21218247.227    21218257.736
        41.400          42.400
 113492087.440 7  88271636.284 7  21238501.785    21238502.225    21238505.486
        44.400          45.700
 124628695.580 6                  23289866.214    23289864.802
        36.600
 115914828.409 7  90155926.237 6  21684244.994    21684244.413    21684255.254
        42.400          36.600
 112415702.335 5  87434494.761 5  21022308.893    21022306.713    21022319.406
        32.300          33.800
 142185464.311 5                  27056986.355
        35.300
 25  1  1 19 30 45.0000000  0 26G21E31G07G30G08G27G04E33E24R10E09G09
                                E04R09S35G14S31E05E06S33R08R11R21R01
                                R20E26
 120391086.578 5                  22909652.456
        34.200
 123954503.126 8                  23587746.305
        49.400
 108053160.021 8  84197220.25048  20561820.982    20561820.4684   20561822.3554
        49.900          48.7004
 115849166.698 8  90272078.19247  22045358.779    22045358.0424   22045362.7404
        48.100          44.4004
 106923632.116 8  83317176.09047  20346873.087    20346872.4534   20346876.2684
        51.000          45.3004
 118303349.559 6  92184450.80344  22512385.133    22512384.4944   22512388.8674
        38.700          24.5004
 124132721.233 5  96726827.8884   23621669.502    23621669.9984   23621681.4814
        32.800           5.9004


 142395290.479 6                  27096920.034
        40.100
 107018079.558 8                  20076319.980    20076319.831
        48.400
 128081234.866 7                  24373051.129
        44.200
 115506285.764 7  90004874.66947  21980137.147    21980136.7504   21980142.7724
        42.600          42.7004
 130407956.108 6                  24815792.587
        41.500
                  91398191.111 6                                  22006218.723
                        38.900




 198900790.777 6                  37849578.651
        39.600
 136025024.121 5                  25884701.691
        30.700
 126042978.547 7                  23985188.162
        44.800
 202048052.172 7                  38448486.921
        43.800
 113666809.288 7  88407522.670 6  21226486.182    21226485.440    21226494.733
        42.600          41.000
 113462475.945 7  88248605.144 7  21232959.846    21232960.409    21232965.212
        42.500          45.300
 124563005.418 6                  23277570.174    23277568.381
        38.400
 115901540.062 6  90145590.835 6  21681759.883    21681759.850    21681768.884
        41.500          37.400
 112380513.550 5  87407125.750 6  21015723.822    21015725.897    21015735.657
        33.900          37.300
 142162340.417 6                  27052584.949
        36.800
 25  1  1 19 31  0.0000000  0 25E31G07G30G08G27G04E33E24R10E09G09E04
                                R09S35G14S31E05E06S33R08R11R21R01R20
                                E26
 123948177.785 8                  23586543.589
        48.800
 108038193.774 8  84185558.24048  20558973.532    20558973.0234   20558973.6864
        49.500          48.2004
 115810772.874 7  90242160.93547  22038052.171    22038051.4474   22038056.3684
        46.400          42.8004
 106941007.657 8  83330715.46147  20350179.325    20350178.6994   20350181.5624
        50.200          44.8004
 118349666.851 6  92220542.02243  22521198.537    22521197.8854   22521199.5684
        36.300          21.7004
 124189518.502 5  96771085.0994   23632469.195    23632469.6514   23632489.0804
        31.500           5.4004




 107026929.268 8                  20077980.338    20077979.724
        48.600
 128080551.794 6                  24372921.933
        40.800
 115552972.483 7  90041253.83247  21989020.296    21989019.9034   21989026.3934
        44.400          42.5004
 130444494.913 7                  24822745.094
        42.300




 122383477.342 7  95363761.76142  23288799.543    23288799.4764   23288803.4914
        43.100          16.0004
 198900780.769 7                  37849583.006
        43.500


 126062087.266 7                  23988824.699
        44.300
 202048062.202 6                  38448496.101
        41.400
 113711046.436 7  88441929.240 7  21234745.695    21234747.537    21234757.652
        42.600          43.400
 113432896.223 7  88225598.649 7  21227425.755    21227426.530    21227430.175
        45.200          45.600
 124497281.701 5                  23265283.292    23265283.891
        32.600
 115888446.044 6  90135406.580 5  21679307.729    21679308.640    21679317.326
        39.600          34.100
 112345488.222 5  87379883.929 6  21009172.821    21009174.371    21009186.300
        31.200          40.800
 142139295.137 5                  27048201.800
        35.800
 25  1  1 19 31 15.0000000  0 25E31G07G02G30G08G27G04E33E24R10E09G09
                                E04R09S35G14S31E05E06S33R08R11R01R20
                                E26
 123941893.606 8                  23585347.115
        50.400
 108023305.052 8  84173956.57347  20556139.696    20556139.1874   20556139.7774
        49.400          45.8004
 125947793.584 5                  23967071.577
        35.700
 115772418.908 6  90212274.69446  22030754.348    22030753.6334   22030758.0184
        40.900          40.6004
 106958525.201 8  83344365.49647  20353512.236    20353511.6154   20353515.2014
        49.500          45.4004
 118396069.372 5  92256699.70743  22530030.379    22530029.8614   22530027.7724
        33.400          19.1004
 124246363.692 5                  23643293.531
        35.300
 145159695.080 5                  27622966.600
        31.100
 142334853.072 5                  27085416.864
        33.600
 107035832.604 8                  20079650.755    20079649.884
        48.200
 128079974.477 6                  24372812.254
        38.400
 115599733.891 7  90077691.17747  21997918.638    21997918.2674   21997925.5844
        46.500          44.5004
 130481096.503 7                  24829709.879
        42.100




 122345633.289 6  95334273.03043  23281596.755    23281596.6034   23281599.9584
        41.600          18.2004
 198900767.904 7                  37849581.512
        44.200
 135953848.271 4                  25871161.132
        26.000
 126081291.068 7                  23992478.430
        45.600
 202048070.522 7                  38448487.837
        44.600
 113755414.436 7  88476437.584 7  21243032.410    21243034.008    21243040.090
        43.400          43.200
 113403347.262 7  88202616.113 6  21221892.866    21221892.655    21221898.711
        44.100          38.100
 115875545.425 6  90125372.730 5  21676895.393    21676895.740    21676903.312
        41.300          33.000
                  87352768.886 5                  21002654.755    21002659.936
                        31.900
 142116327.580 5                  27043830.537
        34.800
 25  1  1 19 31 30.0000000  0 28G21E31G07G02G30G08G27G04R19E33E24R10
                                E09G09E04R09S35G14S31E05E06S33R08R11
                                R21R01R20E26
 120277506.174 5                  22888046.080
        30.400
 123935656.277 8                  23584160.589
        49.300
 108008499.879 7  84162420.05047  20553322.459    20553321.9504   20553322.2844
        46.800          45.5004
 125903683.973 6                  23958675.361
        37.300
 115734110.604 7  90182424.10446  22023465.067    22023464.3614   22023467.0874
        43.900          39.3004
 106976190.210 8  83358130.41747  20356874.132    20356873.5024   20356877.1504
        49.200          46.0004


 124303203.991 6  96859657.89342  23654102.813    23654103.0814   23654118.8774
        39.000          13.9004
 120969089.863 5                  22613898.612    22613900.397
        33.000


 142304677.834 6                  27079675.741
        38.800
 107044794.953 8                  20081331.724    20081331.277
        48.800
 128079508.740 7                  24372723.617
        42.500
 115646575.356 7  90114190.89747  22006832.851    22006832.4624   22006840.0814
        44.400          43.6004
 130517766.514 6                  24836688.201
        41.300
                  91480272.183 6                                  22025978.335
                        37.300


 122307827.107 7  95304813.78743  23274403.391    23274403.2534   23274404.3264
        42.700          20.4004
 198900759.444 6                  37849578.423
        40.800
 135918344.288 4                  25864399.870
        26.700
 126100595.514 7                  23996151.888
        43.300
 202048082.794 7                  38448491.298
        45.700
 113799918.788 7  88511051.854 6  21251344.294    21251346.665    21251349.997
        44.900          38.900
 113373835.009 7  88179662.027 7  21216373.017    21216373.309    21216378.775
        47.000          42.600
 124365865.376 6                  23240726.807    23240729.040
        37.200
 115862843.990 6  90115493.817 5  21674521.250    21674522.578    21674528.250
        40.700          33.500
 112275933.129 4  87325785.627 6  20996167.015    20996167.535    20996176.839
        29.100          38.700


 25  1  1 19 31 45.0000000  0 26E31G07G02G30G08G27G04R19E33E24R10E09
                                G09E04R07R09S35G14S31E05E06S33R08R11
                                R01E26
 123929460.161 8                  23582981.783
        48.200
 107993772.905 8  84150944.48047  20550520.391    20550519.8914   20550519.5384
        48.600          45.3004
 125859592.222 5                  23950281.221
        34.700
 115695842.747 7  90152604.99646  22016182.081    22016181.3714   22016183.9144
        43.300          37.3004
 106993996.985 8  83372005.81848  20360263.008    20360262.3874   20360266.6944
        49.800          48.0004


 124360062.385 6  96903962.87842  23664926.120    23664926.3794   23664940.2084
        37.600          17.1004
 121002219.080 4                  22620096.620    22620091.073
        29.100


 142274528.011 5                  27073937.664
        35.700
 107053811.336 8                  20083023.677    20083023.813
        49.900
 128079149.022 7                  24372655.342
        42.300
 115693490.888 7  90150748.35047  22015760.217    22015759.7934   22015768.2254
        44.500          43.9004
 130554499.076 7                  24843680.427
        44.100
 127781670.802 5                  23870684.157
        33.600




 122270053.351 7  95275379.80943  23267214.179    23267214.1034   23267215.1374
        42.900          18.4004
 198900749.696 6                  37849580.502
        40.300
 135882896.613 5                  25857656.634
        30.200
 126119994.955 7                  23999844.080
        44.700
 202048092.763 7                  38448488.763
        45.800
 113844553.134 7  88545767.362 6  21259678.913    21259680.817    21259685.410
        43.600          41.700
 113344353.697 7  88156732.146 5  21210855.043    21210854.223    21210855.861
        46.300          35.600
 115850336.351 6  90105765.741 5  21672180.596    21672180.982    21672189.073
        39.300          34.600


 25  1  1 19 32  0.0000000  0 26E31G07G02G30G08G27G04E33E24R10E09G09
                                E04R07R09S35G14S31E05E06S33R08R11R01
                                R20E26
 123923309.284 8                  23581810.908
        49.900
 107979128.469 8  84139533.25347  20547733.922    20547733.4174   20547732.2514
        48.800          45.2004
 125815522.545 6                  23941897.266
        39.600
 115657619.748 7  90122820.87746  22008909.183    22008908.4954   22008910.0914
        46.500          40.7004
 107011949.355 8  83385994.66848  20363679.144    20363678.5234   20363683.6354
        50.600          49.2004
 118535866.137 5  92365599.89642  22556621.205    22556621.4194   22556623.3694
        32.600          17.2004
 124416943.025 5  96948285.05442  23675756.212    23675756.6774   23675764.8934
        35.100          16.5004


 142244407.388 6                  27068207.114
        36.100
 107062885.249 8                  20084725.348    20084725.068
        49.600
 128078899.482 7                  24372606.603
        44.800
 115740484.257 6  90187366.45146  22024702.944    22024702.5734   22024710.5674
        41.900          41.8004
 130591298.284 7                  24850683.519
        43.900
 127847319.291 5                  23882955.976
        32.300
 117688002.209 6  91535112.502 6  22039180.882    22039182.089    22039185.550
        40.200          38.100


 122232316.157 6  95245974.28142  23260034.444    23260034.4364   23260034.8164
        39.900          17.5004
 198900740.594 7                  37849573.844
        43.600


 126139493.357 6                  24003553.167
        41.400
 202048105.105 7                  38448493.270
        46.500
 113889321.186 7  88580586.850 6  21268040.243    21268041.374    21268047.371
        42.900          41.800
 113314907.490 8  88133829.712 5  21205343.504    21205342.532    21205344.787
        48.100          35.500
 115838026.780 6  90096191.644 6  21669878.181    21669877.519    21669889.398
        36.800          37.100
                  87272206.233 6                                  20983292.435
                        37.500


 25  1  1 19 32 15.0000000  0 28G21E31G07G02G30G08G27G04R19E33E24R10
                                E09G09E04R09S35G14S31E05E06S33R08R11
                                R21R01R20E26
 120164607.177 6                  22866566.419
        36.500
 123917202.119 8                  23580648.627
        50.300
 107964565.286 7  84128185.30047  20544962.177    20544961.6724   20544960.6764
        47.300          44.7004
 125771474.053 6                  23933515.327
        41.200
 115619440.224 8  90093070.59047  22001643.712    22001643.0334   22001645.0504
        48.700          42.9004
 107030045.638 8  83400095.67648  20367122.575    20367121.9584   20367127.0444
        50.700          49.5004
 118582619.012 6  92402030.74843  22565516.787    22565516.8004   22565520.4634
        36.700          18.5004


                  94164828.895 5                                  22632581.758
                        32.700


 142214314.614 5                  27062479.299
        30.500
 107072015.333 8                  20086438.325    20086437.651
        49.000
 128078758.649 7                  24372580.419
        45.800
 115787553.580 6  90224043.73346  22033659.076    22033658.6744   22033667.6924
        41.900          39.2004
 130628162.282 7                  24857697.652
        45.200
 117723304.295 6  91562569.561 5  22045788.449    22045787.534    22045795.440
        38.700          35.500


 122194614.016 6  95216596.13842  23252858.831    23252858.8144   23252859.8964
        41.800          16.2004
 198900733.512 7                  37849577.421
        43.800
 135812250.450 5                  25844204.609
        33.400
 126159089.141 5                  24007281.196
        35.100
 202048118.745 7                  38448491.518
        44.900
 113934220.829 7  88615508.678 6  21276424.032    21276426.762    21276433.546
        44.000          39.100


                  96575815.623 5                                  23203926.474
                        35.100
 115825913.919 6  90086770.526 6  21667615.419    21667615.473    21667620.635
        36.900          36.900
                  87245612.332 6                                  20976897.684
                        36.400


 25  1  1 19 32 30.0000000  0 27G21E31G07G02G30G08G27G04E33E24R10E09
                                G09E04R07R09S35G14S31E05E06S33R08R11
                                R21R01E26
 120127141.786 5                  22859436.393
        35.300
 123911136.930 8                  23579493.868
        49.800
 107950081.953 8  84116899.60047  20542206.436    20542205.9224   20542204.8154
        49.600          45.6004
 125727445.514 6                  23925135.154
        40.400
 115581302.874 7  90063353.17447  21994386.040    21994385.3564   21994388.1034
        46.300          43.4004
 107048284.008 8  83414307.36648  20370593.383    20370592.7574   20370597.2024
        50.500          49.9004
 118629456.745 5  92438481.56242  22574426.376    22574426.2694   22574425.5514
        32.000          17.5004




 142184248.449 5                  27056757.233
        32.300
 107081200.200 8                  20088161.030    20088161.237
        49.800
 128078724.938 7                  24372573.667
        45.200
 115834696.916 6  90260778.63546  22042630.814    22042630.3904   22042638.7954
        37.500          37.1004
 130665089.292 7                  24864725.607
        44.000
 127978626.847 5                  23907484.751
        35.200
 117758636.133 6  91590049.848 6  22052404.901    22052406.323    22052412.426
        36.600          37.900


 122156945.400 7  95187244.00842  23245691.541    23245691.5634   23245691.2464
        43.500          16.5004
 198900725.800 6                  37849563.367
        41.500
 135776981.738 5                  25837489.829
        34.400
 126178780.677 6                  24011030.021
        38.600
 202048130.905 7                  38448500.474
        45.700
 113979249.948 6  88650531.213 6  21284832.124    21284831.149    21284841.833
        41.100          40.200
 113256114.712 8  88088131.114 6  21194343.552    21194342.765    21194346.594
        48.200          36.100
                  96524754.340 6                                  23191658.005
                        36.400
 115813996.125 6  90077501.161 6  21665391.410    21665389.423    21665392.828
        37.900          38.300
 142002655.630 5                  27022209.732
        33.000
 25  1  1 19 32 45.0000000  0 25G21E31G07G30G08G27G04E24R10E09G09E04
                                R09S35G14S31E05E06S33R08R11R21R01R20
                                E26
 120089753.291 4                  22852320.302
        26.900
 123905113.998 8                  23578348.829
        50.600
 107935678.986 8  84105676.50747  20539465.664    20539465.1684   20539464.6504
        49.900          47.0004
 115543208.173 7  90033668.96547  21987137.118    21987136.4434   21987139.6524
        46.900          43.3004
 107066664.510 8  83428629.83248  20374090.698    20374090.0594   20374094.7094
        49.700          49.2004


 124587705.759 5  97081365.97741  23708247.885    23708247.6174   23708261.1584
        35.900           8.5004
 142154208.769 6                  27051041.011
        39.300
 107090440.264 7                  20089893.890    20089893.231
        47.300
 128078798.703 7                  24372586.894
        45.200
 115881914.183 6  90297571.19146  22051616.179    22051615.7644   22051623.9624
        38.900          37.3004
 130702079.492 7                  24871763.735
        44.400
 117793997.453 5  91617553.092 6  22059028.447    22059027.655    22059033.012
        32.400          39.600


 122119310.568 7  95157918.29142  23238528.874    23238528.9054   23238529.5444
        43.300          15.5004
 198900716.315 6                  37849572.663
        41.900
 135741771.821 5                  25830788.467
        35.500
 126198568.077 6                  24014796.700
        40.600
 202048142.464 7                  38448501.529
        45.900
 114024408.471 7  88685654.346 6  21293265.339    21293267.375    21293275.827
        42.900          41.200
 113226766.873 8  88065304.960 6  21188850.725    21188850.674    21188856.421
        48.500          41.200


 115802273.710 6  90068383.811 6  21663191.227    21663196.437    21663198.500
        41.000          36.500
                  87192814.048 6                                  20964204.000
                        41.600
 141980174.437 6                  27017931.890
        36.500
 25  1  1 19 33  0.0000000  0 26G21E31G07G02G30G08G27G04E24R10E09G09
                                E04R09S35G14S31E05E06S33R08R11R21R01
                                R20E26
 120052441.873 4                  22845220.127
        29.900
 123899133.185 8                  23577209.884
        49.600
 107921356.461 8  84094516.09347  20536739.707    20536739.2254   20536739.6124
        49.400          46.0004
 125639450.444 7                  23908388.672
        42.900
 115505156.342 7  90004018.22947  21979895.798    21979895.1414   21979898.2264
        45.600          42.1004
 107085186.877 8  83443062.83748  20377615.542    20377614.9124   20377619.3624
        49.700          50.0004
 118723376.929 6  92511714.26642  22592312.006    22592312.1314   22592305.6474
        36.400          17.0004


 142124195.545 6                  27045330.538
        39.700
 107099735.154 7                  20091637.874    20091636.632
        45.900
 128078979.850 7                  24372623.039
        46.600
 115929204.969 7  90334420.99146  22060615.480    22060615.0744   22060623.7284
        42.900          39.2004
 130739132.579 7                  24878814.320
        42.500
 117829388.561 5  91645079.582 6  22065663.321    22065664.442    22065661.915
        35.300          38.900


 122081709.631 6  95128618.93242  23231373.725    23231373.7294   23231373.4644
        41.800          14.2004
 198900706.941 6                  37849566.380
        41.700
 135706620.805 5                  25824093.745
        31.600
 126218451.162 6                  24018579.385
        40.900
 202048153.793 7                  38448505.608
        46.000
 114069695.560 7  88720877.433 6  21301723.398    21301725.615    21301733.356
        43.300          40.900
 113197451.471 7  88042504.079 6  21183364.686    21183364.096    21183369.195
        47.300          39.700
                  96422662.667 5                                  23167129.434
                        32.300
 115790747.087 5  90059418.701 5  21661034.696    21661033.875    21661037.933
        34.200          34.500
                  87166610.555 6                                  20957903.958
                        37.500
 141957773.805 5                  27013670.899
        35.900
 25  1  1 19 33 15.0000000  0 26G21E31G07G02G30G08G27G04E24R10E09G09
                                E04R09S35G14S31E05E06S33R08R11R21R01
                                R20E26
 120015206.892 5                  22838135.834
        32.900
 123893192.988 8                  23576080.149
        48.800
 107907113.139 8  84083417.40247  20534029.452    20534028.9834   20534029.5274
        50.500          46.6004
 125595483.348 6  97866633.35541  23900022.159    23900022.6684   23900030.9014
        40.400          11.3004
 115467146.146 7  89974399.87147  21972662.746    21972662.0944   21972665.3324
        47.700          43.7004
 107103849.433 8  83457605.09048  20381166.561    20381165.9094   20381170.4124
        49.200          49.3004
 118770465.615 5  92548406.68042  22601267.647    22601267.3484   22601266.4524
        34.100          16.0004
 124701620.286 5                  23729928.526
        34.200
 142094207.424 5                  27039622.746
        32.700
 107109083.615 7                  20093392.306    20093391.753
        47.700
 128079267.023 8                  24372678.098
        50.000
 115976567.479 7  90371326.71146  22069626.460    22069626.0364   22069637.1654
        43.100          37.8004
 130776246.911 6                  24885876.173
        41.100
 117864881.187 5  91672628.052 6  22072302.516    22072304.082    22072295.424
        33.000          39.000


 122044140.934 6  95099344.79042  23224224.344    23224224.2954   23224225.2404
        41.500          14.0004
 198900695.731 6                  37849562.302
        40.300


 126238428.423 6                  24022380.645
        39.100
 202048162.556 7                  38448502.589
        45.200
 114115109.251 6  88756199.038 6  21310205.258    21310204.755    21310211.878
        40.800          39.800
 113168166.946 8  88019727.178 7  21177885.088    21177884.968    21177889.628
        48.200          42.300
 123906270.537 5  96371632.042 5  23154842.470    23154844.146    23154873.155
        35.500          34.000
 115779322.621 5  90050604.587 5  21658916.332    21658913.866    21658919.963
        30.500          32.300
                  87140537.005 5                                  20951634.050
                        31.500
 141935452.627 5                  27009425.409
        34.500
 25  1  1 19 33 30.0000000  0 26G21E31G07G02G30G08G27G04E24R10E09G09
                                E04R09S35G14S31E05E06S33R08R11R21R01
                                R20E26
 119978037.744 5                  22831060.793
        32.500
 123887296.881 8                  23574958.569
        48.700
 107892952.894 8  84072383.44147  20531334.467    20531333.9944   20531334.7574
        49.300          46.5004
 125551539.901 6  97832391.90742  23891660.553    23891661.0534   23891674.0464
        40.300          15.2004
 115429181.336 8  89944816.90447  21965438.017    21965437.3694   21965441.1714
        48.500          44.6004
 107122655.527 8  83472259.17548  20384745.521    20384744.8694   20384748.7834
        49.600          49.5004
 118817639.481 5  92585165.45642  22610241.107    22610240.8534   22610243.6464
        34.200          16.7004


 142064247.848 5                  27033921.124
        35.500
 107118489.490 7                  20095155.495    20095155.021
        45.200
 128079663.743 8                  24372753.026
        48.600
 116024004.739 7  90408290.67146  22078655.349    22078654.9294   22078663.7304
        45.300          37.5004
 130813425.836 6                  24892952.300
        41.700
 117900345.904 5  91700201.443 6  22078944.468                    22078933.534
        33.800          40.600


 122006608.240 6  95070098.56742  23217079.888    23217079.8044   23217083.7814
        37.900          13.3004
 198900685.325 7                  37849562.320
        42.100
 135636407.708 5                  25810751.700
        35.000
 126258503.250 6                  24026200.079
        40.700
 202048172.736 7                  38448502.111
        44.100
 114160652.656 7  88791621.563 6  21318709.993    21318709.307    21318717.544
        43.100          41.700
 113138916.972 7  87996977.235 6  21172410.793    21172410.329    21172415.817
        47.600          40.800
 123840675.992 5  96320589.559 5  23142596.492    23142598.357    23142603.675
        34.800          31.500
                  90041944.094 5                                  21656836.920
                        35.600
 112004460.579 5  87114596.094 5  20945393.177    20945391.322    20945397.594
        31.700          35.000
 141913214.545 5                  27005190.456
        33.500
 25  1  1 19 33 45.0000000  0 25E31G07G02G30G08G27G04E24R10E09G09E04
                                R09S35G14S31E05E06S33R08R11R21R01R20
                                E26
 123881448.877 8                  23573844.793
        48.400
 107878879.980 8  84061417.52248  20528657.183    20528656.7054   20528656.6354
        50.500          48.9004
 125507624.770 6  97798172.55342  23883302.498    23883302.6904   23883317.8134
        37.300          13.1004
 115391266.249 7  89915272.68647  21958223.635    21958223.0014   21958226.8794
        46.300          44.7004
 107141608.986 7  83487028.08448  20388352.289    20388351.6554   20388355.2904
        47.400          48.6004
 118864902.619 6  92621993.94442  22619233.540    22619233.3304   22619238.4634
        36.800          15.9004


 142034320.862 6                  27028227.571
        36.600
 107127956.506 7                  20096932.819    20096932.043
        46.800
 128080174.154 8                  24372849.541
        49.100
 116071520.751 7  90445315.97546  22087697.899    22087697.4794   22087705.5614
        43.300          37.2004
 130850673.190 6                  24900038.882
        37.300
 117935779.989 6  91727803.072 6  22085581.748    22085580.168    22085579.421
        36.900          39.900


 121969115.526 6  95040883.56742  23209949.008    23209949.0484   23209950.2694
        36.000          12.2004
 198900680.901 7                  37849558.944
        42.800
 135601441.643 6                  25804098.140
        36.400
 126278679.627 6                  24030041.403
        39.500
 202048189.306 7                  38448508.984
        45.100
 114206329.521 7  88827147.878 7  21327238.641    21327240.416    21327248.349
        44.500          42.600
 113109705.849 7  87974257.464 7  21166943.115    21166943.251    21166950.470
        46.400          43.300
 123775103.164 5  96269588.714 5  23130332.233    23130334.954    23130346.318
        33.600          31.700
 115757290.416 5  90033440.927 5  21654790.368                    21654792.704
        34.500          33.500
 111971283.222 5  87088791.455 4  20939183.192    20939183.740    20939195.682
        34.600          28.200
 141891063.836 5                  27000975.690
        32.000
 25  1  1 19 34  0.0000000  0 25E31G07G02G30G08G27G04E24R10E09G09E04
                                R09S35G14S31E05E06S33R08R11R21R01R20
                                E26
 123875640.710 7                  23572739.685
        46.900
 107864886.389 8  84050513.41648  20525994.154    20525993.6814   20525994.3884
        51.000          50.1004
 125463730.058 6  97763969.16342  23874949.546    23874949.6174   23874964.8314
        37.600          14.6004
 115353392.853 7  89885760.96647  21951016.642    21951016.0084   21951020.8634
        47.400          43.5004
 107160701.347 8  83501905.25248  20391986.050    20391985.4384   20391988.6984
        49.000          49.8004
 118912246.301 6  92658885.07843  22628243.173    22628242.8074   22628249.4214
        36.100          19.3004


 142004418.308 6                  27022537.151
        39.900
 107137476.251 7                  20098718.933    20098718.063
        46.800
 128080790.017 7                  24372966.995
        47.100
 116119106.668 6  90482395.75346  22096755.117    22096754.7244   22096761.3524
        41.900          38.0004
 130887980.710 6                  24907138.664
        40.100
 117971295.522 6  91755426.149 6  22092220.368    22092225.590    22092228.840
        38.100          37.000


 121931654.784 6  95011693.37042  23202820.426    23202820.5464   23202822.6954
        41.500          14.4004
 198900674.161 7                  37849564.158
        42.700
 135566533.192 6                  25797455.891
        38.100
 126298949.283 6                  24033899.188
        41.400
 202048202.775 7                  38448508.036
        44.300
 114252130.621 7  88862770.846 6  21335791.866    21335793.686    21335801.731
        45.000          40.600
 113080525.224 7  87951561.409 6  21161482.496    21161482.537    21161487.319
        46.700          39.500
 123709520.674 4  96218588.361 5  23118086.416                    23118097.355
        28.400          34.100
 115746552.378 6  90025088.411 5  21652785.884    21652785.619    21652782.558
        38.000          33.800
 111938273.466 5  87063107.424 6  20933009.738    20933008.478    20933020.237
        32.000          36.200
 141868992.637 5                  26996781.786
        33.000
