     2.11           OBSERVATION DATA    M (MIXED)           RINEX VERSION / TYPE
teqc  2019Feb25                         20260317 16:18:01UTCPGM / RUN BY / DATE
Linux 2.4.21-27.ELsmp|Opteron|gcc -static|Linux 64|=+       COMMENT
BIT 2 OF LLI FLAGS DATA COLLECTED UNDER A/S CONDITION       COMMENT
-Unknown-                                                   MARKER NAME
-Unknown-           -Unknown-                               OBSERVER / AGENCY
-Unknown-           -Unknown-           -Unknown-           REC # / TYPE / VERS
-Unknown-           -Unknown-                               ANT # / TYPE
        0.0000        0.0000        0.0000                  APPROX POSITION XYZ
        0.0000        0.0000        0.0000                  ANTENNA: DELTA H/E/N
     1     1                                                WAVELENGTH FACT L1/2
     7    L1    L2    C1    P1    P2    S1    S2            # / TYPES OF OBSERV
 SNR is mapped to RINEX snr flag value [0-9]                COMMENT
  L1 & L2: min(max(int(snr_dBHz/6), 0), 9)                  COMMENT
  2025     1     1    14     0    0.0000000     GPS         TIME OF FIRST OBS
    18                                                      LEAP SECONDS
                                                            END OF HEADER
 25  1  1 14  0  0.0000000  0 29E27E10G02E29G32E33G10G28G03G26R06R04
                                G04E04R21E21S35R05G25S31G31S33E19E11
                                R16R14R22E12R15
 132461761.586 6                  25206627.852
        40.700
 139946943.309 6                  26631019.561
        39.800
 128096333.948 6  99815338.32543  24375924.488    24375923.5324   24375923.3394
        37.300          18.9004
 127342735.857 8                  24232515.097
        48.500
 117046216.781 8  91204832.56746  22273162.224    22273161.8984   22273166.7484
        49.400          40.2004


 127538250.409 5  99380480.83341  24269720.859    24269720.4214   24269728.4524
        30.100           6.3004
 109676322.310 6  85462064.26342  20870688.638    20870688.0754   20870684.7134
        41.300          17.9004
 113535557.370 7  88469570.24447  21605092.032    21605091.8454   21605094.5514
        45.800          42.0004
 112457531.692 8  87629258.02847  21399941.739    21399941.3104   21399945.0114
        48.100          43.3004
 115255778.873 5                  21598883.247    21598882.924
        34.900
 119836821.375 6  93206607.282 6  22378698.651    22378694.882    22378683.091
        40.800          36.100
 128447322.039 6 100088830.82742  24442714.277    24442714.1214   24442715.6634
        37.200          17.3004


 127658724.813 5                  23856069.588    23856067.173
        34.100
 131500105.644 7                  25023635.988
        42.500


 104651076.198 7  81394854.652 8  19577043.336    19577042.799    19577049.844
        46.600          48.600
 121980230.195 5  95049525.47141  23212060.570    23212059.8914   23212080.9704
        30.500           9.9004
 198904441.773 7                  37850264.879
        43.800
 104959181.819 8  81786384.83248  19973065.145    19973064.7654   19973064.4054
        49.600          50.3004
 202023488.610 7                  38443804.720
        45.000
 122751252.023 6                  23358787.422
        40.000


 107745802.330 7  83802413.272 7  20170248.530    20170247.792    20170252.558
        45.300          43.600
 123329794.677 6                  23136344.099    23136343.599
        38.100
                  99486172.620 5                                  23961992.686
                        35.700
 139342154.834 5                  26515926.937
        30.700
 104462737.149 8  81248779.339 6  19548773.175    19548774.138    19548775.472
        49.100          40.200
 25  1  1 14  0 15.0000000  0 29E27E10G02E29G32E33G10G28G03G26R06R04
                                G04E04R21E21S35R05G25S31G31S33E19E11
                                R16R14R22E12R15
 132467686.112 6                  25207755.495
        40.100
 139955212.472 6                  26632593.674
        38.700
 128126097.865 6  99838530.90443  24381588.438    24381587.5134   24381586.1664
        39.500          19.6004
 127358182.820 8                  24235454.410
        48.300
 117074310.562 8  91226723.77246  22278508.507    22278508.1814   22278512.0454
        48.400          38.5004


 127595247.392 5  99424893.8434   24280567.629    24280567.1334   24280574.0194
        31.100           5.0004
 109700492.890 6  85480898.50343  20875288.747    20875288.2294   20875286.6744
        41.600          20.1004
 113499840.438 7  88441738.86646  21598294.665    21598294.4824   21598298.5614
        44.100          41.6004
 112416629.732 7  87597386.37946  21392158.638    21392158.2274   21392160.6594
        47.700          41.3004
 115208061.086 5                  21589939.976    21589941.208
        35.100
 119880395.538 6  93240498.101 5  22386800.165    22386806.209    22386818.386
        38.200          35.700
 128404769.651 6 100055673.12443  24434616.146    24434615.9454   24434619.5494
        38.200          18.7004


 127700088.689 4                  23863795.801    23863795.143
        28.300
 131466415.246 7                  25017224.959
        42.100


 104657234.762 7  81399644.595 8  19578195.987    19578195.481    19578202.552
        47.900          48.400
 122020143.189 4  95080626.66141  23219652.269    23219651.2724   23219675.7034
        26.200           9.0004
 198904449.008 7                  37850262.979
        43.300
 104958386.494 8  81785765.09748  19972914.465    19972914.0764   19972913.3364
        49.800          50.7004
 202023512.945 7                  38443807.256
        44.800
 122739936.691 6                  23356634.359
        40.400


 107701927.475 7  83768288.375 7  20162031.767    20162031.105    20162038.899
        43.500          43.000
                                                  23147731.793

                  99485716.615 6                                  23961879.179
                        36.900
 139366514.356 5                  26520563.947
        32.600
 104482547.167 7  81264187.139 6  19552477.738    19552477.094    19552482.358
        43.200          40.500
 25  1  1 14  0 30.0000000  0 30E27E10G02E29G32E33G10G28G03G26R06R04
                                G04E04R21E21S35R05G25S31G31G21S33E19
                                E11R16R14R22E12R15
 132473716.935 6                  25208904.001
        40.900
 139963586.519 6                  26634186.787
        38.000
 128155915.887 7  99861765.63443  24387263.646    24387262.7754   24387259.9394
        42.400          19.0004
 127373660.147 8                  24238399.746
        48.100
 117102456.761 8  91248655.84045  22283864.759    22283864.4294   22283867.2604
        48.000          35.8004


 127652275.025 5  99469330.61041  24291419.705    24291419.2454   24291425.1764
        32.100           6.4004
 109724738.184 7  85499790.94343  20879903.408    20879902.9174   20879902.3054
        42.400          20.3004
 113464229.945 7  88413990.43146  21591519.232    21591519.0634   21591522.3814
        44.900          41.2004
 112375831.254 8  87565595.38246  21384395.285    21384394.8614   21384394.7204
        48.700          39.5004
 115160369.791 5                  21581003.156    21581003.526
        34.100
 119924042.052 6  93274445.248 5  22394958.164    22394956.179    22394966.692
        37.600          35.300
 128362211.690 6 100022511.09842  24426519.544    24426519.4014   24426522.0044
        37.000          16.8004


 127741542.865 5                  23871548.479    23871544.814
        32.800
 131432793.976 7                  25010826.540
        42.000


 104663507.350 7  81404523.268 7  19579368.806    19579368.468    19579374.158
        47.900          46.200


 198904454.001 7                  37850267.178
        43.600
 104957707.441 8  81785235.93748  19972785.256    19972784.8674   19972784.5004
        51.500          51.4004
 130946737.247 5                  24918339.481
        34.800
 202023535.159 7                  38443812.018
        44.800
 122728646.585 6                  23354486.257
        40.700


 107658198.440 7  83734276.907 6  20153847.055    20153845.858    20153851.984
        44.600          41.700
 123451272.402 5                  23159130.034    23159127.088
        30.600
                  99485394.855 5                                  23961798.484
                        35.500
 139390956.309 5                  26525215.141
        35.800
 104502537.509 6  81279735.180 7  19556218.834    19556217.279    19556225.432
        41.800          42.000
 25  1  1 14  0 45.0000000  0 29E27E10G02E29G32E33G10G28G03G26R06R04
                                G04E04E21S35R05G25S31G31G21S33E19E11
                                R16R14R22E12R15
 132479852.854 7                  25210071.256
        43.500
 139972064.283 6                  26635799.379
        39.200
 128185786.560 6  99885041.29743  24392946.804    24392945.9334   24392945.7104
        41.600          18.0004
 127389166.782 7                  24241350.545
        47.600
 117130654.343 7  91270627.97045  22289230.983    22289230.6394   22289233.0024
        44.700          31.8004


 127709332.025 5  99513790.23041  24302278.522    24302278.1654   24302282.3654
        32.000           9.0004
 109749056.952 6  85518740.60243  20884532.047    20884531.6094   20884529.6884
        41.600          20.0004
 113428725.118 7  88386324.31446  21584762.737    21584762.5724   21584765.9244
        43.900          40.5004
 112335135.498 8  87533884.42646  21376651.369    21376650.9404   21376650.3934
        48.500          40.2004
 115112704.028 5                  21572075.520    21572072.001
        32.700
 119967759.760 6  93308447.844 5  22403117.723    22403118.827    22403131.678
        37.500          35.600
 128319647.073 5  99989343.97642  24418419.152    24418418.9834   24418421.9594
        35.300          12.3004


 131399241.012 6                  25004441.873
        41.900


 104669893.328 8  81409490.120 7  19580563.960    19580564.099    19580568.564
        48.700          44.500


 198904457.849 7                  37850268.528
        43.400
 104957143.512 8  81784796.48848  19972677.441    19972677.0444   19972677.3284
        51.100          51.4004
 130982125.336 6 102063978.50041  24925074.272    24925074.3074   24925066.0254
        36.300           7.5004
 202023555.903 7                  38443811.839
        44.300
 122717380.663 6                  23352343.210
        40.600


 107614614.346 7  83700378.154 6  20145687.450    20145688.965    20145691.675
        47.000          39.600
 123512080.989 6                  23170537.149    23170537.144
        36.000
                  99485206.050 5                                  23961754.635
                        32.400
 139415479.408 6                  26529880.945
        36.500
 104522706.881 7  81295422.484 7  19559993.561    19559994.486    19560000.881
        44.500          43.600
 25  1  1 14  1  0.0000000  0 28E27E10G02E29G32E33G10G28G03G26R04G04
                                E04R21E21S35R05G25S31G31G21S33E19E11
                                R16R22E12R15
 132486100.645 7                  25211260.170
        43.200
 139980652.462 6                  26637433.713
        40.200
 128215716.418 6  99908363.10943  24398641.073    24398640.1664   24398643.2424
        41.900          19.1004
 127404709.571 7                  24244308.357
        46.800
 117158910.164 7  91292645.53444  22294607.620    22294607.2944   22294611.8674
        46.200          28.9004


 127766424.782 5  99558277.81342  24313142.870    24313142.4104   24313146.9994
        33.800          12.1004
 109773455.729 7  85537752.63843  20889173.729    20889173.3004   20889172.4134
        42.200          21.9004
 113393333.215 7  88358746.25046  21578027.957    21578027.8194   21578030.5564
        42.300          39.6004
 112294549.687 8  87502259.13147  21368927.926    21368927.4934   21368928.7734
        48.800          42.3004
 120011555.652 6  93342511.154 6  22411301.173    22411302.030    22411311.604
        41.700          36.400
 128277082.797 6  99956177.07741  24410320.033    24410319.8504   24410322.2284
        36.100           9.0004


 127824723.722 6                  23887099.015    23887105.090
        40.200
 131365763.456 7                  24998071.333
        43.500


 104676399.706 8  81414550.600 7  19581780.947    19581781.136    19581785.847
        48.400          43.900


 198904466.101 7                  37850269.431
        42.800
 104956701.469 8  81784452.04348  19972593.210    19972592.8084   19972592.7564
        50.400          51.3004
 131017525.169 5 102091562.64941  24931808.865    24931808.6694   24931807.0854
        34.300           9.5004
 202023580.778 7                  38443816.387
        44.700
 122706145.674 7                  23350206.013
        42.400


 107571182.476 7  83666597.923 6  20137557.361    20137558.013    20137559.444
        47.600          37.300
 127909375.829 6                  23961740.592    23961741.191
        36.600
 139440090.322 6                  26534564.504
        37.200
 104543061.783 7  81311254.077 7  19563798.444    19563800.534    19563809.416
        43.400          43.300
 25  1  1 14  1 15.0000000  0 30E27E10G02E29G32G16E33G10G28G03G26R04
                                G04E04R21E21S35R05G25S31G31G21S33E19
                                E11R16R14R22E12R15
 132492454.067 7                  25212469.798
        44.400
 139989344.668 6                  26639087.299
        41.100
 128245698.982 7  99931726.05043  24404344.516    24404343.5734   24404348.9834
        42.100          19.3004
 127420282.297 7                  24247272.556
        47.200
 117187217.926 7  91314703.58544  22299993.912    22299993.5864   22300002.4984
        44.400          29.1004
 125473678.849 5                  23876848.041
        35.200


 127823546.827 3  99602788.37741  24324013.351    24324012.7394   24324017.4564
        22.400           6.9004
 109797928.112 7  85556821.99943  20893830.798    20893830.3514   20893829.8364
        42.600          22.3004
 113358048.142 7  88331251.40646  21571313.415    21571313.2634   21571316.0714
        44.700          40.4004
 112254067.836 8  87470714.83047  21361224.597    21361224.1824   21361227.1014
        49.800          44.3004
 120055422.947 6  93376630.000 6  22419491.563    22419493.090    22419502.240
        39.900          36.000
 128234512.726 5  99923005.80141  24402218.324    24402217.9984   24402222.0274
        32.600           7.6004


 127866450.145 5  99451679.105 5  23894885.542    23894886.809    23894899.170
        32.000          33.500
 131332355.133 7                  24991714.685
        44.700


 104683020.318 7  81419699.840 7  19583019.053    19583020.299    19583024.361
        47.300          43.500


 198904471.944 7                  37850272.016
        43.200
 104956374.842 8  81784197.51748  19972530.870    19972530.4684   19972530.1494
        50.300          51.4004
 131052930.126 4 102119150.88441  24938544.575    24938544.1464   24938546.9254
        29.000           8.3004
 202023603.073 7                  38443823.278
        44.100
 122694935.485 7                  23348072.683
        44.200


 107527896.736 8  83632931.290 6  20129455.330    20129455.701    20129458.889
        48.200          39.300
 123633848.926 6                  23193383.326    23193386.380
        38.800
 127909482.290 6                  23961760.917    23961759.498
        36.800
 139464782.556 6                  26539262.942
        37.300
 104563595.524 7  81327224.764 7  19567643.909    19567646.130    19567651.618
        45.600          43.500
 25  1  1 14  1 30.0000000  0 30E27E10G02E29G32G16E33G28G03G26R06R04
                                G04E04R21E21S35R05G25S31G31G21S33E19
                                E11R16R14R22E12R15
 132498912.447 7                  25213697.960
        44.000
 139998140.417 6                  26640761.029
        39.900
 128275733.331 6  99955129.37643  24410061.245    24410060.2444   24410062.9704
        40.500          19.7004
 127435884.503 7                  24250242.002
        47.400
 117215577.155 7  91336801.70744  22305390.485    22305390.1554   22305399.0174
        44.200          28.2004
 125413978.362 5                  23865486.625
        33.100


 109822473.282 7  85575948.04943  20898501.363    20898500.9614   20898501.2414
        43.100          23.9004
 113322869.786 7  88303839.70647  21564618.486    21564618.3264   21564622.4454
        44.900          42.3004
 112213689.809 8  87439251.40547  21353540.719    21353540.2954   21353543.8614
        49.000          44.6004
 114969907.188 5                  21545309.630    21545309.228
        34.900
 120099361.334 6  93410804.029 5  22427700.789    22427700.780    22427705.874
        41.800          34.400




 127908263.591 5  99484200.560 5  23902700.696    23902699.726    23902712.043
        30.900          30.300
 131299015.792 7                  24985370.025
        46.000


 104689754.662 7  81424937.674 7  19584277.279    19584275.591    19584285.752
        43.900          45.300


 198904475.892 7                  37850271.560
        43.300
 104956163.038 8  81784032.47948  19972490.125    19972489.7284   19972489.8514
        49.900          51.9004
 131088339.545 4 102146742.5194   24945284.145    24945283.6454   24945286.3134
        27.700           5.0004
 202023624.653 7                  38443827.043
        45.100
 122683749.658 7                  23345943.999
        44.400


 107484757.233 8  83599378.346 7  20121379.399    20121378.636    20121385.625
        48.000          42.400
 123694800.782 6                  23204814.875    23204817.721
        36.100
 127909759.506 6                  23961811.134    23961810.501
        37.500
 139489555.334 5                  26543975.875
        34.400
 104584307.434 7  81343334.080 7  19571519.788    19571521.690    19571528.716
        46.400          44.400
 25  1  1 14  1 45.0000000  0 30E27E10G02E29G32G16E33G28G03G26R06R04
                                G04E04R21E21S35R05G25S31G31G21S33E19
                                E11R16R14R22E12R15
 132505476.380 6                  25214947.268
        41.000
 140007040.053 6                  26642454.751
        40.000
 128305819.799 6  99978573.33143  24415789.652    24415788.5974   24415785.4444
        39.500          21.0004
 127451516.806 7                  24253216.571
        47.900
 117243988.478 7  91358940.35144  22310797.151    22310796.8384   22310803.0364
        43.100          28.3004
 125354286.796 5                  23854132.570
        30.600


 109847091.699 7  85595131.22044  20903186.013    20903185.6334   20903187.2434
        44.600          25.8004
 113287799.030 7  88276511.84547  21557945.485    21557945.3514   21557948.9514
        43.800          42.6004
 112173416.564 8  87407869.64047  21345877.028    21345876.5994   21345880.0904
        48.100          44.1004
 114922355.444 6                  21536397.756    21536396.900
        36.100
 120143371.245 7  93445033.657 5  22435927.948    22435927.841    22435922.167
        43.200          32.800




 127950164.498 5  99516790.424 5  23910532.023    23910532.659    23910539.913
        31.600          34.200
 131265746.248 7                  24979039.541
        46.800


 104696603.587 7  81430264.555 7  19585559.892    19585559.635    19585566.720
        47.600          44.900
 122261957.786 5                  23265667.156
        34.100
 198904478.445 7                  37850271.368
        42.900
 104956066.647 8  81783957.38848  19972472.323    19972471.9264   19972471.6834
        50.300          52.5004
 131123753.592 4 102174337.87941  24952023.699    24952023.4044   24952025.9024
        28.300           8.1004
 202023642.836 7                  38443831.622
        45.100
 122672588.794 7                  23343819.956
        43.200


 107441764.779 8  83565939.728 7  20113330.863    20113331.115    20113336.472
        48.900          42.800
 123755797.491 5                  23216259.213    23216260.429
        33.300
 127910208.375 5                  23961890.809    23961889.502
        34.600
 139514409.072 5                  26548705.094
        33.100
 104605197.530 8  81359581.916 6  19575431.809    19575432.173    19575437.146
        48.700          41.800
 25  1  1 14  2  0.0000000  0 28E27E10G02E29G32E33G28G03G26R06R04G04
                                E04R21E21S35R05G25S31G31G21S33E19E11
                                R16R22E12R15
 132512147.791 6                  25216217.781
        39.500
 140016045.557 6                  26644168.629
        39.900
 128335959.975 6 100002059.11043  24421525.491    24421524.4454   24421519.8574
        40.800          21.2004
 127467181.261 7                  24256197.024
        47.700
 117272453.892 7  91381121.09644  22316213.285    22316212.9724   22316217.4604
        44.400          29.3004
 144429640.707 5                  27484045.259
        34.300
 109871785.152 7  85614372.87244  20907884.920    20907884.5674   20907888.0494
        44.300          27.6004
 113252838.232 7  88249269.66547  21551293.385    21551293.2694   21551295.3834
        45.600          42.7004
 112133250.450 7  87376571.37247  21338233.498    21338233.0604   21338236.5134
        47.200          43.7004
 114874833.587 5                  21527489.571    21527488.949
        35.100
 120187454.411 6  93479320.435 5  22444144.479    22444146.299    22444153.915
        38.000          30.500




 127992154.004 5  99549449.042 5  23918366.924    23918371.619    23918387.557
        30.200          35.300
 131232548.700 7                  24972721.986
        46.500


 104703569.185 8  81435682.192 7  19586865.626    19586865.935    19586869.250
        50.700          44.400
 122302637.673 6                  23273407.172
        36.000
 198904481.059 7                  37850275.964
        44.000
 104956087.390 8  81783973.57448  19972476.982    19972476.5854   19972476.0074
        51.500          53.6004
 131159173.937 5 102201938.0414   24958765.026    24958764.7984   24958766.4754
        32.200           5.9004
 202023662.113 7                  38443836.930
        44.700
 122661455.172 6                  23341701.804
        41.600


 107398921.587 8  83532617.284 7  20105308.944    20105309.941    20105315.696
        48.700          43.300
 127910830.667 5                  23962011.918    23962007.736
        34.000
 139539345.563 5                  26553450.906
        35.400
 104626267.866 8  81375969.987 6  19579374.498    19579374.552    19579377.858
        48.000          38.400
 25  1  1 14  2 15.0000000  0 29E27E10G02E29G32E33G10G28G03G26R06R04
                                G04E04R21E21S35R05G25S31G31G21S33E19
                                E11R16R22E12R15
 132518930.436 6                  25217509.260
        39.300
 140025160.617 6                  26645901.242
        37.800
 128366157.484 7 100025589.56344  24427271.302    24427270.2344   24427266.3844
        44.700          24.1004
 127482881.697 7                  24259184.238
        47.100
 117300977.218 7  91403346.99145  22321641.619    22321641.2984   22321645.5184
        43.200          32.7004
 144473770.606 5                  27492443.599
        35.500


 109896557.145 7  85633675.71944  20912599.966    20912599.6674   20912602.6284
        42.700          27.6004
 113217991.467 7  88222116.34847  21544661.580    21544661.4604   21544663.6134
        46.400          43.6004
 112093195.524 7  87345359.75247  21330611.391    21330610.9584   21330614.3864
        47.300          43.6004
 114827345.544 5                  21518591.342    21518589.374
        35.200
 120231614.951 7  93513667.352 5  22452395.478    22452396.215    22452404.000
        42.600          31.100
 128064198.622 5  99790324.07041  24369804.932    24369804.6914   24369816.4774
        35.300           9.9004


                  99582179.370 5                  23926251.588    23926248.267
                        35.200
 131199427.153 7                  24966419.317
        46.300


 104710655.687 8  81441193.958 7  19588190.106    19588189.486    19588194.416
        49.300          42.900
 122343430.887 5  95332605.70341  23281170.478    23281170.5624   23281199.6224
        35.600           9.2004
 198904487.372 7                  37850271.104
        42.800
 104956228.892 8  81784083.84949  19972503.850    19972503.4534   19972503.2754
        51.800          54.1004
 131194603.995 5 102229545.93441  24965509.888    24965509.7454   24965508.9084
        32.300           7.1004
 202023685.394 7                  38443839.519
        45.800
 122650352.298 6                  23339589.333
        41.500
 144328332.939 5                  27464761.923
        34.200
 107356232.028 8  83499414.340 7  20097319.944    20097320.135    20097323.435
        51.000          42.700
                  99486888.698 5                  23962165.522    23962170.644
                        32.900
 139564368.422 5                  26558211.568
        33.800
 104647521.824 7  81392500.782 5  19583351.994    19583351.560    19583354.566
        46.600          35.100
 25  1  1 14  2 30.0000000  0 29E27E10G02E29G32E33G10G28G03G26R06R04
                                G04E04E21S35R05G25S31G31G21S33E19E11
                                R16R14R22E12R15
 132525820.927 6                  25218819.314
        41.800
 140034381.761 5                  26647656.828
        32.400
 128396408.289 7 100049161.52044  24433026.418    24433025.3144   24433022.5294
        45.300          25.2004
 127498614.720 7                  24262178.386
        44.900
 117329555.003 7  91425615.33845  22327080.910    22327080.6154   22327084.4914
        45.500          33.7004
 144517893.372 5                  27500839.809
        34.000
 128109625.035 5                  24378449.475
        33.500
 109921404.070 7  85653036.98944  20917329.040    20917328.7594   20917330.3684
        44.800          27.1004
 113183255.591 7  88195049.44047  21538051.368    21538051.2394   21538053.5184
        47.000          44.3004
 112053248.735 8  87314232.38447  21323010.151    21323009.7134   21323013.0934
        48.200          43.9004
 114779888.460 6                  21509697.067    21509696.779
        36.000
 120275849.156 6                  22460656.989    22460655.248
        41.100
 128021609.403 6  99757137.68141  24361704.355    24361704.2884   24361707.5344
        36.400          11.8004
 144236717.917 5                  27447333.045
        35.600
 131166378.346 7                  24960130.243
        45.800


 104717859.433 8  81446796.877 7  19589537.351    19589537.144    19589540.723
        51.000          42.000
 122384333.097 5  95364477.59242  23288953.212    23288953.0254   23288986.0814
        34.600          12.2004
 198904494.914 7                  37850269.485
        42.600
 104956487.584 8  81784285.44549  19972553.032    19972552.6354   19972552.6514
        51.100          54.0004
 131230040.256 5 102257158.4774   24972260.634    24972260.6174   24972252.2544
        30.700           5.6004
 202023709.582 7                  38443846.329
        46.000
 122639277.014 7                  23337480.834
        43.200
 144318261.554 5                  27462845.999
        34.800
 107313692.789 8  83466328.305 7  20089355.906    20089356.855    20089361.926
        50.700          44.400
                  96397032.928 5                                  23250648.713
                        34.300
                  99487645.561 5                                  23962353.833
                        35.400
 139589473.883 5                  26562990.341
        34.700
 104668955.385 8  81409171.284 6  19587364.359    19587365.324    19587369.765
        48.300          37.500
 25  1  1 14  2 45.0000000  0 30E27E10G02E29G32E33G10G28G03G26R06R04
                                G04E04R21E21S35R05G25S31G31G21S33E19
                                E11R16R14R22E12R15
 132532816.560 7                  25220150.158
        42.300


 128426709.516 7 100072772.78644  24438792.710    24438791.6154   24438790.5254
        43.300          27.2004
 127514377.691 7                  24265178.735
        45.000
 117358184.629 7  91447924.04645  22332527.749    22332527.4774   22332532.8194
        46.100          30.3004
 144562006.048 5                  27509235.182
        33.200
 128166926.237 5                  24389358.342
        30.100
 109946322.990 7  85672454.33144  20922070.629    20922070.3254   20922071.7054
        46.500          27.2004
 113148628.250 7  88168067.06047  21531462.061    21531461.9234   21531464.4394
        46.500          44.3004
 112013407.775 7  87283187.47147  21315428.540    21315428.0934   21315431.7664
        46.000          43.7004
 114732459.870 6                  21500810.578    21500809.916
        37.400
 120320154.346 6                  22468932.016    22468928.340
        41.400
 127979014.337 5  99723946.75941  24353605.177    24353604.7124   24353600.9434
        31.400           7.1004
 144205163.477 6                  27441327.725
        36.000
 128118575.600 5  99647842.913 5  23942020.733    23942019.956    23942031.150
        32.000          35.300
 131133399.872 7                  24953854.141
        45.800


 104725178.312 8  81452489.290 7  19590906.901    19590907.401    19590910.229
        52.200          42.300
 122425341.881 5  95396432.56541  23296761.920    23296762.0044   23296790.5474
        33.300           6.9004
 198904500.488 7                  37850274.525
        43.000
 104956860.726 8  81784576.23749  19972624.149    19972623.7694   19972623.7324
        52.200          54.3004
 131265479.710 4 102284773.5434   24979011.002    24979010.8554   24978996.3244
        29.500           1.6004
 202023731.807 7                  38443848.654
        45.400
 122628226.523 7                  23335377.377
        43.900
 144308294.455 5                  27460948.282
        35.100
 107271301.555 7  83433357.371 7  20081418.384    20081419.256    20081425.190
        47.700          44.800
 124000156.938 5  96444618.832 5  23262114.825                    23262124.990
        34.800          35.500
                  99488535.114 5                                  23962560.284
                        34.700
 139614659.260 5                  26567783.292
        35.700
 104690565.646 7  81425979.195 6  19591405.801    19591406.767    19591412.541
        44.400          38.700
 25  1  1 14  3  0.0000000  0 29E27E10G02E29G32E33G10G28G03G26R06R04
                                G04E04R21E21S35R05G25S31G31S33E19E11
                                R16R14R22E12R15
 132539919.579 7                  25221501.721
        42.800


 128457063.412 7 100096425.08944  24444568.878    24444567.7924   24444569.1444
        43.000          28.5004
 127530173.337 7                  24268183.908
        45.900
 117386868.790 7  91470275.14844  22337985.771    22337985.5034   22337985.3954
        45.900          24.5004
 144606110.999 5                  27517628.054
        32.300
 128224257.043 4                  24400266.417
        24.500
 109971316.373 7  85691929.65544  20926826.505    20926826.1924   20926827.1594
        47.900          28.4004
 113114112.634 7  88141171.79447  21524894.110    21524893.9584   21524896.5024
        44.700          44.2004
 111973675.662 7  87252227.37647  21307867.561    21307867.0794   21307870.6724
        44.200          42.4004
 114685062.629 6                  21491927.051    21491927.861
        37.100


 127936416.049 4                  24345505.263
        25.500
 144173605.754 5                  27435322.451
        35.200
                  99680775.257 5                  23949934.678    23949957.794
                        32.500
 131100494.587 7                  24947592.372
        45.100


 104732615.004 8  81458273.338 7  19592296.848    19592297.686    19592301.932
        51.900          43.200


 198904506.199 7                  37850274.762
        42.600
 104957350.790 8  81784958.09949  19972716.955    19972716.5804   19972717.0234
        51.800          54.6004
 202023754.400 7                  38443854.642
        44.700
 122617203.757 7                  23333280.050
        43.800
 144298434.233 5                  27459072.969
        35.800
 107229061.710 7  83400504.198 7  20073510.301    20073509.465    20073518.587
        44.100          45.700
 124061383.732 6  96492239.633 5  23273606.007    23273606.578    23273610.522
        38.600          33.800


 139639926.839 5                  26572590.924
        35.400
 104712355.176 7  81442926.505 6  19595485.947    19595486.439    19595490.885
        45.000          40.200
 25  1  1 14  3 15.0000000  0 29E27E10G02E29G32E33G10G28G03G26R06R04
                                G04E04R21E21S35R05G25S31G31S33E19E11
                                R16R14R22E12R15
 132547127.790 7                  25222873.039
        44.700


 128487467.213 7 100120116.29844  24450354.430    24450353.3224   24450356.3274
        44.000          28.9004
 127545999.104 7                  24271195.073
        46.900
 117415604.894 7  91492666.73444  22343454.806    22343454.5254   22343454.6324
        44.400          26.3004
 144650205.363 5                  27526020.785
        30.100


 109996381.474 8  85711460.88844  20931595.913    20931595.6054   20931596.8874
        48.600          29.4004
 113079706.178 7  88114361.53147  21518347.051    21518346.8994   21518349.6304
        43.800          43.6004
 111934050.125 7  87221350.35347  21300327.202    21300326.6974   21300330.1574
        44.900          42.7004
 114637694.766 6                  21483050.368    21483049.758
        37.000
 120408982.435 7                  22485515.713    22485518.534
        43.500


 144142042.085 6                  27429317.649
        36.600
 128203342.738 5  99713772.489 5  23957867.461    23957867.967    23957861.391
        33.500          32.500
 131067660.088 7                  24941344.372
        45.600


 104740166.917 8  81464147.031 7  19593710.027    19593710.200    19593715.425
        51.800          44.500
 122507682.192 4  95460594.1874   23312428.630    23312428.8754   23312460.6154
        26.700           4.0004
 198904510.755 7                  37850276.581
        43.000
 104957955.128 8  81785429.01149  19972831.955    19972831.5844   19972831.9484
        51.900          54.3004
 202023775.704 7                  38443855.478
        44.300
 122606205.997 7                  23331187.548
        44.700
 144288678.277 5                  27457213.627
        35.700
 107186970.554 7  83367766.667 7  20065631.176    20065629.984    20065639.427
        45.700          46.400
 124122652.145 6  96539892.948 5  23285098.969    23285100.593    23285106.822
        39.400          31.800


 139665273.831 5                  26577415.286
        34.100
 104734320.834 7  81460010.898 7  19599598.196    19599598.507    19599602.680
        45.200          42.200
 25  1  1 14  3 30.0000000  0 30E27E10G02E29G32G16E33G10G28G03G26R06
                                R04G04E04R21E21S35R05G25S31G31S33E19
                                E11R16R14R22E12R15
 132554442.852 7                  25224263.906
        43.700
 140072304.740 5                  26654875.709
        32.800
 128517922.343 7 100143847.50944  24456150.306    24456149.1574   24456152.0024
        42.800          27.5004
 127561856.944 7                  24274213.355
        47.100
 117444394.843 7  91515100.42945  22348935.146    22348934.8604   22348937.8474
        44.600          30.1004
 124936770.843 6                  23774678.390
        36.800
 144694290.788 4                  27534403.959
        24.000


 110021519.838 8  85731049.17644  20936379.581    20936379.3094   20936380.2674
        48.100          29.0004
 113045411.266 7  88087638.15746  21511820.438    21511820.2824   21511823.5484
        43.200          41.6004
 111894533.413 7  87190558.12047  21292806.658    21292806.1174   21292810.5874
        46.300          44.5004
 114590358.158 5                  21474178.406    21474178.676
        35.100
 120453504.540 7                  22493831.749    22493832.420
        44.300


 144110474.437 6                  27423310.722
        38.400
 128245853.399 5  99746836.104 5  23965817.614    23965817.153    23965808.149
        32.700          35.300
 131034898.556 7                  24935110.325
        44.800


 104747836.173 8  81470111.992 7  19595145.995    19595146.159    19595150.606
        53.100          45.800
 122549012.756 4  95492799.9794   23320299.763    23320300.2324   23320325.0144
        27.300           2.2004
 198904515.055 7                  37850275.151
        42.600
 104958675.592 8  81785990.41249  19972969.081    19972968.7064   19972969.0354
        51.800          54.1004
 202023796.224 7                  38443861.559
        45.200
 122595235.266 7                  23329100.288
        45.500
 144279028.665 5                  27455377.572
        35.400
 107145030.428 8  83335146.617 7  20057781.151    20057780.757    20057787.482
        48.600          46.100
 124183963.970 6  96587579.975 4  23296599.798    23296600.815    23296609.445
        36.400          29.100
 127918222.788 6  99492009.069 6  23963396.005    23963393.841    23963396.535
        36.600          36.400
 139690702.046 5                  26582254.783
        35.500
 104756464.132 7  81477233.532 7  19603741.733    19603741.631    19603744.002
        44.400          43.100
 25  1  1 14  3 45.0000000  0 31E27E10G02E29G32G16E33G10G28G03G26R06
                                R04G04E04R21E21S35R05G25S31G31G21S33
                                E19E11R16R14R22E12R15
 132561866.095 7                  25225677.026
        43.500
 140082049.082 5                  26656730.680
        32.700
 128548429.699 7 100167619.36944  24461955.823    24461954.6974   24461956.9954
        44.200          25.8004
 127577748.149 7                  24277237.331
        46.600
 117473239.921 7  91537577.15345  22354424.432    22354424.1734   22354429.4244
        45.600          34.7004
 124877180.521 6                  23763338.364
        36.900
 144738368.396 4                  27542794.180
        25.300
 128396469.536 5 100049209.17541  24433030.959    24433030.9674   24433039.3654
        34.400           7.3004
 110046732.593 8  85750695.44144  20941177.544    20941177.3124   20941176.2924
        48.000          28.2004
 113011229.554 6  88061003.03246  21505314.689    21505314.5244   21505318.6344
        40.700          39.6004
 111855127.116 7  87159851.93647  21285308.512    21285307.9804   21285312.1234
        46.700          45.7004
 114543054.481 6                  21465313.811    21465314.570
        36.600
 120498100.488 7                  22502160.619    22502161.671
        44.500
 127808563.389 6                  24321162.917
        37.300
 144078903.960 6                  27417303.648
        37.100
 128288450.054 6  99779966.580 6  23973767.842    23973766.374    23973770.834
        38.000          37.000
 131002211.412 7                  24928890.453
        43.700


 104755624.439 8  81476169.537 7  19596602.938    19596603.470    19596607.975
        53.400          46.600


 198904519.684 7                  37850271.971
        42.800
 104959513.229 8  81786643.13849  19973128.786    19973128.4064   19973128.4804
        52.500          54.3004
 131407304.774 5                  25005979.149
        32.600
 202023819.070 7                  38443863.451
        45.300
 122584293.011 7                  23327017.778
        45.000
 144269486.833 5                  27453563.408
        35.900
 107103242.949 8  83302645.271 7  20049959.745    20049959.518    20049965.080
        51.800          45.900
 124245319.982 5                  23308112.457    23308110.302
        33.500
 127920057.566 6  99493436.286 5  23963735.174    23963738.250    23963741.584
        36.400          35.200
 139716212.450 5                  26587108.771
        33.700
 104778785.953 5  81494595.081 7  19607919.334    19607913.042    19607920.855
        34.000          44.000
 25  1  1 14  4  0.0000000  0 30E27E10G02E29G32G16E33G10G28G03G26R06
                                R04G04E04R21E21S35R05G25S31G31G21S33
                                E19E11R16R22E12R15
 132569398.874 6                  25227110.613
        41.700
 140091900.816 5                  26658603.701
        33.900
 128578990.604 7 100191432.95244  24467770.293    24467769.1804   24467772.6404
        45.500          24.9004
 127593674.230 7                  24280268.541
        46.800
 117502141.631 6  91560097.94645  22359921.646    22359921.4594   22359931.2064
        41.300          34.5004
 124817606.857 6                  23752001.592
        36.600
 144782439.361 5                  27551183.461
        30.300
 128453915.138 5 100093971.80541  24443967.305    24443967.3184   24443971.8614
        33.900           9.0004
 110072021.112 8  85770400.80144  20945989.774    20945989.5334   20945986.9224
        48.300          28.5004
 112977162.729 6  88034457.43546  21498832.364    21498832.2304   21498835.8814
        41.800          38.9004
 111815833.023 7  87129233.17747  21277830.774    21277830.2424   21277834.6764
        45.400          44.7004
 114495785.531 5                  21456455.011    21456456.196
        35.400


 127765952.696 6                  24313056.192
        40.100
 144047332.246 5                  27411295.608
        34.600
 128331133.267 6  99813164.610 6  23981739.287    23981741.697    23981747.949
        36.300          38.100
 130969600.316 7                  24922685.291
        42.600


 104763533.002 8  81482320.605 7  19598081.894    19598082.343    19598087.094
        53.100          46.500


 198904528.007 7                  37850279.242
        43.400
 104960469.347 8  81787388.17349  19973310.490    19973310.1154   19973310.4704
        53.100          54.4004
 131442767.334 4                  25012727.831
        29.400
 202023843.938 7                  38443870.811
        44.600
 122573380.540 7                  23324941.235
        44.600
 144260054.241 5                  27451766.162
        35.700
 107061609.888 8  83270264.020 7  20042165.715    20042166.857    20042170.425
        53.300          44.200
 127922067.270 5  99494999.363 5  23964106.719    23964108.929    23964113.439
        32.000          30.600
 139741806.262 5                  26591978.144
        31.800
 104801287.787 6  81512096.468 7  19612126.445    19612124.095    19612132.082
        40.800          44.800
 25  1  1 14  4 15.0000000  0 29E27E10G02E29G32G16E33G10G28G03G26R06
                                R04G04E04R21E21S35R05S31G31G21S33E19
                                E11R16R22E12R15
 132577035.078 6                  25228564.183
        40.600
 140101854.007 5                  26660498.291
        34.500
 128609598.886 7 100215283.50443  24473594.892    24473593.7974   24473597.1074
        44.200          23.5004
 127609629.338 7                  24283304.365
        47.300
 117531094.077 6  91582658.26744  22365432.268    22365432.1124   22365441.0634
        39.800          29.5004
 124758044.470 5                  23740669.439
        35.300
 144826497.509 5                  27559567.866
        32.500
 128511385.160 4 100138753.26641  24454937.223    24454937.5534   24454907.7514
        27.300           9.0004
 110097379.097 7  85790160.28344  20950815.090    20950814.8184   20950812.0404
        47.800          29.5004
 112943205.224 7  88007997.04746  21492370.401    21492370.3084   21492373.6404
        43.200          39.2004
 111776645.578 7  87098697.50147  21270373.502    21270372.9664   21270377.2314
        44.100          43.1004
 114448545.653 5                  21447603.841    21447603.282
        33.900
 120587511.654 6  93790312.100 6  22518856.675    22518854.958    22518869.344
        38.700          36.000
 127723335.277 6                  24304944.400
        39.700
 144015753.349 5                  27405284.289
        30.500
                  99846425.117 5                                  23989739.598
                        35.100
 130937059.649 6                  24916493.138
        39.300


 104771556.149 8  81488560.831 7  19599582.279    19599583.663    19599588.513
        52.900          47.200
 198904532.979 7                  37850279.018
        42.700
 104961537.882 8  81788220.81449  19973513.719    19973513.3444   19973513.7774
        52.900          54.1004
 131478229.962 5                  25019475.110
        30.600
 202023865.654 7                  38443875.041
        44.600
 122562492.228 7                  23322869.045
        44.200
 144250725.176 5                  27449992.083
        33.800
 107020125.921 8  83237998.785 6  20034399.213    20034399.805    20034401.468
        52.900          39.800
 127924246.266 5  99496693.961 4  23964528.710    23964525.917    23964529.180
        35.200          29.800
 139767477.384 4                  26596861.024
        28.300
 104823963.020 7  81529732.822 7  19616369.633    19616369.614    19616374.860
        44.600          44.700
 25  1  1 14  4 30.0000000  0 29E27E10G02E29G32G16E33G10G28G03G26R06
                                R04G04E04E21S35R05G25S31G31G21S33E19
                                E11R16R22E12R15
 132584781.608 6                  25230038.657
        40.100
 140111915.471 6                  26662414.588
        38.000
 128640260.928 7 100239175.89443  24479430.379    24479429.2664   24479431.2874
        42.600          20.8004
 127625620.410 7                  24286347.045
        47.600
 117560104.169 5  91605263.49344  22370952.075    22370951.9194   22370959.9314
        35.800          26.5004
 124698500.687 5                  23729337.406
        32.900
 144870549.561 4                  27567948.525
        26.100


 110122813.205 7  85809979.04045  20955655.386    20955655.0874   20955652.1964
        47.200          30.5004
 112909364.202 7  87981627.39146  21485930.636    21485930.5384   21485933.1044
        44.300          40.1004
 111737572.010 7  87068250.56047  21262938.669    21262938.0844   21262941.7944
        46.600          42.9004
 114401342.272 5                  21438756.028    21438754.022
        30.200
 120632328.012 6  93825168.998 6  22527224.807    22527225.572    22527240.834
        41.400          39.600
 127680718.084 6  99491434.21742  24296836.180    24296836.1974   24296825.1724
        39.900          12.6004
 143984174.212 5                  27399276.164
        31.500
 130904596.437 6                  24910315.142
        37.600


 104779701.392 8  81494895.965 7  19601106.117    19601106.564    19601112.200
        51.300          47.300
 122715334.695 5  95622505.55641  23351959.326    23351959.9654   23351991.4984
        35.800           6.4004
 198904541.133 7                  37850280.727
        42.700
 104962725.612 8  81789146.32148  19973740.028    19973739.6624   19973739.3664
        52.300          53.2004
 131513699.037 5                  25026223.836
        32.000
 202023891.138 7                  38443880.412
        45.100
 122551634.763 7                  23320802.635
        43.900
 144241506.709 5                  27448238.166
        32.200
 106978798.023 8  83205854.877 6  20026660.978    20026661.425    20026664.265
        50.600          37.600
 127926601.403 5  99498525.761 5  23964965.943    23964961.319    23964972.420
        30.900          32.000
 139793232.617 4                  26601763.252
        27.300
 104846818.497 7  81547509.308 7  19620647.456    19620647.361    19620652.267
        47.200          45.100
 25  1  1 14  4 45.0000000  0 30E27E10G02E29G32G16E33G10G28G03G26R06
                                R04G04E04R21E21S35R05G25S31G31G21S33
                                E19E11R16R22E12R15
 132592630.226 6                  25231531.701
        40.600
 140122076.754 6                  26664346.648
        39.700
 128670968.025 7 100263103.41942  24485273.444    24485272.3184   24485272.1114
        42.000          17.1004
 127641639.163 7                  24289395.171
        47.800
 117589163.654 5  91627907.13244  22376477.336    22376477.1444   22376487.5584
        33.900          24.5004
 124638967.355 5                  23718009.225
        31.300


 128626363.883 5                  24476782.244
        34.400
 110148314.913 7  85829850.45145  20960508.368    20960508.0874   20960506.1024
        47.100          32.1004
 112875631.679 7  87955342.28646  21479512.060    21479511.9264   21479513.2854
        45.800          40.8004
 111698604.386 7  87037886.20247  21255521.967    21255521.3734   21255526.3154
        47.200          43.7004
 114354167.267 5                  21429914.776    21429914.147
        31.100
 120677211.776 6  93860078.483 6  22535607.848    22535606.560    22535621.196
        36.300          38.900
 127638092.993 6  99458219.84342  24288724.977    24288725.2054   24288720.1504
        39.400          14.7004
 143952586.470 5                  27393264.177
        33.300


 130872202.584 6                  24904150.076
        39.700


 104787960.119 8  81501319.412 7  19602651.484    19602650.951    19602656.037
        49.300          46.500
 122757195.852 5  95655124.3134   23359925.212    23359925.8064   23359956.1064
        34.600           3.6004
 198904545.201 7                  37850286.115
        43.600
 104964024.121 8  81790158.13548  19973987.308    19973986.9374   19973986.2004
        51.300          53.0004
 131549166.175 4                  25032973.463
        29.500
 202023912.422 7                  38443885.921
        46.100
 122540799.985 7                  23318741.043
        44.500
 144232389.965 4                  27446503.685
        28.300
 106937618.475 8  83173826.351 6  20018952.078    20018951.803    20018957.584
        48.800          38.500
                  99500488.174 5                                  23965445.831
                        32.300


 104869845.346 8  81565419.064 7  19624956.181    19624956.650    19624960.492
        48.300          43.900
 25  1  1 14  5  0.0000000  0 30E27E10G02E29G32G16E33G10G28G03G26R06
                                R04G04E04R21E21S35R05G25S31G31G21S33
                                E19E11R16R14E12R15
 132600586.295 7                  25233045.770
        42.100
 140132343.201 6                  26666300.478
        41.600
 128701725.453 6 100287070.16442  24491124.916    24491123.7994   24491123.7034
        40.300          15.0004
 127657691.071 7                  24292449.975
        46.800
 117618277.941 6  91650593.55645  22382028.185    22382028.0874   22382026.5804
        38.800          30.1004
 124579450.585 5  97074935.82741  23706683.638    23706683.9424   23706690.7474
        34.700           6.4004


 128683914.324 5 100273169.21542  24487729.459    24487729.5614   24487736.8434
        31.700          13.9004
 110173889.566 7  85849778.69245  20965374.674    20965374.3974   20965373.9504
        47.900          33.7004
 112842013.504 7  87929146.29147  21473115.611    21473115.4734   21473116.2714
        45.000          42.1004
 111659748.426 7  87007608.86547  21248128.172    21248127.5914   21248132.2014
        47.600          44.0004
 114307026.308 5                  21421084.025    21421080.354
        32.800
 120722168.444 5  93895044.557 6  22544002.322    22543999.035    22544016.108
        32.900          38.300
 127595465.398 5  99425003.57242  24280614.436    24280614.7044   24280611.2034
        35.800          15.4004
 143920995.625 5                  27387252.750
        35.700
 128502860.964 5                  24013816.377    24013810.895
        30.600
 130839883.771 6                  24897998.773
        40.900


 104796338.177 8  81507835.620 7  19604219.375    19604218.956    19604224.727
        49.200          47.100
 122799163.066 4  95687825.9234   23367913.842    23367914.0564   23367941.6374
        28.700           4.7004
 198904550.595 7                  37850285.256
        42.900
 104965438.673 8  81791260.38548  19974256.592    19974256.2264   19974255.4634
        51.400          52.6004
 131584636.225 5                  25039725.459
        30.800
 202023934.351 7                  38443888.313
        45.200
 122529993.439 7                  23316684.430
        44.700
 144223380.781 4                  27444788.457
        25.200
 106896592.660 8  83141917.465 6  20011273.754    20011273.495    20011275.833
        50.100          37.000
 124552840.695 6                  23365781.268    23365782.307
        37.000


 104893048.933 8  81583466.287 7  19629298.835    19629297.813    19629302.818
        48.300          43.400
 25  1  1 14  5 15.0000000  0 31E27E10G02E29G32G16E33G10G28G03G26R06
                                R04G04E04R21E21S35R05G25S31G31G21S33
                                E19E11R16R14R22E12R15
 132608645.601 7                  25234579.503
        43.600
 140142710.589 6                  26668272.844
        41.600
 128732528.645 6 100311072.58441  24496986.273    24496985.3214   24496983.9304
        39.800          10.4004
 127673772.023 7                  24295510.531
        46.300
 117647442.905 6  91673319.41745  22387569.654    22387569.4674   22387576.5394
        38.700          33.7004
 124519946.294 5  97028568.92441  23695363.300    23695363.2114   23695364.9814
        35.500           8.1004


 128741487.859 4 100318031.45941  24498687.212    24498686.9984   24498694.0494
        28.200           9.7004
 110199532.740 7  85869760.34445  20970254.334    20970254.0534   20970254.3464
        46.500          34.5004
 112808505.747 7  87903036.33747  21466739.192    21466739.0764   21466739.8944
        46.300          42.7004
 111621000.331 7  86977415.57547  21240755.138    21240754.5574   21240759.0054
        46.800          45.3004
 114259915.626 5                  21412254.898    21412252.960
        33.200
 120767194.089 6  93930064.125 5  22552412.136    22552410.810    22552422.723
        36.100          35.600
 127552831.067 5  99391781.99142  24272500.748    24272500.9984   24272498.7854
        34.500          15.2004
 143889397.635 6                  27381239.440
        37.300
                  99980069.851 5                                  24021858.207
                        35.800
 130807636.035 7                  24891863.086
        43.100


 104804831.437 7  81514441.475 7  19605806.785    19605806.302    19605813.785
        46.200          47.300


 198904552.002 7                  37850280.776
        43.200
 104966965.085 8  81792449.79748  19974547.184    19974546.8224   19974546.1144
        50.700          52.0004
 131620104.832 4                  25046472.433
        24.100
 202023952.827 7                  38443896.027
        45.800
 122519210.996 7                  23314632.716
        44.600
 144214474.960 4                  27443096.176
        27.200
 106855716.914 8  83110125.240 5  20003620.051    20003621.077    20003620.684
        50.300          34.300
                                                  23377337.047

 127934634.885 5                  23966474.735    23966471.874
        32.600


 104916424.381 8  81601647.172 7  19633672.947    19633672.093    19633677.335
        48.800          43.000
 25  1  1 14  5 30.0000000  0 29E27E10G02E29G32G16E33G10G28G03G26R06
                                R04G04E04R21E21S35R05G25S31G31G21S33
                                E19E11R16E12R15
 132616818.858 7                  25236134.800
        43.900
 140153189.539 6                  26670266.805
        39.900
 128763388.152 6 100335118.82141  24502856.494    24502855.6584   24502855.5154
        37.000           7.6004
 127689892.951 7                  24298578.863
        46.100
 117676669.376 6  91696093.23245  22393133.062    22393132.9424   22393138.6384
        38.000          34.9004
 124460465.740 5  96982220.5594   23684039.816    23684039.7094   23684044.3494
        33.100           5.4004
 145046715.465 5                  27601465.651
        35.500


 110225255.035 7  85889803.63345  20975148.890    20975148.6274   20975149.7184
        46.600          35.0004
 112775119.671 7  87877021.24047  21460385.327    21460385.2204   21460386.7514
        47.500          43.3004
 111582371.287 7  86947315.04747  21233404.483    21233403.9114   21233408.7174
        46.100          46.5004
 114212846.322 5                  21403433.747    21403432.022
        32.000
 120812299.323 6  93965145.568 5  22560835.919    22560835.338    22560845.386
        38.800          34.200
 127510201.149 6  99358563.85042  24264389.364    24264389.6684   24264387.9774
        36.500          17.4004
 143857803.195 6                  27375226.865
        37.100
                 100013652.284 5                                  24029928.668
                        35.700
 130775470.415 7                  24885742.945
        43.500


 104813450.896 7  81521145.477 7  19607419.116    19607419.033    19607425.903
        45.300          46.200


 198904561.030 7                  37850285.426
        43.400
 104968614.038 8  81793734.68848  19974860.782    19974860.4204   19974859.8124
        50.100          51.0004
 131655582.855 4                  25053234.005
        26.300
 202023979.423 7                  38443899.546
        45.200
 122508463.701 7                  23312587.581
        44.800
 144205683.437 4                  27441421.777
        29.800
 106815002.563 8  83078458.534 6  19995998.285    19995998.356    19996001.727
        49.400          36.500


 104939982.610 8  81619970.230 6  19638081.848    19638081.578    19638086.283
        49.600          41.600
 25  1  1 14  5 45.0000000  0 30E27E10G02E29G32G16E33G10G28G03G26R06
                                R04G04E04R21E21S35R05G25S31G31G21S33
                                E19E11R16R22E12R15
 132625096.488 7                  25237710.005
        43.000
 140163770.426 6                  26672280.681
        36.700
 128794294.043 4 100359201.2414   24508739.361    24508738.4404   24508736.2804
        27.100           5.7004
 127706044.308 7                  24301651.981
        46.600
 117705947.811 6  91718907.53745  22398704.796    22398704.5824   22398709.9714
        41.300          34.3004
 124401000.006 5  96935883.8184   23672726.095    23672725.8814   23672727.2494
        31.600           4.7004
 145090712.841 5                  27609833.175
        34.300


 110251046.777 7  85909901.08545  20980056.389    20980056.1174   20980058.2894
        46.200          35.3004
 112741845.913 8  87851093.64947  21454053.425    21454053.3094   21454055.6134
        48.300          43.9004
 111543852.089 7  86917300.12147  21226075.274    21226074.7074   21226078.8074
        47.000          46.6004
 114165809.399 5                  21394618.711    21394617.833
        32.800
                  94000281.137 5                  22569268.644    22569282.699
                        34.300
 127467566.136 5  99325341.77742  24256274.424    24256274.7994   24256275.8194
        35.000          17.9004
 143826202.657 6                  27369214.088
        37.200
                 100047295.385 5                                  24038012.901
                        32.800
 130743377.555 7                  24879635.876
        43.200


 104822186.901 7  81527940.070 7  19609053.226    19609053.049    19609058.927
        44.200          45.100


 198904568.731 7                  37850283.915
        43.100
 104970375.704 8  81795107.40148  19975195.946    19975195.5754   19975195.0224
        50.600          50.6004
 131691060.366 4                  25059987.397
        29.700
 202024003.850 7                  38443903.043
        45.600
 122497741.987 7                  23310547.313
        44.600
 144196996.790 5                  27439767.365
        31.900
 106774439.970 8  83046909.865 6  19988405.293    19988405.572    19988409.512
        50.300          38.900
 127940900.425 6  99509708.647 4  23967653.026    23967663.677    23967664.521
        39.600          28.400


 104963713.314 8  81638427.434 6  19642523.123    19642522.127    19642525.813
        48.900          40.300
 25  1  1 14  6  0.0000000  0 29E27E10E29G32G16E33G10G28G03G26R06R04
                                G04E04R21E21S35R05G25S31G31G21S33E19
                                E11R16R22E12R15
 132633476.947 7                  25239304.166
        42.800
 140174451.755 5                  26674313.887
        34.800
 127722224.671 7                  24304730.354
        47.300
 117735276.776 6  91741761.19745  22404286.232    22404285.8934   22404291.1154
        40.900          35.3004
 124341547.750 5  96889557.5384   23661413.622    23661413.1714   23661413.4494
        32.700           4.6004
 145134695.396 4                  27618198.220
        27.500


 110276906.173 7  85930051.24445  20984977.445    20984977.1734   20984979.3814
        44.500          34.9004
 112708683.421 8  87825252.77347  21447742.845    21447742.7384   21447745.9124
        48.300          44.6004
 111505441.516 7  86887369.81347  21218765.744    21218765.1634   21218768.9344
        47.200          46.8004
 114118803.203 4                  21385807.087    21385808.629
        27.000


 127424924.683 4  99292114.61942  24248158.863    24248159.2964   24248162.0024
        25.600          13.5004
 143794594.749 6                  27363199.136
        37.900
                 100080997.756 5                                  24046109.180
                        33.500
 130711356.176 7                  24873542.517
        44.700


 104831038.522 7  81534824.608 7  19610710.721    19610710.147    19610715.403
        45.300          45.500


 198904572.125 7                  37850281.885
        42.400
 104972248.596 8  81796566.77648  19975551.977    19975551.5884   19975551.5454
        50.400          50.5004
 131726535.112 5                  25066734.911
        30.900
 202024024.734 7                  38443905.949
        46.000
 122487044.344 7                  23308511.703
        45.000
 144188413.392 5                  27438133.612
        32.400
 106734028.439 8  83015478.707 6  19980840.605    19980840.696    19980843.151
        50.300          38.800
 127944282.031 7                  23968284.160    23968284.719
        43.400


 104987614.853 8  81657017.507 6  19646994.650    19646995.060    19646999.948
        49.200          40.800
 25  1  1 14  6 15.0000000  0 30E27E10G02E29G32G16E33G10G28G03G26R04
                                G04E04R21E21S35R05G25S31G31G21S33E19
                                E11R16R14R22E12R15
 132641966.212 7                  25240919.877
        42.300
 140185239.326 5                  26676366.706
        32.300
 128856245.166 6 100407460.66743  24520531.816    24520531.2494   24520530.8774
        39.000          18.4004
 127738440.141 7                  24307815.917
        47.300
 117764662.352 6  91764658.98946  22409879.399    22409879.0104   22409884.2204
        37.900          36.6004
 124282115.460 5  96843246.7884   23650104.131    23650103.6444   23650103.9334
        32.400           3.6004




 110302839.074 7  85950258.67445  20989912.585    20989912.3264   20989914.3044
        42.400          33.7004
 112675638.477 8  87799503.47847  21441455.003    21441454.9054   21441458.0334
        48.700          44.4004
 111467146.024 8  86857529.18047  21211478.220    21211477.6304   21211481.0434
        49.300          47.3004
                  94070716.186 6                  22586201.842    22586198.681
                        36.400


 143762985.458 6                  27357184.699
        38.000
 128719163.852 5 100114763.667 5  24054248.880    24054244.755    24054219.644
        33.400          32.900
 130679412.577 7                  24867463.821
        46.400


 104840011.855 8  81541803.835 7  19612389.948    19612390.234    19612394.162
        48.400          46.400


 198904578.413 7                  37850291.123
        43.600
 104974238.571 8  81798117.39448  19975930.872    19975930.4834   19975930.3674
        50.100          49.8004
 131762013.165 4                  25073483.484
        27.600
 202024048.573 7                  38443908.865
        46.000
 122476377.067 7                  23306482.067
        45.300
 144179939.707 5                  27436522.716
        32.200
 106693774.095 8  82984169.756 6  19973305.217    19973305.028    19973308.033
        49.500          40.200
 124861227.309 5                  23423648.215    23423649.181
        34.400
 127947837.669 7                  23968952.533    23968951.997
        45.400
 139975711.551 5                  26636492.864
        33.700
 105011693.207 7  81675745.173 6  19651499.436    19651499.321    19651507.161
        46.800          41.400
 25  1  1 14  6 30.0000000  0 29E27E10G02E29G32G16E33G10G28G03G26R04
                                G04E04R21E21S35R05G25S31G31S33E19E11
                                R16R14R22E12R15
 132650557.064 7                  25242554.423
        42.800
 140196125.891 5                  26678436.960
        33.600
 128887288.600 6 100431650.23343  24526438.723    24526437.7134   24526439.2554
        41.700          18.8004
 127754683.562 7                  24310907.136
        46.100
 117794097.319 7  91787595.29446  22415481.103    22415480.7864   22415486.0234
        43.900          38.4004
 124222696.194 5  96796946.35941  23638806.325    23638805.8694   23638796.9264
        35.300           8.4004




 110328838.051 7  85970517.60145  20994859.377    20994859.1544   20994861.9274
        45.300          34.8004
 112642704.420 7  87773840.66147  21435188.216    21435188.0914   21435190.7054
        46.800          42.9004
 111428958.699 8  86827772.84248  21204210.726    21204210.1144   21204213.8294
        48.500          48.2004


 127339646.839 6  99225718.37742  24231928.581    24231929.0374   24231932.7444
        36.000          13.6004
 143731367.531 6                  27351168.716
        37.200


 130647539.729 7                  24861398.288
        47.700


 104849099.758 7  81548872.226 7  19614087.891    19614088.771    19614095.490
        47.000          47.700


 198904580.399 7                  37850291.463
        44.000
 104976338.319 8  81799753.51248  19976329.904    19976329.4934   19976329.8854
        48.800          49.3004
 202024067.812 7                  38443915.116
        45.600
 122465732.799 7                  23304456.780
        46.000
 144171568.222 4                  27434926.708
        29.600
 106653669.989 8  82952977.645 7  19965797.740    19965796.941    19965803.309
        48.900          42.700
 124923021.696 5                  23435228.903    23435226.355
        35.000
 127951559.970 7  99517896.382 5  23969646.745    23969647.526    23969648.294
        43.400          34.500
 140002094.076 5                  26641510.108
        34.500
 105035940.392 8  81694604.064 6  19656039.890    19656040.866    19656044.798
        48.800          40.700
 25  1  1 14  6 45.0000000  0 29E27E10G02E29G32G16E33G10G28G03G26R04
                                G04E04R21E21S35R05G25S31G31S33E19E11
                                R16R14R22E12R15
 132659259.455 6                  25244209.997
        41.100
 140207121.432 6                  26680532.805
        36.600
 128918384.612 6 100455880.75643  24532354.541    24532353.7284   24532357.1654
        41.100          19.3004
 127770965.041 7                  24314005.737
        45.400
 117823591.801 6  91810577.93846  22421091.037    22421090.7384   22421097.7084
        41.300          36.7004
 124163300.548 4  96750664.22541  23627506.092    23627505.4264   23627494.2834
        27.600           6.1004




 110354912.999 7  85990835.68445  20999820.898    20999820.6844   20999823.7244
        45.600          34.8004
 112609891.370 7  87748272.05946  21428944.607    21428944.4784   21428946.0534
        45.600          41.4004
 111390890.010 8  86798108.96447  21196967.098    21196966.4864   21196969.3534
        48.100          47.9004
                  94141373.103 5                                  22603163.087
                        35.000
 127296999.809 6  99192486.96742  24223814.915    24223815.3174   24223814.4104
        37.800          16.5004
 143699751.276 5                  27345152.124
        34.800


 130615747.950 7                  24855348.542
        47.500


 104858312.676 7  81556037.825 7  19615811.455    19615811.638    19615818.920
        47.500          47.600


 198904587.836 7                  37850290.926
        43.900
 104978557.824 8  81801482.97748  19976752.617    19976752.2024   19976751.9974
        49.000          49.4004
 202024092.674 7                  38443917.611
        45.300
 122455121.860 7                  23302437.735
        46.500
 144163309.151 4                  27433356.645
        26.300
 106613726.815 8  82921910.734 7  19958319.972    19958319.745    19958325.526
        48.800          43.700
 124984859.315 5                  23446828.589    23446828.673
        34.300
 127955459.208 7  99520929.054 5  23970378.548    23970379.240    23970376.748
        44.200          32.300
 140028560.468 5                  26646548.532
        35.400
 105060366.282 7  81713601.916 6  19660610.342    19660611.397    19660614.452
        46.900          39.200
 25  1  1 14  7  0.0000000  0 26E27E10G02E29G32G10G28G03G26R04G04E04
                                R21E21S35R05G25S31G31S33E19E11R16R22
                                E12R15
 132668064.410 6                  25245885.059
        38.300
 140218216.887 6                  26682643.859
        41.700
 128949523.768 6 100480144.93542  24538278.717    24538277.7384   24538282.5714
        39.400          15.3004
 127787275.649 7                  24317109.441
        45.800
 117853136.782 6  91833599.91145  22426715.429    22426715.1664   22426718.1444
        39.900          34.3004


 110381054.672 7  86011205.76845  21004795.716    21004795.5154   21004798.0694
        44.900          33.7004
 112577190.733 7  87722791.08046  21422721.633    21422721.5174   21422722.5074
        45.200          40.2004
 111352931.227 7  86768530.70647  21189743.143    21189742.5354   21189746.0514
        47.300          46.8004
                  94176784.119 5                                  22611662.801
                        33.300
 127254346.346 6  99159250.56242  24215701.962    24215702.2304   24215696.2294
        40.200          17.4004
 143668127.598 5                  27339134.102
        34.700
 128849655.026 5                  24078637.770    24078642.348
        35.200
 130584028.425 7                  24849312.844
        46.600


 104867641.670 8  81563293.716 7  19617557.709    19617559.435    19617564.177
        50.400          47.200


 198904591.112 7                  37850292.062
        43.600
 104980887.832 8  81803298.53548  19977195.922    19977195.5164   19977195.4794
        49.800          49.9004
 202024114.017 7                  38443920.705
        44.900
 122444535.123 7                  23300422.871
        46.100
 144155153.605 4                  27431806.966
        26.700
 106573935.686 8  82890962.068 7  19950871.193    19950871.198    19950876.697
        49.100          43.700
 127959525.603 7  99524091.602 5  23971138.834    23971138.388    23971137.152
        43.200          31.900
 140055101.338 6                  26651600.733
        36.500
 105084961.708 7  81732731.603 6  19665212.195    19665212.965    19665217.120
        45.000          40.100
 25  1  1 14  7 15.0000000  0 28E27E10G02E29G32G10G28G03G26R06R04G04
                                E04R21E21S35R05G25S31G31S33E19E11R16
                                R14R22E12R15
 132676976.517 5                  25247583.011
        32.900
 140229416.940 6                  26684774.264
        41.500
 128980710.716 5 100504446.34742  24544215.864    24544214.6574   24544217.4514
        34.700          13.0004
 127803620.183 7                  24320219.778
        46.200
 117882737.166 6  91856665.05545  22432348.457    22432348.1984   22432349.5454
        41.800          33.0004


 110407267.782 7  86031631.53345  21009784.706    21009784.5104   21009785.9544
        43.300          32.5004
 112544607.577 7  87697401.59746  21416520.260    21416520.1584   21416521.1044
        45.700          39.6004
 111315087.545 7  86739042.12847  21182541.787    21182541.1794   21182544.9864
        46.000          45.1004
 113884279.832 6                  21341866.979    21341866.218
        36.100
 121130189.541 6  94212251.429 5  22620175.665    22620172.410    22620177.169
        40.600          30.900
 127211691.349 6  99126013.00242  24207588.623    24207588.7834   24207578.9774
        39.500          15.5004
 143636501.341 5                  27333115.262
        30.000
 128893378.716 6                  24086821.025    24086818.951
        37.800
 130552386.205 7                  24843292.030
        47.100


 104877091.457 8  81570643.590 7  19619323.955    19619325.140    19619331.836
        50.000          45.700


 198904596.439 7                  37850292.295
        43.500
 104983333.131 8  81805203.91648  19977661.306    19977660.8954   19977661.2524
        49.400          50.6004
 202024136.227 7                  38443927.194
        45.200
 122433977.642 7                  23298413.852
        45.200
 144147106.524 4                  27430276.779
        27.000
 106534301.765 7  82860135.688 7  19943448.834    19943449.082    19943456.514
        45.800          42.800
 125108638.619 5                  23470049.160    23470050.573
        32.600
 127963764.591 7  99527388.443 5  23971931.422    23971931.627    23971930.968
        42.400          30.100
 140081721.395 6                  26656666.750
        38.200
 105109730.850 7  81751996.374 6  19669846.217    19669847.690    19669853.124
        43.900          39.700
 25  1  1 14  7 30.0000000  0 30E27E10G02E29G32G16E33G10G28G03G26R06
                                R04G04E04R21E21S35R05G25S31G31S33E19
                                E11R16R14R22E12R15
 132685995.145 5                  25249299.315
        30.400
 140240720.799 6                  26686923.772
        39.700
 129011944.244 6 100528784.02542  24550160.636    24550159.4164   24550160.9934
        36.900          16.3004
 127819998.002 7                  24323336.339
        45.900
 117912392.193 6  91879772.80045  22437992.335    22437992.1124   22437992.1424
        41.600          33.2004
 123985291.220 6  96611867.34241  23593609.669    23593608.9594   23593605.0544
        37.600           9.2004




 110433551.296 6  86052112.15845  21014787.148    21014786.9124   21014787.1014
        41.800          30.7004
 112512141.578 7  87672103.38646  21410341.529    21410341.4674   21410342.6104
        46.800          40.1004
 111277358.601 7  86709642.93347  21175362.325    21175361.6994   21175365.7694
        43.100          43.2004
 113837489.423 6                  21333097.693    21333097.894
        36.600
 121175862.585 6  94247774.575 4  22628697.798    22628700.108    22628706.561
        41.600          28.500
 127169034.110 5  99092773.76642  24199474.396    24199474.5394   24199462.4374
        34.200          12.1004
 143604871.811 4                  27327093.345
        28.000
 128937179.235 5                  24095003.360    24095000.451
        35.500
 130520820.735 7                  24837284.654
        46.800


 104886661.887 8  81578087.254 7  19621115.814    19621115.877    19621121.782
        51.600          44.500
 123224562.296 5                  23448855.858
        34.500
 198904601.866 7                  37850294.119
        43.900
 104985892.934 8  81807198.55348  19978148.896    19978148.4814   19978148.7484
        49.400          50.7004
 202024159.865 7                  38443932.640
        44.900
 122423448.649 7                  23296409.908
        44.300
 144139167.350 4                  27428765.064
        25.900
 106494824.780 8  82829431.372 7  19936061.193    19936061.059    19936066.196
        48.300          42.500
                                                  23481665.622

 127968175.393 6  99530818.900 5  23972756.994    23972755.684    23972757.297
        39.400          33.100
 140108419.709 6                  26661746.645
        39.700
 105134672.744 7  81771395.562 6  19674515.360    19674516.082    19674521.140
        45.000          41.100
 25  1  1 14  7 45.0000000  0 29E27E10G02E29G32G16E33G10G28G03G26R06
                                R04G04E04R21E21S35R05G25S31G31S33E19
                                E11R16R22E12R15
 132695118.068 5                  25251034.831
        31.600
 140252125.933 6                  26689092.915
        36.300
 129043221.716 6 100553155.96743  24556114.127    24556112.8894   24556111.6634
        39.800          18.6004
 127836406.923 7                  24326458.903
        45.700
 117942099.627 7  91902921.39745  22443645.613    22443645.3944   22443645.1144
        45.100          34.1004
 123925969.043 6  96565642.37041  23582316.890    23582316.0594   23582318.0754
        36.800          10.7004




 110459902.843 6  86072645.83444  21019801.972    21019801.7364   21019801.1944
        41.700          29.7004
 112479790.805 7  87646894.99446  21404185.939    21404185.9084   21404187.1664
        46.500          41.1004
 111239742.377 7  86680331.57247  21168203.626    21168203.0004   21168207.9944
        44.900          44.0004
 113790734.147 5                  21324333.538    21324334.005
        33.800
 121221605.071 6                  22637244.914    22637240.562
        38.500
 127126372.237 6  99059531.09741  24191354.193    24191354.3534   24191344.7834
        36.000          10.7004
 143573236.575 5                  27321079.289
        33.500
 128981053.749 4                  24103201.022    24103191.820
        28.300
 130489329.948 7                  24831292.248
        46.600


 104896350.455 8  81585622.796 7  19622928.126    19622927.872    19622934.251
        50.900          43.100
 123267663.210 5                  23457056.260
        33.800
 198904605.566 7                  37850297.509
        44.300
 104988564.757 8  81809280.44748  19978657.523    19978657.1034   19978657.3374
        49.900          51.0004
 202024181.128 7                  38443934.831
        44.600
 122412946.047 7                  23294410.985
        43.400
 144131333.515 4                  27427272.185
        27.400
 106455502.548 7  82798847.469 7  19928698.716    19928698.232    19928706.178
        46.200          44.000
 127972755.355 6  99534381.136 5  23973615.269    23973613.588    23973615.267
        39.300          32.700
 140135193.759 6                  26666841.376
        39.500
 105159784.837 7  81790927.163 7  19679215.735    19679218.659    19679222.103
        46.800          42.900
 25  1  1 14  8  0.0000000  0 29E27E10G02E29G32G16E33G10G28G03G26R06
                                R04G04E04R21E21S35R05G25S31G31S33E19
                                E11R16R22E12R15
 132704346.140 5                  25252792.649
        31.600
 140263633.262 5                  26691283.785
        31.500
 129074543.950 6 100577562.75343  24562074.138    24562072.8784   24562072.2294
        38.600          19.4004
 127852847.922 7                  24329587.197
        45.500
 117971860.422 7  91926111.57445  22449308.650    22449308.3874   22449307.9014
        45.100          34.1004
 123866666.324 5  96519432.55941  23571034.444    23571033.5374   23571033.8554
        34.600           9.4004




 110486322.989 7  86093232.91444  21024828.388    21024828.1344   21024828.4614
        43.000          29.8004
 112447556.526 7  87621777.38147  21398052.427    21398052.4014   21398054.1894
        46.500          42.3004
 111202240.159 7  86651109.04747  21161067.469    21161066.8484   21161071.6514
        45.700          45.3004
 113744015.260 5                  21315575.644    21315577.889
        30.700
 121267417.592 6  94319029.374 5  22645795.153    22645793.444    22645818.772
        37.900          33.500
 127083707.415 6  99026285.83642  24183230.729    24183230.9074   24183227.3304
        40.700          14.5004
 143541596.776 6                  27315055.144
        38.500


 130457915.021 7                  24825314.027
        46.300


 104906158.575 8  81593251.233 7  19624763.554    19624763.956    19624768.994
        51.900          43.000
 123310864.562 4  96086499.49441  23465276.069    23465276.0254   23465301.7484
        25.100           8.4004
 198904609.126 7                  37850296.333
        43.800
 104991349.450 8  81811450.31348  19979187.275    19979186.8644   19979187.3014
        51.100          51.5004
 202024202.374 7                  38443935.949
        44.900
 122402470.886 7                  23292417.935
        42.300
 144123606.199 4                  27425803.880
        26.300
 106416336.406 7  82768384.966 7  19921367.373    19921365.438    19921374.484
        45.400          45.700
 127977505.314 6  99538075.565 5  23974507.073    23974504.196    23974503.421
        39.000          30.700
 140162044.228 6                  26671949.779
        37.500
 105185067.687 8  81810591.578 7  19683948.970    19683950.315    19683952.839
        48.300          43.100
 25  1  1 14  8 15.0000000  0 29E27E10G02E29G32G16E33G10G28G03G26R06
                                R04G04E04E21S35R05G25S31G31S33E19E11
                                R16R14R22E12R15
 132713681.347 5                  25254568.381
        34.100
 140275245.037 5                  26693495.515
        35.600
 129105912.876 6 100602005.93743  24568043.438    24568042.2044   24568043.1954
        39.700          21.1004
 127869323.478 7                  24332723.373
        46.200
 118001677.065 7  91949345.28845  22454982.245    22454981.9824   22454982.0684
        46.200          34.0004
 123807385.825 4  96473240.05741  23559749.174    23559748.3204   23559753.9594
        29.700           7.1004




 110512814.000 7  86113875.22745  21029869.701    21029869.4424   21029869.7194
        44.500          30.4004
 112415441.358 7  87596752.56247  21391941.601    21391941.5574   21391943.0144
        47.800          43.1004
 111164854.716 7  86621977.53947  21153953.893    21153953.3084   21153957.3754
        47.000          46.7004
 113697335.708 3                  21306829.190
        23.400
 121313302.718 6  94354717.672 5  22654358.310    22654362.374    22654386.043
        36.200          30.500
 127041041.787 6  98993039.90842  24175108.911    24175108.9874   24175110.7274
        39.300          16.9004
 143509954.739 6                  27309033.109
        38.200
 130426578.541 7                  24819351.157
        46.200


 104916088.475 8  81600974.419 7  19626620.695    19626621.281    19626629.104
        50.700          44.500
 123354168.071 5  96120242.55741  23473522.954    23473522.9674   23473537.5694
        35.100          11.0004
 198904614.345 7                  37850295.371
        43.600
 104994249.155 8  81813709.79648  19979738.608    19979738.1974   19979738.8714
        51.400          51.9004
 202024224.922 7                  38443944.146
        44.900
 122392025.724 7                  23290430.472
        42.100
 144115987.661 4                  27424356.917
        26.600
 106377329.100 7  82738045.963 7  19914066.022    19914064.392    19914073.844
        46.700          46.900
 125356608.289 5                  23516576.634    23516576.939
        35.800
 127982427.573 5                  23975428.123    23975424.040
        35.300
 140188973.362 5                  26677075.833
        35.400
 105210523.255 8  81830390.346 7  19688711.796    19688713.354    19688714.325
        48.200          42.500
 25  1  1 14  8 30.0000000  0 27E27E10G02E29G32G16G28G03G26R04G04E04
                                R21E21S35R05G25S31G31G21S33E19E11R16
                                R22E12R15
 132723120.460 4                  25256366.817
        29.200
 140286957.692 6                  26695725.551
        37.400
 129137324.733 7 100626482.59743  24574019.841    24574018.5894   24574022.9534
        42.100          23.1004
 127885830.117 7                  24335864.181
        46.100
 118031546.004 7  91972619.76245  22460665.148    22460664.8804   22460667.3604
        44.900          34.4004
 123748124.453 5  96427062.2024   23548471.318    23548470.0754   23548477.1714
        30.100           4.7004
 110539372.204 7  86134569.88345  21034923.402    21034923.1304   21034923.9764
        44.900          31.5004
 112383442.219 8  87571818.14847  21385851.594    21385851.5274   21385852.8754
        48.300          44.0004
 111127582.855 7  86592934.56247  21146861.687    21146861.1114   21146864.7474
        47.300          47.4004
 121359256.844 6  94390459.582 5  22662946.177    22662945.130    22662966.594
        37.200          31.700
 126998371.849 6  98959790.62742  24166987.878    24166987.9494   24166993.1274
        36.800          14.1004
 143478307.143 6                  27303010.583
        38.700
 129113142.967 6                  24127887.655    24127884.969
        37.200
 130395317.245 7                  24813402.447
        47.200


 104926136.995 8  81608789.942 7  19628499.950    19628499.519    19628508.549
        48.900          44.100
 123397570.384 5  96154062.61142  23481778.207    23481777.9084   23481793.0924
        34.600          13.3004
 198904617.000 7                  37850299.400
        44.200
 104997260.272 8  81816056.09248  19980311.739    19980311.3374   19980311.3734
        50.000          51.2004
 132081289.314 5                  25134233.525
        33.200
 202024246.318 7                  38443945.787
        45.300
 122381606.727 7                  23288447.711
        42.800
 144108474.621 4                  27422929.371
        29.300
 106338477.299 8  82707827.853 7  19906791.937    19906791.901    19906800.174
        48.100          46.400
 127987518.011 5                  23976381.357    23976377.681
        34.400
 140215977.343 6                  26682215.064
        36.300
 105236147.750 7  81850320.544 7  19693505.048    19693506.267    19693509.640
        47.100          42.900
 25  1  1 14  8 45.0000000  0 29E27E10G02E29G32E33G10G28G03G26R04G04
                                E04R21E21S35R05G25S31G31G21S33E19E11
                                R16R14R22E12R15
 132732671.554 4                  25258191.231
        24.000
 140298779.256 6                  26697976.906
        37.700
 129168787.329 6 100650998.78443  24580005.491    24580004.2314   24580010.8814
        41.900          22.9004
 127902375.988 7                  24339012.328
        44.800
 118061475.384 7  91995941.33345  22466361.471    22466361.1904   22466364.9454
        46.100          35.1004




 110566005.582 7  86155323.19745  21039992.822    21039992.5414   21039993.1464
        47.100          33.6004
 112351567.305 7  87546980.44647  21379786.124    21379786.0404   21379787.1864
        47.900          44.3004
 111090433.024 7  86563986.66347  21139792.109    21139791.5424   21139794.9734
        47.300          46.5004
 121405287.945 6  94426261.287 4  22671543.480    22671545.447    22671566.938
        40.100          27.600
 126955705.942 5  98926544.45841  24158868.343    24158868.4234   24158874.7484
        32.100          10.3004
 143446661.998 6                  27296989.821
        38.200
 129157321.125 6                  24136136.240    24136137.693
        39.000
 130364139.400 7                  24807469.677
        47.100


 104936312.548 8  81616704.276 7  19630404.184    19630404.618    19630409.606
        49.100          42.100
 123441079.088 5  96187965.59341  23490058.891    23490058.7624   23490070.7544
        33.200          11.0004
 198904627.016 7                  37850296.914
        42.800
 105000390.790 8  81818495.41948  19980907.573    19980907.1674   19980906.8594
        49.500          50.6004
 132116759.394 5                  25140983.411
        33.100
 202024273.355 7                  38443951.099
        44.600
 122371222.392 7                  23286471.242
        43.900
 144101075.104 5                  27421523.090
        32.100
 106299789.748 7  82677737.502 7  19899549.104    19899548.740    19899555.193
        46.800          43.700
 125480814.672 5  97596233.193 5  23539876.335    23539878.000    23539888.312
        32.500          31.700
 127992785.054 4                  23977372.097    23977368.369
        28.700
 140243064.230 6                  26687368.490
        36.800
 105261948.955 7  81870388.087 7  19698334.145    19698333.656    19698338.308
        46.900          43.700
 25  1  1 14  9  0.0000000  0 29E27E10G02E29G32E33G10G28G03G26R04G04
                                E04R21E21S35R05G25S31G31G21S33E19E11
                                R16R14R22E12R15


 140310699.334 5                  26700241.523
        34.200
 129200290.063 6 100675546.25643  24586001.107    24585999.8784   24586005.7704
        40.700          23.6004
 127918950.927 7                  24342166.651
        43.500
 118091454.985 7  92019302.02546  22472065.708    22472065.3954   22472072.2564
        46.200          36.1004




 110592703.517 8  86176126.76345  21045073.078    21045072.7834   21045073.9294
        48.900          34.8004
 112319807.091 7  87522232.21947  21373742.693    21373742.6094   21373743.8104
        47.200          44.7004
 111053395.283 7  86535126.10847  21132743.168    21132742.5744   21132746.2294
        46.900          45.0004
 121451385.549 6                  22680152.630    22680152.752
        39.400
 126913033.755 5  98893293.5044   24150747.973    24150747.6834   24150754.7744
        34.400           1.8004
 143415009.143 6                  27290967.119
        37.600
 129201568.526 6                  24144404.176    24144403.988
        37.200
 130333035.018 7                  24801550.925
        46.300


 104946604.722 8  81624709.320 6  19632328.543    19632329.227    19632335.556
        48.100          41.900
 123484684.122 4  96221943.8094   23498359.730    23498359.3374   23498367.6534
        27.400           3.4004
 198904632.595 7                  37850297.321
        43.000
 105003630.437 8  81821019.84848  19981523.977    19981523.5664   19981523.6574
        48.500          50.4004
 132152222.903 5                  25147731.814
        31.400
 202024296.824 7                  38443956.648
        44.900
 122360862.383 7                  23284499.837
        44.300
 144093779.329 5                  27420135.259
        34.200
 106261256.378 8  82647767.134 7  19892337.389    19892336.612    19892340.865
        48.100          43.000
                  97644574.648 5                                  23551545.640
                        33.000
                  99554198.358 5                                  23978390.437
                        34.700
 140270223.488 6                  26692536.511
        36.000
 105287916.090 7  81890584.684 7  19703193.055    19703192.848    19703197.678
        46.500          44.000
 25  1  1 14  9 15.0000000  0 28E27E10G02E29G32G10G28G03G26R04G04E04
                                R21E21S35R05G25S31G31G21S33E19E11R16
                                R14R22E12R15


 140322719.961 5                  26702526.190
        31.500
 129231834.679 6 100700126.38343  24592004.552    24592003.3324   24592008.9374
        41.700          22.2004
 127935557.157 7                  24345326.744
        42.800
 118121486.974 7  92042703.49746  22477780.762    22477780.4674   22477788.0994
        46.200          36.2004


 110619468.099 8  86196982.30545  21050166.172    21050165.8824   21050166.7944
        49.300          34.7004
 112288163.727 7  87497575.00847  21367721.636    21367721.5564   21367722.8024
        47.900          45.4004
 111016472.161 7  86506354.85147  21125717.168    21125716.5384   21125719.7544
        45.000          43.7004
 121497551.723 6                  22688778.357    22688777.515
        39.500
 126870357.556 5  98860039.4304   24142624.233    24142623.9034   24142633.8334
        34.400           5.9004
 143383350.708 5                  27284942.762
        35.400
 129245886.631 4 100524613.873 5  24152686.274    24152681.820    24152688.359
        26.400          33.000
 130302006.439 7                  24795645.669
        44.800


 104957015.961 8  81632806.900 6  19634276.560    19634276.506    19634283.091
        48.600          40.800


 198904636.664 7                  37850302.088
        43.900
 105006981.060 7  81823630.71048  19982161.571    19982161.1604   19982161.7174
        47.600          50.3004
 132187681.699 4                  25154479.334
        26.800
 202024318.328 7                  38443960.293
        44.600
 122350528.975 7                  23282533.487
        45.000
 144086588.747 5                  27418766.749
        33.200
 106222879.362 8  82617918.368 7  19885153.236    19885154.502    19885157.561
        49.700          42.800
                  97692940.232 5                                  23563208.750
                        32.400
                  99558555.537 5                                  23979440.244
                        33.200
 140297457.059 5                  26697717.559
        33.700
 105314051.224 8  81910911.944 7  19708084.564    19708084.611    19708089.651
        48.200          44.900
 25  1  1 14  9 30.0000000  0 27E27E10G02E29G32G10G28G03G26R04G04E04
                                E21S35R05G25S31G31G21S33E19E11R16R14
                                R22E12R15
 132761924.450 6                  25263750.544
        38.700
 140334845.733 5                  26704834.373
        31.900
 129263425.572 6 100724742.58143  24598014.932    24598013.7124   24598020.1714
        41.700          19.9004
 127952199.412 7                  24348493.816
        42.700
 118151576.085 7  92066149.46645  22483506.847    22483506.5304   22483514.4814
        45.100          35.4004


 110646303.769 8  86217893.23245  21055272.873    21055272.5784   21055273.4004
        48.000          34.1004
 112256642.443 8  87473012.94547  21361722.999    21361722.9154   21361725.2254
        48.100          46.0004
 110979668.699 7  86477676.84047  21118713.426    21118712.8004   21118716.5544
        46.100          43.5004
 121543791.098 5  94534012.536 5  22697410.951    22697406.204    22697433.705
        33.400          34.600
 126827682.122 6  98826785.87141  24134517.078    24134516.7034   24134512.8524
        38.000           9.0004
 143351691.485 5                  27278919.080
        33.400
 130271058.611 6                  24789756.420
        41.900


 104967551.202 8  81641000.923 6  19636247.782    19636249.373    19636253.306
        50.200          39.300


 198904643.313 7                  37850300.576
        43.700
 105010447.331 7  81826331.65048  19982821.446    19982821.0494   19982821.4384
        47.500          50.4004
 132223139.839 4 103031058.8154   25161225.719    25161225.2284   25161237.5874
        25.600           2.0004
 202024343.415 7                  38443967.291
        45.000
 122340227.031 7                  23280573.523
        46.000
 144079508.605 5                  27417420.660
        30.600
 106184663.967 8  82588195.332 7  19878000.855    19878001.668    19878002.647
        49.700          42.500
 125667336.949 6  97741333.637 5  23574871.632    23574873.214    23574878.880
        36.200          32.800
 128009614.824 5  99563046.953 5  23980516.588                    23980522.077
        35.400          34.500
 140324769.440 5                  26702915.954
        32.700
 105340358.671 7  81931373.262 7  19713007.205    19713008.024    19713012.470
        47.400          44.900
 25  1  1 14  9 45.0000000  0 31E27E10G02E29G32G16E33G10G28G03G26R06
                                R04G04E04R21E21S35R05G25S31G31G21S33
                                E19E11R16R14R22E12R15
 132771889.215 6                  25265648.622
        38.800
 140347068.547 6                  26707161.127
        36.900
 129295054.492 6 100749388.46242  24604033.745    24604032.5614   24604039.3774
        36.800          15.8004
 127968869.722 7                  24351666.173
        42.800
 118181714.328 7  92089633.70845  22489242.985    22489242.6414   22489247.5304
        43.800          33.0004
 123452110.079 6  96196459.05541  23492151.980    23492152.5834   23492156.8924
        36.500          10.1004




 110673202.216 7  86238853.03845  21060392.282    21060392.0054   21060392.3804
        46.900          32.4004
 112225235.545 7  87448540.08847  21355746.470    21355746.3814   21355749.5364
        47.900          46.1004
 110942977.193 7  86449086.09247  21111730.564    21111729.9384   21111735.0814
        47.300          45.3004
 113418069.351 6                  21254495.675    21254495.779
        36.300
 121590095.477 5  94570026.970 5  22706055.918    22706052.533    22706077.941
        30.800          33.100
 126784999.389 6  98793526.59742  24126379.353    24126378.9244   24126390.4854
        36.900          14.0004
 143320023.421 5                  27272891.207
        31.000
 129334739.115 6                  24169285.703    24169287.168
        38.600
 130240183.734 6                  24783879.982
        39.100


 104978202.441 8  81649285.204 6  19638241.753    19638242.143    19638244.823
        49.500          38.700


 198904645.854 7                  37850301.623
        43.600
 105014021.068 7  81829116.32448  19983501.378    19983500.9764   19983501.3624
        47.400          50.3004
 132258589.441 3 103058681.8494   25167971.024    25167970.6674   25167981.6304
        23.500           2.0004
 202024363.187 7                  38443972.420
        45.400
 122329948.610 7                  23278617.855
        46.900
 144072530.881 4                  27416097.543
        27.800
 106146602.514 7  82558592.001 7  19870873.491    19870877.077    19870878.852
        45.600          43.600
 125729584.275 6  97789748.399 5  23586549.741    23586550.293    23586556.057
        36.100          32.700
 128015554.409 5  99567666.534 5  23981634.463    23981627.719    23981633.021
        35.000          34.500
 140352152.367 5                  26708127.780
        30.200
 105366829.702 7  81951961.831 7  19717961.810    19717961.075    19717965.860
        42.000          44.600
 25  1  1 14 10  0.0000000  0 31E27E10G02E29G32G16E33G10G28G03G26R06
                                R04G04E04R21E21S35R05G25S31G31G21S33
                                E19E11R16R14R22E12R15
 132781966.087 6                  25267565.754
        39.700
 140359400.140 6                  26709509.411
        39.800
 129326733.041 6 100774073.01741  24610063.879    24610062.6274   24610067.6474
        37.600           8.6004
 127985579.987 7                  24354845.847
        43.700
 118211913.586 7  92113165.49045  22494990.373    22494990.0384   22494989.3494
        45.100          30.4004
 123392987.601 6  96150389.60342  23480899.987    23480900.5684   23480905.8924
        36.400          14.1004




 110700175.205 7  86259870.95644  21065524.109    21065523.8104   21065524.8414
        47.400          29.7004
 112193955.124 8  87424165.76647  21349793.842    21349793.7444   21349797.5344
        48.500          45.4004
 110906409.821 8  86420592.07747  21104772.829    21104772.2534   21104777.4514
        48.000          46.4004
 113371664.543 5                  21245798.446    21245799.135
        34.900
 121636477.270 6  94606101.318 5  22714715.272    22714717.259    22714741.200
        36.400          33.900
 126742321.508 6  98760271.07042  24118264.061    24118263.8164   24118268.7354
        36.500          15.1004
 143288358.383 4                  27266864.158
        28.000
 129379276.575 6                  24177612.463    24177613.611
        41.100
 130209393.805 6                  24778020.771
        38.600


 104988981.883 8  81657669.191 6  19640257.786    19640257.789    19640264.065
        49.400          41.100


 198904654.762 7                  37850300.022
        43.200
 105017714.089 8  81831993.94848  19984204.595    19984204.1934   19984204.1534
        49.500          50.2004
 132294041.840 5                  25174721.229
        31.800
 202024389.467 7                  38443974.960
        45.100
 122319705.503 7                  23276669.112
        47.800
 144065667.581 4                  27414789.644
        27.900
 106108707.188 6  82529117.834 7  19863775.230    19863773.940    19863786.375
        38.700          45.500
 125791869.906 5  97838192.799 5  23598235.191    23598236.127    23598240.322
        34.900          31.400
 128021670.823 5  99572423.694 5  23982803.404    23982805.366    23982777.081
        34.100          30.900
 140379617.546 5                  26713353.822
        30.100
 105393476.402 6  81972687.008 7  19722954.871    19722952.648    19722952.431
        40.100          44.600
 25  1  1 14 10 15.0000000  0 31E27E10G02E29G32G16E33G10G28G03G26R06
                                R04G04E04R21E21S35R05G25S31G31G21S33
                                E19E11R16R14R22E12R15
 132792144.903 6                  25269501.317
        40.100
 140371830.541 6                  26711874.128
        41.000
 129358450.871 6 100798788.03441  24616098.424    24616096.9094   24616103.6634
        39.200           6.1004
 128002320.377 7                  24358030.912
        43.900
 118242163.945 7  92136737.11745  22500745.641    22500745.2934   22500744.0184
        47.000          30.1004
 123333885.778 6  96104336.26142  23469654.793    23469655.4504   23469658.9564
        37.200          14.6004




 110727212.640 7  86280939.12544  21070668.406    21070668.1024   21070668.8484
        47.000          27.8004
 112162791.431 8  87399882.37447  21343863.763    21343863.6294   21343866.8524
        48.800          44.9004
 110869957.005 7  86392187.33247  21097836.510    21097835.9434   21097840.9454
        47.000          46.3004
 113325296.564 5                  21237110.127    21237108.179
        34.300
 121682925.774 6  94642227.715 5  22723395.827    22723393.423    22723404.585
        37.000          33.000
 126699638.480 5  98727011.58742  24110141.267    24110141.0174   24110145.4294
        34.100          15.0004
 143256686.523 5                  27260838.607
        31.300
 129423881.238 5 100663078.552 5  24185946.095    24185945.483    24185959.346
        35.000          34.000
 130178679.105 6                  24772175.465
        40.400


 104999879.648 8  81666145.193 7  19642296.118    19642296.518    19642302.892
        50.200          42.100
 123704196.100 5                  23540125.092
        35.600
 198904660.161 7                  37850302.092
        43.100
 105021516.288 8  81834956.68148  19984927.424    19984927.0134   19984927.8054
        50.100          51.0004
 132329486.950 5                  25181463.340
        32.200
 202024413.464 7                  38443975.219
        44.500
 122309487.960 8                  23274725.011
        48.600
 144058908.726 4                  27413498.068
        26.600
 106070968.460 6  82499765.432 7  19856714.727    19856713.168    19856720.479
        38.500          45.000
 125854183.754 5  97886659.106 5  23609923.608    23609925.373    23609930.283
        31.700          31.400
 128027952.916 4  99577309.797 5  23983948.614    23983948.214    23983953.932
        29.000          30.300
 140407154.929 4                  26718593.325
        29.200
 105420287.955 6  81993540.610 7  19727961.335    19727959.457    19727970.029
        39.200          44.000
 25  1  1 14 10 30.0000000  0 31E27E10G02E29G32G16E33G10G28G03G26R06
                                R04G04E04R21E21S35R05G25S31G31G21S33
                                E19E11R16R14R22E12R15
 132802425.181 6                  25271458.385
        39.400
 140384358.772 6                  26714258.166
        39.500
 129390206.921 6 100823532.64541  24622142.417    24622140.9914   24622146.2474
        41.300           7.9004
 128019090.232 7                  24361222.416
        43.900
 118272464.735 7  92160348.06444  22506511.276    22506510.9054   22506511.7364
        46.900          29.4004
 123274804.278 6  96058298.72841  23458412.274    23458412.7474   23458415.9964
        38.200          11.9004




 110754313.505 7  86302056.69144  21075825.573    21075825.3194   21075824.5044
        46.200          26.4004
 112131744.171 8  87375689.68147  21337955.714    21337955.5854   21337956.8074
        48.900          44.0004
 110833618.324 7  86363871.50547  21090922.122    21090921.5554   21090925.3084
        44.200          43.5004
 113278965.241 5                  21228428.914    21228427.137
        33.700
 121729440.369 6  94678405.515 5  22732078.383    22732077.632    22732092.080
        36.100          33.800
 126656949.839 6  98693747.70142  24102017.528    24102017.1844   24102021.1754
        37.400          12.1004
 143225007.209 6                  27254809.816
        36.300
 129468551.903 5 100697822.466 5  24194290.862    24194294.105    24194306.090
        35.500          34.400
 130148039.171 7                  24766346.106
        43.100


 105010894.967 8  81674712.635 7  19644358.847    19644360.015    19644364.503
        52.800          43.900
 123748387.910 5                  23548534.531
        35.300
 198904663.231 7                  37850303.943
        43.700
 105025426.736 8  81838003.75248  19985671.848    19985671.4514   19985671.8294
        50.400          51.1004
 132364923.127 4                  25188212.467
        29.800
 202024433.635 7                  38443984.131
        44.900
 122299295.509 8                  23272785.529
        49.000
 144052253.291 4                  27412233.898
        29.100
 106033385.592 7  82470534.217 7  19849679.074    19849679.095    19849682.967
        44.700          43.500
                  97935146.400 5                  23621618.291    23621625.718
                        30.400
 128034400.901 5  99582325.010 5  23985158.660    23985158.759    23985161.082
        33.300          30.700
 140434763.291 5                  26723845.980
        32.600
 105447263.633 7  82014521.625 7  19733018.623    19733018.410    19733018.008
        47.300          44.000
 25  1  1 14 10 45.0000000  0 30E27E10G02E29G32G16E33G28G03G26R06R04
                                G04E04R21E21S35R05G25S31G31G21S33E19
                                E11R16R14R22E12R15
 132812811.060 6                  25273434.378
        40.800
 140396989.397 6                  26716661.677
        38.800
 129422005.413 7 100848310.44142  24628193.863    24628192.4954   24628196.3304
        42.700          13.4004
 128035894.147 7                  24364419.164
        43.300
 118302820.539 7  92184001.91744  22512288.144    22512287.7784   22512288.6304
        44.300          27.8004
 123215747.925 6  96012280.84641  23447173.901    23447174.1204   23447177.7404
        36.400           8.7004


 110781482.191 7  86323227.09644  21080996.286    21080996.0454   21080992.9974
        45.100          24.9004
 112100818.361 8  87351591.67047  21332070.262    21332070.1374   21332069.5724
        49.100          43.1004
 110797398.720 6  86335648.44546  21084029.445    21084028.8554   21084031.7294
        37.900          39.1004
 113232675.406 5                  21219755.466    21219754.058
        33.700
 121776025.525 4  94714638.211 5  22740773.350    22740773.283    22740791.420
        29.000          35.200
 126614260.140 6  98660483.04941  24093892.794    24093892.4234   24093896.8014
        38.700           9.7004
 143193324.913 6                  27248780.514
        38.100
 129513292.635 6 100732620.780 5  24202665.630    24202663.001    24202665.896
        40.100          33.600
 130117478.780 7                  24760530.751
        44.800


 105022033.052 8  81683375.552 7  19646441.549    19646442.736    19646448.104
        51.800          43.500
 123792678.022 5                  23556968.397
        34.600
 198904665.991 7                  37850305.356
        43.200
 105029449.835 8  81841138.61148  19986437.220    19986436.8314   19986437.1614
        49.000          50.6004
 132400355.619 5                  25194954.041
        30.600
 202024454.307 7                  38443988.097
        45.200
 122289132.474 8                  23270851.765
        49.000
 144045706.144 4                  27410985.839
        26.800
 105995963.513 7  82441428.162 7  19842672.421    19842672.327    19842677.889
        45.500          43.400
                  97983658.155 4                                  23633328.272
                        29.600
 128041018.671 5  99587472.346 4  23986394.907    23986395.972    23986400.473
        30.600          28.800
 140462447.203 5                  26729116.038
        35.200
 105474407.301 8  82035633.344 7  19738093.019    19738094.394    19738098.970
        48.800          44.500
 25  1  1 14 11  0.0000000  0 30E27E10G02E29G32G16E33G10G28G03G26R06
                                R04G04E04R21E21S35R05G25S31G31G21S33
                                E19E11R16R22E12R15
 132823305.415 7                  25275431.244
        42.400
 140409725.119 6                  26719085.018
        38.200
 129453848.797 7 100873123.21342  24634253.963    24634252.5734   24634255.0794
        43.300          17.9004
 128052734.942 7                  24367624.155
        43.300
 118333234.142 7  92207700.77244  22518075.394    22518075.0014   22518075.8044
        42.200          26.9004
 123156719.925 5  95966284.95441  23435940.311    23435940.3154   23435944.9794
        33.700           7.4004




 110808721.259 7  86344452.34444  21086179.545    21086179.3094   21086175.5994
        46.400          24.6004
 112070016.905 8  87327590.52646  21326208.082    21326207.9394   21326207.2434
        48.000          41.8004
 110761301.280 5  86307520.55945  21077157.992    21077157.4024   21077162.0884
        32.800          34.4004
 113186430.426 5                  21211089.634    21211088.747
        34.200
 121822684.146 6  94750927.850 5  22749490.582    22749487.778    22749502.114
        37.100          34.200
 126571572.200 6  98627219.78741  24085768.952    24085768.4874   24085773.1504
        38.800          10.9004
 143161642.436 6                  27242751.822
        38.100
 129558105.763 5 100767475.461 5  24211030.239    24211025.888    24211037.104
        34.400          33.400
 130087000.870 7                  24754731.250
        45.600


 105033296.442 8  81692135.936 6  19648546.918    19648547.390    19648553.331
        48.500          40.700
 123837068.461 5  96496487.34441  23565414.684    23565414.7734   23565421.2934
        33.200          11.9004
 198904671.944 7                  37850306.828
        42.900
 105033588.267 8  81844363.34648  19987225.239    19987224.8594   19987224.6364
        48.000          49.8004
 132435786.530 5                  25201697.213
        31.800
 202024478.860 7                  38443994.201
        45.900
 122279001.770 8                  23268923.665
        48.400
 144039270.372 4                  27409766.395
        27.400
 105958705.584 7  82412449.731 7  19835699.993    19835698.326    19835702.686
        47.500          43.200
 128047809.267 4                  23987666.800    23987667.509
        26.900
 140490209.114 5                  26734395.985
        31.900
 105501721.815 8  82056877.967 7  19743204.630    19743204.779    19743209.637
        49.900          44.100
 25  1  1 14 11 15.0000000  0 29E27E10G02E29G32G16G10G28G03G26R06R04
                                G04E04R21E21S35R05G25S31G31G21S33E19
                                E11R16R22E12R15
 132833903.413 7                  25277448.409
        44.300
 140422560.933 6                  26721526.662
        38.500
 129485731.846 6 100897967.02743  24640319.886    24640318.4874   24640322.3514
        40.200          18.0004
 128069607.851 7                  24370834.823
        42.800
 118363700.719 6  92231440.87544  22523874.073    22523873.6894   22523873.5934
        40.900          26.8004
 123097715.924 5  95920307.69141  23424713.415    23424713.2594   23424717.0344
        35.400           7.1004


 110836025.762 7  86365728.59544  21091375.175    21091374.9474   21091371.5224
        46.300          25.4004
 112039335.382 7  87303682.86046  21320370.436    21320370.2804   21320369.2584
        45.900          41.0004
 110725321.435 6  86279484.29345  21070314.787    21070314.2964   21070315.9134
        37.400          35.5004
 113140225.695 5                  21202429.162    21202429.092
        32.600
 121869410.997 6  94787270.606 5  22758221.090    22758222.144    22758228.678
        40.200          33.800
 126528881.278 6  98593954.20442  24077646.024    24077645.5464   24077649.7104
        39.000          15.1004
 143129955.079 6                  27236721.054
        38.400
 129602985.681 5 100802382.023 5  24219413.714    24219413.503    24219422.975
        31.100          32.100
 130056600.826 7                  24748947.004
        45.700


 105044680.678 7  81700990.332 6  19650676.382    19650677.399    19650681.184
        47.900          38.400
 123881554.261 4  96531151.51541  23573875.450    23573875.6464   23573881.7464
        24.800          11.6004
 198904678.161 7                  37850309.824
        43.600
 105037837.295 8  81847674.28848  19988034.003    19988033.6374   19988033.3424
        49.800          50.1004
 132471210.745 4                  25208440.469
        29.400
 202024503.081 7                  38443997.072
        46.800
 122268898.558 7                  23267001.296
        47.300


 105921606.889 8  82383595.161 7  19828754.637    19828755.743    19828758.868
        51.600          43.800


 140518044.055 4                  26739692.982
        29.000
 105529201.514 7  82078251.153 7  19748345.662    19748344.489    19748353.165
        46.500          44.400
 25  1  1 14 11 30.0000000  0 27E27E10G02E29G32G16G10G28G03G26R04G04
                                E04R21E21S35R05G25S31G31S33E19E11R16
                                R22E12R15
 132844603.028 7                  25279483.341
        42.600
 140435494.766 6                  26723987.189
        39.500
 129517652.414 6 100922840.11042  24646393.590    24646392.2224   24646397.1574
        36.300          15.6004
 128086511.078 7                  24374051.540
        43.600
 118394218.490 6  92255220.87445  22529681.673    22529681.3114   22529683.1794
        39.400          30.8004
 123038734.527 4  95874348.0454   23413487.883    23413487.3924   23413493.5304
        29.300           2.6004
 130188587.425 5                  24774059.844
        32.800
 110863393.637 8  86387054.29144  21096583.182    21096582.9724   21096580.8814
        48.500          27.0004
 112008772.228 7  87279867.43347  21314554.396    21314554.2364   21314554.9604
        47.200          42.4004
 110689457.714 6  86251538.51846  21063487.314    21063486.9254   21063492.2614
        37.200          39.3004
 121916204.209 6  94823664.971 4  22766954.985    22766959.002    22766964.789
        38.700          29.700
 126486185.644 6  98560684.94042  24069522.722    24069522.1994   24069524.8884
        37.100          14.1004
 143098260.964 6                  27230691.165
        37.500
                 100837338.619 5                                  24227823.169
                        32.900
 130026277.019 7                  24743176.860
        46.700


 105056183.426 8  81709936.893 6  19652828.234    19652828.862    19652834.064
        48.600          37.900


 198904680.399 7                  37850309.792
        44.300
 105042194.695 8  81851069.66148  19988862.728    19988862.3624   19988862.7524
        49.800          49.6004
 202024522.437 7                  38444003.963
        45.700
 122258821.272 7                  23265082.884
        44.500


 105884666.193 8  82354863.439 7  19821838.191    19821838.429    19821843.455
        51.300          44.200
                  99603703.076 5                                  23990309.498
                        31.600
 140545949.888 4                  26745004.951
        29.000
 105556844.257 7  82099751.131 7  19753519.022    19753517.920    19753525.965
        46.500          44.100
 25  1  1 14 11 45.0000000  0 26E27E10G02E29G32G10G28G03G26R04G04E04
                                R21E21S35R05G25S31G31S33E19E11R16R22
                                E12R15
 132855408.794 7                  25281540.764
        44.200
 140448531.101 6                  26726468.732
        40.600
 129549614.795 5 100947745.76942  24652476.293    24652474.8944   24652479.2844
        34.000          16.2004
 128103449.168 7                  24377275.309
        43.600
 118424791.909 7  92279044.28745  22535500.043    22535499.7044   22535502.0704
        44.600          33.5004


 110890828.944 7  86408432.43444  21101802.781    21101802.5534   21101803.4994
        46.900          28.7004
 111978332.218 7  87256147.97347  21308761.365    21308761.2004   21308763.7934
        47.200          43.9004
 110653714.917 6  86223686.96446  21056685.571    21056685.2184   21056690.8924
        39.300          40.9004
                                                  22775705.017

 126443489.969 5  98527415.55042  24061397.625    24061397.1344   24061399.4364
        34.000          13.8004
 143066564.621 6                  27224659.554
        36.500
 129692904.995 6 100872348.574 5  24236223.404    24236227.595    24236234.774
        40.200          31.900
 129996034.164 7                  24737421.686
        46.200


 105067809.931 8  81718979.651 6  19655004.146    19655004.454    19655007.023
        49.100          36.800


 198904683.886 7                  37850307.986
        44.200
 105046664.833 8  81854552.94548  19989713.069    19989712.6984   19989713.3944
        50.600          49.5004
 202024545.203 7                  38444002.903
        46.000
 122248774.461 6                  23263170.879
        41.800


 105847888.512 8  82326258.656 7  19814954.247    19814955.041    19814958.310
        51.700          44.300
 128069216.763 5  99609375.876 5  23991674.557                    23991678.937
        32.800          33.800
 140573930.908 5                  26750331.074
        33.300
 105584654.536 8  82121381.423 7  19758724.681    19758724.784    19758729.364
        49.500          44.100
 25  1  1 14 12  0.0000000  0 26E27E10G02E29G32G10G28G03G26R04G04E04
                                R21E21S35R05G25S31G31S33E19E11R16R22
                                E12R15
 132866320.082 7                  25283617.925
        46.300
 140461669.373 6                  26728969.601
        41.100
 129581618.223 6 100972683.41943  24658568.355    24658567.0544   24658569.1114
        38.800          18.6004
 128120421.787 7                  24380505.601
        44.800
 118455420.643 6  92302910.76845  22541328.644    22541328.2694   22541331.1214
        41.000          34.2004


 110918331.309 7  86429862.84144  21107036.821    21107036.5764   21107037.9184
        45.300          27.8004
 111948015.412 7  87232524.51547  21302992.627    21302992.4714   21302995.1764
        47.400          44.7004
 110618092.997 7  86195929.58047  21049907.060    21049906.6364   21049912.3154
        45.400          44.5004


 126400793.756 5  98494145.83642  24053272.655    24053272.2894   24053273.9704
        34.400          13.0004
 143034865.532 6                  27218627.875
        36.200
 129737985.815 6 100907411.292 5  24244655.441    24244653.871    24244657.759
        40.400          30.600
 129965871.999 7                  24731682.336
        47.000


 105079559.976 7  81728118.548 6  19657199.985    19657200.378    19657207.602
        46.000          39.200


 198904689.511 7                  37850310.476
        43.500
 105051247.055 8  81858123.52048  19990584.774    19990584.4034   19990585.3384
        49.500          49.4004
 202024568.381 7                  38444010.603
        46.400
 122238757.810 6                  23261264.266
        41.400


 105811273.221 8  82297780.122 7  19808098.103    19808098.837    19808104.144
        50.800          44.200
 128076679.736 6  99615180.399 4  23993075.671    23993076.675    23993074.857
        37.200          29.500
 140601986.512 6                  26755670.079
        37.800
 105612631.200 8  82143141.054 7  19763958.628    19763959.699    19763964.745
        49.300          43.500
 25  1  1 14 12 15.0000000  0 26E27E10G02E29G32G10G28G03G26R04G04E04
                                R21E21S35R05G25S31G31S33E19E11R16R22
                                E12R15
 132877335.049 7                  25285713.635
        47.200
 140474907.566 6                  26731489.532
        41.600
 129613660.464 6 100997651.25543  24664666.124    24664664.8864   24664667.2904
        40.600          21.3004
 128137427.074 7                  24383741.626
        46.200
 118486102.760 7  92326818.82346  22547167.015    22547166.6584   22547170.3004
        43.300          36.0004


 110945898.510 7  86451343.76144  21112283.984    21112283.7344   21112285.0724
        43.000          27.2004
 111917820.004 8  87208995.64047  21297246.797    21297246.6724   21297248.9624
        49.200          45.9004
 110582590.255 7  86168265.09947  21043150.826    21043150.3794   21043156.1994
        45.400          45.9004
 122057005.549 5  94933131.599 5  22793292.314                    22793265.321
        35.000          33.200
 126358095.231 6  98460874.31342  24045147.852    24045147.4284   24045147.9764
        38.900          13.8004
 143003161.962 6                  27212595.000
        39.200
 129783131.625 6 100942524.651 5  24253089.131    24253088.546    24253098.014
        40.300          32.300
 129935788.891 7                  24725957.710
        46.400


 105091431.411 8  81737351.857 6  19659422.016    19659422.386    19659429.422
        48.100          41.900


 198904693.789 7                  37850311.675
        43.500
 105055939.463 8  81861779.96248  19991478.258    19991477.8784   19991478.4644
        50.700          49.5004
 202024589.758 7                  38444013.925
        45.700
 122228769.496 6                  23259362.611
        39.100


 105774818.771 8  82269426.672 7  19801273.549    19801273.938    19801280.578
        50.500          44.900
 128084310.279 6  99621113.295 5  23994512.577    23994512.495    23994506.747
        41.500          34.300
 140630114.594 6                  26761021.952
        39.700
 105640771.760 7  82165028.144 7  19769225.043    19769224.579    19769230.031
        46.500          42.500
 25  1  1 14 12 30.0000000  0 29E27E10G02E29G32G16E33G10G28G03G26R06
                                R04G04E04R21E21S35R05G25S31G31S33E19
                                E11R16R22E12R15
 132888454.136 7                  25287829.466
        47.500
 140488246.247 6                  26734027.175
        41.500
 129645741.860 6 101022649.61143  24670767.779    24670766.6084   24670772.7594
        36.800          20.2004
 128154465.735 7                  24386983.390
        46.600
 118516838.930 7  92350768.99346  22553014.204    22553013.8114   22553019.6384
        44.500          38.0004
 122803063.380 5                  23368652.269
        35.700




 110973530.922 7  86472875.45844  21117543.469    21117543.2194   21117544.9484
        43.100          25.6004
 111887747.046 8  87185562.20747  21291524.599    21291524.4744   21291526.2964
        48.600          46.1004
 110547207.776 7  86140694.32947  21036418.922    21036418.4714   21036422.3554
        45.100          46.4004
 112909816.864 5                  21159251.429    21159250.747
        32.800
 122104076.611 6  94969742.178 5  22802044.833    22802053.959    22802052.028
        38.100          30.400
 126315395.022 5  98427601.46142  24037022.466    24037022.0284   24037022.0414
        35.000          13.2004
 142971454.562 6                  27206560.349
        40.100
 129828342.730 6 100977688.858 5  24261536.293    24261535.910    24261542.051
        38.700          30.400
 129905785.642 7                  24720247.882
        44.100


 105103425.096 8  81746680.267 7  19661665.830    19661666.371    19661672.656
        48.100          43.000


 198904697.528 7                  37850315.355
        44.000
 105060742.490 8  81865522.60648  19992391.993    19992391.5964   19992392.3874
        49.800          49.3004
 202024612.945 7                  38444017.972
        45.800
 122218810.149 6                  23257467.636
        40.300


 105738526.120 8  82241199.058 7  19794480.326    19794479.987    19794485.263
        50.000          44.000
 128092109.152 6  99627179.499 6  23995970.371    23995971.912    23995971.203
        37.700          38.400
 140658315.454 6                  26766387.598
        38.700
 105669076.940 7  82187043.236 7  19774519.596    19774519.181    19774526.753
        43.000          42.900
 25  1  1 14 12 45.0000000  0 28E27E10G02E29G32G16E33G10G28G03G26R06
                                R04G04E04E21S35R05G25S31G31S33E19E11
                                R16R22E12R15
 132899681.067 7                  25289965.642
        47.000
 140501688.708 6                  26736585.857
        40.100
 129677865.444 5 101047680.83742  24676881.363    24676880.2814   24676885.5564
        35.300          17.4004
 128171541.353 7                  24390232.900
        45.600
 118547632.694 6  92374764.03246  22558875.085    22558874.7104   22558879.7804
        40.500          37.2004
 122744220.577 5                  23357453.636
        31.800
 146317013.414 5                  27843200.305
        32.900


 111001232.062 7  86494460.76544  21122812.762    21122812.5084   21122816.2584
        44.600          25.5004
 111857800.407 7  87162227.19947  21285826.158    21285826.0294   21285828.0134
        47.800          46.6004
 110511949.354 7  86113220.23547  21029709.859    21029709.3904   21029712.1054
        46.300          46.5004
 112863869.312 4                  21150638.436    21150638.281
        28.200
 122151220.136 4                  22810847.072    22810848.984
        28.200
 126272696.876 5  98394330.19542  24028899.979    24028899.5864   24028896.8974
        35.900          14.8004
 142939746.978 6                  27200527.353
        40.700
 129875865.998 7                  24714554.800
        42.100


 105115544.943 8  81756106.839 7  19663933.308    19663933.377    19663938.065
        48.000          42.200


 198904705.303 7                  37850314.586
        43.900
 105065659.509 8  81869354.07348  19993328.283    19993327.8864   19993327.8114
        50.900          50.3004
 202024638.178 7                  38444020.436
        45.100
 122208883.332 6                  23255578.975
        40.600


 105702399.244 8  82213100.386 7  19787717.167    19787717.570    19787723.611
        50.300          44.300
 128100078.530 5  99633378.111 6  23997472.714    23997470.732    23997464.680
        32.100          36.500
 140686592.501 6                  26771768.874
        37.200
 105697549.771 7  82209188.711 7  19779849.298    19779847.307    19779855.908
        42.300          44.000
 25  1  1 14 13  0.0000000  0 29E27E10G02E29G32G16E33G10G28G03G26R04
                                G04E04R21E21S35R05G25S31G31S33E19E11
                                R16R14R22E12R15
 132911008.527 7                  25292121.331
        47.200
 140515227.881 6                  26739161.786
        39.700
 129710024.031 5 101072739.37942  24683001.412    24683000.4204   24683005.0574
        33.200          16.5004
 128188646.968 7                  24393488.331
        47.100
 118578477.055 6  92398798.51245  22564746.130    22564745.7594   22564749.3804
        41.700          34.4004
 122685402.022 4                  23346254.410
        28.100
 146360575.865 5                  27851491.978
        32.000


 111028994.750 7  86516094.04944  21128095.307    21128095.0844   21128099.0864
        46.100          27.0004
 111827973.401 7  87138985.43847  21280150.227    21280150.0934   21280152.3624
        47.400          46.3004
 110476808.306 7  86085837.60547  21023022.345    21023021.8544   21023024.7394
        47.000          46.8004


 126229993.821 5  98361055.08242  24020775.898    24020775.5814   24020771.5474
        35.500          16.0004
 142908032.034 6                  27194491.688
        38.400
 129918962.011 6                  24278469.680    24278472.319
        38.900
 129846023.161 6                  24708874.546
        41.100


 105127784.007 7  81765626.090 7  19666221.566    19666222.257    19666227.983
        46.700          43.200
 124195624.496 5  96775839.17942  23633642.095    23633641.5814   23633646.1174
        33.400          14.1004
 198904709.447 7                  37850315.824
        43.700
 105070683.486 8  81873268.90648  19994284.271    19994283.8654   19994283.9734
        50.700          50.9004
 202024660.067 7                  38444024.653
        45.300
 122198982.254 6                  23253695.181
        41.600


 105666431.068 8  82185125.106 7  19780985.904    19780986.186    19780990.376
        51.800          45.100
 126541703.997 5                  23738886.534    23738885.810
        35.500
                  99639704.537 5                                  23998985.855
                        33.800
 140714938.519 6                  26777162.856
        38.200
 105726182.716 7  82231458.809 7  19785206.986    19785207.209    19785214.463
        44.300          44.200
 25  1  1 14 13 15.0000000  0 29E27E10G02E29G32G16E33G10G28G03G26R04
                                G04E04R21E21S35R05G25S31G31S33E19E11
                                R16R14R22E12R15
 132922440.704 7                  25294297.094
        47.100
 140528867.812 6                  26741756.919
        38.500
 129742221.528 6 101097828.22742  24689128.632    24689127.5954   24689132.0384
        36.200          15.7004
 128205786.802 7                  24396749.658
        47.200
 118609376.281 6  92422875.74345  22570622.583    22570622.0784   22570628.1954
        39.100          30.0004
 122626612.445 5                  23335075.347
        30.300
 146404120.395 5                  27859781.076
        33.600


 111056822.778 7  86537778.20044  21133391.507    21133391.2754   21133394.2614
        46.000          28.1004
 111798270.362 7  87115840.26347  21274497.274    21274497.1404   21274499.9584
        47.800          46.3004
 110441789.139 7  86058549.95447  21016358.273    21016357.7644   21016361.4184
        46.700          47.9004
 122245577.009 6                  22828493.553    22828494.203
        39.500


 142876314.018 6                  27188456.362
        39.100
 129964366.127 6                  24286953.917    24286954.858
        38.100
 129816261.491 6                  24703210.793
        40.600


 105140146.487 7  81775241.283 7  19668536.010    19668535.535    19668540.822
        46.300          44.600
 124240869.183 5  96811094.63841  23642251.971    23642251.4174   23642250.9374
        35.700          11.3004
 198904713.830 7                  37850315.534
        44.200
 105075818.311 8  81877270.07848  19995261.498    19995261.0964   19995261.8234
        50.500          51.4004
 202024682.863 7                  38444030.296
        45.700
 122189111.149 7                  23251816.812
        42.100


 105630626.613 8  82157277.171 7  19774281.482    19774282.518    19774287.727
        50.200          45.200
 126604357.718 6                  23750638.480    23750641.612
        37.400
                  99646161.118 5                                  24000542.105
                        35.100
 140743357.487 6                  26782571.712
        40.100
 105754979.796 7  82253856.568 7  19790597.496    19790598.497    19790604.959
        47.000          44.800
 25  1  1 14 13 30.0000000  0 28E27E10G02E29G32G16E33G10G28G03G26R04
                                G04E04R21E21S35R05G25S31G31S33E19E11
                                R16R14E12R15
 132933981.096 7                  25296493.069
        46.800
 140542612.045 6                  26744371.994
        36.400
 129774460.942 5 101122949.77342  24695263.250    24695262.0394   24695267.1454
        32.300          12.2004
 128222964.545 7                  24400018.976
        47.500
 118640333.984 6  92446998.49944  22576512.469    22576511.9554   22576517.9974
        37.800          27.0004
 122567855.750 4  95507454.64741  23323895.233    23323895.1534   23323896.9534
        28.400           6.6004
 146447650.368 5                  27868064.990
        33.800


 111084719.459 7  86559515.78744  21138700.506    21138700.2654   21138702.2514
        45.500          27.7004
 111768695.196 7  87092794.67947  21268868.940    21268868.8024   21268871.7244
        47.900          45.9004
 110406895.758 7  86031360.32448  21009718.655    21009718.1464   21009722.7314
        45.600          48.5004


 126144589.056 5  98294506.2694   24004563.228    24004562.9924   24004519.9544
        30.400           4.7004
 142844596.523 6                  27182420.435
        39.100
 130009837.873 6                  24295454.218    24295454.826
        38.100
 129786584.804 7                  24697563.668
        43.600


 105152636.050 7  81784955.388 7  19670872.735    19670871.891    19670877.603
        44.500          45.800
 124286211.583 5  96846426.30541  23650880.338    23650879.4934   23650877.3494
        33.600           9.9004
 198904722.812 7                  37850316.442
        43.700
 105081067.506 8  81881360.35848  19996260.137    19996259.7404   19996261.1464
        50.600          51.3004
 202024709.886 7                  38444035.295
        46.200
 122179273.576 7                  23249944.582
        43.400


 105594989.285 7  82129559.198 7  19767608.717    19767609.583    19767615.968
        47.700          44.600
 126667041.851 6                  23762401.586    23762400.915
        37.000
 140771852.746 6                  26787993.790
        38.200
 105783944.041 8  82276384.250 7  19796018.291    19796018.649    19796024.740
        49.300          44.500
 25  1  1 14 13 45.0000000  0 29E27E10G02E29G32G16E33G10G28G03G26R06
                                R04G04E04E21S35R05G25S31G31S33E19E11
                                R16R14R22E12R15
 132945618.495 7                  25298707.463
        46.800
 140556449.285 6                  26747007.335
        37.800
 129806731.087 4 101148095.25341  24701404.840    24701403.6824   24701408.0954
        28.400           6.5004
 128240169.162 8                  24403293.226
        48.800
 118671339.027 6  92471158.19344  22582412.805    22582412.2514   22582418.6974
        39.100          28.1004
 122509121.281 4  95461687.5764   23312720.001    23312719.9484   23312719.6764
        28.800           2.2004
 146491154.367 5                  27876342.403
        32.700


 111112673.741 7  86581298.24444  21144020.122    21144019.8774   21144021.1124
        46.300          26.8004
 111739237.272 8  87069840.47647  21263263.424    21263263.2864   21263265.7004
        48.100          46.0004
 110372117.426 7  86004260.34348  21003100.915    21003100.4064   21003105.5884
        46.800          49.3004
 112680504.593 5                  21116278.508
        34.400
 122340339.437 6  95153591.119 5  22846184.495    22846184.917    22846197.308
        38.900          35.300
 126101880.538 5  98261227.01741  23996378.520    23996378.2754   23996392.7624
        32.400           8.5004
 142812868.599 6                  27176382.936
        36.400
 129756982.197 7                  24691930.698
        44.800


 105165242.078 7  81794760.013 7  19673229.450    19673230.148    19673235.932
        44.600          46.400


 198904725.104 7                  37850316.397
        43.700
 105086419.811 8  81885530.99448  19997278.428    19997278.0314   19997279.4284
        51.300          51.0004
 202024730.030 7                  38444041.766
        45.500
 122169458.505 7                  23248077.008
        44.400


 105559508.248 7  82101962.781 7  19760966.259    19760965.628    19760973.927
        44.200          44.400
 126729743.924 5                  23774161.355    23774158.805
        33.500
 128133625.048 6  99659466.167 5  24003744.496    24003746.109    24003746.076
        36.300          32.900
 140800412.977 6                  26793428.685
        38.700
 105813063.797 8  82299032.827 7  19801466.386    19801466.780    19801474.665
        48.800          43.900
 25  1  1 14 14  0.0000000  0 27E27E10G02E29G32E33G10G28G03G26R06R04
                                G04E04E21S35R05G25S31G31S33E19E11R16
                                R22E12R15
 132957361.536 7                  25300941.563
        45.400
 140570388.073 6                  26749657.473
        38.500
 129839040.275 5 101173271.16641  24707554.457    24707553.1164   24707556.1784
        30.800           7.4004
 128257409.300 8                  24406573.803
        48.500
 118702400.081 6  92495361.52544  22588324.693    22588324.1174   22588330.3344
        37.600          28.9004
 146534640.946 5                  27884620.154
        32.900


 111140693.931 7  86603132.07144  21149351.897    21149351.6474   21149352.2304
        45.900          24.1004
 111709905.421 8  87046984.49247  21257682.403    21257682.2744   21257683.6574
        48.100          46.3004
 110337463.017 8  85977256.92248  20996505.515    20996504.9834   20996511.1934
        48.700          50.1004
 112634774.962 5                  21107708.697    21107709.202
        34.300
 122387821.336 6  95190521.117 5  22855051.223    22855052.171    22855064.026
        38.200          35.300
 126059172.882 5  98227948.40042  23988265.622    23988265.5874   23988265.3604
        34.400          12.1004
 142781138.835 5                  27170345.015
        35.000
 129727462.493 7                  24686313.586
        44.100


 105177972.948 7  81804661.828 7  19675612.957    19675612.334    19675617.550
        44.300          46.700


 198904728.817 7                  37850318.901
        43.500
 105091883.688 8  81889788.56848  19998317.988    19998317.5774   19998318.6964
        50.700          51.0004
 202024752.164 7                  38444047.261
        47.100
 122159674.616 7                  23246214.958
        43.900


 105524192.955 7  82074495.352 7  19754356.702    19754354.844    19754363.402
        43.900          44.800
 128142426.519 5  99666311.620 4  24005391.705    24005389.856    24005391.692
        32.000          28.400
 140829046.629 5                  26798877.227
        35.700
 105842347.815 8  82321809.224 6  19806947.444    19806947.263    19806952.483
        50.400          41.800
 25  1  1 14 14 15.0000000  0 29E27E10G02E29G32E33G10G28G03G26R06R04
                                G04E04R21R09E21S35R05G25S31G31S33E19
                                E11R16R22E12R15
 132969207.407 7                  25303194.719
        43.100
 140584425.531 6                  26752327.360
        36.200
 129871385.435 6 101198475.17141  24713709.839    24713708.4444   24713711.0094
        36.600           6.3004
 128274682.371 8                  24409860.780
        48.700
 118733514.512 5  92519606.43644  22594246.991    22594246.4864   22594251.0614
        35.400          28.7004
 146578107.095 5                  27892891.531
        32.000


 111168777.334 7  86625015.20943  21154695.550    21154695.3054   21154695.2424
        45.500          22.7004
 111680697.262 7  87024224.88347  21252123.793    21252123.6644   21252125.6054
        47.200          45.9004
 110302930.179 8  85950348.22748  20989933.716    20989933.1844   20989939.6654
        48.800          50.2004
 112589089.874 5                  21099149.319    21099149.327
        35.000
                  95227503.344 6                                  22863944.194
                        36.200
 126016463.409 6  98194668.28842  23980136.730    23980136.6504   23980137.7344
        37.600          13.5004
 142749404.691 5                  27164304.082
        30.700
 130146608.040 6                  24321010.190    24321011.446
        37.000
 127285719.026 5                  23836529.817    23836529.236
        32.800
 129698023.221 7                  24680711.647
        46.700


 105190826.236 7  81814658.784 7  19678016.997    19678016.917    19678021.664
        46.400          46.400


 198904731.432 7                  37850321.235
        43.300
 105097456.324 8  81894130.86348  19999379.049    19999378.6384   19999378.7974
        49.600          50.9004
 202024772.996 7                  38444051.125
        46.200
 122149919.531 7                  23244359.235
        44.500


 105489040.596 7  82047154.638 7  19747777.657    19747777.239    19747781.983
        46.000          44.600
 128151393.981 4                  24007085.332    24007079.168
        28.700
 140857750.800 5                  26804339.636
        35.000
 105871792.793 8  82344710.807 6  19812457.647    19812457.715    19812461.866
        51.000          40.200
 25  1  1 14 14 30.0000000  0 30E27E10G02E29G32G16E33G10G28G03G26R06
                                R04G04E04R21R09E21S35R05G25S31G31S33
                                E19E11R16R22E12R15
 132981159.292 6                  25305469.938
        40.600
 140598564.672 5                  26755019.633
        34.900
 129903769.311 6 101223709.14341  24719870.821    24719869.4444   24719873.4374
        38.700           7.1004
 128291991.473 8                  24413154.823
        48.500
 118764685.313 6  92543895.30345  22600181.427    22600180.9274   22600183.2994
        38.500          31.0004
 122333081.249 5                  23279214.645
        33.800
 146621555.685 5                  27901158.377
        30.100


 111196926.662 7  86646949.74443  21160051.909    21160051.6594   21160051.8614
        42.500          20.4004
 111651616.291 7  87001564.42247  21246590.627    21246590.5204   21246591.5874
        47.500          45.9004
 110268522.321 8  85923536.93848  20983386.789    20983386.2754   20983391.6094
        49.700          49.6004
 112543453.053 5                  21090599.823    21090598.923
        35.800
                  95264540.347 6                  22872835.264    22872838.627
                        36.300
 125973755.298 6  98161389.18042  23972008.914    23972008.6604   23972010.4574
        37.500          17.8004
 142717669.058 5                  27158266.347
        30.700
 130192322.951 6                  24329556.747    24329557.557
        40.100


 129668667.662 7                  24675125.031
        46.000


 105203804.956 8  81824753.331 7  19680444.100    19680445.259    19680450.135
        48.900          45.900


 198904737.298 7                  37850321.146
        43.700
 105103140.807 8  81898560.36148  20000461.239    20000460.8104   20000460.5094
        50.900          51.1004
 202024796.786 7                  38444057.658
        46.500
 122140196.440 7                  23242509.355
        44.600


 105454054.647 8  82019943.397 7  19741227.726    19741228.722    19741232.492
        48.300          44.700
                                                  24008778.706

 140886528.275 5                  26809815.551
        34.900
 105901401.581 8  82367739.834 6  19817997.879    19817998.507    19818002.837
        50.000          40.600
 25  1  1 14 14 45.0000000  0 29E27E10G02E29G32G16E33G10G28G03G26R06
                                R04G04E04R21R09E21S35R05G25S31G31S33
                                E19E11R16E12R15
 132993216.123 6                  25307765.104
        39.900
 140612804.704 4                  26757728.649
        29.300
 129936191.076 6 101248972.72941  24726039.182    24726037.8014   24726043.3514
        36.600           7.9004
 128309336.038 7                  24416454.753
        47.300
 118795911.975 6  92568227.68545  22606120.362    22606119.8354   22606125.8894
        40.300          34.3004
 122274471.772 5                  23268061.036
        34.300
 146664985.656 4                  27909417.566
        26.600


 111225141.150 6  86668935.08943  21165421.218    21165420.9644   21165421.2434
        40.500          18.7004
 111622662.122 8  86979002.81347  21241080.390    21241080.3064   21241081.4794
        48.900          46.6004
 110234239.089 8  85896822.75648  20976862.921    20976862.3894   20976866.6714
        48.700          48.6004
 112497863.792 5                  21082059.650    21082058.316
        33.300
 122530678.647 6  95301631.408 6  22881738.330    22881738.059    22881744.002
        38.200          36.100
 125931047.966 6  98128110.73243  23963882.491    23963882.1654   23963883.6644
        38.800          19.3004
 142685931.538 5                  27152227.631
        30.200
 130238099.865 6                  24338110.392    24338111.727
        38.100


 129639395.359 7                  24669554.931
        45.900


 105216908.952 8  81834945.291 7  19682895.744    19682896.907    19682900.549
        49.700          44.200
 124514287.154 5                  23694281.404
        35.700
 198904743.481 7                  37850321.825
        43.100
 105108936.203 8  81903076.23748  20001564.127    20001563.6984   20001563.5744
        50.800          51.9004
 202024821.731 7                  38444060.967
        46.500
 122130504.510 7                  23240665.524
        46.200


 105419234.545 8  81992861.119 7  19734709.428    19734710.957    19734713.260
        48.400          43.700
 140915378.215 5                  26815305.842
        35.900
 105931172.687 8  82390895.145 6  19823568.836    19823568.611    19823574.152
        48.900          41.400
 25  1  1 14 15  0.0000000  0 28E27E10G02E29G32G16G10G28G03G26R06R04
                                G04E04R21E21S35R05G25S31G31S33E19E11
                                R16R22E12R15
 133005377.118 6                  25310079.405
        41.500
 140627144.504 5                  26760458.121
        33.300
 129968649.133 5 101274264.59041  24732216.691    24732215.2784   24732220.4374
        35.400           7.1004
 128326715.128 7                  24419762.347
        45.500
 118827193.519 7  92592602.80746  22612074.087    22612073.5914   22612078.7994
        43.300          36.5004
 122215893.887 5                  23256915.316
        35.000


 111253419.625 6  86690970.27043  21170803.091    21170802.8594   21170802.4604
        40.200          18.4004
 111593834.069 8  86956539.47947  21235594.494    21235594.4144   21235595.6664
        50.100          47.6004
 110200079.811 7  85870205.15747  20970362.651    20970362.1104   20970365.7234
        47.700          47.4004
 112452321.819 4                  21073512.468
        25.500
 122578436.056 6  95338775.683 5  22890656.787    22890656.245    22890660.726
        38.000          34.300
 125888340.544 6  98094832.19343  23955754.213    23955753.8924   23955756.5704
        39.600          19.9004
 142654191.024 5                  27146185.790
        31.200
 130283937.096 4                  24346673.940    24346670.372
        27.800
 129610205.512 7                  24664000.181
        45.700


 105230137.404 8  81845234.036 7  19685371.400    19685372.021    19685374.894
        50.300          44.300
 124560180.761 6  97059827.00841  23703013.357    23703012.9644   23703007.6824
        36.700          10.7004
 198904750.861 7                  37850321.159
        43.700
 105114841.460 8  81907677.74948  20002687.570    20002687.1504   20002687.3374
        50.900          51.9004
 202024847.636 7                  38444065.058
        46.000
 122120842.855 7                  23238826.974
        46.300


 105384579.739 8  81965907.392 7  19728220.861    19728221.577    19728226.737
        48.400          44.000
                                                  24012312.357

 140944299.442 6                  26820810.186
        38.000
 105961105.092 8  82414175.868 7  19829171.196    19829171.652    19829176.009
        49.600          42.600
 25  1  1 14 15 15.0000000  0 29E27E10G02E29G32G16E33G10G28G03G26R06
                                R04G04E04R21E21S35R05G25S31G31S33E19
                                E11R16R22E12R15
 133017634.925 6                  25312411.128
        41.400
 140641576.744 5                  26763203.733
        33.400
 130001136.144 5 101299579.0234   24738399.311    24738398.0104   24738402.7414
        35.800           4.7004
 128344121.670 7                  24423074.559
        46.000
 118858522.779 7  92617015.10746  22618035.003    22618034.5704   22618040.5634
        43.000          37.8004
 122157340.977 6                  23245772.740
        36.800




 111281754.570 6  86713049.38343  21176195.617    21176195.4034   21176194.4374
        38.700          18.0004
 111565125.085 8  86934168.86947  21230131.253    21230131.1554   21230132.7074
        49.400          47.6004
 110166037.657 7  85843678.78847  20963884.761    20963884.2434   20963888.0724
        46.800          47.0004
 112406820.183 5                  21064993.326
        30.300


 125845625.946 6  98061548.02943  23947625.090    23947624.7514   23947627.2364
        37.700          18.6004
 142622440.399 5                  27140142.648
        31.100
 130329827.114 5 101367710.435 6  24355250.546    24355250.271    24355264.269
        34.000          36.400
 129581091.179 7                  24658459.552
        45.500


 105243483.058 8  81855614.000 7  19687867.165    19687866.914    19687873.284
        49.200          46.300
 124606158.510 6  97095653.69042  23711765.099    23711764.5854   23711762.8684
        37.700          14.3004
 198904751.832 7                  37850322.125
        42.600
 105120849.246 8  81912359.16548  20003830.254    20003829.8394   20003830.3114
        51.600          51.6004
 202024866.700 7                  38444067.607
        46.000
 122111204.588 7                  23236992.741
        46.100


 105350083.268 8  81939076.841 7  19721763.518    19721764.505    19721769.173
        48.100          44.900
 128188937.145 5                  24014119.859    24014120.721
        33.100
 140973284.473 6                  26826324.532
        36.600
 105991191.136 8  82437576.226 7  19834799.987    19834801.157    19834805.111
        48.000          42.500
 25  1  1 14 15 30.0000000  0 28E27E10G02E29G32G16E33G10G28G03G26R06
                                R04G04E04R21E21S35R05G25S31G31S33E19
                                E11R16E12R15
 133029997.551 7                  25314764.218
        42.100
 140656109.440 5                  26765971.332
        33.400
 130033659.769 6 101324921.92941  24744589.970    24744588.8174   24744591.5164
        38.800           9.0004
 128361563.656 7                  24426393.675
        46.000
 118889907.744 7  92641470.83346  22624008.284    22624007.8824   22624012.7684
        43.300          36.9004
 122098821.441 5                  23234635.999
        35.300




 111310153.898 6  86735178.68643  21181599.422    21181599.1994   21181599.0144
        40.700          19.5004
 111536543.674 8  86911897.69147  21224692.320    21224692.2094   21224693.8594
        49.900          47.9004
 110132120.949 7  85817250.18047  20957430.204    20957429.6904   20957434.7704
        46.700          47.0004
 112361367.051 5                  21056475.999
        33.300
                  95413212.466 5                                  22908534.888
                        35.200
 125802912.293 6  98028264.64242  23939498.057    23939497.7854   23939498.3764
        40.300          17.2004
 142590687.747 5                  27134102.617
        31.500
 130375777.447 5 101403449.463 6  24363837.692    24363838.277    24363848.586
        34.900          36.000
 129552060.526 7                  24652935.973
        45.100


 105256953.918 8  81866091.314 7  19690387.603    19690386.691    19690393.776
        49.500          46.800
 124652228.291 5  97131551.96442  23720531.157    23720530.4604   23720531.5644
        33.300          13.3004
 198904754.303 7                  37850322.733
        43.500
 105126967.311 8  81917126.51748  20004994.007    20004993.6014   20004994.3014
        51.400          51.0004
 202024887.415 7                  38444073.107
        45.800
 122101597.681 7                  23235164.271
        45.500


 105315753.572 7  81912376.065 7  19715335.729    19715337.710    19715343.031
        46.200          44.900
 141002341.173 5                  26831854.352
        33.100
 106021438.593 7  82461102.013 7  19840460.220    19840461.449    19840466.713
        47.400          43.200
 25  1  1 14 15 45.0000000  0 28E27E10G02E29G32G16E33G10G28G03G26R06
                                R04G04E04R21E21S35R05G25S31G31S33E19
                                E11R16E12R15
 133042467.045 7                  25317137.240
        44.400
 140670744.689 6                  26768760.512
        36.000
 130066222.002 6 101350295.05142  24750785.602    24750784.5164   24750788.0224
        41.800          13.2004
 128379043.488 7                  24429720.009
        42.900
 118921350.771 6  92665971.80245  22629991.204    22629990.8114   22629996.3814
        41.800          35.9004
 122040337.908 5                  23223503.798
        31.900




 111338619.712 6  86757359.80343  21187016.076    21187015.7774   21187016.7744
        36.900          20.3004
 111508092.415 8  86889727.91447  21219277.626    21219277.5194   21219279.9324
        48.400          47.6004
 110098332.269 7  85790921.32147  20951000.442    20950999.9244   20951005.6324
        46.400          47.0004
 112315965.292 5                  21047964.874    21047967.761
        32.100


 125760201.952 6  97994983.81942  23931370.290    23931369.9644   23931370.1964
        40.200          16.7004
 142558935.462 5                  27128060.673
        35.700
 130421789.744 5 101439236.870 5  24372437.697    24372438.236    24372445.258
        35.500          34.600
 129523116.107 7                  24647427.994
        46.300


 105270552.897 8  81876668.285 7  19692931.406    19692930.879    19692937.249
        51.100          46.800
 124698392.063 5  97167523.63941  23729318.902    23729318.0484   23729316.0934
        30.200           7.5004
 198904760.022 7                  37850322.594
        42.900
 105133197.766 8  81921981.45048  20006179.743    20006179.3234   20006179.7824
        51.000          51.2004
 202024911.886 7                  38444077.534
        46.100
 122092024.476 7                  23233342.151
        44.100


 105281593.135 7  81885806.868 7  19708940.869    19708943.608    19708947.373
        45.500          44.800


 106051849.279 8  82484754.773 7  19846152.384    19846153.449    19846157.407
        48.500          44.200
 25  1  1 14 16  0.0000000  0 28E27E10G02E29G32E33G10G28G03G26R06R04
                                G04E04R21E21S35R05G25S31G31S33E19E11
                                R16R22E12R15
 133055038.902 7                  25319528.370
        43.600
 140685477.779 6                  26771562.621
        38.700
 130098817.858 6 101375694.31541  24756988.116    24756987.1604   24756991.2764
        41.800          11.0004
 128396556.693 7                  24433053.217
        43.000
 118952847.392 6  92690514.55445  22635985.377    22635984.9394   22635989.6344
        37.200          34.4004




 111367147.298 6  86779589.14943  21192446.169    21192445.9064   21192446.3524
        38.300          21.0004
 111479767.005 8  86867656.21447  21213887.536    21213887.4294   21213890.0484
        49.200          47.1004
 110064667.408 7  85764688.95647  20944594.230    20944593.7034   20944599.0494
        44.800          46.7004
 112270610.807 4                  21039467.519    21039466.594
        27.800
 122770123.674 6  95487865.410 5  22926450.628    22926451.534    22926460.183
        36.200          34.500
 125717490.469 6  97961702.12442  23923243.486    23923243.2274   23923241.8954
        40.400          15.8004
 142527178.849 5                  27122018.683
        35.200
 130467859.141 5 101475068.471 5  24381058.431    24381055.280    24381054.160
        34.600          33.900
 129494253.586 7                  24641935.427
        47.400


 105284275.207 8  81887341.196 7  19695498.192    19695498.190    19695504.134
        51.900          47.100


 198904765.714 7                  37850324.244
        43.000
 105139535.890 8  81926920.25548  20007386.028    20007385.6224   20007385.8774
        51.900          51.4004
 202024935.837 7                  38444081.152
        46.700
 122082480.600 7                  23231525.957
        43.400


 105247597.480 7  81859365.796 7  19702572.720    19702574.430    19702583.064
        44.100          44.700
 128218833.265 5                  24019723.828
        33.700


 106082417.986 8  82508530.435 7  19851873.252    19851873.088    19851877.762
        48.700          44.500
 25  1  1 14 16 15.0000000  0 26E27E10G02E29G32E33G10G28G03G26R04G04
                                E04R21E21S35R05G25S31G31S33E19E11R16
                                E12R15
 133067712.397 6                  25321940.378
        41.900
 140700308.020 5                  26774380.598
        32.700
 130131446.469 7 101401119.13441  24763197.451    24763196.5804   24763201.0454
        43.000           9.6004
 128414102.634 7                  24436390.999
        44.000
 118984396.888 6  92715098.49845  22641989.227    22641988.8744   22641993.6504
        36.500          33.0004




 111395735.741 6  86801865.87843  21197885.511    21197885.2434   21197887.0204
        37.200          20.9004
 111451567.054 8  86845682.23547  21208521.503    21208521.3924   21208524.9334
        49.000          47.4004
 110031125.973 7  85738552.79647  20938211.731    20938211.2224   20938215.3924
        46.500          46.9004
 122818214.416 5  95525268.968 6  22935432.756    22935429.524    22935443.704
        34.500          36.200
 125674777.312 6  97928419.22142  23915116.349    23915116.1214   23915113.5014
        36.800          12.2004
 142495417.512 5                  27115975.991
        31.400
 130513983.994 6 101510943.395 5  24389684.321    24389689.630    24389670.100
        36.100          31.000
 129465472.460 7                  24636458.689
        47.900


 105298120.329 8  81898109.581 7  19698089.206    19698089.025    19698093.387
        53.000          47.000


 198904770.062 7                  37850327.079
        43.300
 105145981.034 8  81931942.42648  20008612.280    20008611.8784   20008612.4484
        51.400          50.7004
 202024958.803 7                  38444086.066
        46.000
 122072965.502 7                  23229714.738
        42.300


 105213766.287 7  81833052.700 7  19696242.002    19696242.863    19696250.813
        46.200          45.400


 106113144.066 8  82532428.456 7  19857623.309    19857624.001    19857628.876
        51.200          44.600
 25  1  1 14 16 30.0000000  0 28E27E10G02E29G32E33G10G28G03G26R04G04
                                E04R21R09E21S35R05G25S31G31S33E19E11
                                R16R22E12R15
 133080491.930 6                  25324373.107
        41.300
 140715239.646 4                  26777223.989
        29.000
 130164111.877 7 101426572.5794   24769413.707    24769412.9614   24769418.0584
        42.300           5.9004
 128431685.896 6                  24439736.511
        41.900
 119016003.751 6  92739727.14345  22648002.511    22648002.2704   22648009.0874
        40.100          35.6004




 111424389.315 6  86824193.37143  21203337.969    21203337.7064   21203339.5514
        37.600          20.6004
 111423497.419 8  86823809.80047  21203180.101    21203179.9904   21203184.3944
        48.800          47.5004
 109997712.769 7  85712516.53247  20931853.175    20931852.6484   20931856.4854
        47.500          47.8004
 122866375.275 6  95562727.026 5  22944426.412    22944426.617    22944436.616
        37.500          34.200
 125632067.032 5  97895138.46441  23906987.910    23906987.5754   23906985.5534
        35.000          11.0004
 142463655.833 5                  27109929.759
        31.400
 130560168.899 5                  24398318.145    24398312.126
        31.900


 129436777.383 8                  24630998.021
        48.100


 105312093.017 8  81908977.137 7  19700703.294    19700703.789    19700707.230
        53.200          46.900


 198904777.039 7                  37850327.223
        43.600
 105152537.474 8  81937051.30648  20009859.915    20009859.5134   20009860.1824
        50.300          49.8004
 202024984.070 7                  38444090.761
        47.100
 122063483.703 7                  23227909.960
        42.000


 105180104.467 8  81806871.228 7  19689944.055    19689944.158    19689948.222
        49.800          44.800
 128239592.550 5                  24023620.778
        30.600


 106144031.378 8  82556451.912 7  19863403.492    19863403.699    19863409.897
        51.200          44.500
 25  1  1 14 16 45.0000000  0 28E27E10G02E29G32E33G10G28G03G26R04G04
                                E04R21R09E21S35R05G25S31G31S33E19E11
                                R16R22E12R15
 133093373.837 7                  25326824.339
        42.900
 140730269.097 4                  26780078.002
        25.900
 130196810.520 6 101452052.4894   24775636.395    24775635.8144   24775640.5854
        40.000           4.6004
 128449303.025 6                  24443089.397
        41.600
 119047664.593 7  92764397.85046  22654027.321    22654027.1114   22654034.3794
        42.300          37.6004




 111453104.402 5  86846568.77343  21208801.815    21208801.5024   21208804.2144
        35.000          20.6004
 111395554.928 8  86802036.39947  21197862.876    21197862.7604   21197867.0314
        48.800          47.5004
 109964424.685 8  85686577.79648  20925519.012    20925518.4984   20925522.1824
        48.600          49.6004
 122914602.954 6  95600236.982 5  22953439.231    22953439.463    22953440.974
        36.400          32.700
 125589356.281 5  97861857.38242  23898860.025    23898859.5604   23898857.9364
        34.800          13.0004
 142431890.387 5                  27103887.463
        32.200
 130606409.223 4                  24406963.566    24406968.821
        26.800


 129408165.113 8                  24625553.311
        48.300


 105326189.850 8  81919941.315 8  19703339.572    19703339.533    19703344.803
        50.700          48.300


 198904783.896 7                  37850328.671
        43.400
 105159201.617 8  81942244.14348  20011128.025    20011127.6324   20011128.1334
        49.600          48.9004
 202025010.186 7                  38444095.684
        46.200
 122054031.728 6                  23226110.819
        41.700


 105146608.624 8  81780818.923 7  19683671.902    19683672.980    19683677.433
        50.500          44.200
                  99750181.146 5                                  24025590.754
                        33.700


 106175075.998 8  82580597.701 7  19869213.757    19869213.571    19869219.519
        51.300          43.300
 25  1  1 14 17  0.0000000  0 28E27E10G02E29G32G16E33G10G28G03G26R04
                                G04E04R21E21S35R05G25S31G31S33E19E11
                                R16R22E12R15
 133106357.696 7                  25329294.542
        44.000
 140745395.676 5                  26782962.440
        32.200
 130229541.545 6 101477557.08741  24781865.490    24781864.9324   24781868.4374
        39.200           9.7004
 128466953.606 7                  24446448.457
        43.700
 119079378.834 7  92789110.17146  22660063.251    22660063.0594   22660069.5364
        43.400          38.8004
 121748415.291 5  94868941.80942  23167959.655    23167960.1024   23167964.4544
        35.300          13.6004




 111481880.198 6  86868991.43543  21214279.116    21214278.8264   21214280.1764
        37.000          22.1004
 111367739.313 7  86780361.85347  21192570.074    21192569.9494   21192572.6484
        47.000          46.3004
 109931261.398 8  85660736.28848  20919208.177    20919207.6774   20919211.9084
        49.100          50.3004
 122962896.574 6  95637798.110 5  22962458.834    22962454.464    22962459.074
        37.400          31.700
 125546644.676 6  97828575.66642  23890734.385    23890733.9564   23890730.4994
        37.500          16.1004
 142400120.644 5                  27097847.848
        32.200


 129379635.324 8                  24620124.072
        48.300


 105340410.637 8  81931001.905 8  19705999.472    19706000.189    19706005.181
        50.600          49.200


 198904790.397 7                  37850331.515
        43.700
 105165972.842 8  81947520.44048  20012416.304    20012415.9074   20012415.8624
        49.300          48.0004
 202025034.844 7                  38444098.184
        46.300
 122044609.270 7                  23224317.943
        42.300


 105113278.731 8  81754895.693 7  19677433.129    19677433.229    19677437.360
        49.900          43.900
                  99758574.676 5                  24027615.622    24027612.338
                        33.100


 106206277.275 8  82604865.310 6  19875052.912    19875052.848    19875056.878
        51.500          40.800
 25  1  1 14 17 15.0000000  0 29E27E10G02E29G32G16E33G10G28G03G26R06
                                R04G04E04R21E21S35R05G25S31G31S33E19
                                E11R16R22E12R15
 133119439.435 7                  25331784.195
        44.900
 140760615.552 6                  26785857.420
        36.900
 130262300.684 6 101503083.58041  24788099.190    24788098.6054   24788102.4474
        38.200          11.1004
 128484633.866 7                  24449812.494
        42.200
 119111142.751 7  92813861.20946  22666107.640    22666107.3994   22666113.6364
        44.900          38.6004
 121690128.707 6  94823523.76342  23156871.112    23156871.3664   23156870.8414
        36.600          14.0004




 111510712.889 6  86891458.46843  21219765.526    21219765.2634   21219766.7724
        38.100          22.7004
 111340047.163 7  86758783.56847  21187300.034    21187299.8824   21187301.5214
        47.000          45.1004
 109898219.487 8  85634989.35848  20912920.559    20912920.0544   20912924.5254
        49.900          50.6004
 112044572.346 5                  20997104.481    20997103.171
        33.000
 123011251.668 5  95675407.328 5  22971479.549    22971477.586    22971487.786
        34.100          32.600
 125503928.429 6  97795290.28243  23882604.672    23882604.2884   23882603.2844
        41.900          21.2004
 142368343.124 4                  27091791.414
        29.500


 129351184.407 7                  24614710.088
        47.900


 105354751.133 8  81942155.613 8  19708682.719    19708683.279    19708688.691
        50.800          49.900


 198904791.690 7                  37850330.344
        43.000
 105172847.184 8  81952877.07647  20013723.978    20013723.5894   20013723.3024
        48.500          47.0004
 202025054.700 7                  38444104.977
        45.300
 122035212.574 6                  23222530.060
        41.400


 105080110.712 8  81729098.321 7  19671224.256    19671224.926    19671228.383
        49.900          44.200
 128271964.405 5  99767092.501 5  24029670.366    24029672.511    24029667.823
        33.700          32.700


 106237630.993 8  82629251.563 6  19880920.038    19880920.010    19880923.423
        49.500          39.000
 25  1  1 14 17 30.0000000  0 29E27E10G02E29G32G16E33G10G28G03G26R06
                                R04G04E04R21E21S35R05G25S31G31S33E19
                                E11R16R22E12R15
 133132626.952 7                  25334293.728
        45.700
 140775936.308 6                  26788772.291
        39.500
 130295095.359 6 101528637.74242  24794340.024    24794339.3814   24794343.8174
        38.100          13.6004
 128502351.646 6                  24453185.272
        41.300
 119142964.171 7  92838657.04746  22672163.357    22672163.0984   22672168.1144
        43.800          36.7004
 121631880.411 5  94778135.61241  23145786.923    23145786.5794   23145785.5864
        35.200          11.3004




 111539609.847 6  86913975.56643  21225263.482    21225263.1614   21225266.6944
        36.500          22.2004
 111312486.544 7  86737307.78747  21182054.985    21182054.8164   21182056.4784
        47.300          45.2004
 109865307.042 8  85609343.31248  20906657.222    20906656.7174   20906661.7684
        49.500          50.0004
 111999511.590 5                  20988656.990    20988657.653
        33.600
 123059676.867 5  95713070.895 6  22980522.169    22980519.765    22980534.155
        35.100          36.400
 125461215.534 7  97762007.52943  23874476.586    23874476.2384   23874477.1794
        42.600          23.3004


                 101690973.795 5                                  24432930.517
                        33.100
 129322820.347 8                  24609312.586
        48.200


 105369219.751 8  81953408.994 8  19711389.387    19711389.125    19711395.119
        50.900          49.500


 198904796.838 7                  37850331.511
        43.600
 105179832.289 8  81958320.03447  20015053.479    20015053.1044   20015052.4204
        48.900          47.0004
 202025078.026 7                  38444107.302
        45.200
 122025849.581 6                  23220749.187
        41.400


 105047113.138 8  81703433.538 7  19665047.048    19665047.496    19665051.301
        48.600          44.500
 128283083.525 5  99775740.394 5  24031755.456    24031750.684    24031749.542
        30.300          33.100


 106269144.160 8  82653761.793 6  19886818.518    19886818.993    19886821.207
        49.400          36.900
 25  1  1 14 17 45.0000000  0 29E27E10G02E29G32G16E33G10G28G03G26R06
                                R04G04E04R21E21S35R05G25S31G31S33E19
                                E11R16R22E12R15
 133145917.839 7                  25336822.974
        46.000
 140791355.521 6                  26791707.272
        41.400
 130327923.009 6 101554217.59542  24800587.399    24800586.6084   24800591.6584
        36.400          13.6004
 128520104.777 6                  24456563.589
        41.800
 119174840.771 6  92863495.84645  22678228.073    22678227.7874   22678233.1644
        40.800          33.6004
 121573668.407 5  94732775.74141  23134706.143    23134705.2224   23134707.1904
        34.900          10.5004




 111568568.887 6  86936541.05243  21230775.210    21230774.9204   21230777.8304
        38.600          23.1004
 111285055.426 8  86715932.88147  21176834.744    21176834.5794   21176837.1604
        48.400          46.9004
 109832522.051 8  85583796.57648  20900418.422    20900417.9264   20900423.1254
        49.400          49.7004
 111954502.307 5                  20980222.685    20980221.915
        32.400
 123108169.370 6  95750786.731 6  22989583.172    22989586.150    22989592.438
        38.600          38.900
 125418503.713 6  97728725.56743  23866348.253    23866347.9674   23866350.0544
        38.600          21.4004
 142304785.162 4                  27079697.236
        24.900
 130792063.724 5 101727107.308 5  24441615.839    24441617.497    24441613.836
        34.400          34.100
 129294541.046 8                  24603930.949
        48.200


 105383814.266 8  81964760.246 8  19714119.887    19714120.893    19714124.950
        53.300          48.100


 198904802.367 7                  37850331.015
        43.000
 105186925.664 8  81963847.33147  20016403.284    20016402.9044   20016402.4124
        48.900          47.5004
 202025102.504 7                  38444111.957
        45.300
 122016517.811 7                  23218973.773
        42.500


 105014283.966 7  81677899.694 7  19658901.218    19658901.622    19658904.734
        47.600          43.900
 128294367.614 5  99784516.748 5  24033865.064    24033863.383    24033862.003
        32.200          31.300


 106300814.671 7  82678394.417 5  19892743.630    19892743.597    19892743.464
        46.600          32.700
 25  1  1 14 18  0.0000000  0 28E27E10G02E29G32G16E33G28G03G26R06R04
                                G04E04R21E21S35R05G25S31G31S33E19E11
                                R16R22E12R15
 133159308.128 7                  25339370.723
        47.500
 140806869.221 6                  26794658.887
        40.500
 130360779.436 6 101579819.87941  24806839.102    24806838.2894   24806844.4624
        36.800          10.1004
 128537889.381 7                  24459946.871
        42.100
 119206768.739 6  92888374.64045  22684304.636    22684304.3644   22684308.0784
        39.000          30.4004
 121515489.343 5  94687441.52141  23123633.195    23123631.8364   23123635.6904
        35.600          11.5004


 111597585.687 6  86959151.50043  21236294.966    21236294.6624   21236299.8634
        40.700          22.7004
 111257750.199 7  86694656.07247  21171638.621    21171638.4564   21171642.1814
        46.500          47.8004
 109799860.945 8  85558346.37048  20894203.396    20894202.9144   20894207.4544
        49.900          49.4004
 111909540.714 5                  20971798.479    20971798.053
        34.800
 123156725.069 4  95788551.890 6  22998652.243    22998654.006    22998660.633
        29.200          38.800
 125375789.227 4  97695441.53042  23858217.497    23858217.2474   23858221.7314
        29.100          16.8004


                 101763280.097 5                  24450298.374    24450301.143
                        30.600
 129266342.842 7                  24598564.971
        47.500


 105398530.782 9  81976206.401 7  19716873.661    19716874.115    19716877.015
        54.000          45.800


 198904805.248 7                  37850334.069
        43.200
 105194123.284 8  81969455.89748  20017773.565    20017773.1904   20017772.5224
        48.200          48.2004
 202025123.714 7                  38444114.644
        46.200
 122007213.735 7                  23217203.176
        43.100
 143902697.547 5                  27383772.606
        34.200
 104981619.438 7  81652493.961 7  19652784.700    19652784.250    19652791.516
        45.300          45.300
                  99793418.489 5                                  24036003.164
                        31.100
 141296770.385 5                  26887878.236
        34.600
 106332637.889 7  82703145.789 5  19898698.591    19898697.411    19898698.852
        43.400          31.300
 25  1  1 14 18 15.0000000  0 27E27E10G02E29G32G16E33G28G03G26R06R04
                                G04E04E21S35R05G25S31G31S33E19E11R16
                                R22E12R15
 133172801.336 8                  25341938.539
        48.000
 140822480.915 6                  26797629.873
        39.700
 130393668.033 6 101605447.2304   24813098.062    24813097.2584   24813103.0124
        38.100           5.9004
 128555709.201 6                  24463336.875
        40.100
 119238751.664 6  92913296.25944  22690391.663    22690391.3334   22690393.7244
        36.700          29.2004
 121457347.248 6  94642136.04542  23112568.567    23112567.1994   23112571.4424
        36.300          13.5004


 111626663.764 6  86981809.75143  21241828.339    21241828.0184   21241832.2044
        40.300          21.6004
 111230574.793 7  86673480.42247  21166468.847    21166468.6914   21166471.7964
        46.000          47.7004
 109767327.664 8  85532995.77348  20888012.035    20888011.5394   20888015.7954
        49.900          48.5004
 111864630.848 6                  20963382.543    20963383.090
        36.700
 123205427.885 5  95826368.930 6  23007741.783                    23007742.159
        32.600          37.100
 125333075.745 5  97662158.29842  23850092.013    23850091.7634   23850093.7614
        33.400          15.4004


 129238229.560 7                  24593215.717
        47.200


 105413373.156 8  81987750.444 7  19719648.629    19719650.094    19719653.428
        53.700          45.100
 125164915.699 5  97531091.80542  23818089.875    23818089.4734   23818088.3324
        34.300          13.5004
 198904809.046 7                  37850335.982
        43.600
 105201428.622 8  81975148.37848  20019163.775    20019163.3864   20019162.9734
        49.400          48.3004
 202025146.101 7                  38444122.532
        46.200
 121997940.957 7                  23215439.206
        44.200
 143899382.773 5                  27383141.209
        33.900
 104949123.470 7  81627219.297 7  19646700.394    19646700.661    19646709.497
        44.200          45.900
 128317390.563 6  99802448.139 5  24038176.012    24038175.216    24038181.251
        37.100          33.000
 141326584.098 5                  26893550.857
        32.200
 106364616.937 7  82728018.347 5  19904682.392    19904679.986    19904685.509
        42.100          34.500
 25  1  1 14 18 30.0000000  0 28E27E10G02E29G32G16E33G28G03G26R06R04
                                G04E04R09E21S35R05G25S31G31S33E19E11
                                R16R22E12R15
 133186395.366 7                  25344525.096
        46.800
 140838188.424 6                  26800617.978
        39.000
 130426586.320 6 101631097.68541  24819371.185    24819370.4034   24819367.3214
        37.500           6.8004
 128573562.235 6                  24466734.436
        38.600
 119270787.606 6  92938259.21244  22696489.811    22696489.5704   22696490.0164
        36.400          29.9004
 121399240.519 6  94596858.08242  23101511.893    23101510.5834   23101513.8134
        38.100          12.1004


 111655800.872 6  87004513.95043  21247372.148    21247371.8764   21247375.4244
        40.400          19.7004
 111203527.588 7  86652404.67848  21161321.780    21161321.6424   21161325.4374
        46.400          48.3004
 109734920.481 8  85507743.44248  20881845.529    20881845.0204   20881848.8064
        49.000          48.9004
 111819771.019 6                  20954975.927    20954975.282
        36.000
 123254115.025 6  95864236.188 5  23016826.307    23016826.832    23016838.933
        37.000          33.000
 125290361.311 6  97628874.27043  23841964.190    23841963.8774   23841964.9374
        39.400          18.8004
 142209401.125 5                  27061551.050
        34.500
                  98151593.118 5                                  23632251.927
                        31.500
 129210199.378 7                  24587881.660
        47.500


 105428339.578 8  81999390.932 7  19722448.733    19722449.723    19722454.667
        53.000          46.400
 125212043.619 4  97567814.69841  23827056.891    23827055.9794   23827056.2474
        26.600          10.7004
 198904811.681 7                  37850334.270
        43.300
 105208839.573 8  81980923.15448  20020574.184    20020573.7824   20020573.4974
        49.600          49.3004
 202025168.096 7                  38444124.929
        46.500
 121988697.743 7                  23213679.908
        44.900
 143896174.553 5                  27382532.128
        33.500
 104916794.077 7  81602074.193 7  19640649.443    19640648.642    19640656.566
        44.300          44.200
 128329162.124 6  99811603.869 5  24040380.268    24040380.960    24040389.929
        36.200          33.200
 141356463.845 5                  26899238.239
        30.000
 106396749.561 7  82753010.468 6  19910696.551    19910696.111    19910704.085
        46.300          40.200
 25  1  1 14 18 45.0000000  0 29E27E10G02E29G32G16E33G28G03G26R06R04
                                G04E04R21R09E21S35R05G25S31G31S33E19
                                E11R16R22E12R15
 133200093.741 7                  25347131.468
        46.000
 140853995.264 6                  26803625.554
        38.500
 130459537.703 6 101656773.9454   24825635.092    24825634.2654   24825637.8864
        38.800           3.8004
 128591452.172 6                  24470140.850
        37.200
 119302880.152 6  92963266.28345  22702594.239    22702593.9534   22702598.0924
        40.900          32.2004
 121341173.077 6  94551610.77041  23090461.493    23090460.2154   23090463.6424
        36.800          10.4004


 111685000.472 6  87027266.83642  21252929.128    21252928.9004   21252931.7554
        38.900          17.4004
 111176612.341 8  86631431.72048  21156199.949    21156199.8024   21156204.0614
        49.500          49.3004
 109702643.292 8  85482592.41448  20875703.257    20875702.7394   20875707.5024
        48.700          50.1004
 111774965.421 6                  20946579.341    20946579.175
        36.500
 123302870.445 5  95902156.560 5  23025932.797    23025934.204    23025933.748
        35.700          30.100
 125247649.717 6  97595592.52342  23833836.766    23833836.4314   23833837.3344
        36.200          17.5004
 142177606.643 6                  27055499.660
        37.300




 129182256.064 7                  24582563.813
        47.500


 105443433.452 8  82011130.611 7  19725272.382    19725272.623    19725279.730
        52.300          47.100


 198904816.048 7                  37850335.683
        43.700
 105216359.565 8  81986782.91548  20022005.089    20022004.6784   20022004.6184
        50.500          50.2004
 202025190.382 7                  38444129.848
        45.900
 121979487.610 7                  23211927.350
        44.200
 143893076.889 5                  27381942.705
        33.800
 104884635.391 7  81577061.898 7  19634629.889    19634630.411    19634635.369
        47.900          43.000
 128341099.400 5  99820888.681 4  24042615.405    24042614.464    24042630.748
        32.000          29.600
 141386412.877 4                  26904936.598
        27.300
 106429039.013 8  82778124.514 7  19916740.069    19916740.560    19916745.722
        49.100          42.300
 25  1  1 14 19  0.0000000  0 27E27E10G02E29G32G16E33G28G03G26R06R04
                                G04E04E21S35R05G25S31G31S33E19E11R16
                                R22E12R15
 133213896.702 7                  25349758.666
        45.600
 140869901.590 6                  26806651.747
        36.200
 130492522.450 6 101682476.0884   24831909.872    24831909.0544   24831914.3094
        38.100           3.0004
 128609379.448 6                  24473552.394
        40.100
 119335029.701 6  92988317.76145  22708713.029    22708712.7974   22708718.5724
        37.600          33.9004
 121283145.842 5  94506394.71841  23079418.800    23079417.5134   23079420.9574
        34.100           6.5004


 111714262.806 6  87050068.63942  21258499.517    21258499.3704   21258499.5204
        38.600          17.4004
 111149829.828 8  86610562.21548  21151102.323    21151102.1674   21151107.6904
        49.100          49.2004
 109670496.801 8  85457543.21448  20869586.121    20869585.5984   20869590.6624
        49.400          50.4004
 111730214.651 6                  20938192.684    20938192.857
        37.200
 123351694.169 5                  23035035.507    23035043.471
        31.100
 125204941.456 5  97562313.41242  23825711.870    23825711.5354   23825710.7324
        34.700          13.8004
 142145811.662 6                  27049449.351
        38.000
 129154400.224 7                  24577263.105
        46.800


 105458655.462 8  82022969.934 7  19728119.190    19728119.848    19728126.388
        51.900          46.400


 198904823.856 7                  37850337.592
        44.000
 105223988.781 8  81992727.75048  20023456.640    20023456.2344   20023456.5224
        51.200          51.0004
 202025216.903 7                  38444135.102
        45.900
 121970311.219 7                  23210180.729
        42.300
 143890089.588 5                  27381373.610
        33.800
 104852648.071 8  81552182.935 6  19628642.828    19628642.394    19628646.628
        48.300          41.900
                  99830301.861 5                                  24044882.756
                        31.700


 106461485.074 8  82803360.368 7  19922811.948    19922813.963    19922817.599
        50.800          42.900
 25  1  1 14 19 15.0000000  0 27E27E10G02E29G32G16E33G28G03G26R06R04
                                G04E04E21S35R05G25S31G31S33E19E11R16
                                R22E12R15
 133227799.718 7                  25352404.474
        46.100
 140885902.844 6                  26809699.694
        37.400
 130525535.293 6                  24838192.823
        37.600
 128627339.620 7                  24476969.239
        43.300
 119367231.774 6  93013410.18745  22714842.474    22714842.2874   22714848.8624
        39.100          33.2004
 121225154.760 5  94461207.0214   23068383.790    23068382.1634   23068384.8454
        30.700           4.4004


 111743583.150 6  87072915.71443  21264080.466    21264080.3644   21264079.6174
        41.300          20.5004
 111123175.769 8  86589792.82548  21146030.794    21146030.6654   21146034.8584
        48.800          48.8004
 109638476.776 8  85432592.54548  20863492.846    20863492.3234   20863497.2184
        49.400          50.5004
 111685514.564 6                  20929815.314    20929815.125
        36.500


 125162232.086 5  97529033.45441  23817583.863    23817583.4394   23817583.6834
        32.000           8.5004
 142114011.670 6                  27043399.122
        36.600
 129126627.527 7                  24571977.948
        46.200


 105474001.293 8  82034905.575 7  19730990.272    19730991.287    19730996.754
        51.900          46.500


 198904829.890 7                  37850336.948
        43.100
 105231722.604 8  81998754.08548  20024927.953    20024927.5474   20024928.6034
        50.700          51.6004
 202025241.560 7                  38444136.868
        46.200
 121961163.968 6                  23208439.664
        40.700
 143887208.435 5                  27380824.713
        34.800
 104820827.499 8  81527433.633 7  19622685.470    19622685.531    19622689.381
        49.100          42.500
                  99839839.337 5                                  24047180.776
                        30.900


 106494082.907 8  82828714.250 7  19928910.967    19928911.539    19928917.595
        48.500          44.200
 25  1  1 14 19 30.0000000  0 28E27E10G02E29G32G16E33G28G03G26R06R04
                                G04E04R09E21S35R05G25S31G31S33E19E11
                                R16R22E12R15
 133241799.695 7                  25355067.633
        45.300
 140901995.788 6                  26812762.733
        38.700
 130558572.937 6 101734010.62641  24844481.470    24844480.7914   24844483.0844
        38.600           7.9004
 128645329.620 7                  24480391.581
        43.100
 119399483.361 6  93038541.21745  22720979.053    22720978.9424   22720986.3884
        41.100          31.1004
 121167197.116 5  94416045.2194   23057351.246    23057349.7404   23057355.1544
        30.200           3.0004


 111772958.225 7  87095805.40843  21269668.905    21269668.7854   21269671.4804
        42.700          23.2004
 111096647.371 7  86569121.31547  21140982.626    21140982.4884   21140985.4574
        47.600          47.8004
 109606580.446 8  85407738.25748  20857423.116    20857422.5934   20857427.0934
        48.900          49.8004
 111640862.476 6                  20921448.321    20921448.504
        37.400
                  96016285.772 5                                  23053327.122
                        34.000
 125119518.778 4  97495750.0894   23809452.710    23809451.9234   23809455.6784
        27.100           3.6004
 142082203.672 6                  27037346.301
        38.300


 129098935.067 7                  24566708.142
        47.000


 105489467.819 8  82046935.073 7  19733883.712    19733884.758    19733889.245
        52.100          45.700


 198904830.655 7                  37850335.343
        43.400
 105239557.713 8  82004859.33248  20026419.371    20026418.9654   20026419.9434
        50.700          51.6004
 202025261.390 7                  38444143.119
        46.100
 121952042.835 6                  23206704.151
        39.300
 143884430.076 5                  27380295.855
        33.900
 104789171.249 8  81502812.106 7  19616759.087    19616760.488    19616764.977
        48.500          44.700
 128377989.828 5  99849500.163 5  24049536.191    24049537.341    24049508.582
        31.900          31.600


 106526828.900 7  82854183.430 7  19935038.750    19935038.619    19935045.569
        47.100          45.400
 25  1  1 14 19 45.0000000  0 28E27E10G02E29G32G16E33G28G03G26R06R04
                                G04E04R09E21S35R05G25S31G31S33E19E11
                                R16R22E12R15
 133255902.845 7                  25357751.659
        45.200
 140918186.556 6                  26815840.345
        40.500
 130591641.633 6 101759778.38741  24850775.031    24850774.1554   24850775.5514
        38.200          10.8004
 128663355.967 6                  24483822.430
        41.700
 119431790.813 6  93063715.75645  22727125.675    22727125.5864   22727133.5944
        41.100          31.3004
 121109279.562 5  94370914.83141  23046330.757    23046329.4034   23046333.6684
        35.900          10.0004


 111802394.204 7  87118742.55344  21275270.407    21275270.3054   21275273.6314
        43.800          24.1004
 111070251.388 7  86548553.00247  21135960.372    21135960.2204   21135961.8484
        44.200          45.9004
 109574814.464 8  85382985.54648  20851378.373    20851377.8324   20851381.7504
        48.800          48.7004
 111596265.283 6                  20913092.351    20913092.236
        38.500
                  96054408.238 5                                  23062480.731
                        34.500


 142050394.105 6                  27031293.259
        40.900
 125875734.481 6  97903374.409 5  23572478.606    23572481.198    23572489.922
        36.300          34.300
 129071329.429 7                  24561455.195
        47.700


 105505061.575 8  82059063.525 7  19736800.596    19736800.202    19736805.378
        51.000          45.100


 198904833.511 7                  37850338.594
        43.400
 105247500.310 8  82011048.35048  20027930.987    20027930.5814   20027931.3154
        50.700          51.6004
 202025282.966 7                  38444145.807
        46.400
 121942954.115 6                  23204974.480
        40.000
 143881761.238 4                  27379788.203
        28.800
 104757685.393 7  81478323.103 7  19610861.037    19610861.389    19610870.806
        43.800          45.600
 128390574.680 5  99859288.612 4  24051854.787    24051861.266    24051869.917
        32.800          29.700


 106559729.312 7  82879772.605 7  19941195.025    19941195.717    19941202.854
        47.300          46.400
 25  1  1 14 20  0.0000000  0 27E27E10G02E29G32G16E33G28G03G26R06R04
                                G04E04E21S35R05G25S31G31S33E19E11R16
                                R22E12R15
 133270108.979 7                  25360455.511
        44.400
 140934475.106 6                  26818942.121
        41.400
 130624740.837 6 101785569.93441  24857074.444    24857073.5464   24857073.9974
        38.700           9.8004
 128681418.586 7                  24487259.708
        43.300
 119464154.045 6  93088933.75745  22733282.923    22733282.8704   22733291.5244
        39.900          30.2004
 121051402.674 6  94325816.00542  23035316.051    23035314.6794   23035320.2774
        36.700          13.3004


 111831890.855 7  87141727.00244  21280883.052    21280882.9724   21280886.6184
        44.800          25.1004
 111043987.942 7  86528087.95347  21130962.774    21130962.6184   21130964.3364
        45.100          45.5004
 109543179.092 8  85358334.62548  20845357.633    20845357.0884   20845361.3504
        49.800          48.5004
 111551723.292 6                  20904745.263    20904745.358
        37.400
                  96092582.623 6                                  23071650.580
                        36.000


 142018582.957 6                  27025238.192
        41.100
 129043810.701 8                  24556218.834
        48.300


 105520782.757 8  82071291.051 7  19739742.347    19739742.311    19739747.259
        53.400          45.000
 125496597.267 5  97789564.50741  23881208.438    23881208.7464   23881210.2084
        33.800          10.4004
 198904837.780 7                  37850338.504
        43.400
 105255550.252 8  82017321.02648  20029462.752    20029462.3414   20029462.8594
        52.100          51.9004
 202025306.167 7                  38444151.200
        45.500
 121933898.411 7                  23203250.995
        42.600
 143879202.083 4                  27379302.821
        29.800
 104726370.599 7  81453967.107 7  19605002.646    19605000.671    19605007.481
        43.500          44.600
 128403323.398 5                  24054256.033    24054248.299
        31.800


 106592783.592 7  82905481.465 7  19947379.680    19947381.509    19947387.502
        46.700          45.600
 25  1  1 14 20 15.0000000  0 27E27E10G02E29G32G16E33G28G03G26R06R04
                                G04E04E21S35R05G25S31G31S33E19E11R16
                                R22E12R15
 133284414.716 7                  25363178.224
        44.200
 140950857.800 6                  26822059.088
        39.300
 130657866.952 5 101811382.3204   24863376.226    24863375.1944   24863376.6234
        33.500           5.6004
 128699514.291 7                  24490702.889
        43.900
 119496569.878 6  93114192.79745  22739453.197    22739453.1304   22739460.0694
        40.900          30.7004
 120993563.435 6  94280746.56742  23024310.456    23024309.0844   23024314.3574
        37.800          14.9004


 111861444.612 7  87164755.91644  21286507.419    21286507.3704   21286510.7304
        46.800          24.3004
 111017853.988 7  86507723.77847  21125989.236    21125989.0624   21125991.3154
        46.600          46.1004
 109511671.280 7  85333783.07948  20839362.082    20839361.5064   20839365.5844
        47.600          48.1004
 111507233.457 6                  20896405.521    20896406.783
        36.800
                  96130806.290 5                  23080808.122    23080829.739
                        35.700
 124991459.800 5  97395951.7134   23785081.986    23785081.2354   23785083.9714
        31.800           3.0004
 141986766.943 6                  27019183.076
        39.300
 129016375.802 8                  24550998.322
        49.100


 105536627.961 9  82083615.074 7  19742706.808    19742706.992    19742711.757
        54.300          45.400
 125544319.295 5  97826750.5634   23890285.548    23890285.4414   23890292.3424
        31.800           4.6004
 198904840.517 7                  37850337.006
        42.100
 105263704.160 8  82023674.70348  20031014.331    20031013.9294   20031014.0304
        51.900          51.5004
 202025327.547 7                  38444155.144
        46.300
 121924872.060 7                  23201533.491
        42.400
 143876748.762 5                  27378835.564
        32.800
 104695223.577 7  81429741.608 7  19599171.286    19599171.043    19599176.601
        46.300          44.600




 106625988.048 8  82931307.120 7  19953595.871    19953597.373    19953601.117
        48.400          44.600
 25  1  1 14 20 30.0000000  0 27E27E10G02E29G32G16E33G28G03G26R06R04
                                G04E04E21S35R05G25S31G31S33E19E11R16
                                R22E12R15
 133298825.981 7                  25365920.249
        43.600
 140967340.557 6                  26825196.202
        40.400
 130691025.392 5 101837220.1154   24869684.305    24869683.3714   24869686.1594
        30.700           4.4004
 128717649.009 7                  24494154.185
        43.800
 119529044.121 6  93139497.37145  22745630.940    22745630.8874   22745640.2454
        39.900          30.5004
 120935767.962 6  94235711.20742  23013314.269    23013312.9414   23013316.8354
        38.200          16.2004


 111891061.248 7  87187833.82343  21292142.826    21292142.8394   21292149.1554
        46.400          20.0004
 110991855.923 7  86487465.53447  21121041.646    21121041.4814   21121044.3994
        46.900          47.1004
 109480297.256 7  85309335.80647  20833393.370    20833392.7894   20833395.4674
        45.800          47.8004
 111462802.190 5                  20888076.481    20888078.131
        34.700
 123646103.664 6  96169083.565 5  23089997.363    23089998.581    23090016.643
        37.600          30.200


 141954952.005 6                  27013129.469
        39.900
 128989030.840 8                  24545794.555
        49.300


 105552603.487 9  82096040.442 7  19745695.578    19745695.811    19745701.112
        54.200          47.000
 125592128.763 5  97864004.5604   23899384.707    23899384.4534   23899388.0744
        31.100           3.2004
 198904847.153 7                  37850343.709
        42.500
 105271967.914 8  82030113.99248  20032586.743    20032586.3464   20032586.0964
        52.100          51.1004
 202025352.790 7                  38444158.386
        45.600
 121915881.036 7                  23199823.055
        43.400
 143874407.662 5                  27378390.098
        35.800
 104664250.693 8  81405651.501 7  19593373.356    19593373.759    19593379.094
        48.200          44.800
 128429201.001 6                  24059131.114    24059129.692
        40.100


 106659348.009 7  82957253.793 7  19959837.564    19959837.755    19959843.918
        46.900          44.400
 25  1  1 14 20 45.0000000  0 27E27E10G02E29G32G16E33G28G03G26R06R04
                                G04E04E21S35R05G25S31G31S33E19E11R16
                                R22E12R15
 133313339.604 7                  25368682.399
        43.400
 140983920.236 6                  26828351.882
        39.400
 130724213.229 5 101863080.6824   24876000.375    24875999.2084   24876001.6064
        32.800           5.3004
 128735819.892 7                  24497612.498
        44.500
 119561573.860 6  93164845.18944  22751820.954    22751820.7764   22751830.2144
        37.700          29.2004
 120878014.092 6  94190708.26642  23002325.292    23002324.0144   23002326.9374
        38.300          15.5004


 111920737.551 7  87210958.50542  21297790.038    21297790.1094   21297801.8314
        46.800          17.3004
 110965990.985 8  86467311.05948  21116119.939    21116119.8014   21116122.9184
        48.600          48.4004
 109449054.331 7  85284990.70148  20827448.147    20827447.5214   20827450.6824
        46.800          49.2004
 111418426.729 5                  20879763.434    20879762.434
        34.900
 123695383.938 6                  23099203.318    23099204.606
        39.400


 141923135.258 6                  27007075.748
        41.700
 128961773.026 8                  24540607.734
        49.200


 105568706.206 8  82108564.768 7  19748707.136    19748707.038    19748713.819
        52.900          47.400


 198904855.052 7                  37850344.939
        43.100
 105280338.157 8  82036636.26248  20034179.639    20034179.2464   20034178.5614
        51.600          51.2004
 202025379.709 7                  38444164.547
        45.700
 121906922.618 7                  23198118.516
        44.500
 143872175.562 5                  27377964.126
        34.700
 104633449.134 8  81381694.714 7  19587608.331    19587607.195    19587612.574
        48.900          44.800
 128442437.888 6                  24061611.025    24061612.381
        36.200


 106692860.230 7  82983318.882 7  19966108.793    19966107.725    19966115.355
        43.600          43.700
 25  1  1 14 21  0.0000000  0 28E27E10G02E29G32G16E33G28G03G26R06R04
                                G04E04R21E21S35R05G25S31G31S33E19E11
                                R16R22E12R15
 133327950.409 7                  25371462.437
        43.700
 141000591.696 6                  26831525.369
        39.100
 130757424.864 5 101888959.82742  24882320.610    24882319.3584   24882321.7524
        32.700          12.8004
 128754021.912 7                  24501076.109
        45.700
 119594154.129 6  93190232.35145  22758023.175    22758023.0104   22758028.8224
        38.700          30.2004
 120820297.120 6  94145734.09241  22991342.151    22991340.9174   22991343.3454
        36.800          11.3004


 111950468.377 7  87234125.51343  21303447.511    21303447.5734   21303462.2484
        46.100          21.0004
 110940254.276 8  86447256.45947  21111222.126    21111221.9974   21111225.4854
        48.400          47.9004
 109417937.740 8  85260744.03248  20821525.949    20821525.3194   20821530.1104
        48.300          50.2004
 111374102.535 6                  20871458.933    20871457.727
        36.000




 141891311.624 7                  27001020.015
        42.300
 131400630.482 5                  24555346.598
        33.900
 128934597.508 8                  24535436.101
        48.800


 105584931.296 8  82121184.273 7  19751742.650    19751742.885    19751749.796
        53.300          47.300


 198904859.797 7                  37850347.220
        43.500
 105288809.768 8  82043237.52448  20035791.804    20035791.4114   20035790.7654
        51.200          51.0004
 202025403.275 7                  38444169.359
        44.800
 121897991.985 7                  23196418.903
        44.100
 143870047.499 5                  27377559.442
        34.200
 104602813.873 8  81357867.262 7  19581872.982    19581873.971    19581877.799
        50.600          45.500
 128455831.054 4  99910103.367 5  24064116.790    24064117.527    24064110.644
        26.300          35.000


 106726519.122 6  83009498.004 7  19972408.671    19972405.702    19972413.479
        40.000          42.400
 25  1  1 14 21 15.0000000  0 28E27E10G02E29G32G16E33G28G03G26R06R04
                                G04E04R21E21S35R05G25S31G31S33E19E11
                                R16R22E12R15
 133342660.308 7                  25374261.176
        42.300
 141017356.615 6                  26834715.179
        37.500
 130790661.850 6 101914858.63142  24888646.371    24888645.2094   24888646.7204
        36.300          13.0004
 128772256.966 7                  24504546.009
        46.100
 119626786.794 6  93215660.30645  22764236.360    22764236.2044   22764238.3404
        40.000          30.8004
 120762619.206 5  94100790.32541  22980361.630    22980360.4994   22980367.0454
        31.700           8.0004


 111980255.288 7  87257336.14343  21309115.702    21309115.7604   21309126.2514
        46.300          23.1004
 110914648.056 7  86427303.52647  21106349.696    21106349.5714   21106352.6784
        47.100          47.5004
 109386949.637 8  85236597.46848  20815628.610    20815627.9624   20815633.7844
        48.100          50.7004
 111329831.608 5                  20863159.338    20863160.234
        34.400




 141859483.025 6                  26994962.583
        41.900
 131447780.063 4                  24564167.750
        29.400
 128907506.330 8                  24530280.861
        48.500


 105601280.694 8  82133900.488 7  19754800.578    19754801.591    19754806.431
        52.300          44.600


 198904862.190 7                  37850346.513
        43.100
 105297384.400 8  82049919.05948  20037423.688    20037423.2954   20037423.1214
        51.000          51.2004
 202025424.655 7                  38444173.817
        45.100
 121889090.794 7                  23194724.733
        42.900
 143868025.050 5                  27377174.431
        32.300
 104572347.167 8  81334170.939 7  19576169.271    19576170.068    19576173.922
        50.400          45.100
 128469383.624 5  99920643.985 5  24066662.322    24066659.502    24066655.699
        31.500          35.400
 141689545.641 5                  26962632.106
        34.400
 106760326.185 6  83035792.342 6  19978735.046    19978733.146    19978739.434
        41.600          41.200
 25  1  1 14 21 30.0000000  0 28E27E10G02E29G32G16E33G28G03G26R06R04
                                G04E04R21E21S35R05G25S31G31S33E19E11
                                R16R22E12R15
 133357471.249 7                  25377080.192
        42.600
 141034217.035 6                  26837922.048
        36.800
 130823926.094 6 101940778.67441  24894976.173    24894975.1904   24894976.5784
        36.800           8.6004
 128790527.373 7                  24508022.930
        46.400
 119659474.067 6  93241130.81144  22770455.331    22770455.2734   22770459.7004
        38.100          28.9004
 120704982.944 6  94055879.3034   22969395.023    22969393.7224   22969398.7814
        36.400           4.3004


 112010100.368 7  87280592.09444  21314794.744    21314794.7524   21314800.3514
        44.600          25.8004
 110889174.855 7  86407454.26847  21101502.863    21101502.7474   21101504.6164
        46.100          46.1004
 109356092.554 8  85212553.00948  20809756.883    20809756.2404   20809761.7924
        49.400          50.7004
 111285616.869 5                  20854872.825    20854873.807
        32.600




 141827651.752 7                  26988905.681
        43.100
 131494975.535 4                  24572989.621
        29.900
 128880501.913 8                  24525142.078
        48.200


 105617756.887 8  82146715.298 6  19757882.753    19757884.797    19757888.166
        52.700          41.700


 198904865.087 7                  37850346.173
        42.100
 105306064.046 8  82056682.38548  20039075.199    20039074.8064   20039075.6274
        51.100          51.4004
 202025446.783 7                  38444178.213
        45.100
 121880221.514 7                  23193037.507
        42.800
 143866110.594 5                  27376809.979
        30.000
 104542051.362 8  81310607.529 7  19570497.464    19570497.207    19570502.979
        49.400          45.800
                  99931309.761 5                  24069219.707    24069218.766
                        32.300
 141720213.446 5                  26968463.269
        33.200
 106794283.494 7  83062203.576 6  19985088.050    19985086.660    19985096.002
        44.100          40.700
 25  1  1 14 21 45.0000000  0 27E27E10G02E29G32G16E33G28G03G26R06G04
                                E04R21E21S35R05G25S31G31S33E19E11R16
                                R22E12R15
 133372383.883 7                  25379917.636
        43.500
 141051173.418 5                  26841148.243
        35.900
 130857217.944 6 101966720.0974   24901310.189    24901309.4564   24901310.9584
        36.200           4.9004
 128808833.733 7                  24511506.795
        46.200
 119692216.418 5  93266644.25543  22776683.427    22776683.3564   22776691.2284
        32.000          23.1004
 120647389.413 5  94011001.1484   22958431.974    22958430.5444   22958438.9464
        34.400           4.1004


 112040004.040 7  87303893.65744  21320486.025    21320486.0174   21320488.8814
        43.900          27.1004
 110863835.440 7  86387709.25547  21096680.334    21096680.2414   21096682.1774
        46.900          45.5004
 109325367.252 8  85188611.22448  20803909.913    20803909.2614   20803914.3504
        48.900          50.1004
 111241459.313 4                  20846594.873    20846594.813
        29.200


 141795818.450 7                  26982847.316
        42.400
 131542217.148 5                  24581790.312
        30.000
 128853584.977 7                  24520020.078
        47.700


 105634360.354 8  82159629.090 6  19760988.678    19760990.751    19760993.176
        51.600          40.000


 198904869.146 7                  37850348.798
        43.100
 105314849.200 8  82063527.93048  20040747.217    20040746.8284   20040747.6614
        51.500          51.1004
 202025469.683 7                  38444181.155
        45.700
 121871384.941 7                  23191355.824
        43.300


 104511927.283 8  81287177.653 7  19564858.681    19564858.750    19564864.491
        50.000          46.100
 128496971.566 6  99942101.022 5  24071817.049    24071816.982    24071820.352
        39.900          33.000
 141750946.141 4                  26974316.828
        25.600
 106828390.923 7  83088731.658 6  19991472.252    19991472.052    19991480.612
        47.000          41.000
 25  1  1 14 22  0.0000000  0 27E27E10G02E29G32G16E33G28G03G26R06R04
                                G04E04E21S35R05G25S31G31S33E19E11R16
                                R22E12R15
 133387400.559 6                  25382773.677
        40.500
 141068227.963 5                  26844397.200
        33.700
 130890539.367 5 101992684.70341  24907648.778    24907647.9564   24907651.8264
        33.100           7.9004
 128827178.625 7                  24514997.363
        45.600


 120589841.530 5  93966158.73241  22947484.833    22947483.5734   22947488.2154
        33.200           9.9004


 112069968.469 7  87327242.57344  21326187.616    21326187.5994   21326190.5944
        43.000          26.1004
 110838632.568 7  86368070.64447  21091883.569    21091883.4764   21091886.0314
        45.500          43.7004
 109294776.568 8  85164774.33048  20798088.792    20798088.1404   20798092.7314
        49.600          50.0004
 111197361.552 5                  20838334.767    20838333.593
        31.100
 123942491.509 6  96399827.551 5  23145407.643    23145408.022    23145415.874
        38.800          34.800
 124692510.864 5  97163001.80741  23728194.753    23728194.5084   23728197.2364
        31.200           6.6004
 141763985.585 7                  26976789.931
        43.100
 128826758.178 7                  24514915.185
        46.700


 105651093.927 8  82172644.092 6  19764119.492    19764119.728    19764122.230
        50.800          37.400


 198904876.623 7                  37850346.670
        42.100
 105323742.228 8  82070457.55548  20042439.511    20042439.1224   20042439.2634
        51.400          50.2004
 202025495.970 7                  38444185.640
        45.500
 121862583.330 7                  23189680.502
        44.500


 104481977.717 8  81263883.539 7  19559251.351    19559251.961    19559256.996
        49.600          46.300
 128511009.489 6  99953019.244 5  24074447.736    24074448.738    24074452.689
        40.700          35.000


 106862650.627 8  83115378.107 6  19997883.369    19997883.992    19997888.729
        48.300          36.800
 25  1  1 14 22 15.0000000  0 27E27E10G02E29G32G16E33G28G03G26R06R04
                                G04E04E21S35R05G25S31G31S33E19E11R16
                                R22E12R15
 133402516.293 6                  25385651.335
        38.900
 141085375.812 6                  26847659.335
        36.500
 130923885.379 5 102018668.32541  24913996.091    24913995.2204   24913997.3584
        35.700           6.6004
 128845557.193 7                  24518495.281
        45.000


 120532334.791 5  93921348.30642  22936541.741    22936540.6284   22936545.6094
        34.600          13.5004


 112099988.751 7  87350635.02244  21331900.403    21331900.3274   21331903.3824
        43.200          24.3004
 110813561.784 7  86348535.01847  21087113.180    21087113.0784   21087114.7964
        46.000          42.7004
 109264315.859 8  85141038.71348  20792292.057    20792291.4234   20792295.6044
        49.700          50.0004
 111153319.171 5                  20830083.752    20830081.643
        32.900
 123992154.692 6  96438454.186 5  23154671.525    23154674.051    23154687.609
        38.700          34.100


 141732148.330 6                  26970730.991
        41.100
 128800016.871 7                  24509826.629
        45.400


 105667952.329 8  82185756.104 6  19767272.976    19767273.081    19767278.221
        50.500          39.600


 198904882.211 7                  37850350.909
        42.600
 105332738.007 8  82077467.22548  20044151.585    20044151.2014   20044150.2574
        51.900          49.7004
 202025521.442 7                  38444191.771
        45.300
 121853811.930 7                  23188011.534
        46.200


 104452198.055 7  81240721.584 7  19553675.534    19553675.548    19553682.265
        47.800          46.300
 128525205.991 6  99964060.809 5  24077108.136    24077108.995    24077112.468
        37.500          35.000


 106897057.040 8  83142138.549 5  20004321.655    20004322.006    20004324.060
        48.300          33.000
 25  1  1 14 22 30.0000000  0 27E27E10G02E29G32G16E33G28G03G26R06R04
                                G04E04E21S35R05G25S31G31S33E19E11R16
                                R22E12R15
 133417726.379 6                  25388545.618
        39.000
 141102612.182 6                  26850937.524
        36.600
 130957250.872 5 102044667.25741  24920342.417    24920341.4784   24920346.7544
        32.700          10.1004
 128863964.878 7                  24521997.867
        44.900


 120474864.957 5  93876566.68041  22925604.765    22925603.6034   22925610.2524
        31.800          11.9004


 112130060.024 7  87374067.23343  21337622.538    21337622.4094   21337626.0754
        42.300          23.7004
 110788618.593 7  86329098.80246  21082366.364    21082366.2574   21082367.7494
        45.900          41.8004
 109233980.816 8  85117401.02248  20786519.604    20786518.9704   20786522.6454
        50.900          51.0004
 111109327.887 5                  20821840.105    20821837.379
        34.400
 124041875.398 6  96477125.619 5  23163956.217    23163956.549    23163974.329
        36.800          34.000


 141700302.106 6                  26964670.345
        38.800
 128773356.593 7                  24504753.522
        43.500


 105684931.406 8  82198962.029 7  19770449.541    19770448.595    19770457.674
        49.500          43.200


 198904882.352 7                  37850349.062
        42.400
 105341831.761 8  82084553.25548  20045881.807    20045881.4234   20045880.5924
        52.100          49.6004
 202025540.002 7                  38444198.228
        45.200
 121845066.512 7                  23186347.583
        47.400


 104422583.710 8  81217688.195 7  19548133.562    19548133.267    19548137.645
        49.500          46.100
 128539556.392 5  99975222.317 5  24079797.920    24079796.794    24079797.825
        34.500          34.300
 141843510.496 5                  26991920.270
        34.700
 106931605.396 7  83169009.388 5  20010786.099    20010786.184    20010787.486
        46.800          31.500
 25  1  1 14 22 45.0000000  0 27E27E10G02E29G32G16E33G28G03G26R06R04
                                G04E04E21S35R05G25S31G31S33E19E11R16
                                R22E12R15
 133433042.986 6                  25391460.803
        38.100
 141119949.196 5                  26854236.793
        35.400
 130990647.782 4 102070690.75141  24926699.237    24926698.4104   24926702.4864
        29.400          11.0004
 128882413.997 7                  24525509.152
        43.300
 119823891.508 5  93369304.36742  22801718.323    22801718.1804   22801736.5534
        35.800          14.9004
 120417444.778 5  93831823.69741  22914678.738    22914677.5944   22914684.0214
        35.600           9.9004


 112160194.338 7  87397548.53643  21343356.671    21343356.5604   21343359.7244
        42.900          23.0004
 110763815.424 7  86309771.65046  21077646.775    21077646.6504   21077647.2224
        45.100          41.6004
 109203783.959 8  85093871.01048  20780773.345    20780772.7114   20780776.3914
        51.700          52.2004
 111065400.549 6                  20813607.422    20813607.443
        36.300
 124091666.032 5  96515851.443 5  23173256.245    23173253.218    23173270.818
        34.100          31.200


 141668459.184 6                  26958611.931
        40.500
 128746789.751 7                  24499697.652
        44.400


 105702043.368 8  82212271.379 7  19773651.246    19773650.433    19773657.929
        49.100          44.100


 198904888.361 7                  37850349.120
        43.000
 105351035.707 8  82091725.16748  20047633.188    20047632.8044   20047632.5344
        51.700          49.6004
 202025565.664 7                  38444200.061
        44.900
 121836359.039 7                  23184690.853
        47.400


 104393147.141 8  81194793.110 7  19542623.251    19542622.865    19542627.551
        50.400          46.900
 128554071.788 5  99986512.031 6  24082518.061    24082517.714    24082517.484
        31.400          36.400
 141874499.138 6                  26997816.480
        36.600
 106966307.536 7  83195999.866 5  20017279.984    20017281.564    20017282.402
        47.700          34.300
 25  1  1 14 23  0.0000000  0 27E27E10G02E29G32G16E33G28G03G26R06R04
                                G04E04E21S35R05G25S31G31S33E19E11R16
                                R22E12R15
 133448456.462 6                  25394394.363
        37.200
 141137377.021 6                  26857554.654
        37.200
 131024066.359 4 102096731.05141  24933059.309    24933058.4914   24933062.5284
        25.500           9.3004
 128900895.083 7                  24529025.960
        43.400
 119856903.905 5  93395028.15343  22807994.409    22807994.3474   22808008.6394
        32.600          18.2004
 120360065.350 5  93787112.50541  22903756.339    22903754.9984   22903765.2224
        33.100           7.0004


 112190381.968 7  87421071.37943  21349101.155    21349101.0534   21349102.3924
        42.800          22.6004
 110739143.262 7  86290546.60147  21072952.397    21072952.2814   21072951.9114
        44.600          42.3004
 109173716.044 8  85070441.47848  20775051.870    20775051.2224   20775055.0844
        51.800          53.4004
 111021527.907 6                  20805385.846    20805385.319
        36.700
 124141516.739 5                  23182561.163    23182558.539
        33.200


 141636610.083 6                  26952550.866
        40.000
 128720307.015 7                  24494657.452
        47.200


 105719278.976 8  82225676.854 7  19776875.576    19776875.872    19776883.065
        48.100          44.400


 198904891.511 7                  37850348.262
        42.700
 105360340.005 8  82098975.28448  20049403.869    20049403.4804   20049403.0774
        51.900          49.6004
 202025587.474 7                  38444203.527
        44.800
 121827680.271 7                  23183039.403
        46.600


 104363879.077 8  81172029.062 8  19537144.299    19537144.438    19537149.339
        51.500          48.000
 128568742.724 4  99997922.596 6  24085289.637    24085285.916    24085268.560
        28.200          36.800
 141905547.310 6                  27003725.025
        36.300
 107001153.508 7  83223102.328 6  20023801.007    20023802.737    20023806.535
        47.600          39.100
 25  1  1 14 23 15.0000000  0 27E27E10G02E29G32G16E33G28G03G26R06R04
                                G04E04E21S35R05G25S31G31S33E19E11R16
                                R22E12R15
 133463969.431 6                  25397345.536
        36.700
 141154898.452 6                  26860887.608
        38.400
 131057508.987 4 102122790.12941  24939424.874    24939423.8954   24939427.1814
        27.600           9.6004
 128919411.020 7                  24532549.268
        44.200
 119889970.085 6  93420793.90744  22814292.809    22814293.4264   22814291.0504
        39.600          25.5004
 120302729.595 4  93742435.35541  22892845.041    22892843.7094   22892854.5484
        25.900           6.6004


 112220625.578 6  87444637.86443  21354856.333    21354856.2354   21354855.3714
        40.700          19.9004
 110714605.115 7  86271425.98447  21068283.364    21068283.2844   21068282.2994
        45.700          42.5004
 109143780.163 8  85047114.82449  20769355.393    20769354.7544   20769359.1894
        52.600          54.2004
 110977713.215 5                  20797173.593    20797173.184
        35.600
 124191430.310 4                  23191877.177    23191876.292
        29.600
 124479003.090 6                  23687570.815
        40.300
 141604757.683 6                  26946490.578
        38.400
 128693911.381 7                  24489634.049
        47.800


 105736640.847 7  82239180.544 7  19780124.229    19780122.449    19780129.959
        46.600          44.500


 198904894.041 7                  37850349.299
        42.800
 105369747.384 8  82106305.75148  20051193.954    20051193.5614   20051192.6784
        52.400          49.8004
 202025608.935 7                  38444208.034
        44.100
 121819033.065 7                  23181393.812
        46.200


 104334782.811 8  81149398.636 8  19531696.116    19531696.822    19531703.073
        49.800          48.500
                 100009456.176 5                                  24088042.473
                        32.400
 141936657.573 6                  27009646.072
        36.800
 107036145.482 8  83250318.331 6  20030350.387    20030351.236    20030356.156
        48.300          41.400
 25  1  1 14 23 30.0000000  0 24E27E10G02E29G32G16E33G28G03G26R06G04
                                E04E21S35R05S31G31S33E19E11R16E12R15
 133479584.795 6                  25400317.539
        38.000
 141172516.153 6                  26864240.012
        38.800
 131090978.090 5 102148869.91241  24945796.441    24945795.3864   24945796.4354
        32.100           9.0004
 128937964.670 7                  24536080.455
        44.900
 119923092.846 6  93446603.76244  22820588.888    22820589.3574   22820591.1724
        38.900          29.0004
 120245440.786 5  93697794.78741  22881948.337    22881946.9514   22881952.8664
        33.100           7.1004


 112250927.741 6  87468250.00042  21360623.702    21360623.6404   21360620.2144
        39.200          16.5004
 110690204.030 7  86252412.15847  21063639.543    21063639.4724   21063639.4764
        47.400          43.4004
 109113979.423 8  85023893.47049  20763684.018    20763683.3754   20763688.9174
        52.300          54.1004
 110933959.668 5                  20788973.463    20788973.046
        34.400
 124436316.243 6                  23679444.759
        38.700
 141572904.853 6                  26940429.099
        36.000
 128667605.861 7                  24484628.663
        47.600


 105754132.166 7  82252784.898 7  19783395.006    19783395.324    19783401.211
        47.400          44.500
 198904898.911 7                  37850352.921
        42.900
 105379260.512 8  82113718.60948  20053003.924    20053003.5274   20053002.5054
        51.900          50.0004
 202025633.182 7                  38444211.674
        44.300
 121810420.442 7                  23179754.607
        45.600


 104305861.111 7  81126904.009 8  19526281.753    19526281.262    19526288.761
        47.900          48.100
 141967832.570 6                  27015577.490
        36.100
 107071286.190 8  83277650.082 7  20036926.447    20036927.603    20036932.473
        49.100          42.700
 25  1  1 14 23 45.0000000  0 26E27E10G02E29G32G16E33G28G03G26R06R04
                                G04E04E21S35R05S31G31S33E19E11R16R22
                                E12R15
 133495297.962 6                  25403306.563
        38.500
 141190225.576 6                  26867609.923
        41.100
 131124469.156 4                  24952165.658
        24.300
 128956551.825 7                  24539617.274
        45.400
 119956268.067 5  93472454.44044  22826900.028    22826900.5154   22826905.8104
        35.200          29.4004
 120188195.004 5  93653187.71641  22871053.717    22871052.3274   22871059.5374
        35.600           9.1004


 112281283.869 6  87491904.14042  21366399.515    21366399.4354   21366395.8114
        39.200          13.1004
 110665935.942 8  86233501.94647  21059021.059    21059020.9974   21059022.2754
        48.100          44.1004
 109084309.786 8  85000774.26248  20758038.038    20758037.3904   20758043.3014
        50.600          53.1004
 110890263.078 5                  20780784.177    20780785.537
        34.400
 124291449.795 6                  23210581.595    23210561.673
        39.700
 124393629.776 6                  23671320.454
        36.400
 141541047.293 5                  26934367.060
        35.000
 128641386.302 7                  24479639.590
        46.900


 105771748.775 8  82266486.691 7  19786690.066    19786691.053    19786696.466
        48.400          45.400
 198904901.721 7                  37850349.894
        42.900
 105388874.749 8  82121210.22448  20054833.758    20054833.3614   20054832.0344
        51.800          50.4004
 202025655.467 7                  38444217.299
        44.400
 121801838.215 7                  23178121.584
        45.700
 143853742.889 5                  27374457.470
        34.200
 104277109.680 8  81104541.753 8  19520898.559    19520899.083    19520906.197
        48.500          48.200
 128613759.666 5                  24093691.507    24093688.632
        34.700
 141999067.712 5                  27021520.695
        33.700
 107106570.528 8  83305093.362 7  20043530.386    20043530.709    20043535.633
        50.300          43.700
 25  1  1 14 24  0.0000000  0 27E27E10G02E29G32G16E33G28G03G26R06R04
                                G04E04R09E21S35R05S31G31S33E19E11R16
                                R22E12R15
 133511113.070 6                  25406316.137
        37.000
 141208030.904 6                  26870997.666
        40.200
 131157986.221 5                  24958548.233
        31.500
 128975176.848 7                  24543161.230
        45.200
 119989499.787 5  93498349.19745  22833226.079    22833226.6204   22833231.8864
        35.000          30.4004
 120130997.039 6  93608617.91942  22860169.696    22860168.2834   22860175.8054
        37.700          12.8004


 112311698.208 6  87515603.61642  21372186.113    21372186.0204   21372182.9004
        39.300          12.8004
 110641805.500 7  86214698.96347  21054429.019    21054428.9524   21054430.8764
        46.400          43.4004
 109054775.818 8  84977760.77048  20752418.527    20752417.8794   20752423.0584
        50.900          52.3004
 110846628.558 5                  20772609.366    20772608.446
        35.000
 124341555.253 6                  23219928.353    23219937.024
        40.200
 124350948.038 5                  23663200.249
        34.400
 141509189.423 5                  26928303.060
        33.400


 128615257.255 7                  24474667.543
        46.300


 105789494.922 8  82280289.242 7  19790011.294    19790012.261    19790016.618
        49.100          46.800
 198904907.808 7                  37850352.080
        43.000
 105398594.444 8  82128784.01048  20056683.531    20056683.1344   20056682.1504
        52.000          50.8004
 202025679.981 7                  38444222.182
        44.600
 121793290.691 7                  23176494.612
        45.200
 143852907.680 5                  27374297.223
        33.600
 104248533.424 7  81082315.792 8  19515548.000    19515548.881    19515557.596
        47.900          48.700
 128629066.942 5                  24096549.341    24096546.093
        30.100
 142030367.037 5                  27027477.338
        35.000
 107142002.742 8  83332651.752 7  20050160.195    20050159.545    20050165.266
        49.500          43.200
 25  1  1 14 24 15.0000000  0 28E27E10G02E29G32G16E33G28G03G26R06R04
                                G04E04R09E21S35R05G25S31G31S33E19E11
                                R16R22E12R15
 133527025.628 6                  25409343.368
        37.600
 141225927.389 6                  26874403.871
        36.100
 131191524.333 5 102227222.91841  24964929.696    24964929.6294   24964932.5334
        32.100           9.4004
 128993835.178 7                  24546711.230
        44.900
 120022783.586 6  93524284.56045  22839561.700    22839562.2764   22839565.7784
        38.500          30.0004
 120073842.638 6  93564082.06542  22849292.833    22849291.4434   22849301.1684
        37.500          15.0004


 112342165.980 6  87539344.68041  21377983.247    21377983.0734   21377979.7014
        36.500           8.3004
 110617808.457 7  86195999.95647  21049863.131    21049863.0964   21049865.1884
        43.000          42.0004
 109025373.236 8  84954849.66048  20746823.319    20746822.6854   20746827.2964
        51.500          51.7004
 110803051.751 6                  20764444.188    20764443.447
        36.800
 124391721.327 5                  23229283.521    23229282.528
        33.200
 124308266.610 5                  23655077.220
        30.000
 141477326.696 4                  26922242.997
        26.400


 128589214.241 7                  24469711.563
        46.500


 105807366.120 8  82294189.042 8  19793355.193    19793354.866    19793360.404
        48.700          48.200


 198904911.225 7                  37850354.124
        42.900
 105408415.014 8  82136436.41948  20058552.313    20058551.9164   20058551.2754
        52.500          51.7004
 202025702.811 7                  38444226.162
        44.300
 121784773.293 7                  23174873.776
        44.800
 143852177.901 4                  27374156.633
        29.600
 104220127.616 8  81060222.362 8  19510232.003    19510231.545    19510239.186
        48.600          48.200
 128644529.753 5                  24099449.866    24099440.426
        32.000
 142061725.817 5                  27033443.677
        34.400
 107177577.647 8  83360321.082 6  20056817.723    20056817.648    20056820.332
        50.400          41.900
 25  1  1 14 24 30.0000000  0 28E27E10G02E29G32G16E33G28G03G26R06R04
                                G04E04R09E21S35R05G25S31G31S33E19E11
                                R16R22E12R15
 133543036.682 6                  25412391.590
        36.500
 141243916.174 5                  26877827.391
        34.300
 131225084.319 5 102253373.3664   24971317.202    24971317.1804   24971321.0244
        32.400           4.4004
 129012528.120 7                  24550268.412
        43.500
 120056120.686 5  93550261.41044  22845902.821    22845903.2634   22845907.3664
        33.300          26.6004
 120016733.573 6  93519581.57842  22838425.184    22838423.8214   22838435.2194
        36.000          15.5004


 112372688.243 5  87563128.3374   21383797.305    21383797.0374   21383786.8944
        35.800           5.4004
 110593946.186 7  86177405.95146  21045322.992    21045322.9304   21045325.5484
        45.100          41.5004
 108996103.506 8  84932042.06448  20741253.231    20741252.6104   20741256.8894
        51.100          50.8004
 110759534.174 6                  20756290.429    20756290.708
        38.900
 124441949.221 6                  23238666.490    23238668.057
        37.700
 124265586.743 5                  23646954.271
        34.200
 141445460.034 4                  26916194.016
        26.800


 128563258.696 7                  24464772.120
        46.800


 105825363.647 7  82308187.087 7  19796720.216    19796720.366    19796726.673
        47.400          47.900


 198904913.769 7                  37850357.589
        43.300
 105418337.273 8  82144168.08148  20060440.305    20060439.9214   20060439.5514
        52.600          52.3004
 202025725.204 7                  38444229.748
        44.800
 121776287.392 7                  23173258.827
        44.700
 143851554.766 4                  27374040.205
        29.100
 104191894.017 8  81038262.881 7  19504947.773    19504947.835    19504953.510
        50.400          47.900
 128660148.953 5                  24102373.848    24102370.985
        35.800
 142093144.979 5                  27039422.676
        34.200
 107213296.145 8  83388102.082 6  20063502.722    20063503.793    20063503.727
        51.800          41.600
 25  1  1 14 24 45.0000000  0 28E27E10G02E29G32G16E33G28G03G26R06R04
                                G04E04R09E21S35R05G25S31G31S33E19E11
                                R16R22E12R15
 133559150.660 6                  25415458.449
        36.400
 141262001.739 6                  26881269.477
        36.500
 131258670.343 5 102279543.88742  24977708.335    24977708.1704   24977709.6454
        34.900          12.4004
 129031260.347 6                  24553833.335
        41.900
 120089515.692 5  93576283.39743  22852258.663    22852259.0344   22852260.2904
        30.800          23.4004
 119959674.785 6  93475120.29742  22827568.086    22827566.7674   22827578.4324
        36.700          17.2004


 112403269.378 5  87586957.7614   21389610.977    21389610.4864   21389605.3344
        35.500           4.4004
 110570223.514 7  86158920.66247  21040807.749    21040807.6424   21040811.6774
        46.800          42.1004
 108966971.526 8  84909341.81048  20735709.730    20735709.1224   20735713.2354
        49.100          50.0004
 110716080.863 6                  20748146.577    20748146.708
        37.800


 124222913.155 6                  23638834.231
        37.800
 141413594.442 5                  26910128.660
        31.900


 128537395.383 7                  24459851.178
        47.100


 105843492.294 7  82322287.135 7  19800109.550    19800110.938    19800117.200
        46.600          47.200


 198904920.277 7                  37850353.882
        42.900
 105428365.658 8  82151982.42148  20062348.741    20062348.3574   20062348.1834
        52.300          52.4004
 202025750.450 7                  38444235.391
        44.900
 121767837.722 7                  23171651.213
        44.700
 143851042.819 5                  27373943.419
        32.600
 104163837.044 8  81016440.796 7  19499694.104    19499694.059    19499700.708
        49.800          46.900
 128675929.216 6                  24105332.443    24105329.866
        36.400
 142124628.961 5                  27045414.416
        34.200
 107249162.251 8  83415997.917 7  20070213.993    20070215.130    20070217.358
        50.900          43.100
 25  1  1 14 25  0.0000000  0 28E27E10G02E29G32G16E33G28G03G26R06R04
                                G04E04R09E21S35R05G25S31G31S33E19E11
                                R16R22E12R15
 133575360.842 6                  25418544.446
        38.400
 141280177.048 6                  26884726.815
        37.000
 131292275.405 4 102305729.54142  24984108.933    24984109.1614   24984104.1014
        29.800          13.1004
 129050025.091 6                  24557404.576
        41.600
 120122961.774 5  93602345.20243  22858626.030    22858626.3254   22858623.6104
        33.200          22.9004
 119902659.981 6  93430693.25743  22816718.770    22816717.5364   22816728.8494
        36.200          18.0004


 112433902.414 5  87610827.3044   21395439.753    21395439.2354   21395433.4014
        31.900           2.4004
 110546633.950 8  86140539.10447  21036319.123    21036319.0214   21036322.4684
        49.100          42.4004
 108937970.741 8  84886743.76748  20730191.126    20730190.5544   20730194.8734
        49.100          49.1004
 110672685.320 5                  20740010.631    20740012.263
        33.400
 124542596.407 5                  23257457.611    23257458.365
        35.400
 124180239.242 6                  23630715.270
        40.600
 141381723.239 5                  26904058.113
        31.100
 124545421.451 5                  23323355.005    23323356.289
        35.200
 128511617.679 8                  24454945.811
        48.800


 105861745.377 8  82336483.921 7  19803527.219    19803528.693    19803532.545
        48.300          47.000


 198904923.738 7                  37850357.697
        43.500
 105438493.264 8  82159874.07048  20064275.921    20064275.5324   20064275.7304
        51.600          52.0004
 202025773.311 7                  38444239.210
        44.800
 121759417.654 7                  23170048.708
        44.600
 143850635.158 5                  27373866.003
        34.400
 104135950.452 8  80994751.227 7  19494474.250    19494474.566    19494479.552
        50.700          46.500


 142156170.624 5                  27051416.275
        34.100
 107285168.803 8  83444003.009 7  20076951.740    20076952.095    20076957.663
        49.500          45.400
 25  1  1 14 25 15.0000000  0 26E27E10E29G32G16G28G03G26R06R04G04E04
                                R09E21S35R05G25S31G31S33E19E11R16R22
                                E12R15
 133591672.079 6                  25421648.100
        40.400
 141298447.183 6                  26888203.158
        37.000
 129068827.619 6                  24560982.165
        41.900
 120156464.262 5  93628450.93643  22865001.082    22865001.2744   22864999.5134
        31.600          22.6004
 119845694.752 5  93386304.88742  22805875.709    22805874.6054   22805888.1924
        35.700          14.6004
 112464592.382 5                  21401279.098
        34.600
 110523183.071 8  86122265.66547  21031855.974    21031855.8584   21031858.6224
        50.600          42.7004
 108909106.567 8  84864252.16448  20724697.768    20724697.2014   20724702.6204
        50.300          49.1004
 110629353.292 5                  20731890.776    20731891.202
        30.500
 124593013.894 6  96905825.217 5  23266878.459                    23266902.741
        38.700          33.800
 124137570.290 6  96730622.50042  23622594.499    23622594.3564   23622605.8884
        38.900          13.3004
 141349851.598 5                  26897978.293
        34.700
 124482515.398 6                  23311580.359    23311580.280
        38.900
 128485930.919 8                  24450057.675
        48.900


 105880127.955 8  82350781.465 7  19806966.087    19806966.754    19806971.357
        48.200          47.000


 198904929.112 7                  37850358.739
        43.500
 105448725.008 8  82167846.86848  20066222.713    20066222.3164   20066222.8984
        51.600          51.4004
 202025798.282 7                  38444243.346
        44.500
 121751032.309 7                  23168453.433
        44.600
 143850337.169 5                  27373808.227
        35.300
 104108239.389 8  80973198.174 7  19489287.354    19489287.332    19489293.114
        51.500          47.100
 128707956.155 6                  24111332.608    24111332.009
        38.400
 142187774.928 5                  27057431.383
        34.900
 107321320.642 8  83472121.122 7  20083717.039    20083716.479    20083723.505
        49.000          46.400
 25  1  1 14 25 30.0000000  0 27E27E10E29G32G16E33G28G03G26R06R04G04
                                E04R09E21S35R05G25S31G31S33E19E11R16
                                R22E12R15
 133608080.434 6                  25424769.636
        39.800
 141316807.783 6                  26891698.006
        37.700
 129087663.826 7                  24564566.647
        42.400
 120190018.806 6  93654597.33944  22871384.554    22871384.8174   22871387.1644
        38.000          27.0004
 119788775.349 5  93341952.3294   22795046.184    22795044.9154   22795056.6034
        31.400           5.0004


 112495334.909 5                  21407131.299
        31.400
 110499866.864 8  86104097.18547  21027419.215    21027419.1084   21027419.2174
        50.200          42.3004
 108880375.211 8  84841864.04648  20719230.576    20719230.0134   20719235.0154
        50.900          49.2004
 110586080.835 4                  20723783.652    20723782.361
        29.900
 124643491.140 6  96945085.066 5  23276308.589    23276304.716    23276329.153
        38.800          32.500
 124094902.193 5  96697374.61542  23614476.375    23614475.8664   23614486.1644
        34.800          13.5004
 141317975.361 6                  26891917.637
        39.300


 128460331.207 7                  24445185.927
        47.200


 105898636.173 7  82365176.718 7  19810427.764    19810427.651    19810433.757
        46.500          46.100


 198904932.841 7                  37850359.570
        43.400
 105459056.749 8  82175897.59048  20068188.587    20068188.1814   20068188.7044
        51.500          50.7004
 202025820.733 7                  38444248.672
        44.800
 121742677.728 7                  23166863.849
        44.600
 143850144.742 6                  27373771.667
        36.100
 104080700.094 8  80951778.738 7  19484131.830    19484132.057    19484137.964
        51.400          47.500
 128724203.309 5                  24114375.700    24114374.381
        34.200
 142219437.533 6                  27063457.492
        36.200
 107357613.011 8  83500348.461 7  20090508.948    20090508.167    20090514.934
        49.100          46.600
 25  1  1 14 25 45.0000000  0 25E27E10E29G32G28G03G26R06R04G04E04R09
                                E21S35R05G25S31G31S33E19E11R16R22E12
                                R15
 133624589.240 6                  25427912.421
        37.300
 141335262.237 6                  26895210.532
        39.400
 129106537.326 7                  24568158.774
        42.700
 120223629.126 6  93680787.16844  22877779.755    22877779.9514   22877785.0994
        36.000          26.9004
 112526133.391 5                  21412993.387
        33.400
 110476689.194 8  86086036.64647  21023008.819    21023008.7264   21023007.9084
        50.200          43.4004
 108851780.436 8  84819582.38948  20713789.449    20713788.8954   20713792.5904
        51.400          48.8004
 110542872.479 4                  20715682.759    20715682.782
        29.100
                                                  23285741.597

 124052238.666 5  96664130.26141  23606357.533    23606357.0774   23606365.8364
        32.300          10.2004
 141286098.144 6                  26885851.648
        41.300
 124356829.324 5                  23288035.512    23288036.051
        35.000
 128434822.235 7                  24440331.327
        46.100


 105917273.643 7  82379672.489 7  19813914.081    19813914.551    19813920.759
        46.000          45.700


 198904938.069 7                  37850356.802
        42.400
 105469491.709 8  82184028.75848  20070174.468    20070174.0714   20070173.5364
        51.400          49.9004
 202025846.160 7                  38444253.318
        44.600
 121734357.389 7                  23165280.554
        45.000
 143850061.253 5                  27373755.716
        35.000
 104053336.243 8  80930495.802 7  19479008.681    19479009.066    19479014.853
        50.900          46.300
 128740608.552 5                  24117449.630    24117451.532
        35.800
 142251161.830 6                  27069492.755
        36.200
 107394049.024 8  83528687.509 7  20097327.177    20097327.343    20097333.457
        49.800          46.200
 25  1  1 14 26  0.0000000  0 25E27E10E29G32G28G03G26R06R04G04E04R09
                                E21S35R05G25S31G31S33E19E11R16R22E12
                                R15
 133641193.283 5                  25431072.517
        35.700
 141353805.559 6                  26898738.891
        38.800
 129125443.314 7                  24571755.299
        42.700
 120257290.316 4  93707016.60043  22884182.252    22884182.4084   22884191.0784
        28.700          22.5004
 112556982.816 6  87706640.04142  21418864.871    21418863.9324   21418861.5514
        38.700          13.8004
 110453645.477 8  86068080.50547  21018623.640    21018623.5514   21018624.4884
        50.000          45.5004
 108823317.619 8  84797403.57248  20708373.314    20708372.7564   20708375.6044
        52.000          49.0004
 110499723.126 5                  20707598.858    20707598.061
        31.100


 124009574.907 5  96630885.75141  23598238.837    23598238.2924   23598245.3474
        33.200           7.6004
 141254215.208 6                  26879784.919
        41.700
 124294048.784 5                  23276276.596    23276276.574
        33.000
 128409399.296 7                  24435493.123
        44.600


 105936035.370 7  82394264.952 7  19817423.795    19817422.628    19817429.592
        43.000          45.000


 198904940.282 7                  37850356.382
        42.700
 105480024.941 8  82192236.51048  20072178.600    20072178.2074   20072177.1944
        51.000          49.7004
 202025868.089 7                  38444258.912
        44.500
 121726066.648 7                  23163702.443
        44.400
 143850081.840 5                  27373760.707
        34.500
 104026143.012 8  80909345.557 7  19473918.481    19473917.740    19473923.852
        50.400          45.800
 128757166.778 5                  24120561.183    24120559.337
        35.000
 142282942.614 5                  27075540.124
        35.500
 107430623.488 8  83557134.287 7  20104172.398    20104172.668    20104177.838
        50.000          46.300
 25  1  1 14 26 15.0000000  0 25E27E10E29G32G28G03G26R06R04G04E04R09
                                E21S35R05G25S31G31S33E19E11R16R22E12
                                R15
 133657898.709 6                  25434251.251
        36.300
 141372443.620 5                  26902286.144
        35.800
 129144387.849 7                  24575360.242
        42.300
 120291008.363 5  93733290.42343  22890600.665    22890600.6304   22890605.8404
        34.100          19.2004
 112587888.990 6  87730722.75843  21424744.436    21424743.3234   21424746.4704
        41.600          20.0004
 110430741.969 8  86050233.59147  21014265.367    21014265.2784   21014267.9024
        49.300          46.2004
 108794993.096 8  84775332.55248  20702983.359    20702982.8054   20702985.5104
        52.900          49.2004
 110456639.463 6                  20699526.031    20699526.210
        36.600


 123966916.933 6  96597645.6984   23590121.754    23590121.1824   23590126.2274
        36.800           4.1004
 141222332.506 6                  26873718.136
        41.800


 128384068.624 7                  24430673.377
        44.300


 105954927.763 7  82408959.015 7  19820957.469    19820958.501    19820964.182
        45.500          44.400


 198904945.172 7                  37850359.673
        42.800
 105490662.290 8  82200525.37648  20074202.834    20074202.4594   20074201.4314
        51.300          49.1004
 202025892.847 7                  38444262.042
        44.700
 121717811.569 7                  23162131.824
        44.000
 143850212.515 5                  27373783.110
        31.900
 103999126.908 8  80888333.071 7  19468861.984    19468860.988    19468866.859
        50.900          45.700
 128773882.688 3                  24123677.857
        23.200
 142314785.734 6                  27081600.639
        36.000
 107467342.171 7  83585693.292 7  20111043.899    20111042.860    20111049.582
        47.500          46.800
 25  1  1 14 26 30.0000000  0 26E27E10E29G32G16G28G03G26R06R04G04E04
                                R09E21S35R05G25S31G31S33E19E11R16R22
                                E12R15
 133674702.410 5                  25437447.933
        31.900
 141391173.329 5                  26905850.218
        34.300
 129163368.066 7                  24578972.714
        42.600
 120324780.449 5  93759606.28243  22897027.196    22897027.1384   22897029.3844
        35.300          21.8004
 119561522.465 6  93164941.44441  22751809.582    22751810.0244   22751827.5854
        36.600           9.9004
 112618848.871 6  87754847.36043  21430635.751    21430634.9424   21430639.7514
        38.900          20.3004
 110407976.100 8  86032493.96047  21009933.097    21009933.0264   21009936.7204
        48.600          46.4004
 108766804.186 8  84753367.17848  20697619.038    20697618.4844   20697622.0584
        52.200          49.5004
 110413618.923 6                  20691464.321    20691463.955
        37.600


 123924262.226 6  96564407.8024   23582003.735    23582003.2214   23582009.7404
        36.500           5.3004
 141190447.214 6                  26867650.449
        40.200
 124168624.728 5  96575617.449 5  23252793.628    23252791.402    23252801.306
        35.400          34.200
 128358827.438 7                  24425869.715
        44.700


 105973947.939 8  82423752.459 7  19824519.700    19824519.759    19824521.559
        48.400          43.800


 198904950.361 7                  37850359.391
        42.800
 105501400.747 8  82208893.00948  20076246.490    20076246.1154   20076244.8104
        50.900          48.7004
 202025917.488 7                  38444265.333
        44.500
 121709589.440 7                  23160567.227
        43.600
 143850450.534 4                  27373829.787
        29.800
 103972284.721 8  80867455.839 7  19463836.070    19463835.868    19463842.199
        50.800          45.900


 142346688.000 6                  27087672.580
        38.100
 107504201.503 7  83614361.670 7  20117939.017    20117937.132    20117946.769
        43.700          46.100
 25  1  1 14 26 45.0000000  0 27E27E10G02E29G32G16G28G03G26R06R04G04
                                E04R09E21S35R05G25S31G31S33E19E11R16
                                R22E12R15
 133691606.449 5                  25440664.054
        33.100
 141409996.593 6                  26909433.369
        36.800
 131528170.656 6 102489509.87242  25028980.491    25028980.8174   25028984.1534
        37.700          14.1004
 129182386.154 7                  24582591.153
        43.300
 120358608.671 6  93785965.87443  22903464.483    22903464.4524   22903465.2694
        36.900          21.6004
 119504851.192 6  93120782.11841  22741028.843    22741029.5044   22741035.8484
        37.400          11.6004
 112649864.261 6  87779015.19543  21436539.128    21436538.3824   21436541.6624
        37.900          19.5004
 110385350.096 7  86014863.26047  21005627.214    21005627.1434   21005631.3394
        47.200          46.1004
 108738753.291 8  84731509.35448  20692281.337    20692280.7834   20692285.0204
        51.400          49.2004
 110370664.068 6                  20683414.057    20683415.191
        38.600
 124897025.829 6                  23323631.408    23323622.263
        38.500
 123881612.853 6  96531174.49342  23573888.638    23573888.2364   23573894.3174
        39.200          12.8004
 141158561.443 6                  26861582.444
        38.200
 124105981.366 5  96526894.803 5  23241059.639    23241057.641    23241070.125
        34.100          34.600
 128333678.009 7                  24421084.468
        44.700


 105993097.898 7  82438646.893 7  19828097.424    19828099.530    19828104.380
        46.300          44.400


 198904957.211 7                  37850363.657
        43.000
 105512242.185 8  82217340.89148  20078309.613    20078309.2334   20078307.2884
        50.200          48.2004
 202025944.062 7                  38444270.628
        44.900
 121701402.378 7                  23159009.277
        43.000
 143850797.763 5                  27373895.826
        31.500
 103945619.217 8  80846716.084 7  19458842.983    19458843.162    19458849.861
        49.100          45.400


 142378651.288 6                  27093755.237
        38.700
 107541203.213 6  83643140.755 7  20124860.996    20124859.753    20124871.694
        41.300          45.800
 25  1  1 14 27  0.0000000  0 26E27E10G02E29G32G16G28G03G26R06R04G04
                                E04E21S35R05G25S31G31S33E19E11R16R22
                                E12R15
 133708604.810 5                  25443897.659
        31.600
 141428907.224 6                  26913030.662
        40.400
 131561939.944 6 102515823.51342  25035405.940    25035406.1144   25035409.9114
        37.800          13.3004
 129201436.135 7                  24586216.216
        43.500
 120392486.869 5  93812364.40943  22909909.596    22909909.3194   22909911.5384
        35.600          19.3004
 119448226.154 5  93076658.80941  22730254.359    22730255.1324   22730257.1364
        34.100           8.4004
 112680928.935 6  87803221.41443  21442449.551    21442448.8144   21442452.5214
        38.600          20.4004
 110362858.169 7  85997337.01947  21001347.526    21001347.4684   21001350.8384
        47.800          46.3004
 108710834.499 8  84709754.43848  20686968.412    20686967.8544   20686972.5184
        52.100          49.1004
 110327768.855 6                  20675374.423    20675374.431
        36.700
 124947870.728 5                  23333120.463    23333118.894
        32.200
 123838963.027 6  96497940.93542  23565772.380    23565771.9334   23565778.5104
        37.000          14.7004
 141126669.179 6                  26855513.241
        36.800
 128308614.456 7                  24416315.183
        45.200


 106012371.631 7  82453637.555 7  19831703.002    19831703.909    19831708.972
        45.000          44.200


 198904960.033 7                  37850364.932
        42.900
 105523180.305 8  82225864.09648  20080391.362    20080390.9824   20080388.0864
        50.500          48.2004
 202025966.366 7                  38444278.543
        45.600
 121693244.477 7                  23157457.078
        42.800
 143851248.020 5                  27373980.615
        30.800
 103919124.071 8  80826108.754 7  19453883.886    19453884.840    19453890.979
        50.900          45.000


 142410669.309 6                  27099849.098
        38.400
 107578340.697 7  83672025.335 7  20131813.072    20131814.401    20131820.645
        46.800          45.400
 25  1  1 14 27 15.0000000  0 26E27E10G02E29G32E33G28G03G26R06R04G04
                                E04E21S35R05G25S31G31S33E19E11R16R22
                                E12R15
 133725701.411 5                  25447151.882
        32.100
 141447909.435 6                  26916646.722
        41.100
 131595728.464 6 102542152.08441  25041835.117    25041835.2864   25041839.7734
        39.300          10.9004
 129220522.397 7                  24589847.963
        44.200
 120426419.580 5  93838805.38942  22916367.573    22916367.2694   22916368.0834
        30.000          17.9004


 112712047.067 6  87827469.25843  21448371.060    21448370.4174   21448372.8474
        40.100          21.8004
 110340504.938 8  85979918.85347  20997093.341    20997093.2884   20997096.7694
        48.300          46.1004
 108683052.464 8  84688106.07148  20681681.360    20681680.8154   20681685.2804
        50.800          48.1004
 110284938.445 6                  20667349.633    20667348.696
        37.200
                  97221263.929 5                                  23342637.557
                        32.200
 123796317.063 5  96464710.35542  23557657.547    23557657.0744   23557662.8554
        33.300          13.9004
 141094774.917 5                  26849444.064
        35.100
 128283641.283 7                  24411563.123
        45.700


 106031773.727 7  82468728.063 7  19835332.827    19835334.325    19835339.192
        46.400          45.300


 198904963.430 7                  37850363.233
        43.100
 105534219.207 8  82234465.80748  20082491.995    20082491.6064   20082488.8014
        50.600          48.3004
 202025989.644 7                  38444280.823
        45.500
 121685120.074 7                  23155910.849
        42.800
 143851805.723 3                  27374084.938
        22.700
 103892804.147 8  80805637.732 7  19448956.347    19448956.924    19448962.786
        50.900          44.100


 142442746.142 5                  27105950.533
        34.000
 107615617.975 8  83701018.734 7  20138791.709    20138793.651    20138796.465
        49.700          44.900
 25  1  1 14 27 30.0000000  0 26E27E10G02E29G32E33G28G03G26R06R04G04
                                E04E21S35R05G25S31G31S33E19E11R16R22
                                E12R15
 133742896.701 5                  25450425.762
        32.900
 141467003.509 6                  26920278.905
        38.000
 131629536.451 6 102568495.71141  25048271.129    25048271.5134   25048271.5404
        40.400           8.3004
 129239645.492 7                  24593487.307
        44.800
 120460407.091 6  93865289.16443  22922840.882    22922840.5294   22922835.6864
        38.000          19.1004


 112743218.984 6  87851759.04743  21454302.182    21454301.6284   21454303.8824
        39.700          21.2004
 110318291.216 8  85962609.41147  20992866.102    20992866.0494   20992868.8104
        48.800          45.6004
 108655407.897 8  84666564.82947  20676420.335    20676419.8084   20676424.1934
        50.300          47.0004
 110242173.578 6                  20659336.433    20659336.063
        38.000
                  97260904.921 5                                  23352155.472
                        35.200
 123753675.463 5  96431483.09442  23549543.882    23549543.2794   23549548.1884
        33.500          15.0004
 141062879.087 5                  26843373.575
        34.700
 128258759.129 7                  24406827.952
        46.300


 106051304.891 7  82483918.975 7  19838986.336    19838987.444    19838995.052
        46.000          46.800


 198904967.435 7                  37850365.231
        43.300
 105545359.351 8  82243146.41648  20084611.765    20084611.3724   20084609.4544
        50.200          48.9004
 202026013.391 7                  38444286.515
        45.300
 121677029.768 7                  23154371.099
        42.600


 103866659.949 8  80785303.344 7  19444062.755    19444062.433    19444068.765
        50.700          42.900
 128859969.587 6                  24139773.660    24139777.034
        36.500
 142474881.998 5                  27112068.476
        30.300
 107653035.106 8  83730120.851 7  20145792.758    20145794.813    20145798.373
        49.600          45.200
 25  1  1 14 27 45.0000000  0 27E27E10G02E29G32G16E33G28G03G26R06R04
                                G04E04E21S35R05G25S31G31S33E19E11R16
                                R22E12R15
 133760190.638 6                  25453715.793
        37.100
 141486189.077 5                  26923930.879
        35.400
 131663363.410 5 102594854.2804   25054704.584    25054704.9054   25054708.4814
        35.700           4.1004
 129258805.301 7                  24597133.971
        44.600
 120494449.325 7  93891815.56043  22929315.980    22929315.6324   22929316.7794
        42.600          23.0004
 119278560.322 6  92944434.25941  22697987.265    22697987.3184   22697981.0624
        39.500           8.7004


 112774444.309 7  87876090.41143  21460245.178    21460244.6424   21460245.6714
        43.100          22.1004
 110296217.003 8  85945408.68747  20988665.746    20988665.6934   20988666.9204
        49.800          45.8004
 108627900.920 8  84645130.79147  20671185.917    20671185.3854   20671189.7434
        49.300          46.2004
 110199474.605 6                  20651333.498    20651333.665
        37.700
 125100696.895 5  97300593.529 5  23361682.729    23361691.909    23361681.540
        31.300          33.100
 123711038.314 6  96398259.30842  23541429.268    23541428.7634   23541433.8654
        36.900          17.4004
 141030981.635 5                  26837302.867
        32.300
 128233968.052 7                  24402110.469
        45.700


 106070964.837 7  82499210.044 7  19842665.903    19842665.564    19842672.492
        47.800          46.300


 198904972.390 7                  37850365.012
        42.900
 105556600.355 8  82251905.60148  20086750.814    20086750.4174   20086749.2694
        50.000          48.5004
 202026038.301 7                  38444290.509
        45.000
 121668973.575 6                  23152838.043
        40.900


 103840691.517 8  80765105.679 7  19439202.398    19439202.710    19439207.534
        52.400          42.600
 128877612.542 4 100238039.533 5  24143075.025    24143074.118    24143091.448
        25.900          33.800
 142507076.876 4                  27118225.457
        27.100
 107690591.357 7  83759331.241 7  20152819.896    20152820.125    20152825.814
        47.100          45.600
 25  1  1 14 28  0.0000000  0 27E27E10G02E29G32G16E33G28G03G26R06R04
                                G04E04E21S35R05G25S31G31S33E19E11R16
                                R22E12R15
 133777581.438 6                  25457023.859
        39.200
 141505464.522 6                  26927599.974
        38.100
 131697207.666 5 102621226.2964   25061145.244    25061145.6154   25061149.2594
        32.700           4.7004
 129278000.367 7                  24600786.284
        46.900
 120528544.818 6  93918383.42243  22935801.934    22935801.5724   22935808.4134
        41.000          23.6004
 119222141.012 6  92900471.33741  22687248.411    22687248.4914   22687247.1784
        40.500          11.9004


 112805721.363 7  87900462.08143  21466196.856    21466196.3424   21466198.0404
        43.800          23.7004
 110274281.076 8  85928315.72747  20984492.000    20984491.9784   20984491.6594
        50.900          46.9004
 108600530.318 8  84623803.06547  20665977.784    20665977.2794   20665982.5974
        49.700          47.7004
 110156840.095 6                  20643345.641    20643343.631
        37.800
                  97340328.501 5                                  23371220.902
                        31.600
 123668404.155 5  96365037.87942  23533313.884    23533313.4194   23533319.9054
        35.000          17.7004
 140999080.920 5                  26831232.091
        31.800
 128209266.634 7                  24397410.051
        45.100


 106090752.122 8  82514600.134 7  19846367.449    19846367.562    19846373.131
        49.300          44.700


 198904976.633 7                  37850366.090
        43.200
 105567940.543 8  82260742.07448  20088908.307    20088907.9104   20088907.6414
        49.800          48.7004
 202026062.446 7                  38444293.433
        45.000
 121660949.897 6                  23151311.358
        40.900


 103814897.669 8  80745043.796 7  19434372.330    19434373.398    19434379.953
        52.100          42.500




 107728285.285 7  83788648.713 7  20159875.102    20159874.392    20159881.673
        46.900          47.100
 25  1  1 14 28 15.0000000  0 27E27E10G02E29G32G16E33G28G03G26R06R04
                                G04E04E21S35R05G25S31G31S33E19E11R16
                                R22E12R15
 133795072.851 6                  25460353.106
        40.000
 141524833.686 6                  26931285.197
        38.700
 131731072.722 5 102647614.6754   25067588.080    25067588.3664   25067593.4934
        30.900           2.8004
 129297234.748 8                  24604446.474
        48.000
 120562697.503 6  93944995.83743  22942301.782    22942301.3984   22942312.4554
        39.800          23.2004
 119165777.211 6  92856551.62842  22676522.648    22676522.6654   22676523.7184
        39.400          12.0004


 112837053.970 6  87924877.05843  21472159.346    21472158.8904   21472161.4414
        41.900          23.0004
 110252487.718 8  85911333.87447  20980344.416    20980344.4204   20980344.6054
        51.300          47.3004
 108573300.357 8  84602584.95348  20660795.972    20660795.4814   20660801.6814
        50.400          48.9004
 110114274.835 6                  20635367.301    20635366.905
        38.000
 125202936.906 6                  23380762.400    23380763.751
        38.100
 123625777.171 5  96331822.05342  23525203.343    23525202.9994   23525207.3314
        34.700          16.1004
 140967181.113 4                  26825162.360
        29.100
 128184659.081 7                  24392728.444
        45.900


 106110670.761 8  82530092.405 7  19850093.331    19850093.957    19850098.856
        51.300          43.200


 198904983.760 7                  37850366.685
        43.200
 105579383.854 8  82269658.92847  20091086.208    20091085.7974   20091085.3704
        48.900          47.7004
 202026089.487 7                  38444295.441
        44.900
 121652963.150 6                  23149791.430
        40.800
 143855121.652 6                  27374717.869
        36.000
 103789282.474 8  80725120.886 6  19429577.049    19429576.889    19429582.269
        50.600          40.400
                 100265843.596 5                                  24149781.675
                        31.500


 107766119.606 7  83818075.381 7  20166954.880    20166954.370    20166962.263
        46.600          47.800
 25  1  1 14 28 30.0000000  0 26E27E10E29G32G16E33G28G03G26R06R04G04
                                E04E21S35R05G25S31G31S33E19E11R16R22
                                E12R15
 133812657.527 6                  25463699.712
        40.300
 141544288.934 6                  26934987.914
        39.100
 129316501.114 8                  24608112.787
        48.100
 120596900.024 5  93971646.99042  22948809.852    22948809.5044   22948822.6904
        32.900          17.2004
 119109461.866 5  92812669.67541  22665806.460    22665806.4434   22665807.6044
        35.200           9.3004


 112868434.587 7  87949329.44443  21478131.405    21478130.9994   21478132.9034
        43.300          22.7004
 110230829.745 8  85894457.51747  20976223.597    20976223.6014   20976223.5894
        50.200          47.5004
 108546203.806 8  84581470.80048  20655639.777    20655639.2864   20655645.0334
        50.000          49.8004
 110071771.464 6                  20627402.715    20627402.605
        38.800
 125254144.304 5                  23390320.129    23390320.860
        32.400
 123583150.086 5  96298606.18742  23517089.637    23517089.3114   23517094.7794
        34.300          15.1004
 140935274.816 5                  26819091.227
        31.500
 128160138.179 7                  24388061.774
        45.900


 106130713.348 8  82545681.032 6  19853843.583    19853844.459    19853847.502
        53.100          41.700


 198904986.733 7                  37850368.294
        43.400
 105590922.687 7  82278650.19547  20093282.585    20093282.1884   20093281.1654
        47.900          47.2004
 202026112.259 7                  38444303.329
        45.100
 121645005.697 6                  23148277.116
        41.200
 143856214.614 6                  27374926.867
        36.900
 103763838.485 8  80705331.121 6  19424814.653    19424814.191    19424818.162
        50.400          39.200


 142604007.301 5                  27136638.812
        34.700
 107804087.043 7  83847605.535 7  20174060.165    20174059.912    20174067.234
        47.500          47.400
 25  1  1 14 28 45.0000000  0 25E27E10E29G32G16E33G28G03G26R06G04E04
                                E21S35R05G25S31G31S33E19E11R16R22E12
                                R15
 133830338.257 6                  25467064.539
        41.400
 141563833.171 6                  26938707.487
        38.000
 129335802.442 8                  24611786.194
        48.000
 120631155.403 6  93998339.18942  22955330.121    22955329.9254   22955340.0044
        36.000          17.8004
 119053198.399 5  92768828.14441  22655099.204    22655099.0614   22655100.8724
        32.300           8.7004


 112899865.970 6  87973821.39443  21484111.487    21484111.0764   21484113.7884
        40.300          21.2004
 110209310.355 8  85877689.13847  20972128.777    20972128.7774   20972128.9064
        49.700          47.0004
 108519243.882 8  84560463.10948  20650509.783    20650509.3054   20650514.2174
        49.400          49.7004
 110029333.638 6                  20619450.167    20619449.838
        39.300
 123540525.960 5  96265392.59142  23508980.893    23508980.5674   23508982.6744
        34.800          14.1004
 140903365.139 5                  26813021.457
        34.000
 128135707.006 7                  24383412.657
        45.500


 106150883.089 8  82561368.583 7  19857616.260    19857615.969    19857621.207
        52.100          42.400


 198904989.534 7                  37850368.424
        43.500
 105602559.812 8  82287718.05747  20095497.104    20095496.7154   20095495.9064
        49.500          46.8004
 202026134.137 7                  38444305.994
        45.500
 121637080.750 6                  23146769.174
        41.300
 143857413.360 5                  27375153.869
        35.900
 103738568.974 8  80685677.079 6  19420083.674    19420083.805    19420087.762
        50.500          40.100


 142636428.163 5                  27142807.415
        35.400
 107842190.078 8  83877241.199 7  20181190.422    20181191.202    20181196.959
        48.800          46.600
 25  1  1 14 29  0.0000000  0 25E27E10E29G32G16E33G28G03G26R06G04E04
                                E21S35R05G25S31G31S33E19E11R16R22E12
                                R15
 133848117.040 6                  25470446.746
        41.200
 141583468.171 6                  26942442.896
        38.200
 129355140.864 8                  24615466.443
        48.700
 120665465.568 5  94025074.27343  22961858.056    22961857.8604   22961868.5014
        35.800          22.3004
 118996989.185 6  92725028.76641  22644405.354    22644405.1804   22644404.4874
        36.800          11.0004


 112931349.919 6  87998354.30243  21490103.330    21490102.9284   21490105.1454
        36.500          19.7004
 110187931.874 8  85861030.55047  20968060.210    20968060.1974   20968060.6864
        50.200          47.5004
 108492422.917 8  84539563.70048  20645406.141    20645405.6504   20645409.9364
        49.400          50.3004
 109986963.698 6                  20611509.640    20611508.277
        39.100
 123497906.890 6  96232182.97942  23500870.471    23500870.2434   23500871.6794
        36.100          16.0004
 140871454.206 5                  26806952.671
        35.200
 128111367.844 7                  24378780.612
        45.800


 106171181.978 8  82577156.575 7  19861413.389    19861413.557    19861421.250
        52.200          42.900


 198904992.173 7                  37850368.661
        43.200
 105614296.988 8  82296863.87047  20097729.919    20097729.5304   20097729.7004
        50.600          47.4004
 202026157.353 7                  38444312.943
        46.600
 121629190.456 6                  23145267.440
        40.000
 143858719.837 5                  27375402.727
        35.800
 103713476.108 8  80666160.412 6  19415386.660    19415385.784    19415390.412
        50.200          40.700
 128968012.708 4                  24160054.483    24160053.929
        28.100
 142668906.591 5                  27148987.416
        33.400
 107880430.155 8  83906983.432 7  20188347.673    20188347.592    20188352.216
        48.800          45.100
 25  1  1 14 29 15.0000000  0 25E27E10E29G32G16E33G28G03G26R06G04E04
                                E21S35R05G25S31G31S33E19E11R16R22E12
                                R15
 133865990.259 6                  25473848.737
        40.300
 141603190.415 6                  26946197.013
        38.800
 129374513.014 8                  24619152.141
        48.000
 120699827.228 5  94051849.49744  22968397.974    22968397.7784   22968407.6284
        35.700          26.2004
 118940831.266 6  92681269.46642  22633718.927    22633718.7714   22633718.4584
        39.400          16.0004


 112962882.915 6  88022925.38243  21496105.146    21496104.6864   21496106.2684
        37.600          19.4004
 110166691.108 8  85844479.26448  20964018.165    20964018.1524   20964019.3774
        50.700          48.6004
 108465737.740 8  84518770.08748  20640328.183    20640327.6964   20640331.6804
        50.000          50.9004
 109944658.652 6                  20603580.219    20603580.135
        38.600
 123455289.576 5  96198974.71242  23492761.436    23492761.2494   23492760.6124
        33.600          14.9004
 140839538.588 4                  26800871.851
        28.300
 128087117.420 7                  24374165.313
        45.400


 106191606.965 8  82593042.688 6  19865234.453    19865233.856    19865240.320
        51.400          41.700


 198904992.965 7                  37850373.437
        43.000
 105626130.815 8  82306085.01747  20099981.670    20099981.2904   20099981.7034
        50.900          47.1004
 202026177.131 7                  38444317.352
        46.100
 121621331.641 6                  23143772.207
        40.300
 143860130.646 5                  27375670.658
        33.100
 103688556.629 8  80646778.662 7  19410720.640    19410719.722    19410727.033
        48.800          43.000
 128986567.471 5                  24163501.532    24163508.767
        31.200
 142701438.855 5                  27155178.900
        30.600
 107918803.457 7  83936829.340 7  20195527.883    20195527.761    20195532.793
        46.800          43.600
 25  1  1 14 29 30.0000000  0 25E27E10E29G32G16G28G03G26R06R04G04E04
                                E21S35R05G25S31G31S33E19E11R16R22E12
                                R15
 133883964.016 7                  25477269.599
        42.700
 141623005.949 6                  26949969.021
        40.800
 129393925.237 7                  24622846.300
        47.600
 120734246.561 6  94078669.70744  22974949.223    22974949.0184   22974957.3164
        39.300          28.2004
 118884731.255 6  92637555.25542  22623043.687    22623043.4864   22623044.4044
        38.900          17.0004
 112994471.024 6  88047539.44343  21502115.002    21502114.5204   21502118.0884
        39.800          20.4004
 110145594.568 8  85828040.38348  20960003.409    20960003.4014   20960005.8724
        51.000          49.5004
 108439194.813 8  84498087.30948  20635277.052    20635276.5614   20635280.8434
        50.400          51.1004
 109902425.163 6                  20595665.478    20595665.743
        38.900
 125459634.648 5                  23428699.618
        30.200
 123412680.474 5  96165772.84142  23484654.866    23484654.7064   23484651.8114
        35.300          16.1004
 140807624.578 5                  26794804.866
        30.400
 128062962.123 7                  24369568.814
        46.100


 106212164.103 8  82609031.573 6  19869079.093    19869078.307    19869085.267
        49.100          38.800
 127365569.848 5                  24236871.213
        35.400
 198904997.977 7                  37850371.398
        43.400
 105638067.255 8  82315386.12847  20102253.348    20102252.9734   20102252.9934
        50.900          46.9004
 202026202.127 7                  38444322.302
        45.600
 121613510.372 6                  23142283.718
        41.600
 143861652.209 5                  27375962.527
        30.700
 103663817.113 8  80627536.812 7  19406089.268    19406088.592    19406096.104
        49.100          44.000
 129005277.602 6                  24167018.196    24167017.519
        36.500
 142734031.085 5                  27161381.246
        32.600
 107957316.264 7  83966783.803 6  20202733.623    20202734.018    20202739.331
        46.200          41.900
 25  1  1 14 29 45.0000000  0 26E27E10E29G32G16E33G28G03G26R06R04G04
                                E04E21S35R05G25S31G31S33E19E11R16R22
                                E12R15
 133902034.587 7                  25480707.135
        42.400
 141642910.843 6                  26953754.012
        40.200
 129413373.780 7                  24626547.598
        46.400
 120768719.836 7  94105531.88244  22981508.179    22981507.9384   22981515.2644
        42.200          28.9004
 118828685.998 5  92593883.67742  22612377.291    22612377.0724   22612380.5154
        31.900          13.8004


 113026110.248 6  88072193.33843  21508135.006    21508134.6004   21508138.9984
        40.600          21.0004
 110124638.723 8  85811711.15248  20956016.034    20956016.0264   20956018.6024
        50.700          49.5004
 108412790.576 8  84477512.59848  20630252.558    20630252.0624   20630256.2734
        48.900          50.6004
 109860259.813 6                  20587766.283    20587765.472
        40.700
 125511140.860 5                  23438299.263
        31.800
 123370075.833 6  96132574.43743  23476547.214    23476547.0224   23476545.0244
        38.700          19.1004
 140775708.474 5                  26788733.864
        33.900
 128038898.334 7                  24364989.888
        47.100


 106232849.843 8  82625120.390 6  19872948.671    19872948.331    19872952.071
        49.300          36.400
 127416205.592 5                  24246506.950
        34.500
 198905001.753 7                  37850370.960
        43.200
 105650102.391 8  82324764.15047  20104543.838    20104543.4584   20104543.3444
        50.300          46.6004
 202026225.855 7                  38444325.343
        45.100
 121605723.324 6                  23140801.724
        41.400
 143863280.522 4                  27376267.360
        26.200
 103639253.846 8  80608432.030 7  19401491.659    19401491.147    19401498.637
        49.800          45.300
 129024138.908 5                  24170550.199    24170551.394
        30.600
 142766679.290 5                  27167594.430
        35.700
 107995963.679 7  83996842.878 6  20209967.100    20209967.784    20209971.716
        46.600          41.100
 25  1  1 14 30  0.0000000  0 26E27E10E29G32G16E33G28G03G26R06R04G04
                                E04E21S35R05G25S31G31S33E19E11R16R22
                                E12R15
 133920201.061 6                  25484163.611
        39.400
 141662904.082 6                  26957558.295
        39.500
 129432857.893 7                  24630255.019
        46.600
 120803246.253 7  94132435.45445  22988078.210    22988077.9694   22988083.9654
        44.100          30.8004
 118772694.885 5  92550254.32441  22601721.352    22601721.1294   22601726.2754
        33.600          11.6004


 113057799.595 6  88096886.30743  21514166.069    21514165.6944   21514168.4444
        37.000          18.8004
 110103823.001 8  85795491.07448  20952055.223    20952055.2104   20952057.5724
        50.600          49.2004
 108386524.545 8  84457045.58748  20625254.824    20625254.3334   20625257.7824
        48.300          49.1004
 109818162.357 6                  20579875.721    20579876.117
        41.000
 125562705.346 5                  23447932.228    23447933.393
        33.700
 123327475.015 7  96099379.01143  23468439.991    23468439.7594   23468440.5124
        42.300          21.7004
 140743789.411 5                  26782657.722
        32.200
 128014925.459 7                  24360427.968
        46.400


 106253663.379 8  82641308.660 6  19876843.193    19876844.255    19876848.362
        51.200          39.900
 127466910.346 5  99324920.04341  24256153.971    24256153.2784   24256159.5614
        30.800          11.0004
 198905005.432 7                  37850372.091
        43.600
 105662235.282 8  82334218.32247  20106852.883    20106852.5174   20106852.5624
        50.600          46.7004
 202026249.433 7                  38444330.208
        45.200
 121597969.331 7                  23139326.345
        42.000


 103614866.175 8  80589463.834 7  19396926.765    19396926.417    19396934.058
        50.800          46.300


 142799382.393 6                  27173819.131
        38.400
 108034744.708 7  84027005.925 6  20217225.608    20217226.122    20217229.535
        46.700          41.400
 25  1  1 14 30 15.0000000  0 26E27E10E29G32G16E33G28G03G26R06R04G04
                                E04E21S35R05G25S31G31S33E19E11R16R22
                                E12R15
 133938465.284 6                  25487639.387
        38.100
 141682987.750 6                  26961380.166
        38.700
 129452379.863 7                  24633969.627
        45.900
 120837828.002 7  94159382.14245  22994658.344    22994658.1164   22994664.1194
        44.900          32.1004
 118716760.667 6  92506669.20141  22591077.647    22591077.3664   22591082.6554
        36.700          10.9004


 113089541.179 5  88121620.01042  21520207.840    21520207.4294   21520208.4974
        35.000          16.7004
 110083149.863 8  85779382.12048  20948121.292    20948121.2844   20948123.9664
        50.800          49.8004
 108360399.074 8  84436688.11348  20620283.082    20620282.5864   20620285.9104
        48.100          48.2004
 109776135.161 6                  20571999.511    20571999.783
        41.100
 125614330.232 5                  23457573.155    23457578.557
        33.000
 123284880.394 6  96066188.40043  23460333.617    23460333.3584   23460336.5774
        41.800          23.7004
 140711869.732 4                  26776587.546
        28.300
 127991045.801 7                  24355883.990
        46.100


 106274607.048 8  82657598.146 7  19880761.201    19880761.105    19880767.582
        50.300          42.600
 127517685.641 5  99364485.22341  24265819.643    24265818.9374   24265821.6154
        30.600          10.4004
 198905011.015 7                  37850374.859
        43.400
 105674467.863 8  82343750.17447  20109180.428    20109180.0534   20109180.8284
        50.500          47.4004
 202026273.480 7                  38444336.034
        45.300
 121590250.938 7                  23137857.181
        42.400


 103590656.323 8  80570633.974 7  19392394.810    19392395.035    19392400.562
        51.900          45.700


 142832142.221 6                  27180051.996
        37.100
 108073661.154 7  84057274.266 6  20224509.093    20224508.700    20224512.006
        47.200          41.800
 25  1  1 14 30 30.0000000  0 26E27E10E29G32G16E33G28G03G26R06R04G04
                                E04E21S35R05G25S31G31S33E19E11R16R22
                                E12R15
 133956823.091 6                  25491132.426
        36.600
 141703157.482 6                  26965219.203
        37.300
 129471935.574 7                  24637690.981
        46.000
 120872460.908 7  94186368.73745  23001248.209    23001247.9864   23001253.8784
        45.000          31.8004
 118660879.592 6  92463125.55441  22580444.109    22580443.8814   22580449.2754
        39.200          11.8004


 113121330.575 5  88146390.95742  21526257.953    21526257.4844   21526257.9684
        34.900          14.9004
 110062615.378 8  85763381.21148  20944213.387    20944213.3794   20944216.6984
        51.400          49.4004
 108334410.260 8  84416437.11647  20615337.536    20615337.0364   20615339.4914
        48.100          46.7004
 109734174.631 6                  20564136.638    20564136.654
        41.200


 123242287.915 6  96032999.45943  23452230.115    23452229.8794   23452231.0014
        41.500          23.3004


 127967255.412 7                  24351356.772
        46.100


 106295676.705 8  82673985.631 7  19884703.343    19884702.939    19884709.899
        49.900          43.700
 127568526.833 4  99404101.67841  24275501.453    24275500.7964   24275495.4924
        28.200           7.6004
 198905013.068 7                  37850373.262
        43.600
 105686795.768 8  82353356.31247  20111526.467    20111526.1014   20111527.1744
        50.600          47.7004
 202026296.532 7                  38444338.829
        44.900
 121582564.062 6                  23136395.152
        41.500


 103566620.450 8  80551939.435 7  19387895.092    19387895.367    19387899.539
        51.800          44.200


 142864954.465 5                  27186296.755
        35.700
 108112708.419 8  84087644.364 6  20231816.677    20231816.400    20231818.566
        48.100          41.400
 25  1  1 14 30 45.0000000  0 27E27E10G02E29G32G16E33G28G03G26R06R04
                                G04E04E21S35R05G25S31G31S33E19E11R16
                                R22E12R15
 133975276.911 5                  25494643.888
        34.500
 141723415.530 6                  26969074.750
        36.600
 132070613.242 5                  25132198.624
        34.500
 129491527.451 7                  24641418.929
        46.000
 120907147.357 6  94213397.05545  23007849.329    23007849.0034   23007854.4534
        40.800          30.8004
 118605054.447 6  92419625.43442  22569820.862    22569820.6344   22569827.4994
        41.400          12.4004


 113153170.026 5  88171200.88042  21532317.178    21532316.6964   21532316.4444
        35.300          16.3004
 110042222.166 8  85747490.38648  20940332.419    20940332.4154   20940335.4554
        50.400          48.2004
 108308560.813 8  84396294.75447  20610418.732    20610418.2324   20610419.1814
        48.200          45.9004
 109692283.157 6                  20556287.265    20556286.850
        41.300


 123199700.081 6  95999814.15843  23444126.447    23444126.2284   23444125.2104
        39.900          22.5004


 127943556.820 7                  24346846.945
        46.400


 106316874.445 8  82690472.741 7  19888668.486    19888669.094    19888674.310
        50.300          42.300
 127619436.223 4  99443771.3224   24285185.301    24285184.7694   24285182.8424
        24.000           3.2004
 198905015.515 7                  37850376.182
        43.800
 105699221.343 8  82363038.55948  20113890.646    20113890.2754   20113892.0054
        49.700          48.0004
 202026317.969 7                  38444341.807
        44.900
 121574911.221 6                  23134939.452
        41.100


 103542760.973 8  80533382.114 7  19383428.322    19383428.028    19383433.322
        50.200          43.300


 142897821.246 5                  27192551.782
        35.800
 108151888.242 8  84118117.544 7  20239149.166    20239150.774    20239151.893
        48.800          42.700
 25  1  1 14 31  0.0000000  0 27E27E10G02E29G32G16E33G28G03G26R06R04
                                G04E04E21S35R05G25S31G31S33E19E11R16
                                R22E12R15
 133993827.479 5                  25498174.216
        34.600
 141743762.671 5                  26972946.100
        35.400
 132104645.010 5 102938695.18041  25138674.249    25138674.0304   25138680.5004
        33.700           9.2004
 129511156.578 7                  24645153.987
        44.700
 120941888.366 6  94240467.88345  23014461.608    23014461.3044   23014465.5864
        40.100          30.8004
 118549286.621 6  92376170.09441  22559209.267    22559209.0134   22559216.6744
        40.800           6.1004


 113185060.311 6  88196050.42343  21538386.184    21538385.7284   21538385.5454
        37.200          19.6004
 110021971.502 8  85731710.66747  20936479.112    20936479.1204   20936480.5234
        49.200          46.4004
 108282851.864 7  84376261.85147  20605525.865    20605525.3514   20605526.3904
        47.900          46.3004
 109650462.522 6                  20548449.584    20548449.934
        40.100
                  97820739.996 5                                  23486576.923
                        33.000
 123157117.953 6  95966633.28043  23436022.662    23436022.4344   23436020.1304
        40.600          20.5004


 127919951.171 7                  24342354.956
        46.200


 106338201.774 8  82707060.610 6  19892657.756    19892657.898    19892661.924
        49.500          41.100


 198905018.573 7                  37850374.054
        43.500
 105711745.488 8  82372797.60947  20116274.715    20116274.3494   20116275.0404
        49.000          47.7004
 202026340.673 7                  38444344.866
        44.900
 121567293.566 6                  23133489.757
        40.300


 103519079.063 8  80514962.879 6  19378994.201    19378994.750    19378998.385
        49.900          41.800


 142930743.395 5                  27198815.663
        32.300
 108191201.319 7  84148694.380 7  20246505.101    20246505.953    20246509.505
        46.200          43.900
 25  1  1 14 31 15.0000000  0 27E27E10G02E29G32G16E33G28G03G26R06R04
                                G04E04E21S35R05G25S31G31S33E19E11R16
                                R22E12R15
 134012475.521 5                  25501724.537
        33.800
 141764199.698 5                  26976840.079
        33.500
 132138691.962 4 102965225.12841  25145152.028    25145152.1574   25145159.2424
        29.900           8.4004
 129530823.918 7                  24648896.784
        43.400
 120976684.865 6  94267581.95145  23021082.588    23021082.2584   23021086.6104
        39.900          30.7004
 118493577.505 7  92332760.1054   22548609.169    22548608.9284   22548616.4334
        43.000           5.4004


 113217002.178 6  88220940.14943  21544463.589    21544463.1114   21544464.6664
        38.800          20.2004
 110001864.521 7  85716042.93647  20932652.781    20932652.7814   20932653.4404
        47.500          45.2004
 108257284.551 8  84356339.27648  20600660.357    20600659.8524   20600662.0834
        49.000          48.4004
 109608714.172 6                  20540623.827    20540623.919
        37.900
 125821163.761 6  97861073.512 5  23496242.305    23496245.532    23496262.073
        41.200          32.400
 123114542.605 6  95933457.64742  23427919.713    23427919.5034   23427917.4254
        37.200          17.3004


 127896439.549 7                  24337880.704
        45.700


 106359659.466 8  82723749.873 6  19896671.922    19896672.180    19896676.793
        51.100          41.600


 198905022.872 7                  37850376.943
        43.300
 105724368.843 8  82382633.98847  20118676.441    20118676.0754   20118676.3014
        49.900          47.5004
 202026364.990 7                  38444351.846
        45.600
 121559711.872 6                  23132046.704
        39.300


 103495575.869 8  80496682.638 7  19374594.433    19374593.891    19374599.015
        48.300          42.200


 142963721.477 4                  27205090.413
        24.100
 108230648.060 7  84179375.236 7  20253886.452    20253887.328    20253892.588
        44.300          45.400
 25  1  1 14 31 30.0000000  0 26E27E10E29G32G16E33G28G03G26R06R04G04
                                E04E21S35R05G25S31G31S33E19E11R16R22
                                E12R15
 134031223.472 6                  25505293.682
        36.100
 141784728.875 5                  26980744.506
        33.200
 129550531.918 7                  24652647.356
        42.700
 121011539.221 5  94294741.07645  23027713.683    23027713.3704   23027719.1314
        35.900          30.5004
 118437929.877 7  92289398.50642  22538019.690    22538019.3104   22538027.9624
        42.800          13.0004


 113248997.927 6  88245871.89743  21550550.675    21550550.1754   21550552.8664
        41.100          19.3004
 109981903.806 7  85700489.17247  20928855.005    20928855.0014   20928855.7584
        47.100          45.0004
 108231861.542 8  84336529.11948  20595822.538    20595822.0384   20595825.8804
        50.400          50.6004
 109567040.862 5                  20532812.887    20532811.972
        35.000
 125873083.866 6  97901455.402 4  23505944.180    23505944.423    23505956.551
        40.000          28.000
 123071976.663 5  95900289.39341  23419819.816    23419819.7674   23419817.2734
        33.000          11.6004
 140552297.529 6                  26746212.339
        37.400
 127873024.492 7                  24333425.332
        45.300


 106381250.200 8  82740542.595 7  19900711.326    19900712.216    19900715.629
        52.600          42.500


 198905031.922 7                  37850374.161
        43.000
 105737093.652 8  82392549.42147  20121097.750    20121097.3664   20121097.3094
        50.200          47.2004
 202026393.867 7                  38444358.540
        46.600
 121552168.818 6                  23130611.501
        39.300


 103472253.932 8  80478543.365 7  19370229.716    19370229.730    19370234.680
        50.500          43.800




 108270230.602 6  84210161.673 7  20261291.454    20261290.658    20261299.432
        40.000          45.500
 25  1  1 14 31 45.0000000  0 26E27E10E29G32G16E33G28G03G26R06R04G04
                                E04E21S35R05G25S31G31S33E19E11R16R22
                                E12R15
 134050058.562 6                  25508875.906
        39.400
 141805337.534 5                  26984663.144
        34.200
 129570268.217 6                  24656402.079
        41.900
 121046438.999 6  94321935.65344  23034358.445    23034358.1864   23034360.6094
        37.700          29.0004
 118382331.751 6  92246075.26842  22527439.854    22527439.3724   22527448.3094
        39.800          12.2004


 113281034.873 6  88270835.72343  21556645.794    21556645.3074   21556649.9814
        40.900          20.3004
 109962077.229 8  85685039.92147  20925081.538    20925081.5424   20925084.5804
        48.000          45.5004
 108206570.689 8  84316821.93748  20591010.259    20591009.7634   20591014.1014
        51.800          52.3004
 109525430.462 5                  20525017.871    20525016.213
        35.900
 125925053.526 5                  23515644.154    23515641.284
        32.200
 123029407.597 5  95867118.74041  23411726.046    23411726.0154   23411716.1604
        33.500           8.8004
 140520361.272 6                  26740134.117
        36.900
 127849693.761 7                  24328985.900
        45.800


 106402961.363 8  82757429.038 7  19904774.409    19904773.772    19904779.324
        51.900          43.100


 198905032.412 7                  37850376.075
        43.000
 105749907.318 8  82402534.08447  20123536.329    20123535.9234   20123535.6584
        49.400          47.9004
 202026414.214 7                  38444363.132
        45.500
 121544652.112 6                  23129179.647
        38.100


 103449100.618 8  80460535.271 7  19365894.548    19365895.078    19365899.178
        51.300          43.700
 129180208.109 4                  24199825.086    24199822.796
        29.000
 143029859.308 5                  27217674.898
        35.600
 108309935.905 6  84241043.655 7  20268720.514    20268720.509    20268729.060
        41.100          45.000
 25  1  1 14 32  0.0000000  0 25E27E10E29G32G16E33G28G03G26R06R04G04
                                E04E21S35R05G25S31G31S33E19E11R16E12
                                R15
 134068992.549 7                  25512479.011
        42.200
 141826037.208 5                  26988603.532
        35.100
 129590044.577 6                  24660165.165
        41.800
 121081395.985 6  94349174.74244  23041006.134    23041005.8304   23041013.2294
        38.200          27.9004
 118326795.214 5  92202800.13541  22516870.136    22516869.7704   22516880.1794
        33.900           9.0004


 113313124.598 6  88295840.67843  21562751.892    21562751.4324   21562756.7204
        38.100          18.5004
 109942396.666 7  85669704.43147  20921336.263    20921336.2504   20921339.5024
        47.300          44.2004
 108181423.879 8  84297226.97148  20586224.158    20586223.6624   20586229.0314
        50.900          52.3004
 109483895.063 6                  20517236.287    20517234.793
        38.700
                  97982378.281 5                                  23525380.774
                        30.800
 122986847.526 5  95833955.0764   23403617.537    23403617.3634   23403616.9204
        32.500           4.7004
 140488426.421 5                  26734061.124
        32.000
 127826459.186 7                  24324564.105
        45.100


 106424804.562 8  82774418.186 7  19908859.246    19908859.476    19908863.901
        51.000          43.200


 198905035.966 7                  37850376.133
        43.000
 105762821.321 8  82412596.93248  20125994.097    20125993.7004   20125993.5934
        50.500          48.7004
 202026437.770 7                  38444364.957
        45.900
 121537173.378 6                  23127756.647
        39.100


 103426128.201 8  80442667.845 7  19361592.704    19361593.422    19361599.208
        49.900          44.500
 143062997.887 6                  27223981.845
        37.400
 108349775.364 7  84272029.853 7  20276179.402    20276180.633    20276184.735
        44.100          45.000
 25  1  1 14 32 15.0000000  0 25E27E10E29G32E33G28G03G26R06R04G04E04
                                E21S35R05G25S31G31S33E19E11R16R22E12
                                R15
 134088023.958 7                  25516100.552
        42.100
 141846826.415 5                  26992560.382
        35.100
 129609859.798 6                  24663935.617
        41.900
 121116408.791 6  94376457.35245  23047669.000    23047668.6964   23047676.5734
        38.300          30.8004


 113345265.602 6  88320885.64542  21568870.715    21568870.3004   21568872.9024
        38.800          17.9004
 109922861.109 7  85654481.90747  20917619.241    20917619.2244   20917620.9814
        47.000          43.4004
 108156420.103 8  84277743.50348  20581466.319    20581465.8284   20581471.0514
        49.700          51.9004
 109442433.814 6                  20509465.410    20509464.522
        39.400
                  98022892.525 4                                  23535107.863
                        28.500
 122944295.052 5  95800797.3664   23395524.176    23395524.0114   23395519.0404
        35.100           3.0004
 140456491.814 5                  26727987.564
        32.300
 127803319.618 7                  24320160.610
        45.700


 106446778.987 8  82791509.373 7  19912970.171    19912970.029    19912975.155
        49.900          43.600


 198905041.721 7                  37850377.475
        43.400
 105775834.214 8  82422736.83248  20128469.748    20128469.3464   20128469.9864
        51.200          49.3004
 202026463.186 7                  38444371.999
        46.100
 121529731.515 6                  23126340.050
        38.100


 103403335.295 8  80424940.026 7  19357326.490    19357325.764    19357333.566
        49.200          45.500
 129220776.295 6                  24207431.286    24207431.249
        36.100
 143096191.791 6                  27230299.251
        37.800
 108389747.248 7  84303119.107 7  20283659.823    20283662.101    20283665.760
        46.500          45.200
 25  1  1 14 32 30.0000000  0 24E27E10E29G32E33G28G03G26R06G04E04E21
                                S35R05G25S31G31S33E19E11R16R22E12R15
 134107149.896 7                  25519740.751
        43.100
 141867702.106 5                  26996533.634
        34.900
 129629710.994 6                  24667713.088
        40.600
 121151474.600 5  94403781.21745  23054343.219    23054342.9154   23054350.5504
        34.700          31.9004


 113377454.795 6  88345968.17943  21574995.673    21574995.1954   21574997.8404
        39.500          19.4004
 109903467.886 8  85639370.30847  20913928.804    20913928.7784   20913930.1354
        48.800          44.6004
 108131556.532 8  84258369.24348  20576734.864    20576734.3684   20576739.4124
        50.100          51.5004
 109401044.061 6                  20501708.687    20501709.418
        40.200
 122901747.443 6                  23387428.162
        38.400
 140424554.741 5                  26721907.124
        31.600
 127780272.309 7                  24315774.815
        46.000


 106468881.310 7  82808700.030 7  19917104.652    19917104.003    19917109.608
        47.900          43.800


 198905047.060 7                  37850379.836
        43.400
 105788942.871 8  82432951.36048  20130964.340    20130963.9514   20130963.9894
        50.700          49.2004
 202026488.481 7                  38444375.595
        45.400
 121522323.667 6                  23124931.778
        38.800


 103380719.185 8  80407349.721 7  19353092.588    19353093.194    19353098.430
        49.700          44.600
 129241282.454 6                  24211277.324    24211274.872
        38.700
 143129437.952 5                  27236624.392
        35.400
 108429848.049 7  84334308.646 7  20291162.575    20291165.470    20291170.309
        46.900          45.500
