     2.11           OBSERVATION DATA    M (MIXED)           RINEX VERSION / TYPE
teqc  2019Feb25                         20260317 16:20:08UTCPGM / RUN BY / DATE
Linux 2.4.21-27.ELsmp|Opteron|gcc -static|Linux 64|=+       COMMENT
BIT 2 OF LLI FLAGS DATA COLLECTED UNDER A/S CONDITION       COMMENT
-Unknown-                                                   MARKER NAME
-Unknown-           -Unknown-                               OBSERVER / AGENCY
-Unknown-           -Unknown-           -Unknown-           REC # / TYPE / VERS
-Unknown-           -Unknown-                               ANT # / TYPE
        0.0000        0.0000        0.0000                  APPROX POSITION XYZ
        0.0000        0.0000        0.0000                  ANTENNA: DELTA H/E/N
     1     1                                                WAVELENGTH FACT L1/2
     7    L1    L2    C1    P1    P2    S1    S2            # / TYPES OF OBSERV
 SNR is mapped to RINEX snr flag value [0-9]                COMMENT
  L1 & L2: min(max(int(snr_dBHz/6), 0), 9)                  COMMENT
  2025     1     1     0     0    0.0000000     GPS         TIME OF FIRST OBS
    18                                                      LEAP SECONDS
                                                            END OF HEADER
 25  1  1  0  0  0.0000000  0 32E34R21R11S31S35R20G03S48G24S33G12G02
                                E15R22R04G11E02G06E36R23E27R13G30R10
                                E11G17R12E07E30E25G14G19
 124153749.172 8                  23625626.926
        48.700
 106308686.689 8  82684686.269 7  19866273.724    19866274.099    19866282.235
        52.900          47.600
 103718280.754 8  80669926.279 8  19409414.035    19409414.176    19409421.023
        51.900          49.600
 198980218.931 7                  37864685.155
        45.800
 200907024.216 7                  38231351.006
        44.100
 127448638.842 5  99126828.411 6  23833498.433    23833500.377    23833511.881
        34.800          40.300
 121373597.492 7  94576925.08246  23096602.642    23096602.4144   23096609.0994
        42.700          39.0004
 412998799.766 5                  78590932.352
        32.400
 120593994.599 7  93969478.14146  22948231.159    22948230.6774   22948239.7264
        43.200          39.3004
 202136610.295 7                  38465303.785
        45.000
 133726428.673 6 104202480.41544  25447291.967    25447291.4494   25447307.0174
        39.700          29.1004
 134020207.405 6 104431424.82843  25503166.078    25503164.9164   25503168.0914
        38.900          22.1004
 141452923.567 6                  26917580.471
        40.900
 106563863.265 8  82883136.573 8  19962963.253    19962963.535    19962970.598
        52.500          48.900
 131806097.093 5 102515882.211 5  24613856.399    24613856.664    24613864.543
        34.200          35.500
 127224175.201 6  99135792.90844  24209941.760    24209941.3044   24209949.0634
        41.500          25.7004
 125089003.663 7                  23803608.058
        47.900
 110985126.998 7  86482054.40248  21119733.099    21119732.7024   21119738.4054
        47.500          49.1004
 128993607.488 7                  24546625.569
        47.000
 126435342.606 6                  23635747.055    23635746.200
        40.500
 146832829.259 6                  27941340.010
        40.000
 130665530.906 5                  24469452.913    24469453.327
        35.500
 129874620.416 6 101201081.12744  24714303.861    24714302.9094   24714314.1764
        37.700          29.2004
 123420618.359 6                  23153371.708    23153372.289
        41.600
 149974107.109 5                  28539083.329
        34.700
 110087112.080 8  85782301.78948  20948831.165    20948830.5444   20948832.8664
        48.400          48.3004
 109586579.520 8  85234182.245 7  20514786.823    20514787.173    20514796.577
        51.800          47.900
 151173213.511 6                  28767284.473
        36.700
 127088567.268 8                  24184105.538
        48.100
 146014917.145 5                  27785702.610
        35.900
 109962810.564 7  85685412.44246  20925191.839    20925191.5094   20925194.3434
        47.500          37.9004
 107008868.616 8  83383660.09246  20363059.880    20363058.4544   20363059.6874
        48.800          41.4004
 25  1  1  0  0 15.0000000  0 32E34R21R11S31S35R20G03S48G24S33G12G02
                                E15R22R04G11E02G06E36R23E27R13G30R10
                                E11G17R12E07E30E25G14G19
 124134381.696 8                  23621941.371
        48.800
 106340950.884 8  82709780.639 7  19872303.120    19872303.443    19872311.399
        53.000          47.800
 103741251.475 8  80687792.403 8  19413712.357    19413712.599    19413719.705
        51.600          50.000
 198980227.412 7                  37864682.696
        45.600
 200907059.963 7                  38231361.899
        44.100
 127508627.514 5  99173486.483 6  23844716.982    23844717.438    23844729.094
        33.100          38.500
 121365822.839 7  94570866.94846  23095123.057    23095122.8294   23095129.4354
        42.300          39.0004
 412998934.165 5                  78590930.411
        32.200
 120580361.307 7  93958854.87846  22945637.442    22945636.9604   22945645.3894
        43.100          39.2004
 202136608.656 7                  38465307.971
        44.900
 133674135.513 6 104161732.75744  25437340.726    25437340.1994   25437355.9714
        39.500          29.7004
 134071456.818 6 104471359.49043  25512918.136    25512916.9524   25512920.4404
        39.700          22.0004
 141407658.365 6                  26908966.993
        40.400
 106536305.372 8  82861702.692 8  19957801.015    19957801.180    19957808.127
        52.300          48.900
 131809149.390 6 102518256.096 6  24614426.914    24614427.261    24614434.764
        37.500          37.100
 127169859.705 6  99093469.13344  24199605.648    24199605.1884   24199613.1354
        41.200          25.3004
 125105088.424 7                  23806668.922
        47.800
 110949868.979 7  86454580.68948  21113023.688    21113023.2914   21113028.9284
        47.200          49.0004
 129017098.217 7                  24551095.577
        46.700
 126379256.949 6                  23625262.846    23625262.365
        40.400
 146794609.705 6                  27934066.584
        39.700
 130602205.107 6                  24457594.009    24457594.110
        36.500
 129930011.018 6 101244242.64844  24724844.482    24724843.5394   24724854.4704
        36.500          28.7004
 123481439.652 6                  23164781.602    23164781.316
        40.500
 150018044.441 5                  28547444.162
        34.200
 110104971.900 8  85796218.54748  20952229.814    20952229.1934   20952231.4694
        48.400          48.2004
 109542834.405 8  85200158.328 7  20506597.865    20506597.924    20506607.126
        51.800          47.900
 151205920.589 6                  28773508.726
        37.600
 127068191.563 8                  24180228.110
        48.200
 146051591.975 5                  27792682.111
        35.600
 109991177.476 7  85707516.53446  20930589.891    20930589.5614   20930592.3344
        47.100          37.7004
 106998637.701 8  83375687.97846  20361113.292    20361111.8794   20361112.7604
        48.600          41.3004
 25  1  1  0  0 30.0000000  0 32E34R21R11S31S35R20G03S48G24S33G12G02
                                E15R22R04G11E02G06E36R23E27R13G30R10
                                E11G17R12E07E30E25G14G19
 124115108.335 8                  23618273.769
        48.500
 106373321.989 8  82734958.195 7  19878352.601    19878352.730    19878360.888
        52.700          47.700
 103764392.367 8  80705790.887 8  19418043.200    19418043.227    19418050.177
        51.400          49.800
 198980233.966 7                  37864682.182
        45.400
 200907094.061 7                  38231364.287
        43.900
 127568602.756 5  99220134.000 6  23855931.468    23855933.385    23855945.448
        33.300          39.300
 121358189.921 7  94564919.25646  23093670.655    23093670.4324   23093676.9804
        42.700          39.1004
 412999066.858 5                  78590923.507
        32.100
 120566872.477 7  93948344.18146  22943070.191    22943069.6914   22943078.3874
        43.300          39.3004
 202136606.411 7                  38465307.260
        44.800
 133621830.335 6 104120975.72544  25427386.970    25427386.4294   25427402.5914
        37.800          28.7004
 134122706.382 6 104511294.21543  25522670.191    25522668.9844   25522672.7004
        39.300          21.6004
 141362423.170 6                  26900358.586
        39.900
 106508886.455 8  82840376.939 8  19952664.324    19952664.556    19952671.445
        52.300          48.900
 131812370.080 6 102520760.717 6  24615029.243    24615028.452    24615036.408
        38.000          36.500
 127115577.993 6  99051171.70044  24189276.694    24189276.2524   24189283.4414
        41.000          25.5004
 125121234.055 7                  23809741.414
        47.500
 110914724.598 7  86427195.52248  21106335.842    21106335.4494   21106341.0754
        47.500          49.1004
 129040667.998 7                  24555581.042
        46.700
 126323226.951 7                  23614789.319    23614788.953
        42.000
 146756381.190 6                  27926792.032
        38.500
 130538872.909 5                  24445732.966    24445733.265
        34.900
 129985390.430 6 101287395.43544  24735382.638    24735381.7264   24735392.7434
        37.500          29.0004
 123542314.863 6                  23176201.629    23176200.790
        40.600
 150061992.513 5                  28555806.160
        31.500
 110122871.701 8  85810166.45148  20955635.980    20955635.3594   20955637.6834
        48.400          48.3004
 109499196.966 8  85166218.189 8  20498428.631    20498429.052    20498438.089
        52.400          48.100
 151238645.696 5                  28779735.938
        35.700
 127047858.801 7                  24176358.714
        47.900
 146088293.521 6                  27799666.704
        36.300
 110019639.832 7  85729694.99446  20936006.263    20936005.9284   20936008.5784
        47.800          37.9004
 106988474.886 8  83367768.92746  20359179.246    20359177.8474   20359178.8644
        48.900          41.4004
 25  1  1  0  0 45.0000000  0 32E34R21R11S31S35R20G03S48G24S33G12G02
                                E15R22R04G11E02G06E36R23E27R13G30R10
                                E11G17R12E07E30E25G14G19
 124095933.926 8                  23614624.960
        48.700
 106405804.396 8  82760222.277 7  19884422.307    19884422.886    19884430.990
        52.700          47.900
 103787708.291 8  80723925.492 8  19422406.566    19422406.556    19422413.304
        51.900          49.600
 198980243.867 7                  37864688.505
        45.600
 200907131.568 7                  38231371.759
        44.000
 127628569.926 5  99266775.106 6  23867145.156    23867146.229    23867160.264
        32.400          40.800
 121350703.716 7  94559085.87846  23092246.002    23092245.7744   23092252.3714
        43.200          39.2004
 412999202.254 5                  78590915.377
        32.100
 120553533.004 7  93937949.86646  22940531.927    22940531.4314   22940539.8254
        43.200          39.1004
 202136607.400 7                  38465301.514
        44.900
 133569518.181 6 104080213.25544  25417433.389    25417432.8444   25417447.5074
        39.300          28.3004
 134173960.528 6 104551232.54543  25532424.072    25532422.8564   25532426.5304
        38.400          21.7004
 141317222.943 6                  26891757.430
        40.600
 106481611.456 8  82819163.090 8  19947554.736    19947555.083    19947561.981
        52.500          49.000
 131815765.232 6 102523401.140 6  24615662.815    24615663.655    24615671.405
        40.400          37.800
 127061335.119 6  99008904.56044  24178954.159    24178953.7214   24178961.7294
        41.500          25.5004
 125137445.392 7                  23812826.149
        47.900
 110879698.836 7  86399902.79048  21099670.451    21099670.0544   21099675.8094
        47.500          49.1004
 129064321.402 7                  24560082.073
        46.700
 126267257.637 6                  23604324.754    23604325.495
        41.700
 146718148.627 6                  27919516.709
        39.600
 130475539.422 6                  24433873.173    24433872.984
        38.500
 130040763.158 6 101330543.03044  24745919.607    24745918.6954   24745929.4384
        38.000          29.1004
 123603248.348 6                  23187632.902    23187633.222
        41.300
 150105954.226 5                  28564171.861
        33.200
 110140816.235 8  85824149.21948  20959050.912    20959050.2954   20959052.4284
        48.200          48.2004
 109455672.840 8  85132366.149 8  20490280.762    20490280.942    20490290.377
        51.800          48.000
 151271393.202 5                  28785967.466
        35.700
 127027573.857 8                  24172498.837
        48.000
 146125026.546 6                  27806656.349
        37.400
 110048202.374 7  85751951.52546  20941441.257    20941440.9134   20941443.8134
        47.500          37.6004
 106978385.016 8  83359906.72446  20357259.024    20357257.6254   20357258.7944
        49.000          41.3004
 25  1  1  0  1  0.0000000  0 33E34R21R11S31S35R20G03S48G24S33G12G02
                                E15R22R04G11E02G06R05E36R23E27R13G30
                                R10E11G17R12E07E30E25G14G19
 124076853.409 8                  23610994.010
        48.700
 106438392.521 8  82785568.617 7  19890512.186    19890512.570    19890520.656
        52.900          47.800
 103811193.832 8  80742192.026 8  19426801.312    19426801.427    19426808.453
        52.100          49.700
 198980252.684 7                  37864691.465
        45.600
 200907167.572 7                  38231381.480
        44.300
 127688523.427 5  99313405.982 6  23878360.323    23878358.948    23878371.016
        33.300          39.200
 121343359.276 7  94553362.97046  23090848.533    23090848.3054   23090854.7034
        42.700          39.2004
 412999335.751 5                  78590904.350
        31.600
 120540337.850 7  93927668.00446  22938020.550    22938020.0544   22938028.8254
        42.900          39.2004
 202136606.316 7                  38465303.691
        45.000
 133517194.094 6 104039441.47544  25407474.983    25407474.4254   25407490.1964
        38.300          27.5004
 134225214.088 6 104591170.59243  25542177.634    25542176.4544   25542179.8814
        38.000          21.3004
 141272052.727 6                  26883161.438
        40.200
 106454475.235 8  82798057.201 8  19942471.195    19942471.443    19942478.328
        52.200          49.000
 131819328.980 6 102526172.680 5  24616328.478    24616329.310    24616335.897
        39.600          35.700
 127007126.290 6  98966663.94244  24168638.515    24168638.0774   24168645.7904
        41.500          25.4004
 125153717.369 7                  23815922.705
        47.500
 110844786.762 7  86372698.64348  21093027.066    21093026.6694   21093032.1634
        47.600          49.0004
 132051229.569 6 102706539.423 6  24702913.552    24702913.846    24702920.367
        40.800          37.000
 129088053.124 7                  24564597.876
        46.600
 126211343.965 7                  23593872.589    23593873.099
        42.200
 146679906.970 6                  27912238.906
        39.900
 130412199.729 6                  24422010.543    24422011.280
        36.500
 130096123.715 6 101373681.14644  24756454.492    24756453.5714   24756464.0444
        37.900          29.1004
 123664234.910 6                  23199073.936    23199072.750
        40.900
 150149924.910 5                  28572539.147
        33.700
 110158800.291 8  85838162.77948  20962473.257    20962472.6454   20962474.6774
        48.200          48.2004
 109412257.016 8  85098598.348 7  20482153.368    20482153.294    20482162.452
        52.200          47.900
 151304157.990 5                  28792201.977
        33.900
 127007331.795 8                  24168646.779
        48.000
 146161785.930 6                  27813651.165
        36.200
 110076859.955 7  85774282.10746  20946894.728    20946894.3844   20946897.1494
        47.600          37.6004
 106968362.975 8  83352097.37346  20355351.903    20355350.5044   20355351.6294
        48.900          41.3004
 25  1  1  0  1 15.0000000  0 33E34R21R11S31S35R20G03S48G24S33G12G02
                                E15R22R04G11E02G06R05E36R23E27R13G30
                                R10E11G17R12E07E30E25G14G19
 124057864.374 8                  23607380.422
        48.600
 106471083.377 8  82810994.852 7  19896621.203    19896621.790    19896629.992
        53.000          47.800
 103834846.438 8  80760588.507 8  19431227.661    19431227.752    19431234.658
        52.300          49.700
 198980256.765 7                  37864693.021
        45.500
 200907199.531 7                  38231385.505
        44.100
 127748460.272 5  99360023.838 6  23889565.390    23889566.708    23889579.003
        32.100          38.900
 121336154.306 7  94547748.74246  23089477.395    23089477.1634   23089483.6494
        42.900          39.1004
 412999464.985 5                  78590903.474
        32.100
 120527284.610 7  93917496.73946  22935536.891    22935536.4004   22935544.8444
        43.700          39.3004
 202136601.930 7                  38465302.328
        44.800
 133464855.750 6 103998658.57344  25397515.608    25397515.0454   25397529.8004
        39.700          29.0004
 134276463.748 6 104631105.45243  25551930.064    25551928.9204   25551932.2174
        38.400          21.5004
 141226910.275 6                  26874571.164
        40.900
 106427475.316 8  82777057.319 8  19937413.123    19937413.520    19937420.279
        52.100          49.000
 131823059.063 6 102529073.469 6  24617025.633    24617025.931    24617033.211
        39.400          36.000
 126952949.271 6  98924448.15744  24158329.156    24158328.7094   24158336.2224
        41.200          25.2004
 125170047.559 7                  23819030.228
        47.700
 110809986.130 7  86345581.33648  21086404.598    21086404.2014   21086409.7704
        47.900          49.1004
 132020149.161 7 102682365.784 6  24697099.668    24697099.444    24697106.453
        42.900          37.700
 129111860.527 7                  24569128.173
        46.800
 126155483.843 6                  23583430.436    23583430.215
        41.500
 146641653.867 6                  27904959.975
        39.200
 130348851.827 5                  24410147.198    24410148.240
        35.200
 130151469.323 6 101416807.60544  24766986.623    24766985.6984   24766996.0524
        37.000          28.7004
 123725271.633 6                  23210523.344    23210523.328
        40.000
 150193902.896 5                  28580907.676
        34.000
 110176821.019 8  85852204.92048  20965902.177    20965901.5694   20965903.8894
        48.500          48.3004
 109368947.697 8  85064913.390 7  20474045.442    20474045.947    20474055.230
        52.100          47.900
 151336937.225 5                  28798440.282
        33.500
 126987130.341 8                  24164802.511
        48.000
 146198569.149 5                  27820650.542
        35.300
 110105610.044 7  85796684.77746  20952365.658    20952365.3104   20952368.1344
        47.600          37.7004
 106958406.195 8  83344338.87446  20353457.194    20353455.7904   20353456.8914
        49.200          41.4004
 25  1  1  0  1 30.0000000  0 33E34R21R11S31S35R20G03S48G24S33G12G02
                                E15R22R04G11E02G06R05E36R23E27R13G30
                                R10E11G17R12E07E30E25G14G19
 124038975.658 8                  23603786.302
        48.700
 106503885.451 8  82836507.592 7  19902751.414    19902751.539    19902759.755
        52.800          47.900
 103858674.969 8  80779121.821 8  19435686.890    19435687.100    19435693.961
        52.100          49.900
 198980265.620 7                  37864692.194
        45.600
 200907236.099 7                  38231392.673
        44.100
 127808389.282 5  99406635.570 6  23900774.154    23900774.351    23900785.645
        33.900          39.500
 121329097.735 7  94542250.14746  23088134.141    23088133.9134   23088140.8444
        42.700          39.2004
 412997998.582 5                  78590902.647
        31.400
 120514382.168 7  93907442.96446  22933081.029    22933080.5294   22933089.4804
        43.400          39.3004
 202136601.462 7                  38465300.244
        44.800
 133412512.194 6 103957871.61244  25387554.367    25387553.8004   25387569.1364
        39.300          29.4004
 134327718.751 6 104671044.59943  25561683.424    25561682.2754   25561685.7204
        37.800          21.2004
 141181804.512 6                  26865988.154
        40.600
 106400620.717 8  82756170.463 8  19932382.426    19932383.011    19932389.368
        52.300          49.100
 131826964.160 6 102532110.266 6  24617755.870    24617755.959    24617763.369
        39.500          36.700
 126898813.120 6  98882264.20444  24148027.240    24148026.7714   24148034.5304
        41.100          25.4004
 125186444.792 8                  23822150.430
        48.000
 110775305.913 8  86318557.86448  21079804.968    21079804.5624   21079810.2724
        48.100          49.2004
 131989196.055 6 102658291.123 5  24691308.856    24691309.001    24691316.230
        41.000          35.500
 129135752.187 7                  24573674.843
        46.700
 126099686.350 6                  23572998.990    23572998.989
        41.000
 146603398.173 6                  27897679.740
        39.400
 130285504.781 5                  24398284.905    24398283.769
        35.200
 130206808.476 6 101459929.04144  24777517.133    24777516.2484   24777526.7814
        37.100          28.8004
 123786367.188 6                  23221985.274    23221985.062
        40.200
 150237895.500 5                  28589278.995
        34.600
 110194887.265 8  85866282.53148  20969339.981    20969339.3694   20969341.7394
        48.500          48.3004
 109325754.123 8  85031318.479 8  20465959.608    20465960.015    20465968.949
        52.100          48.000
 151369739.537 5                  28804682.224
        35.700
 126966978.391 8                  24160967.630
        48.000
 146235384.927 6                  27827656.549
        36.400
 110134461.391 7  85819166.34846  20957855.527    20957855.1704   20957858.3844
        47.300          37.6004
 106948523.429 8  83336638.04646  20351576.232    20351574.8194   20351576.2654
        49.100          41.4004
 25  1  1  0  1 45.0000000  0 33E34R21R11S31S35R20G03S48G24S33G12G02
                                E15R22R04G11E02G06R05E36R23E27R13G30
                                R10E11G17R12E07E30E25G14G19
 124020183.634 8                  23600210.115
        48.900
 106536794.832 8  82862103.772 7  19908901.145    19908901.688    19908909.560
        52.900          47.700
 103882675.644 8  80797789.010 8  19440178.026    19440178.420    19440185.397
        52.000          49.800
 198980275.687 7                  37864696.191
        46.000
 200907273.398 7                  38231400.601
        44.400
 127868305.795 5  99453237.580 6  23911980.015    23911978.243    23911990.726
        32.400          39.600
 121322186.025 7  94536864.43146  23086819.013    23086818.7904   23086825.3554
        42.500          39.0004
 412998132.334 5                  78590901.386
        31.900
 120501626.922 7  93897503.89246  22930654.344    22930653.8534   22930662.0824
        43.200          39.3004
 202136602.151 7                  38465308.346
        45.300
 133360159.795 6 103917077.76044  25377591.475    25377590.8994   25377606.6604
        36.900          27.6004
 134378975.297 6 104710985.16543  25571437.023    25571435.8834   25571438.9824
        38.200          21.2004
 141136731.921 6                  26857410.711
        40.700
 106373907.741 8  82735393.751 8  19927377.721    19927378.304    19927385.157
        51.900          48.900
 131831042.157 6 102535282.146 5  24618516.318    24618516.886    24618524.734
        37.900          35.600
 126844714.413 6  98840109.48044  24137732.652    24137732.1924   24137740.1664
        41.500          25.4004
 125202905.426 7                  23825282.915
        47.800
 110740742.620 7  86291625.49548  21073227.808    21073227.4064   21073232.9764
        47.700          49.2004
 131958366.925 6 102634312.929 6  24685542.266    24685542.267    24685548.539
        40.600          36.800
 129159724.230 7                  24578236.425
        46.700
 126043947.906 6                  23562579.342    23562579.996
        41.800
 146565136.359 6                  27890398.877
        39.200
 130222155.244 6                  24386420.370    24386421.207
        36.700
 130262137.181 6 101503042.32744  24788045.835    24788044.9904   24788056.0084
        37.600          29.5004
 123847516.924 6                  23233456.650    23233456.241
        39.600
 150281899.433 5                  28597652.128
        33.000
 110212995.228 8  85880392.64448  20972786.010    20972785.4024   20972787.5584
        48.300          48.3004
 109282673.086 8  84997811.086 7  20457894.669    20457894.733    20457903.850
        52.300          47.800
 151402560.889 6                  28810927.785
        36.700
 126946872.403 8                  24157141.753
        48.200
 146272229.503 6                  27834667.956
        36.300
 110163410.238 7  85841723.89746  20963364.702    20963364.3404   20963367.1944
        47.500          37.6004
 106938710.922 8  83328991.96646  20349709.137    20349707.7244   20349708.9964
        48.800          41.4004
 25  1  1  0  2  0.0000000  0 32E34R21R11S31S35R20G03S48G24S33G12G02
                                E15R22R04G11E02G06E36R23E27R13G30R10
                                E11G17R12E07E30E25G14G19
 124001483.346 8                  23596651.320
        48.800
 106569805.812 8  82887778.979 7  19915069.903    19915070.426    19915078.423
        52.900          47.600
 103906843.166 8  80816585.976 8  19444700.807    19444701.158    19444707.929
        52.000          49.700
 198980281.507 7                  37864695.463
        45.800
 200907307.016 7                  38231404.098
        44.300
 127928205.404 5  99499826.437 6  23923178.938    23923178.839    23923191.967
        32.500          39.800
 121315414.343 7  94531587.82746  23085530.506    23085530.2784   23085536.7184
        42.200          39.1004
 412998261.445 5                  78590895.501
        32.200
 120489013.954 7  93887675.68446  22928253.926    22928253.4354   22928261.7244
        43.000          39.2004
 202136598.648 7                  38465307.971
        45.100
 133307793.693 6 103876273.22844  25367627.519    25367626.9474   25367641.3144
        38.500          28.3004
 134430227.647 6 104750922.44943  25581189.274    25581188.1254   25581190.9064
        37.800          20.6004
 141091687.694 6                  26848839.324
        40.600
 106347331.313 8  82714723.235 8  19922399.657    19922399.645    19922406.377
        52.200          48.900
 131835286.195 6 102538583.033 6  24619308.268    24619309.325    24619317.316
        37.300          36.200
 126790648.433 6  98797980.24744  24127444.049    24127443.6024   24127451.4284
        40.600          25.3004
 125219424.529 7                  23828426.176
        47.800
 110706291.460 7  86264780.50648  21066671.931    21066671.5254   21066677.0774
        47.600          49.1004
 129183771.500 7                  24582812.545
        46.600
 125988263.737 6                  23552169.533    23552170.260
        41.800
 146526863.474 6                  27883115.522
        39.400
 130158798.243 6                  24374555.084    24374555.403
        36.000
 130317450.090 6 101546143.32144  24798571.511    24798570.6754   24798581.4434
        36.800          28.7004
 123908715.990 6                  23244937.510    23244937.391
        40.100
 150325908.876 5                  28606026.715
        33.100
 110231139.796 8  85894531.28548  20976238.779    20976238.1764   20976240.3394
        48.100          48.2004
 109239699.906 8  84964387.543 8  20449849.992    20449850.369    20449859.482
        52.500          48.100
 151435396.066 5                  28817176.029
        34.800
 126926807.534 8                  24153323.429
        48.200
 146309097.878 6                  27841683.906
        37.400
 110192451.560 7  85864353.50546  20968890.829    20968890.4544   20968893.6064
        46.800          37.5004
 106928963.838 8  83321396.86746  20347854.228    20347852.8204   20347854.1184
        48.800          41.4004
 25  1  1  0  2 15.0000000  0 32E34R21R11S31S35R20G03S48G24S33G12G02
                                E15R22R04G11E02G06E36R23E27R13G30R10
                                E11G17R12E07E30E25G14G19
 123982881.965 8                  23593111.693
        48.700
 106602925.325 8  82913538.620 7  19921259.125    19921259.634    19921267.734
        52.600          47.700
 103931184.720 8  80835518.316 8  19449256.025    19449256.270    19449263.046
        51.700          49.600
 198980290.526 7                  37864694.680
        45.400
 200907343.871 7                  38231415.594
        44.100
 127988094.568 5  99546407.250 6  23934379.955    23934379.677    23934391.740
        33.200          40.300
 121308789.964 7  94526426.00446  23084269.556    23084269.3114   23084276.2714
        42.300          39.3004
 412998393.242 5                  78590894.701
        31.700
 120476550.453 7  93877963.94246  22925882.053    22925881.5574   22925889.8194
        42.900          39.3004
 202136598.434 7                  38465297.811
        44.900
 133255421.252 6 103835463.75144  25357660.866    25357660.2904   25357675.0824
        38.900          29.1004
 134481482.855 6 104790861.97243  25590942.511    25590941.3444   25590944.0744
        38.400          21.6004
 141046679.132 6                  26840273.977
        40.300
 106320898.755 8  82694164.644 8  19917447.880    19917448.043    19917454.753
        52.200          48.800
 131839703.775 6 102542018.853 5  24620134.597    24620133.990    24620142.259
        36.700          32.900
 126736622.553 6  98755882.29344  24117163.661    24117163.2194   24117170.5994
        40.100          25.6004
 125236009.233 8                  23831582.187
        48.100
 110671959.740 7  86238028.58148  21060138.591    21060138.1894   21060143.9114
        47.000          49.2004
 129207900.869 7                  24587404.267
        46.600
 125932641.601 6                  23541771.799    23541772.486
        41.400
 146488586.732 6                  27875831.507
        39.300
 130095441.874 6                  24362691.316    24362691.451
        37.400
 130372754.047 6 101589237.32144  24809095.678    24809094.8384   24809105.1204
        37.600          28.2004
 123969971.042 6                  23256428.307    23256428.249
        39.600
 150369930.390 5                  28614403.988
        33.100
 110249328.320 8  85908704.17548  20979699.800    20979699.1974   20979701.4784
        48.200          48.3004
 109196842.339 8  84931053.981 8  20441826.792    20441827.169    20441836.452
        52.100          48.100
 151468251.944 5                  28823428.142
        34.500
 126906791.026 8                  24149514.357
        48.100
 146345997.096 6                  27848705.470
        37.600
 110221592.429 7  85887060.67646  20974436.180    20974435.8054   20974438.8654
        46.500          37.5004
 106919289.191 8  83313858.21046  20346013.197    20346011.7764   20346013.0934
        48.800          41.4004
 25  1  1  0  2 30.0000000  0 32E34R21R11S31S35R20G03S48G24S33G12G02
                                E15R22R04G11E02G06E36R23E27R13G30R10
                                E11G17R12E07E30E25G14G19
 123964373.695 8                  23589589.721
        48.600
 106636146.986 8  82939377.683 7  19927467.607    19927467.906    19927475.876
        52.800          47.400
 103955694.273 8  80854581.302 8  19453842.833    19453842.921    19453849.701
        51.900          49.500
 198980296.708 7                  37864701.982
        45.600
 200907377.584 7                  38231422.127
        44.200
 128047966.779 5  99592974.590 6  23945574.422    23945575.940    23945587.118
        32.200          39.600
 121302307.204 7  94521374.53946  23083036.114    23083035.8644   23083042.6624
        42.500          39.3004
 412998521.870 5                  78590892.697
        32.300
 120464230.658 7  93868364.18246  22923537.465    22923536.9784   22923545.2944
        43.200          39.2004
 202136595.156 7                  38465303.902
        45.000
 133203037.047 6 103794645.12844  25347692.365    25347691.7844   25347706.3914
        39.200          29.0004
 134532734.806 6 104830798.92943  25600695.168    25600693.9974   25600697.1434
        38.500          22.0004
 141001700.556 6                  26831714.448
        40.100
 106294604.159 8  82673713.324 8  19912521.574    19912521.965    19912528.751
        52.100          49.000
 131844288.381 6 102545584.208 5  24620991.082    24620991.124    24620998.579
        37.900          32.100
 126682631.186 6  98713811.24744  24106889.194    24106888.7474   24106895.9064
        40.500          25.5004
 125252653.736 7                  23834749.709
        47.800
 110637741.824 7  86211365.34048  21053627.319    21053626.9264   21053632.3614
        47.800          49.1004
 129232106.373 7                  24592010.615
        46.700
 125877075.479 6                  23531384.705    23531384.509
        40.800
 146450300.397 6                  27868545.679
        39.300
 130032080.296 6                  24350824.831    24350824.789
        36.100
 130428042.876 6 101632319.55444  24819616.574    24819615.7074   24819626.0704
        37.100          28.0004
 124031276.076 6                  23267930.311    23267930.559
        41.000
 150413958.353 5                  28622782.156
        31.800
 110267554.493 8  85922906.39948  20983168.412    20983167.8094   20983169.7894
        48.100          48.3004
 109154094.981 8  84897806.116 7  20433824.270    20433824.579    20433833.602
        52.200          47.700
 151501122.484 6                  28829683.038
        36.700
 126886817.237 8                  24145713.472
        48.000
 146382921.274 6                  27855731.703
        36.700
 110250826.933 7  85909840.81646  20979999.499    20979999.1284   20980001.9614
        46.500          37.4004
 106909681.035 8  83306371.36746  20344184.764    20344183.3384   20344184.7184
        48.700          41.4004
 25  1  1  0  2 45.0000000  0 32E34R21R11S31S35R20G03S48G24S33G12G02
                                E15R22R04G11E02G06E36R23E27R13G30R10
                                E11G17R12E07E30E25G14G19
 123945958.761 8                  23586085.340
        49.100
 106669470.621 8  82965296.064 7  19933694.835    19933695.159    19933703.205
        53.000          47.500
 103980371.909 8  80873775.030 8  19458460.651    19458460.802    19458467.832
        51.600          49.500
 198980300.400 7                  37864700.368
        45.700
 200907409.128 7                  38231424.533
        44.000
 128107821.091 5  99639527.755 6  23956768.291    23956767.893    23956780.376
        33.200          39.500
 121295966.390 7  94516433.68146  23081829.741    23081829.4964   23081835.9954
        42.700          39.4004
 412998647.653 5                  78590887.349
        32.300
 120452054.793 7  93858876.56946  22921220.485    22921219.9984   22921228.3324
        43.400          39.4004
 202136589.540 7                  38465296.716
        45.000
 133150640.959 6 103753817.25044  25337721.111    25337720.5264   25337735.5814
        38.700          28.6004
 134583983.752 6 104870733.67843  25610446.607    25610445.4234   25610449.3414
        38.800          21.7004
 140956752.301 6                  26823161.064
        40.700
 106268447.737 8  82653369.490 8  19907622.165    19907622.028    19907628.787
        51.900          49.100
 131849041.398 6 102549280.956 5  24621879.551    24621879.703    24621886.268
        38.800          33.600
 126628674.786 7  98671767.45944  24096621.356    24096620.9144   24096628.1314
        42.000          25.9004
 125269358.235 8                  23837928.240
        48.300
 110603638.044 8  86184791.03548  21047137.078    21047136.6724   21047142.5214
        48.000          49.4004
 129256387.933 7                  24596630.566
        46.900
 125821565.782 7                  23521008.845    23521008.323
        42.500
 146412004.768 6                  27861258.221
        39.700
 129968713.934 6                  24338959.457    24338957.956
        36.900
 130483316.445 6 101675389.87244  24830134.177    24830133.2884   24830144.2344
        36.500          27.7004
 124092630.553 6                  23279439.300    23279439.161
        40.300
 150457994.925 5                  28631161.527
        33.000
 110285818.414 8  85937138.04348  20986643.736    20986643.1424   20986645.2914
        48.600          48.4004
 109111458.336 8  84864644.326 8  20425842.916    20425843.332    20425852.185
        52.600          48.000
 151534007.566 5                  28835940.958
        34.000
 126866886.488 8                  24141920.729
        48.300
 146419870.502 6                  27862763.448
        37.900
 110280155.165 7  85932693.99446  20985580.257    20985579.8914   20985582.9444
        46.900          37.6004
 106900139.502 8  83298936.43146  20342369.088    20342367.6584   20342368.9664
        48.900          41.6004
 25  1  1  0  3  0.0000000  0 32E34R21R11S31S35R20G03S48G24S33G12G02
                                E15R22R04G11E02G06E36R23E27R13G30R10
                                E11G17R12E07E30E25G14G19
 123927644.078 8                  23582600.156
        49.000
 106702902.839 8  82991298.913 7  19939941.996    19939942.905    19939950.728
        52.600          47.500
 104005224.519 8  80893104.844 8  19463111.854    19463111.848    19463118.646
        52.200          49.500
 198980308.457 7                  37864695.118
        45.600
 200907444.876 7                  38231430.011
        44.000
 128167666.670 5  99686074.668 6  23967959.764    23967959.944    23967971.247
        32.900          39.400
 121289774.494 7  94511608.86346  23080651.435    23080651.1994   23080657.6334
        42.900          39.2004
 412998776.949 5                  78590882.153
        32.100
 120440029.765 7  93849506.49546  22918932.318    22918931.8314   22918940.0194
        43.300          39.4004
 202136588.089 7                  38465303.687
        45.100
 133098240.157 6 103712985.70644  25327750.154    25327749.5824   25327763.6344
        39.800          29.1004
 134635235.793 6 104910670.87243  25620199.374    25620198.1984   25620201.7624
        39.300          21.2004
 140911841.420 6                  26814614.462
        40.800
 106242436.563 8  82633138.627 8  19902748.878    19902749.162    19902755.885
        52.200          49.000
 131853969.628 6 102553114.156 5  24622797.451    24622798.912    24622806.447
        36.900          32.500
 126574760.443 6  98629756.45744  24086361.529    24086361.0824   24086368.6824
        41.000          26.0004
 125286129.673 8                  23841119.778
        48.100
 110569655.492 7  86158311.19248  21040670.657    21040670.2514   21040675.7684
        47.900          49.3004
 129280752.243 7                  24601267.492
        46.800
 125766119.787 7                  23510642.382    23510643.013
        42.900
 146373706.743 6                  27853970.465
        40.000
 129905350.172 5                  24327093.176    24327092.130
        34.800
 130538581.248 6 101718453.36544  24840650.947    24840650.0534   24840661.1774
        37.800          28.1004
 124154041.218 6                  23290960.018    23290959.809
        40.000
 150502044.585 5                  28639544.821
        33.200
 110304126.838 8  85951404.36448  20990127.264    20990126.6704   20990129.2304
        48.700          48.2004
 109068940.000 8  84831574.572 8  20417883.313    20417883.446    20417892.349
        52.200          48.000
 151566913.845 5                  28842202.259
        31.600
 126847005.769 8                  24138137.505
        48.400
 146456851.613 6                  27869800.532
        37.700
 110309583.966 7  85955625.53046  20991180.456    20991180.0904   20991183.0794
        46.900          37.3004
 106890671.392 8  83291558.71146  20340567.287    20340565.8394   20340567.2204
        49.200          41.4004
 25  1  1  0  3 15.0000000  0 32E34R21R11S31S35R20G03S48G24S33G12G02
                                E15R22R04G11E02G06E36R23E27R13G30R10
                                E11G17R12E07E30E25G14G19
 123909426.780 8                  23579133.629
        49.100
 106736440.289 8  83017383.601 7  19946209.698    19946210.001    19946217.877
        52.700          47.500
 104030248.975 8  80912568.330 8  19467794.419    19467794.822    19467801.606
        52.100          49.500
 198980318.046 7                  37864704.920
        45.600
 200907481.772 7                  38231443.452
        44.000
 128227497.484 5  99732609.569 6  23979148.084    23979148.748    23979160.185
        32.300          39.900
 121283728.783 7  94506897.95546  23079500.604    23079500.3724   23079507.1834
        42.600          39.0004
 412998907.168 5                  78590880.781
        32.400
 120428152.816 7  93840251.80646  22916672.397    22916671.9194   22916679.8964
        44.100          39.3004
 202136588.582 7                  38465301.939
        45.100
 133045832.067 6 103672148.49744  25317776.216    25317775.6404   25317790.4854
        39.400          29.0004
 134686487.397 6 104950607.38743  25629951.686    25629950.4794   25629953.7584
        38.400          20.7004
 140866965.177 6                  26806074.957
        40.500
 106216567.686 8  82613018.437 8  19897902.623    19897903.108    19897909.666
        52.300          49.000
 131859069.409 5 102557080.824 5  24623750.382    24623751.475    24623759.185
        33.900          32.700
 126520885.564 6  98587776.21744  24076109.323    24076108.8814   24076116.4004
        41.600          25.6004
 125302965.173 8                  23844323.443
        48.100
 110535791.434 7  86131923.67948  21034226.416    21034226.0104   21034231.6194
        47.900          49.1004
 129305196.197 7                  24605918.931
        46.700
 125710734.782 7                  23500289.508    23500289.270
        42.300
 146335403.569 6                  27846680.976
        39.100
 129841986.366 5                  24315226.182    24315224.811
        35.700
 130593834.178 6 101761507.60244  24851166.183    24851165.2984   24851175.6484
        36.500          27.5004
 124215505.128 6                  23302490.873    23302489.566
        39.900
 150546103.088 5                  28647928.738
        33.400
 110322476.806 8  85965703.05348  20993619.394    20993618.7954   20993621.1114
        48.700          48.1004
 109026537.491 8  84798594.919 7  20409945.126    20409945.600    20409954.615
        52.000          47.900
 151599838.223 5                  28848467.883
        34.300
 126827172.335 8                  24134363.296
        48.100
 146493861.609 6                  27876842.961
        36.500
 110339110.365 7  85978633.11946  20996799.064    20996798.7024   20996801.7944
        47.000          37.2004
 106881273.884 8  83284236.00446  20338779.048    20338777.5954   20338778.9204
        48.900          41.3004
 25  1  1  0  3 30.0000000  0 31E34R21R11S31S35R20G03S48G24S33G12G02
                                E15R22G11E02G06E36R23E27R13G30R10E11
                                G17R12E07E30E25G14G19
 123891301.307 8                  23575684.350
        49.200
 106770076.649 8  83043545.216 7  19952495.477    19952495.734    19952503.815
        52.600          47.700
 104055439.433 8  80932160.882 8  19472508.717    19472508.735    19472515.587
        51.800          49.500
 198980322.995 7                  37864701.352
        45.400
 200907514.531 7                  38231452.704
        44.200
 128287309.336 5  99779129.854 6  23990334.421    23990333.886    23990344.880
        32.400          39.000
 121277823.782 7  94502296.68146  23078377.436    23078377.1954   23078383.5004
        43.100          39.1004
 412999032.818 5                  78590881.916
        32.600
 120416418.304 7  93831108.10646  22914438.784    22914438.2974   22914446.8484
        43.600          39.3004
 202136583.871 7                  38465303.186
        45.200
 132993411.118 6 103631301.27844  25307800.998    25307800.4264   25307814.8274
        39.500          28.7004
 134737733.151 6 104990539.30543  25639703.737    25639702.5214   25639705.3434
        38.400          21.2004
 140822118.097 6                  26797540.653
        40.000
 106190835.412 8  82593004.491 8  19893082.355    19893082.552    19893089.195
        52.200          49.100
 126467044.767 6  98545822.54344  24065863.895    24065863.4844   24065870.5674
        41.700          25.5004
 125319859.122 8                  23847538.467
        48.100
 110502040.424 7  86105624.25348  21027803.880    21027803.4784   21027808.9514
        47.800          49.1004
 129329714.002 7                  24610584.264
        46.700
 125655405.252 7                  23489946.475    23489945.996
        43.300
 146297089.710 6                  27839390.158
        39.400
 129778617.486 6                  24303359.334    24303358.211
        36.700
 130649069.200 6 101804547.89644  24861676.419    24861675.5344   24861686.4744
        37.300          27.5004
 124277015.911 6                  23314029.149    23314028.722
        39.100
 150590166.423 5                  28656314.324
        33.100
 110340862.708 8  85980029.74048  20997118.101    20997117.5024   20997119.7814
        48.900          48.1004
 108984245.482 8  84765701.212 8  20402028.447    20402028.382    20402037.428
        52.200          48.100
 151632774.752 5                  28854734.858
        33.900
 126807380.669 8                  24130597.078
        48.300
 146530894.941 6                  27883890.671
        37.200
 110368728.687 7  86001712.33546  21002435.186    21002434.8204   21002437.9974
        47.000          37.0004
 106871941.304 8  83276963.89046  20337003.014    20337001.5574   20337002.9664
        48.900          41.3004
 25  1  1  0  3 45.0000000  0 32E34R21R11S31S35R20G03S48G24S33G12G02
                                E15R22R05G11E02G06E36R23E27R13G30R10
                                E11G17R12E07E30E25G14G19
 123873274.572 8                  23572253.807
        49.200
 106803818.747 8  83069789.078 7  19958800.901    19958801.339    19958809.416
        52.700          47.500
 104080802.818 8  80951887.970 8  19477255.361    19477255.273    19477261.968
        52.400          49.300
 198980331.162 7                  37864704.701
        45.600
 200907550.409 7                  38231457.261
        44.400
 128347108.846 5  99825640.621 6  24001515.597    24001516.489    24001528.189
        33.000          39.500
 121272066.503 7  94497810.52946  23077281.672    23077281.4404   23077287.7914
        42.800          39.2004
 412999160.680 5                  78590871.073
        31.900
 120404833.238 7  93822080.85646  22912234.227    22912233.7364   22912242.3384
        43.600          39.3004
 202136582.863 7                  38465299.537
        45.300
 132940984.272 6 103590449.47844  25297823.943    25297823.3624   25297838.5974
        39.700          28.8004
 134788979.567 6 105030471.53043  25649456.136    25649454.9434   25649456.6194
        38.200          21.0004
 140777307.272 6                  26789013.778
        40.800
 106165246.786 8  82573102.277 8  19888288.497    19888288.878    19888295.445
        51.800          48.800
 131716194.812 7 102445953.298 6  24640237.008    24640237.018    24640243.848
        42.100          37.200
 126413245.181 6  98503900.99844  24055625.845    24055625.4344   24055632.5104
        41.200          25.9004
 125336818.476 8                  23850765.430
        48.100
 110468409.560 8  86079418.45248  21021403.989    21021403.5874   21021409.1564
        48.200          49.2004
 129354312.337 7                  24615265.270
        47.000
 125600138.484 6                  23479614.006    23479613.722
        41.700
 146258772.137 6                  27832098.432
        39.600
 129715250.571 5                  24291490.674    24291490.350
        35.500
 130704292.922 6 101847579.38044  24872184.089    24872183.2004   24872194.9574
        36.900          27.0004
 124338580.290 6                  23325580.072    23325580.068
        40.700
 150634242.374 5                  28664702.017
        34.400
 110359291.268 8  85994389.67948  21000624.871    21000624.2724   21000626.5924
        48.900          48.1004
 108942071.454 8  84732899.287 8  20394133.511    20394133.178    20394142.099
        52.400          48.200
 151665730.090 5                  28861006.699
        35.100
 126787637.853 8                  24126840.054
        48.400
 146567958.352 6                  27890943.650
        36.900
 110398445.755 7  86024868.49546  21008090.222    21008089.8564   21008092.9324
        46.800          37.0004
 106862680.445 8  83269747.66446  20335240.991    20335239.5344   20335240.6904
        48.900          41.3004
 25  1  1  0  4  0.0000000  0 32E34R21R11S31S35R20G03S48G24S33G12G02
                                E15R22R05G11E02G06E36R23E27R13G30R10
                                E11G17R12E07E30E25G14G19
 123855340.528 8                  23568841.437
        48.800
 106837659.773 8  83096109.885 7  19965124.936    19965125.134    19965133.399
        52.400          47.500
 104106332.822 8  80971744.642 8  19482032.774    19482032.844    19482039.508
        52.600          49.500
 198980335.207 7                  37864704.473
        45.700
 200907582.611 7                  38231462.256
        44.100
 128406889.984 5  99872137.249 6  24012696.547    24012695.429    24012707.988
        32.000          39.200
 121266451.004 7  94493434.84646  23076213.117    23076212.8854   23076219.1364
        42.600          39.2004
 412999285.194 5                  78590861.155
        33.100
 120393391.568 7  93813165.34146  22910056.784    22910056.2794   22910065.1104
        43.600          39.6004
 202136577.906 7                  38465296.752
        45.200
 132888545.747 6 103549588.59444  25287844.517    25287843.9454   25287859.8544
        39.100          28.7004
 134840220.780 6 105070399.76943  25659207.077    25659205.9194   25659207.5914
        38.500          21.0004
 140732526.752 6                  26780491.382
        40.800
 106139795.682 8  82553307.038 8  19883520.708    19883521.064    19883527.676
        52.300          48.900
 131686485.244 7 102422845.688 6  24634679.618    24634679.663    24634686.547
        42.200          37.200
 126359480.982 6  98462007.03344  24045395.145    24045394.7304   24045401.3304
        41.500          26.1004
 125353837.153 7                  23854003.953
        47.900
 110434892.910 8  86053301.64648  21015025.866    21015025.4604   21015031.0714
        48.100          49.4004
 129378984.908 7                  24619960.301
        46.600
 125544928.588 6                  23469292.595    23469292.448
        41.500
 146220444.864 6                  27824805.088
        40.100
 129651879.919 5                  24279625.095    24279622.633
        35.200
 130759498.963 6 101890597.09644  24882690.565    24882689.6804   24882700.1584
        37.200          28.0004
 124400191.382 6                  23337136.992    23337136.498
        38.700
 150678323.455 5                  28673090.050
        31.800
 110377756.380 8  86008778.09848  21004138.487    21004137.8844   21004140.3494
        48.500          48.1004
 108900009.661 8  84700184.641 8  20386258.710    20386259.152    20386268.238
        51.900          48.200
 151698697.780 6                  28867280.177
        36.800
 126767937.939 8                  24123091.284
        48.200
 146605045.745 6                  27898000.873
        36.400
 110428255.412 7  86048096.80546  21013762.850    21013762.4844   21013765.5294
        46.700          37.1004
 106853485.318 8  83262582.65446  20333490.946    20333489.4844   20333490.8864
        48.600          41.5004
 25  1  1  0  4 15.0000000  0 32E34R21R11S31S35R20G03S48G24S33G12G02
                                E15R22R05G11E02G06E36R23E27R13G30R10
                                E11G17R12E07E30E25G14G19
 123837507.617 8                  23565447.835
        48.900
 106871607.925 8  83122514.032 7  19971469.189    19971469.325    19971477.272
        52.500          47.300
 104132037.897 8  80991737.496 8  19486842.691    19486843.232    19486849.936
        52.000          49.400
 198980344.534 7                  37864708.274
        45.700
 200907620.010 7                  38231466.759
        44.400
 128466659.139 5  99918624.250 6  24023873.522    24023873.099    24023884.710
        32.000          39.300
 121260985.807 7  94489176.29046  23075173.071    23075172.8484   23075179.1044
        42.800          39.3004
 412997814.771 5                  78590859.505
        32.200
 120382101.769 7  93804368.17246  22907908.637    22907908.1324   22907916.7994
        43.200          39.7004
 202136577.590 7                  38465296.778
        45.100
 132836104.115 6 103508725.30744  25277865.782    25277865.2194   25277879.9484
        38.200          29.0004
 134891464.817 6 105110330.23843  25668958.224    25668957.0664   25668959.1674
        39.000          21.4004
 140687785.128 6                  26771977.479
        40.400
 106114490.598 8  82533625.362 8  19878779.986    19878780.469    19878786.920
        52.300          48.800
 131656907.675 6 102399840.759 6  24629146.234    24629146.544    24629153.249
        40.300          36.800
 126305760.837 6  98420147.40044  24035171.633    24035171.2004   24035178.7944
        41.600          26.3004
 125370923.613 7                  23857255.597
        47.700
 110401499.083 8  86027280.54348  21008671.397    21008670.9774   21008676.3854
        48.000          49.5004
 129403739.902 7                  24624671.031
        46.600
 125489784.148 6                  23458984.404    23458984.262
        41.300
 146182116.386 6                  27817510.691
        39.500
 129588514.407 6                  24267756.688    24267756.386
        36.600
 130814695.354 6 101933607.28444  24893193.689    24893192.8094   24893203.9724
        36.100          27.3004
 124461858.164 6                  23348707.231    23348705.628
        40.100
 150722416.711 5                  28681481.083
        32.400
 110396266.202 8  86023201.35348  21007660.897    21007660.3034   21007662.6104
        48.500          48.2004
 108858069.252 8  84667564.387 8  20378407.460    20378407.761    20378416.628
        52.200          48.300
 151731686.120 5                  28873557.353
        32.900
 126748289.446 8                  24119352.353
        48.200
 146642165.403 6                  27905064.771
        36.200
 110458166.007 7  86071403.77146  21019454.522    21019454.1564   21019457.2654
        46.700          37.2004
 106844364.431 8  83255475.50046  20331755.430    20331753.9824   20331755.2264
        48.600          41.6004
 25  1  1  0  4 30.0000000  0 32E34R21R11S31S35R20G03S48G24S33G12G02
                                E15R22R05G11E02G06E36R23E27R13G30R10
                                E11G17R12E07E30E25G14G19
 123819771.151 8                  23562072.690
        48.800
 106905658.132 8  83148997.543 7  19977832.052    19977832.291    19977840.561
        52.700          47.400
 104157913.104 8  81011862.654 8  19491685.749    19491685.458    19491692.136
        52.100          49.400
 198980354.475 7                  37864705.940
        45.800
 200907657.188 7                  38231478.845
        44.600
 128526412.726 5  99965099.287 6  24035045.023    24035046.637    24035059.112
        32.200          40.000
 121255666.335 7  94485031.28546  23074160.386    23074160.1584   23074166.8854
        43.000          39.1004
 412997943.436 5                  78590864.879
        32.900
 120370959.163 7  93795685.69546  22905788.484    22905787.9884   22905796.2754
        43.300          39.5004
 202136578.419 7                  38465297.735
        45.200
 132783654.745 6 103467856.00544  25267884.759    25267884.1924   25267898.5984
        38.700          28.5004
 134942707.029 6 105150259.38443  25678708.811    25678707.6494   25678710.4974
        39.000          20.8004
 140643077.829 6                  26763469.863
        41.100
 106089326.848 8  82514053.597 8  19874066.363    19874066.825    19874072.882
        52.600          49.000
 131627458.041 6 102376935.330 5  24623637.289    24623637.416    24623644.559
        38.900          35.300
 126252080.276 7  98378318.60744  24024956.594    24024956.1654   24024963.2204
        42.000          26.1004
 125388073.144 7                  23860518.978
        47.500
 110368223.526 8  86001351.60148  21002339.211    21002338.7964   21002344.2014
        48.000          49.4004
 129428572.424 7                  24629396.451
        46.500
 125434700.923 7                  23448686.522    23448686.947
        42.300
 146143782.084 6                  27810216.152
        39.100
 129525149.480 5                  24255889.884    24255888.530
        34.400
 130869877.108 6 101976606.06144  24903694.719    24903693.7984   24903704.3354
        36.100          27.1004
 124523575.128 6                  23360284.690    23360283.942
        40.100
 150766518.638 5                  28689873.704
        32.500
 110414816.120 8  86037655.85348  21011190.795    21011190.2104   21011192.4784
        48.500          48.0004
 108816245.712 8  84635035.034 8  20370577.782    20370578.263    20370587.215
        51.900          48.200
 151764689.990 5                  28879837.572
        35.400
 126728687.847 8                  24115622.159
        48.200
 146679312.603 6                  27912133.797
        36.300
 110488172.742 7  86094785.64646  21025164.725    21025164.3634   21025167.3484
        46.300          37.0004
 106835312.724 8  83248422.24546  20330032.940    20330031.4874   20330032.7264
        48.700          41.5004
 25  1  1  0  4 45.0000000  0 32E34R21R11S31S35R20G03S48G24S33G12G02
                                E15R22R05G11E02G06E36R23E27R13G30R10
                                E11G17R12E07E30E25G14G19
 123802128.117 8                  23558715.129
        48.800
 106939806.653 8  83175557.489 7  19984213.831    19984213.990    19984221.866
        53.000          47.600
 104183955.206 8  81032117.628 8  19496558.806    19496558.834    19496565.623
        51.800          49.400
 198980361.294 7                  37864709.123
        46.000
 200907692.220 7                  38231481.188
        44.500
 128586147.444 5 100011560.004 6  24046216.344    24046217.184    24046229.565
        32.000          39.400
 121250489.674 7  94480997.55546  23073175.839    23073175.6034   23073181.8184
        42.300          38.9004
 412998068.408 5                  78590854.903
        32.800
 120359960.731 7  93787115.55446  22903695.523    22903695.0364   22903703.1854
        42.900          39.5004
 202136575.880 7                  38465297.668
        45.500
 132731195.076 6 103426978.66444  25257901.210    25257900.6344   25257914.9814
        39.400          28.8004
 134993943.988 6 105190184.49443  25688458.960    25688457.8204   25688460.4144
        39.400          21.9004
 140598401.978 6                  26754968.039
        41.100
 106064301.294 8  82494589.319 8  19869378.126    19869378.096    19869384.887
        52.400          49.000
 131598133.534 6 102354127.156 5  24618151.807    24618151.710    24618158.352
        40.800          35.200
 126198436.494 7  98336518.50044  24014748.220    24014747.8004   24014755.3824
        42.000          26.3004
 125405282.745 7                  23863793.994
        47.700
 110335063.343 8  85975512.55948  20996028.952    20996028.5374   20996033.9734
        48.000          49.5004
 129453479.187 7                  24634136.030
        46.600
 125379675.503 6                  23438400.014    23438400.941
        41.800
 146105439.016 6                  27802919.563
        38.900
 129461782.345 5                  24244023.645    24244023.187
        35.100
 130925040.817 5 102019590.78644  24914191.894    24914191.0004   24914201.6794
        35.900          27.5004
 124585338.443 6                  23371870.936    23371870.533
        40.500
 150810626.462 5                  28698267.502
        32.900
 110433402.757 8  86052138.95747  21014727.960    21014727.3754   21014729.3704
        48.700          47.8004
 108774536.587 8  84602594.675 8  20362769.803    20362770.027    20362779.163
        52.200          48.300
 151797706.277 6                  28886120.104
        36.400
 126709130.210 8                  24111900.595
        48.100
 146716484.202 6                  27919207.072
        36.600
 110518272.507 7  86118240.01246  21030892.741    21030892.3884   21030895.0814
        46.400          36.9004
 106826327.182 8  83241420.54946  20328322.843    20328321.3994   20328322.7774
        48.600          41.4004
 25  1  1  0  5  0.0000000  0 32E34R21R11S31S35R20G03S48G24S33G12G02
                                E15R22R05G11E02G06E36R23E27R13G30R10
                                E11G17R12E07E30E25G14G19
 123784579.941 8                  23555375.831
        48.900
 106974054.622 8  83202194.828 7  19990613.625    19990613.812    19990621.876
        52.600          47.500
 104210165.550 8  81052503.461 8  19501463.503    19501463.801    19501470.394
        52.200          49.400
 198980366.457 7                  37864711.721
        45.800
 200907725.323 7                  38231485.513
        44.200
 128645863.338 5 100058005.550 6  24057384.072    24057385.468    24057397.102
        32.400          38.500
 121245457.314 7  94477076.27546  23072217.669    23072217.4334   23072224.1534
        42.600          39.1004
 412998191.404 5                  78590862.527
        33.200
 120349107.946 7  93778658.90746  22901630.343    22901629.8614   22901637.8634
        43.100          39.5004
 202136572.138 7                  38465298.263
        45.200
 132678726.310 6 103386094.24344  25247916.508    25247915.9094   25247929.8564
        39.000          28.2004
 135045176.689 6 105230106.33643  25698207.796    25698206.6344   25698209.4014
        39.400          22.0004
 140553759.116 6                  26746472.669
        40.900
 106039415.401 8  82475233.683 8  19864715.732    19864716.081    19864723.037
        52.200          49.000
 131568936.004 7 102331417.870 6  24612690.421    24612690.638    24612696.417
        42.400          36.700
 126144831.139 6  98294748.31344  24004547.534    24004547.1324   24004554.0064
        41.000          26.4004
 125422553.803 7                  23867080.503
        47.900
 110302020.136 8  85949764.66448  20989741.054    20989740.6394   20989745.9904
        48.400          49.5004
 129478461.437 7                  24638890.016
        46.700
 125324710.035 7                  23428125.273    23428125.483
        42.000
 146067088.643 6                  27795621.593
        38.400
 129398414.707 6                  24232156.819    24232156.574
        37.500
 130980187.571 5 102062562.28544  24924686.225    24924685.3184   24924696.2824
        35.700          27.1004
 124647149.466 6                  23383466.649    23383465.911
        40.300
 150854741.202 5                  28706661.714
        33.000
 110452027.564 8  86066651.80247  21018271.972    21018271.3874   21018273.5294
        48.500          47.8004
 108732943.492 8  84570244.564 8  20354983.562    20354984.043    20354992.538
        52.100          48.300
 151830735.940 5                  28892405.814
        33.100
 126689618.033 8                  24108187.304
        48.300
 146753681.526 6                  27926285.663
        36.200
 110548466.591 7  86141767.87346  21036638.148    21036637.7954   21036640.8164
        46.500          36.9004
 106817409.214 8  83234471.50646  20326626.055    20326624.6024   20326625.7524
        48.800          41.4004
 25  1  1  0  5 15.0000000  0 32E34R21R11S31S35R20G03S48G24S33G12G02
                                E15R22R05G11E02G06E36R23E27R13G30R10
                                E11G17R12E07E30E25G14G19
 123767132.463 8                  23552055.736
        48.800
 107008407.545 8  83228913.761 7  19997033.373    19997033.707    19997041.601
        53.100          47.500
 104236549.807 8  81073024.537 8  19506401.129    19506401.215    19506407.883
        52.200          49.400
 198980376.388 7                  37864713.318
        45.700
 200907763.383 7                  38231493.204
        44.200
 128705566.447 5 100104440.987 6  24068550.248    24068549.133    24068561.988
        31.500          39.800
 121240575.209 7  94473272.08446  23071288.728    23071288.5004   23071295.0484
        42.300          39.0004
 412998318.416 5                  78590844.149
        31.300
 120338406.652 7  93770320.30546  22899593.671    22899593.1984   22899601.4954
        43.300          39.5004
 202136571.686 7                  38465293.443
        44.900
 132626254.397 6 103345207.37544  25237931.832    25237931.2334   25237944.1914
        39.800          29.0004
 135096410.785 6 105270029.22343  25707956.823    25707955.6394   25707959.2284
        39.300          21.6004
 140509155.228 6                  26737985.084
        40.800
 106014675.100 8  82455991.253 8  19860081.382    19860081.427    19860087.967
        52.400          49.100
 131539872.128 6 102308812.638 6  24607252.065    24607253.140    24607259.966
        41.400          37.900
 126091270.254 6  98253012.79344  23994355.461    23994355.0594   23994361.6224
        41.800          26.4004
 125439892.197 7                  23870379.660
        47.700
 110269099.862 8  85924112.56048  20983476.762    20983476.3514   20983481.4354
        48.000          49.4004
 129503524.721 7                  24643659.687
        46.700
 125269810.313 6                  23417861.666    23417862.000
        41.900
 146028736.872 6                  27788323.413
        39.100
 129335053.149 5                  24220290.705    24220289.666
        35.000
 131035322.877 5 102105524.86044  24935178.137    24935177.2214   24935188.4574
        35.500          27.3004
 124709014.240 6                  23395071.495    23395070.907
        38.700
 150898866.392 5                  28715058.842
        33.200
 110470696.270 8  86081198.86247  21021824.424    21021823.8394   21021826.0184
        48.800          47.7004
 108691473.069 8  84537989.859 8  20347220.076    20347220.027    20347229.238
        51.700          48.200
 151863784.678 4                  28898694.675
        29.800
 126670157.336 8                  24104484.132
        48.100
 146790910.294 6                  27933369.749
        37.000
 110578760.758 7  86165373.72246  21042403.021    21042402.6644   21042405.6864
        46.600          36.9004
 106808564.570 8  83227579.60146  20324942.733    20324941.2804   20324942.6514
        48.800          41.3004
 25  1  1  0  5 30.0000000  0 32E34R21R11S31S35R20G03S48G24S33G12G02
                                E15R22R05G11E02G06E36R23E27R13G30R10
                                E11G17R12E07E30E25G14G19
 123749777.609 8                  23548753.269
        48.500
 107042856.703 8  83255707.541 7  20003470.874    20003471.180    20003479.213
        52.600          47.600
 104263099.551 8  81093674.340 8  19511369.402    19511369.693    19511376.268
        51.800          49.200
 198980382.574 7                  37864713.519
        45.400
 200907797.068 7                  38231500.247
        44.200
 128765249.238 5 100150861.027 6  24079709.073    24079710.129    24079723.216
        32.500          40.100
 121235835.377 7  94469578.74546  23070386.827    23070386.6044   23070393.0154
        42.300          39.0004
 412998441.403 5                  78590837.281
        32.900
 120327848.774 7  93762093.45846  22897584.668    22897584.2124   22897592.2124
        42.800          39.6004
 202136568.814 7                  38465298.039
        45.000
 132573771.708 6 103304312.09444  25227944.038    25227943.4444   25227956.6704
        39.200          28.2004
 135147638.154 6 105309946.96843  25717705.617    25717704.4194   25717706.7394
        39.400          21.0004
 140464582.372 6                  26729502.711
        40.700
 105990072.122 8  82436855.647 8  19855472.222    19855472.548    19855479.017
        52.300          49.200
 131510933.503 7 102286304.806 6  24601839.440    24601839.257    24601846.329
        42.600          37.600
 126037746.021 7  98211305.83044  23984169.485    23984169.0794   23984176.5404
        42.100          26.7004
 125457289.814 7                  23873690.478
        47.500
 110236294.598 8  85898550.07448  20977233.983    20977233.5774   20977238.7954
        48.300          49.7004
 129528660.770 7                  24648442.586
        46.200
 125214968.405 7                  23407610.322    23407610.439
        42.200
 145990375.672 6                  27781023.076
        38.500
 129271689.622 5                  24208424.286    24208423.558
        35.500
 131090438.254 5 102148471.90744  24945665.991    24945665.0704   24945676.2404
        35.800          26.8004
 124770923.620 6                  23406686.355    23406685.835
        40.000
 150942995.117 5                  28723457.041
        31.900
 110489400.424 8  86095773.55147  21025383.833    21025383.2394   21025385.2474
        48.500          47.6004
 108650117.374 8  84505824.374 8  20339478.025    20339478.361    20339487.312
        51.900          48.200
 151896844.087 5                  28904985.564
        33.400
 126650740.082 8                  24100788.988
        48.000
 146828162.386 6                  27940458.180
        36.500
 110609146.833 7  86189051.18546  21048185.297    21048184.9404   21048187.9684
        46.300          36.9004
 106799785.070 8  83220738.45246  20323272.074    20323270.6214   20323271.9724
        48.900          41.5004
 25  1  1  0  5 45.0000000  0 32E34R21R11S31S35R20G03S48G24S33G12G02
                                E15R22R05G11E02G06E36R23E27R13G30R10
                                E11G17R12E07E30E25G14G19
 123732519.360 8                  23545468.876
        48.800
 107077405.768 8  83282579.068 7  20009927.291    20009927.720    20009935.596
        52.800          47.800
 104289818.859 8  81114456.036 8  19516369.947    19516369.736    19516376.333
        52.100          49.300
 198980388.132 7                  37864714.610
        45.700
 200907831.473 7                  38231513.232
        44.100
 128824915.097 5 100197268.045 6  24090870.131    24090868.205    24090880.580
        32.400          39.200
 121231241.884 7  94465999.44646  23069512.355    23069512.1414   23069518.8754
        42.400          38.9004
 412998564.757 5                  78590834.177
        32.200
 120317438.313 7  93753981.47746  22895603.691    22895603.2404   22895610.9924
        42.500          39.5004
 202136565.391 7                  38465294.668
        45.000
 132521282.006 6 103263411.37944  25217955.200    25217954.6014   25217968.2824
        39.400          29.0004
 135198862.076 6 105349861.99243  25727452.991    25727451.8074   25727453.2714
        38.400          21.5004
 140420044.657 6                  26721027.335
        41.000
 105965610.532 8  82417830.032 8  19850889.662    19850889.949    19850896.556
        52.400          49.400
 131482124.456 7 102263897.698 6  24596450.411    24596450.232    24596457.572
        42.200          38.200
 125984262.622 6  98169630.69144  23973991.959    23973991.5444   23973998.6944
        41.000          26.7004
 125474750.662 7                  23877013.132
        47.900
 110203608.461 8  85873080.41748  20971013.760    20971013.3584   20971018.8084
        48.200          49.8004
 129553873.326 7                  24653240.428
        46.800
 125160188.665 7                  23397369.685    23397369.171
        42.200
 145952009.125 6                  27773722.493
        38.700
 129208328.614 6                  24196558.089    24196558.514
        36.900
 131145537.393 6 102191406.32544  24956151.186    24956150.2834   24956161.1984
        36.400          27.8004
 124832881.394 6                  23418309.123    23418309.894
        41.000
 150987132.375 5                  28731856.252
        32.800
 110508143.857 8  86110378.84747  21028950.408    21028949.8094   21028951.9604
        48.600          47.5004
 108608880.800 8  84473751.567 8  20331758.680    20331758.618    20331767.521
        51.600          48.100
 151929918.098 5                  28911278.966
        33.600
 126631370.419 8                  24097103.217
        48.200
 146865441.699 6                  27947552.963
        36.700
 110639628.708 7  86212803.30046  21053985.849    21053985.4924   21053988.5214
        46.300          36.8004
 106791074.571 8  83213951.07946  20321614.403    20321612.9504   20321614.4094
        48.500          41.5004
 25  1  1  0  6  0.0000000  0 31E34R21R11S31S35R20G03S48G24S33G12G02
                                E15R22R05G11E02G06E36R23E27R13G30R10
                                E11G17R12E30E25G14G19
 123715360.634 8                  23542203.682
        48.700
 107112057.330 8  83309530.294 7  20016403.088    20016402.996    20016411.145
        52.900          47.800
 104316710.443 8  81135371.707 8  19521401.860    19521402.100    19521408.697
        52.200          49.100
 198980397.787 7                  37864716.256
        45.400
 200907868.945 7                  38231516.250
        44.100
 128884566.016 5 100243663.422 6  24102021.218    24102022.072    24102034.936
        30.800          39.300
 121226797.753 7  94462536.52546  23068666.832    23068666.6044   23068673.0954
        42.600          39.0004
 412998690.768 5                  78590836.869
        32.200
 120307178.241 7  93745986.68246  22893651.165    22893650.7324   22893658.5084
        43.100          39.6004
 202136565.519 7                  38465295.106
        45.000
 132468788.431 6 103222507.63144  25207966.173    25207965.5704   25207978.9724
        38.900          28.9004
 135250085.681 6 105389776.83243  25737199.764    25737198.5974   25737201.0334
        38.800          22.1004
 140375545.144 6                  26712559.262
        41.300
 105941293.341 8  82398916.676 8  19846334.389    19846334.627    19846341.270
        52.200          49.200
 131453448.433 6 102241594.039 6  24591086.213    24591086.499    24591092.676
        41.500          36.800
 125930823.252 6  98127989.85744  23963822.315    23963821.9004   23963829.3654
        41.700          26.9004
 125492277.645 7                  23880348.365
        47.600
 110171044.515 8  85847705.96548  20964817.006    20964816.6004   20964822.0254
        48.700          49.9004
 129579165.091 7                  24658053.303
        46.600
 125105474.168 7                  23387141.798    23387141.117
        42.300
 145913640.199 6                  27766421.013
        38.700
 129144973.319 5                  24184695.236    24184693.462
        35.200
 131200622.848 6 102234330.04844  24966632.895    24966632.0064   24966643.5624
        36.600          27.7004
 124894890.347 6                  23429941.694    23429941.224
        39.800
 151031280.365 5                  28740257.471
        33.200
 110526929.481 8  86125017.01647  21032525.063    21032524.4644   21032526.6924
        48.500          47.4004
 108567766.854 8  84441774.101 8  20324061.982    20324062.187    20324071.090
        52.100          48.100
 126612051.354 8                  24093426.782
        48.100
 146902751.033 6                  27954652.444
        36.200
 110670209.180 7  86236632.24546  21059805.275    21059804.9274   21059807.7484
        46.600          36.8004
 106782436.075 8  83207219.81446  20319970.690    20319969.2424   20319970.5024
        48.900          41.5004
 25  1  1  0  6 15.0000000  0 31E34R21R11S31S35R20G03S48G24S33G12G02
                                E15R22R05G11E02G06E36R23E27R13G30R10
                                E11G17R12E30E25G14G19
 123698296.134 8                  23538956.392
        48.600
 107146805.390 8  83336556.570 7  20022896.187    20022896.436    20022904.554
        53.000          47.800
 104343768.722 8  81156417.038 8  19526465.595    19526465.802    19526472.327
        52.000          49.200
 198980405.245 7                  37864719.855
        45.700
 200907904.030 7                  38231521.174
        44.000
 128944196.401 5 100290042.825 6  24113174.226    24113173.499    24113185.651
        31.200          39.000
 121222497.750 7  94459185.91246  23067848.409    23067848.1734   23067854.6044
        42.500          39.1004
 412998813.596 5                  78590832.192
        32.100
 120297063.221 7  93738104.91146  22891726.372    22891725.9344   22891733.6444
        43.500          39.7004
 202136564.202 7                  38465292.106
        44.900
 132416285.894 6 103181596.89844  25197975.328    25197974.7204   25197987.8604
        39.900          29.2004
 135301303.105 6 105429686.94743  25746946.041    25746944.8744   25746947.4084
        39.300          22.3004
 140331078.647 6                  26704097.362
        41.500
 105917115.053 8  82380111.404 8  19841804.917    19841805.231    19841811.543
        52.500          49.400
 131424900.771 7 102219390.319 6  24585745.447    24585745.812    24585752.007
        43.400          38.100
 125877422.746 7  98086379.30244  23953660.861    23953660.4414   23953667.3484
        42.300          27.0004
 125509865.452 7                  23883695.092
        47.800
 110138597.593 8  85822422.70348  20958642.386    20958641.9844   20958647.5284
        48.600          50.1004
 129604530.512 7                  24662880.279
        46.400
 125050819.667 6                  23376923.174    23376923.209
        41.600
 145875263.631 6                  27759117.919
        38.900
 129081618.982 6                  24172829.951    24172829.554
        36.400
 131255688.961 6 102277238.70744  24977111.688    24977110.8174   24977122.3584
        36.300          27.5004
 124956944.054 6                  23441583.688    23441583.478
        40.600
 151075432.699 5                  28748659.044
        31.400
 110545751.900 8  86139683.85047  21036107.279    21036106.6764   21036108.4304
        48.200          47.5004
 108526770.699 8  84409888.271 8  20316386.942    20316387.192    20316396.422
        52.000          48.300
 126592777.704 8                  24089759.110
        48.100
 146940085.024 6                  27961756.748
        36.300
 110700882.844 7  86260533.80646  21065642.116    21065641.7684   21065644.7264
        46.400          37.0004
 106773864.253 8  83200540.50146  20318339.347    20318337.8994   20318339.3124
        48.800          41.8004
 25  1  1  0  6 30.0000000  0 31E34R21R11S31S35R20G03S48G24S33G12G02
                                E15R22R05G11E02G06E36R23E27R13G30R10
                                E11G17R12E30E25G14G19
 123681327.857 8                  23535727.337
        49.000
 107181651.607 8  83363659.190 7  20029407.892    20029408.322    20029416.399
        52.800          47.800
 104370995.541 8  81177593.461 8  19531560.862    19531560.844    19531567.593
        52.100          49.300
 198980411.524 7                  37864723.218
        45.800
 200907938.780 7                  38231525.131
        44.200
 129003808.634 5 100336408.358 6  24124320.945    24124320.784    24124333.531
        31.500          38.900
 121218343.966 7  94455949.24246  23067058.292    23067058.0474   23067064.2324
        42.300          39.1004
 412998936.589 5                  78590830.783
        32.600
 120287095.269 7  93730337.74246  22889828.775    22889828.3284   22889836.6344
        43.100          39.8004
 202136560.839 7                  38465295.674
        45.400
 132363776.449 6 103140680.78244  25187982.792    25187982.1934   25187995.5954
        39.700          29.5004
 135352515.925 6 105469593.39443  25756691.550    25756690.3744   25756692.5494
        39.200          21.1004
 140286647.318 6                  26695642.090
        41.300
 105893077.710 8  82361415.744 8  19837301.746    19837302.021    19837308.463
        52.100          49.300
 131396483.441 7 102197287.915 6  24580429.184    24580428.820    24580436.420
        42.000          38.400
 125824063.407 7  98044800.82144  23943505.882    23943505.4354   23943513.1394
        42.400          27.1004
 125527516.080 8                  23887054.070
        48.000
 110106269.837 8  85797232.29848  20952490.799    20952490.3934   20952495.7254
        48.600          50.2004
 129629971.321 7                  24667721.392
        46.800
 124996227.492 7                  23366718.558    23366718.296
        42.200
 145836881.512 6                  27751813.674
        38.600
 129018267.292 6                  24160965.555    24160964.694
        36.100
 131310737.426 6 102320133.62344  24987587.434    24987586.5584   24987597.4384
        36.200          26.8004
 125019044.871 6                  23453232.956    23453232.756
        39.600
 151119591.475 5                  28757062.577
        33.800
 110564613.040 8  86154380.86347  21039696.423    21039695.8204   21039697.5294
        48.500          47.4004
 108485894.596 8  84378095.808 8  20308734.855    20308735.343    20308744.335
        52.000          48.300
 126573551.557 8                  24086100.636
        48.400
 146977445.569 6                  27968866.458
        36.200
 110731651.591 7  86284509.45446  21071497.142    21071496.7894   21071499.8734
        46.400          37.0004
 106765360.899 8  83193914.53746  20316721.248    20316719.7954   20316721.1624
        48.800          41.8004
 25  1  1  0  6 45.0000000  0 31E34R21R11S31S35R20G03S48G24S33G12G02
                                E15R22R05G11E02G06E36R23E27R13G30R10
                                E11G17R12E30E25G14G19
 123664452.446 8                  23532516.202
        48.900
 107216592.233 8  83390835.254 7  20035937.613    20035937.709    20035945.737
        52.600          47.800
 104398387.290 8  81198898.160 8  19536686.470    19536686.840    19536693.446
        51.500          49.200
 198980414.835 7                  37864721.537
        45.400
 200907970.140 7                  38231532.666
        44.300
 129063399.388 5 100382757.522 6  24135464.335    24135463.339    24135476.269
        30.900          39.000
 121214333.124 7  94452823.95646  23066294.852    23066294.6024   23066301.1944
        42.200          39.2004
 412999054.612 5                  78590830.426
        32.600
 120277271.063 7  93722682.57946  22887959.569    22887959.1314   22887966.9954
        43.300          39.9004
 202136554.411 7                  38465293.814
        45.100
 132311257.130 6 103099756.95744  25177988.432    25177987.8114   25178001.1074
        39.600          29.6004
 135403719.922 6 105509492.55943  25766435.618    25766434.4344   25766436.0054
        39.900          22.2004
 140242247.900 6                  26687193.501
        41.500
 105869177.905 8  82342827.052 8  19832824.709    19832824.876    19832831.546
        52.300          49.400
 131368193.842 7 102175284.826 6  24575136.956    24575137.344    24575144.098
        44.200          38.300
 125770742.038 7  98003251.93744  23933359.250    23933358.7904   23933366.2094
        42.200          27.2004
 125545226.176 8                  23890423.978
        48.000
 110074058.029 8  85772132.24248  20946360.738    20946360.3324   20946365.9984
        48.700          50.3004
 129655483.972 7                  24672576.241
        46.600
 124941694.461 6                  23356524.042    23356524.029
        41.500
 145798490.525 6                  27744508.398
        38.700
 128954915.623 5                  24149102.058    24149101.193
        35.900
 131365764.522 5 102363011.89544  24998058.754    24998057.8514   24998068.4314
        34.500          26.3004
 125081188.584 6                  23464892.093    23464891.448
        40.900
 151163753.556 5                  28765466.203
        32.900
 110583509.640 8  86169105.50947  21043291.996    21043291.3884   21043293.3664
        48.500          47.4004
 108445135.822 8  84346394.609 8  20301105.143    20301105.181    20301114.003
        52.100          48.100
 126554369.731 8                  24082450.218
        48.300
 147014829.225 6                  27975979.942
        36.200
 110762511.987 7  86308556.51846  21077369.687    21077369.3304   21077372.4734
        46.300          37.0004
 106756922.563 8  83187339.23546  20315115.478    20315114.0254   20315115.3974
        48.800          41.8004
 25  1  1  0  7  0.0000000  0 31E34R21R11S31S35R20G03S48G24S33G12G02
                                E15R22R05G11E02G06E36R23E27R13G30R10
                                E11G17R12E30E25G14G19
 123647679.631 8                  23529324.219
        48.800
 107251636.598 8  83418091.994 7  20042486.587    20042486.780    20042494.773
        52.800          47.700
 104425953.760 8  81220338.757 8  19541845.398    19541845.621    19541852.205
        52.000          49.300
 198980424.193 7                  37864725.422
        45.900
 200908007.282 7                  38231540.294
        44.200
 129122975.871 5 100429095.010 6  24146605.658    24146606.121    24146616.869
        32.700          39.400
 121210475.052 7  94449817.71146  23065560.596    23065560.3424   23065567.0394
        42.400          39.2004
 412997578.253 5                  78590819.819
        32.400
 120267600.329 7  93715147.00546  22886119.366    22886118.9374   22886126.7394
        43.500          40.0004
 202136554.247 7                  38465295.960
        45.300
 132258737.566 6 103058832.93544  25167993.579    25167992.9314   25168006.6284
        38.000          28.9004
 135454925.849 6 105549393.40843  25776179.179    25776177.9634   25776180.1764
        38.300          22.2004
 140197890.310 6                  26678752.036
        40.700
 105845425.529 8  82324353.026 8  19828375.239    19828375.361    19828381.848
        52.600          49.500
 131340041.970 7 102153388.836 5  24569870.865    24569871.261    24569877.238
        43.500          35.800
 125717468.609 6  97961740.39944  23923221.753    23923221.3064   23923228.1954
        41.800          27.0004
 125563005.457 7                  23893807.336
        47.900
 110041972.036 8  85747130.22148  20940255.322    20940254.9114   20940260.1944
        48.600          50.4004
 129681077.939 7                  24677446.779
        46.700
 124887230.551 7                  23346343.037    23346342.579
        42.000
 145760100.487 6                  27737202.364
        38.800
 128891574.384 6                  24137239.254    24137239.718
        36.900
 131420779.618 6 102405880.79544  25008528.676    25008527.8094   25008537.8194
        36.500          27.7004
 125143384.986 6                  23476558.532    23476558.256
        39.600
 151207928.292 5                  28773872.251
        31.700
 110602450.860 8  86183864.92347  21046896.272    21046895.6644   21046897.7224
        48.100          47.3004
 108404504.546 8  84314792.553 8  20293498.638    20293498.803    20293507.389
        51.900          48.000
 126535242.043 8                  24078810.454
        48.500
 147052245.584 6                  27983100.185
        36.400
 110793473.641 7  86332682.48346  21083261.734    21083261.3814   21083264.3554
        46.400          37.2004
 106748559.033 8  83180822.22846  20313523.885    20313522.4194   20313523.8314
        48.800          41.9004
 25  1  1  0  7 15.0000000  0 31E34R21R11S31S35R20G03S48G24S33G12G02
                                E15R22R05G11E02G06E36R23E27R13G30R10
                                E11G17R12E30E25G14G19
 123631003.521 8                  23526151.001
        48.900
 107286778.149 8  83445424.309 7  20049053.485    20049053.711    20049061.762
        53.200          47.900
 104453688.672 8  81241910.361 8  19547035.167    19547035.771    19547042.319
        51.800          49.300
 198980433.501 7                  37864724.483
        45.800
 200908045.240 7                  38231547.279
        44.400
 129182532.322 5 100475416.314 6  24157743.595    24157743.198    24157754.000
        32.400          39.000
 121206763.949 6  94446925.98346  23064854.501    23064854.2514   23064860.6344
        41.800          39.0004
 412997701.223 5                  78590816.962
        32.400
 120258077.186 7  93707726.43146  22884307.047    22884306.6234   22884314.7084
        43.100          40.0004
 202136554.529 7                  38465293.876
        45.200
 132206212.349 6 103017904.51544  25157997.957    25157997.3144   25158011.4524
        39.200          29.9004
 135506126.978 6 105589290.48843  25785922.872    25785921.6344   25785923.3894
        39.000          21.7004
 140153568.753 6                  26670317.985
        41.500
 105821814.504 8  82305988.955 8  19823951.358    19823951.947    19823958.599
        52.100          49.200
 131312022.179 6 102131595.719 5  24564628.082    24564628.758    24564636.402
        39.200          35.300
 125664237.482 6  97920261.81844  23913092.143    23913091.7104   23913098.4684
        41.600          27.3004
 125580848.053 8                  23897202.629
        48.100
 110010006.109 8  85722221.75848  20934172.410    20934171.9954   20934177.2404
        48.600          50.5004
 129706747.116 7                  24682331.208
        46.700
 124832829.963 7                  23336172.035    23336173.076
        42.900
 145721705.581 6                  27729896.056
        39.300
 128828237.431 6                  24125378.554    24125378.735
        36.900
 131475776.502 5 102448735.50344  25018993.065    25018992.1854   25019004.0184
        35.300          27.9004
 125205627.539 6                  23488234.925    23488235.066
        39.500
 151252108.464 5                  28782279.322
        32.700
 110621430.655 8  86198654.39447  21050508.280    21050507.6724   21050509.4114
        48.100          47.2004
 108363995.111 8  84283285.275 8  20285914.981    20285915.361    20285924.282
        52.100          48.200
 126516162.654 8                  24075179.680
        48.500
 147089688.703 5                  27990225.843
        35.700
 110824530.556 7  86356882.67546  21089171.457    21089171.1094   21089174.2524
        46.100          37.0004
 106740264.326 8  83174358.84846  20311945.441    20311943.9704   20311945.3214
        48.600          41.9004
 25  1  1  0  7 30.0000000  0 31E34R21R11S31S35R20G03S48G24S33G12G02
                                E15R22R05G11E02G06E36R23E27R13G30R10
                                E11G17R12E30E25G14G19
 123614421.213 8                  23522995.574
        48.900
 107322013.797 8  83472829.813 7  20055638.223    20055638.350    20055646.342
        52.800          47.700
 104481589.083 8  81263610.673 8  19552256.722    19552256.842    19552263.591
        51.700          49.500
 198980439.994 7                  37864729.331
        45.900
 200908080.401 7                  38231557.626
        44.400
 129242066.980 5 100521720.952 6  24168878.848    24168877.216    24168887.745
        33.300          38.400
 121203196.981 7  94444146.57446  23064175.927    23064175.6774   23064181.7084
        42.600          39.0004
 412997820.738 5                  78590808.358
        32.500
 120248698.721 7  93700418.59646  22882522.424    22882522.0094   22882530.1154
        43.200          40.0004
 202136551.703 7                  38465291.099
        45.200
 132153678.213 6 102976969.12144  25148001.872    25148001.2554   25148014.2584
        38.900          29.8004
 135557320.529 6 105629181.88643  25795663.978    25795662.7444   25795665.2404
        38.900          21.8004
 140109280.472 6                  26661889.844
        41.300
 105798341.923 8  82287732.543 8  19819554.704    19819554.952    19819561.103
        52.400          49.300
 131284131.642 7 102109903.018 6  24559411.931    24559411.931    24559418.546
        43.000          38.000
 125611045.960 6  97878814.09644  23902969.594    23902969.1564   23902976.2974
        41.600          27.4004
 125598751.057 8                  23900609.423
        48.000
 109978157.484 8  85697404.69648  20928111.599    20928111.1934   20928116.6004
        48.700          50.5004
 129732488.392 7                  24687229.789
        46.900
 124778489.825 7                  23326013.522    23326015.052
        43.600
 145683302.937 6                  27722588.109
        38.800
 128764902.367 5                  24113517.553    24113516.960
        34.600
 131530751.928 5 102491573.50544  25029456.272    25029455.3964   25029465.1824
        35.600          27.7004
 125267913.102 6                  23499919.462    23499919.326
        39.300
 151296292.174 5                  28790687.098
        32.400
 110640446.159 8  86213471.69147  21054126.788    21054126.1804   21054127.9024
        48.300          47.1004
 108323605.263 8  84251871.013 8  20278353.577    20278354.102    20278363.152
        51.800          48.300
 126497128.886 8                  24071557.686
        48.500
 147127155.595 6                  27997355.304
        36.300
 110855679.704 7  86381154.74046  21095099.019    21095098.6664   21095101.7104
        46.400          37.1004
 106732035.541 8  83167946.83646  20310379.654    20310378.1834   20310379.4534
        48.800          41.9004
 25  1  1  0  7 45.0000000  0 31E34R21R11S31S35R20G03S48G24S33G12G02
                                E15R22R05G11E02G06E36R23E27R13G30R10
                                E11G17R12E30E25G14G19
 123597937.846 8                  23519858.793
        48.800
 107357347.980 8  83500311.957 7  20062240.795    20062241.412    20062249.266
        53.200          47.900
 104509659.876 8  81285443.499 8  19557510.070    19557510.086    19557516.750
        52.000          49.300
 198980448.979 7                  37864730.484
        45.800
 200908117.026 7                  38231560.828
        44.300
 129301584.635 5 100568012.628 6  24180008.310    24180006.696    24180017.913
        32.200          38.400
 121199779.374 7  94441483.55146  23063525.346    23063525.0874   23063531.3104
        42.100          38.8004
 412997942.284 5                  78590804.530
        32.600
 120239470.094 7  93693227.52146  22880765.820    22880765.4144   22880773.8144
        43.100          39.7004
 202136550.353 7                  38465292.995
        45.100
 132101140.712 6 102936031.12244  25138003.615    25138003.0124   25138016.6144
        38.600          29.6004
 135608511.089 6 105669070.87743  25805405.260    25805404.0624   25805406.0844
        38.500          22.4004
 140065030.739 7                  26653469.498
        42.100
 105775012.941 8  82269587.823 8  19815184.038    19815184.508    19815190.990
        52.500          49.400
 131256375.846 7 102088314.920 6  24554219.623    24554219.648    24554227.060
        44.500          38.900
 125557899.406 6  97837401.41344  23892855.947    23892855.4914   23892862.6094
        41.900          27.0004
 125616719.582 8                  23904028.967
        48.000
 109946431.426 8  85672683.14648  20922074.272    20922073.8664   20922079.3014
        48.600          50.5004
 129758306.626 7                  24692142.752
        46.800
 124724215.605 7                  23315868.202    23315868.395
        42.400
 145644897.832 6                  27715279.717
        39.100
 128701574.922 5                  24101659.554    24101657.958
        35.300
 131585710.647 6 102534398.47844  25039913.635    25039912.7464   25039923.2794
        36.900          27.7004
 125330246.352 6                  23511614.289    23511613.335
        39.200
 151340483.092 5                  28799097.005
        33.700
 110659502.489 7  86228320.79847  21057753.040    21057752.4234   21057754.1874
        47.800          46.9004
 108283340.466 8  84220553.989 8  20270816.393    20270816.668    20270824.954
        52.100          48.300
 126478145.936 8                  24067945.405
        48.500
 147164651.282 5                  28004490.508
        35.200
 110886926.153 7  86405502.62046  21101044.905    21101044.5524   21101047.7254
        46.200          37.1004
 106723877.664 8  83161590.07846  20308827.153    20308825.6824   20308827.0314
        48.200          41.8004
 25  1  1  0  8  0.0000000  0 31E34R21R11S31S35R20G03S48G24S33G12G02
                                E15R22R05G11E02G06E36R23E27R13G30R10
                                E11G17R12E30E25G14G19
 123581549.933 8                  23516740.224
        48.800
 107392777.100 8  83527867.942 7  20068861.855    20068862.181    20068870.142
        53.100          47.700
 104537897.389 8  81307406.027 8  19562794.186    19562794.292    19562800.996
        52.000          49.400
 198980456.624 7                  37864728.396
        45.800
 200908153.210 7                  38231564.969
        44.100
 129361081.039 5 100614287.860 6  24191132.776    24191132.902    24191143.543
        32.600          37.800
 121196507.742 6  94438934.26546  23062903.097    23062902.8384   23062908.7094
        41.500          38.8004
 412998062.941 5                  78590801.508
        32.100
 120230387.845 7  93686150.49946  22879037.787    22879037.3814   22879045.3844
        42.700          39.8004
 202136548.251 7                  38465287.540
        44.900
 132048596.692 6 102895088.00244  25128004.307    25128003.6994   25128017.1444
        39.200          29.4004
 135659694.891 6 105708954.54543  25815145.002    25815143.8224   25815145.7164
        37.700          21.3004
 140020816.208 6                  26645055.350
        41.300
 105751824.074 8  82251552.078 8  19810840.559    19810840.394    19810846.975
        52.300          49.700
 131228752.392 7 102066829.990 6  24549052.898    24549053.252    24549058.928
        44.800          38.200
 125504794.602 6  97796021.24644  23882750.466    23882750.0154   23882757.0334
        41.900          27.5004
 125634750.173 8                  23907459.911
        48.000
 109914824.600 8  85648054.49948  20916059.741    20916059.3304   20916064.6924
        48.300          50.6004
 129784198.153 7                  24697069.801
        46.700
 124670004.101 6                  23305733.678    23305733.740
        41.600
 145606486.801 6                  27707970.221
        39.000
 128638251.931 6                  24089800.078    24089799.358
        36.700
 131640648.916 5 102577207.51044  25050367.893    25050367.0134   25050377.9904
        35.000          26.9004
 125392623.346 6                  23523315.990    23523315.361
        39.800
 151384678.975 5                  28807506.868
        31.700
 110678596.054 7  86243198.92047  21061386.382    21061385.7704   21061387.5464
        47.700          46.9004
 108243197.517 8  84189331.771 8  20263300.925    20263301.637    20263310.562
        51.500          48.300
 126459210.456 8                  24064342.039
        48.500
 147202172.207 5                  28011630.644
        34.600
 110918266.333 7  86429923.53746  21107008.816    21107008.4684   21107011.6004
        46.000          37.2004
 106715787.263 8  83155285.89747  20307287.780    20307286.3144   20307287.4734
        48.400          42.0004
 25  1  1  0  8 15.0000000  0 31E34R21R11S31S35R20G03S48G24S33G12G02
                                E15R22R05G11E02G06E36R23E27R13G30R10
                                E11G17R12E30E25G14G19
 123565255.173 8                  23513639.304
        48.800
 107428298.034 8  83555495.329 7  20075499.820    20075500.372    20075508.114
        53.100          47.800
 104566299.150 8  81329496.280 8  19568108.863    19568109.321    19568115.855
        52.000          49.400
 198980460.476 7                  37864727.497
        45.600
 200908184.995 7                  38231573.112
        44.100
 129420554.358 5 100660545.466 6  24202253.352    24202253.957    24202264.991
        32.600          38.900
 121193379.829 7  94436496.97646  23062307.218    23062306.9464   23062313.5044
        42.100          38.7004
 412998179.351 5                  78590800.372
        32.900
 120221449.672 7  93679185.74846  22877337.158    22877336.7564   22877344.5364
        43.000          39.8004
 202136543.406 7                  38465286.453
        44.700
 131996043.712 6 102854137.91944  25118003.471    25118002.8864   25118016.3434
        39.400          29.5004
 135710869.380 6 105748830.97443  25824882.970    25824881.8034   25824883.5954
        40.000          23.3004
 139976634.722 6                  26636648.121
        41.700
 105728772.861 8  82233623.397 8  19806521.670    19806522.233    19806528.447
        52.500          49.400
 131201258.639 7 102045445.828 6  24543909.570    24543909.839    24543916.316
        42.500          37.000
 125451729.419 6  97754671.95844  23872652.567    23872652.1074   23872658.6614
        41.800          27.4004
 125652840.510 8                  23910902.426
        48.100
 109883334.839 8  85623517.07348  20910067.613    20910067.2024   20910072.3374
        48.700          50.6004
 129810160.401 7                  24702010.047
        46.700
 124615852.994 7                  23295611.241    23295611.466
        43.100
 145568067.613 6                  27700658.955
        38.700
 128574931.140 6                  24077942.615    24077942.680
        36.400
 131695564.043 6 102619998.51244  25060817.270    25060816.4074   25060827.3184
        36.000          26.6004
 125455041.710 6                  23535025.160    23535024.390
        39.200
 151428876.830 4                  28815917.002
        29.800
 110697724.381 8  86258104.12447  21065026.252    21065025.6224   21065027.4874
        48.100          46.7004
 108203174.749 8  84158202.988 8  20255809.387    20255809.447    20255817.853
        52.400          48.300
 126440320.257 8                  24060747.246
        48.600
 147239716.019 5                  28018774.921
        34.800
 110949697.789 7  86454415.58046  21112990.021    21112989.6684   21112992.8464
        46.300          37.0004
 106707761.949 8  83149032.43546  20305760.589    20305759.1364   20305760.3034
        48.400          41.8004
 25  1  1  0  8 30.0000000  0 31E34R21R11S31S35R20G03S48G24S33G12G02
                                E15R22R05G11E02G06E36R23E27R13G30R10
                                E11G17R12E30E25G14G19
 123549060.328 8                  23510557.589
        48.700
 107463917.533 8  83583199.370 7  20082156.454    20082156.498    20082164.500
        53.100          47.700
 104594871.804 8  81351719.444 8  19573455.929    19573456.353    19573462.914
        51.900          49.300
 198980467.591 7                  37864733.927
        45.200
 200908221.051 7                  38231578.290
        43.800
 129480010.471 5 100706789.648 6  24213371.609    24213372.177    24213382.621
        32.900          37.900
 121190402.500 6  94434177.02146  23061740.835    23061740.5544   23061746.9234
        41.800          38.6004
 412998298.260 5                  78590785.356
        31.700
 120212662.318 7  93672338.51446  22875664.604    22875664.2114   22875672.2294
        43.000          39.7004
 202136541.580 7                  38465293.358
        44.800
 131943488.741 6 102813186.26644  25108002.086    25108001.4604   25108015.0854
        39.500          29.8004
 135762041.402 6 105788705.48343  25834620.465    25834619.3034   25834621.0094
        39.400          22.3004
 139932493.181 6                  26628247.594
        41.400
 105705866.223 8  82215807.168 8  19802230.612    19802231.014    19802237.286
        52.600          49.400
 131173902.208 6 102024168.477 5  24538791.405    24538791.240    24538798.477
        40.500          35.400
 125398710.879 6  97713359.00444  23862562.973    23862562.5044   23862569.2184
        41.800          27.3004
 125670997.372 8                  23914357.630
        48.000
 109851969.034 8  85599076.23248  20904098.659    20904098.2534   20904103.5804
        48.300          50.5004
 129836199.874 7                  24706965.510
        46.600
 124561769.477 7                  23285500.041    23285500.439
        42.700
 145529647.144 6                  27693347.673
        38.700
 128511620.062 6                  24066084.444    24066085.029
        36.000
 131750462.491 5 102662776.53744  25071264.646    25071263.7974   25071273.7044
        35.800          26.1004
 125517507.540 6                  23546743.175    23546742.858
        38.700
 151473082.947 5                  28824329.675
        33.700
 110716894.043 7  86273041.53447  21068673.951    21068673.3174   21068675.3294
        47.400          46.6004
 108163279.268 8  84127173.221 8  20248340.151    20248340.697    20248349.403
        52.100          48.300
 126421482.225 8                  24057162.443
        48.400
 147277289.351 5                  28025924.830
        34.600
 110981227.224 7  86478983.96846  21118989.768    21118989.4114   21118992.7314
        46.400          36.9004
 106699808.281 8  83142834.79646  20304246.825    20304245.3684   20304246.7174
        48.400          41.8004
 25  1  1  0  8 45.0000000  0 31E34R21R11S31S35R20G03S48G24S33G12G02
                                E15R22R05G11E02G06E36R23E27R13G30R10
                                E11G17R12E30E25G14G19
 123532963.092 8                  23507494.308
        49.100
 107499632.635 8  83610977.805 7  20088830.248    20088830.744    20088838.714
        53.000          47.700
 104623612.847 8  81374073.593 8  19578834.493    19578834.825    19578841.453
        51.900          49.200
 198980475.478 7                  37864730.833
        45.500
 200908257.332 7                  38231589.455
        44.000
 129539445.333 5 100753016.572 6  24224486.752    24224487.244    24224497.206
        33.800          38.200
 121187573.544 6  94431972.68346  23061202.580    23061202.2994   23061208.6024
        41.300          38.7004
 412998417.374 5                  78590781.801
        32.100
 120204023.518 7  93665607.03946  22874020.866    22874020.4694   22874028.1974
        43.600          39.8004
 202136540.525 7                  38465290.214
        44.800
 131890929.604 6 102772231.36144  25098000.033    25097999.3854   25098013.0534
        39.600          29.8004
 135813208.202 6 105828576.03243  25844356.664    25844355.4804   25844357.1534
        38.700          21.8004
 139888389.416 6                  26619855.187
        41.800
 105683101.746 8  82198101.518 8  19797966.236    19797966.499    19797972.771
        52.500          49.500
 131146681.155 7 102002996.550 6  24533699.305    24533699.395    24533707.016
        43.000          39.300
 125345736.911 6  97672080.77344  23852482.525    23852482.0744   23852488.7724
        41.400          27.2004
 125689218.448 8                  23917824.860
        48.400
 109820725.036 8  85574730.30948  20898153.192    20898152.7904   20898158.0214
        48.500          50.7004
 129862314.071 7                  24711934.777
        47.000
 124507751.168 7                  23275402.202    23275402.433
        42.900
 145491223.099 6                  27686035.781
        39.600
 128448316.504 6                  24054229.941    24054229.930
        36.700
 131805341.611 5 102705539.47744  25081707.008    25081706.1414   25081717.2414
        35.500          26.5004
 125580018.469 6                  23558469.687    23558469.268
        39.400
 151517295.826 5                  28832743.302
        34.300
 110736102.751 7  86288009.37947  21072329.489    21072328.8594   21072330.5994
        47.700          46.6004
 108123509.331 8  84096241.124 8  20240895.260    20240895.624    20240904.290
        51.800          48.300
 126402694.179 8                  24053587.212
        49.000
 147314889.842 5                  28033079.796
        35.800
 111012852.207 7  86503626.81046  21125007.743    21125007.3814   21125010.7394
        46.400          37.1004
 106691923.992 8  83136691.22546  20302746.636    20302745.1794   20302746.3354
        48.200          41.8004
 25  1  1  0  9  0.0000000  0 31E34R21R11S31S35R20G03S48G24S33G12G02
                                E15R22R05G11E02G06E36R23E27R13G30R10
                                E11G17R12E30E25G14G19
 123516962.361 8                  23504449.334
        48.900
 107535441.811 8  83638829.402 7  20095522.192    20095522.451    20095530.332
        53.100          47.600
 104652521.002 8  81396557.732 8  19584244.532    19584244.787    19584251.285
        52.200          49.300
 198980483.679 7                  37864734.455
        45.300
 200908293.141 7                  38231592.559
        43.800
 129598859.746 5 100799228.027 6  24235597.539    24235597.380    24235608.642
        33.800          38.800
 121184891.871 7  94429883.11046  23060692.217    23060691.9224   23060698.1804
        42.500          38.5004
 412998536.052 5                  78590785.088
        32.300
 120195532.111 7  93658990.41146  22872404.774    22872404.3684   22872412.3634
        42.900          39.7004
 202136539.178 7                  38465287.075
        44.900
 131838365.723 6 102731272.74344  25087998.142    25087997.5164   25088010.1054
        40.000          29.9004
 135864368.554 6 105868441.60343  25854091.750    25854090.5664   25854092.2874
        39.100          21.2004
 139844322.444 6                  26611469.400
        41.900
 105660478.312 8  82180505.568 8  19793727.675    19793727.964    19793734.518
        52.200          49.600
 131119595.112 7 101981929.698 6  24528631.055    24528632.268    24528639.344
        43.100          39.200
 125292806.623 6  97630836.57544  23842409.963    23842409.5124   23842416.2054
        41.600          27.4004
 125707502.632 8                  23921304.385
        48.300
 109789601.855 8  85550478.52948  20892230.479    20892230.0824   20892235.4204
        48.700          50.6004
 129888501.687 7                  24716918.046
        46.600
 124453797.342 7                  23265316.651    23265316.259
        42.600
 145452794.501 6                  27678723.136
        39.100
 128385019.966 6                  24042376.082    24042376.544
        36.100
 131860199.971 6 102748286.23844  25092146.641    25092145.7704   25092156.6244
        37.000          27.1004
 125642572.791 6                  23570204.448    23570204.925
        39.200
 151561513.939 5                  28841157.012
        34.300
 110755349.425 7  86303006.80647  21075991.842    21075991.2124   21075993.1034
        47.600          46.5004
 108083864.136 8  84065406.026 8  20233473.885    20233474.112    20233482.264
        52.200          48.200
 126383955.133 8                  24050021.215
        48.700
 147352516.272 6                  28040240.125
        36.300
 111044571.540 7  86528343.16946  21131043.748    21131043.3824   21131046.7594
        46.500          37.0004
 106684107.949 8  83130600.82546  20301259.366    20301257.9184   20301258.9804
        48.500          41.8004
 25  1  1  0  9 15.0000000  0 31E34R21R11S31S35R20G03S48G24S33G12G02
                                E15R22R05G11E02G06E36R23E27R13G30R10
                                E11G17R12E30E25G14G19
 123501053.392 8                  23501421.894
        48.800
 107571339.777 8  83666750.038 7  20102230.605    20102230.945    20102238.740
        53.200          47.800
 104681591.128 8  81419167.819 8  19589684.312    19589684.703    19589691.461
        51.900          49.200
 198980485.921 7                  37864734.594
        45.300
 200908324.060 7                  38231600.089
        44.000
 129658247.451 5 100845418.727 6  24246703.841    24246702.775    24246714.096
        33.600          38.500
 121182352.884 7  94427904.71846  23060208.540    23060208.2364   23060215.0394
        42.000          38.6004
 412998648.922 5                  78590773.936
        32.100
 120187183.389 7  93652484.97346  22870815.927    22870815.5164   22870823.5914
        42.900          39.8004
 202136531.718 7                  38465285.930
        44.600
 131785792.040 6 102690306.49145  25077993.064    25077992.4344   25078005.5474
        40.200          30.2004
 135915517.206 6 105908298.08043  25863825.327    25863824.1294   25863825.2834
        39.500          22.7004
 139800287.677 7                  26603089.868
        42.000
 105637991.093 8  82163015.528 8  19789515.242    19789515.517    19789521.816
        52.600          49.500
 131092638.461 6 101960963.243 5  24523588.437    24523588.931    24523597.116
        39.700          35.900
 125239915.488 6  97589622.88944  23832345.094    23832344.6614   23832351.1554
        41.300          27.5004
 125725845.175 8                  23924794.788
        48.100
 109758594.869 8  85526317.29148  20886330.077    20886329.6884   20886334.9214
        48.800          50.7004
 129914757.748 7                  24721914.487
        46.700
 124399903.302 7                  23255240.784    23255240.701
        42.700
 145414356.669 6                  27671407.404
        38.800
 128321725.656 5                  24030523.696    24030523.234
        35.700
 131915032.435 5 102791012.82844  25102581.259    25102580.3964   25102591.2764
        35.700          26.4004
 125705164.953 6                  23581946.625    23581946.690
        38.200
 151605730.534 5                  28849571.592
        32.900
 110774628.816 7  86318029.72747  21079660.823    21079660.1894   21079661.8424
        47.900          46.5004
 108044339.349 8  84034664.580 8  20226074.600    20226074.583    20226083.321
        52.200          48.300
 126365260.473 8                  24046463.735
        48.900
 147390163.822 5                  28047404.197
        34.000
 111076380.362 7  86553129.25746  21137096.693    21137096.3094   21137099.7574
        46.700          37.1004
 106676355.357 8  83124559.87046  20299783.976    20299782.5234   20299783.6714
        48.700          41.9004
 25  1  1  0  9 30.0000000  0 31E34R21R11S31S35R20G03S48G24S33G12G02
                                E15R22R05G11E02G06E36R23E27R13G30R10
                                E11G17R12E30E25G14G19
 123485246.455 8                  23498414.043
        48.900
 107607336.555 8  83694747.547 8  20108957.495    20108957.669    20108965.688
        52.800          48.000
 104710833.603 8  81441911.970 8  19595156.939    19595157.147    19595163.547
        52.200          49.200
 198980494.097 7                  37864735.461
        45.200
 200908360.412 7                  38231605.754
        44.000
 129717619.678 5 100891597.629 6  24257808.512    24257806.449    24257816.678
        34.300          38.800
 121179966.906 7  94426045.55846  23059754.789    23059754.4994   23059761.0264
        42.300          38.6004
 412998766.710 5                  78590769.401
        31.200
 120178987.658 7  93646098.74546  22869256.497    22869256.0824   22869263.7594
        43.100          39.8004
 202136530.367 7                  38465283.779
        44.600
 131733219.066 6 102649340.77444  25067989.045    25067988.4284   25068000.6684
        40.700          29.1004
 135966664.945 6 105948154.12343  25873557.224    25873555.9904   25873558.3964
        39.800          21.4004
 139756295.519 6                  26594718.235
        41.600
 105615650.482 8  82145639.552 8  19785329.787    19785330.298    19785336.739
        52.500          49.600
 131065822.516 7 101940106.383 6  24518573.334    24518573.161    24518580.488
        42.500          38.100
 125187074.037 7  97548447.90444  23822289.363    23822288.9344   23822295.6614
        42.200          27.7004
 125744256.359 8                  23928298.220
        48.200
 109727714.513 8  85502254.72348  20880453.730    20880453.3464   20880458.5254
        49.200          50.7004
 129941092.215 7                  24726925.779
        47.000
 124346079.561 7                  23245179.520    23245179.599
        43.400
 145375919.948 6                  27664093.533
        38.800
 128258444.697 6                  24018672.597    24018673.394
        37.100
 131969849.043 6 102833727.05644  25113011.971    25113011.0954   25113022.2484
        36.600          26.6004
 125767805.738 6                  23593698.892    23593698.852
        38.900
 151649956.713 5                  28857987.629
        34.100
 110793951.171 8  86333086.13047  21083337.577    21083336.9384   21083338.7504
        48.200          46.5004
 108004945.877 8  84004025.275 8  20218699.854    20218700.278    20218709.025
        52.400          48.200
 126346620.579 8                  24042916.646
        48.800
 147427842.628 5                  28054574.025
        34.500
 111108288.846 7  86577993.00746  21143168.784    21143168.4004   21143171.7474
        46.800          37.1004
 106668676.489 8  83118576.36546  20298322.721    20298321.2734   20298322.4204
        48.900          41.9004
 25  1  1  0  9 45.0000000  0 31E34R21R11S31S35R20G03S48G24S33G12G02
                                E15R22R05G11E02G06E36R23E27R13G30R10
                                E11G17R12E30E25G14G19
 123469538.705 8                  23495424.976
        48.700
 107643428.791 8  83722819.291 7  20115702.492    20115702.566    20115710.447
        53.300          47.700
 104740245.365 8  81464787.780 8  19600660.725    19600661.177    19600667.837
        52.200          49.400
 198980504.649 7                  37864733.373
        45.200
 200908399.101 7                  38231615.270
        44.100
 129776971.821 5 100937760.572 6  24268905.923    24268904.944    24268916.278
        34.100          39.900
 121177731.195 7  94424303.49346  23059329.571    23059329.2904   23059335.5654
        42.100          38.8004
 412997286.422 5                  78590764.447
        31.600
 120170942.045 7  93639829.49446  22867725.623    22867725.2344   22867732.6274
        43.000          39.8004
 202136530.850 7                  38465285.550
        45.100
 131680644.268 6 102608373.64344  25057983.720    25057983.0944   25057995.8774
        39.200          29.9004
 136017807.873 6 105988006.29043  25883289.669    25883288.4534   25883290.0424
        39.600          22.2004
 139712343.276 6                  26586354.194
        41.900
 105593453.546 8  82128375.298 8  19781171.764    19781172.091    19781178.533
        52.200          49.700
 131039145.065 7 101919357.127 6  24513582.508    24513582.499    24513590.510
        42.700          39.600
 125134279.658 7  97507309.59244  23812242.944    23812242.5294   23812249.0214
        42.300          27.8004
 125762733.339 8                  23931814.245
        48.100
 109696958.078 8  85478288.71748  20874600.826    20874600.4424   20874605.7264
        49.200          50.8004
 129967502.140 7                  24731951.497
        46.800
 124292323.592 7                  23235129.764    23235130.942
        43.700
 145337481.606 6                  27656779.014
        38.800
 128195174.350 6                  24006825.071    24006825.065
        36.900
 132024646.550 6 102876426.40744  25123439.824    25123438.9574   25123449.6244
        36.100          26.0004
 125830491.704 6                  23605458.900    23605459.653
        39.700
 151694191.254 4                  28866404.895
        29.700
 110813313.862 8  86348173.95047  21087022.126    21087021.4834   21087023.3314
        48.000          46.6004
 107965681.250 8  83973486.172 8  20211349.414    20211349.960    20211358.048
        51.900          48.100
 126328032.719 8                  24039379.518
        48.700
 147465549.831 5                  28061749.166
        34.600
 111140294.055 7  86602932.13246  21149259.158    21149258.7744   21149262.1594
        46.600          37.3004
 106661068.335 8  83112647.95947  20296875.049    20296873.6054   20296874.5984
        48.700          42.0004
 25  1  1  0 10  0.0000000  0 31E34R21R11S31S35R20G03S48G24S33G12G02
                                E15R22R05G11E02G06E36R23E27R13G30R10
                                E11G17R12E30E25G14G19
 123453922.008 8                  23492453.103
        48.800
 107679607.887 8  83750958.582 7  20122463.017    20122463.275    20122471.142
        53.200          47.800
 104769817.813 8  81487788.575 8  19606194.929    19606195.240    19606201.939
        52.300          49.500
 198980508.799 7                  37864731.629
        45.100
 200908432.139 7                  38231622.402
        44.300
 129836295.366 5 100983901.005 6  24279997.771    24279998.901    24280008.818
        33.700          38.400
 121175637.635 6  94422672.18246  23058931.081    23058930.8044   23058937.0814
        41.200          38.7004
 412997400.160 5                  78590762.792
        32.600
 120163038.401 7  93633670.86746  22866221.492    22866221.1034   22866228.7044
        43.800          40.0004
 202136525.656 7                  38465283.905
        44.700
 131628059.680 6 102567398.88045  25047977.390    25047976.7644   25047989.2534
        39.800          30.0004
 136068937.671 6 106027848.24343  25893018.844    25893017.6424   25893019.1664
        38.900          21.9004
 139668422.955 6                  26577996.604
        41.500
 105571392.018 8  82111216.385 8  19777038.450    19777038.944    19777045.672
        52.600          49.900
 131012598.120 7 101898709.485 6  24508615.749    24508615.877    24508623.678
        42.000          37.800
 125081524.408 6  97466201.76744  23802203.898    23802203.5014   23802209.7454
        41.600          28.2004
 125781267.984 8                  23935341.390
        48.100
 109666317.547 8  85454413.02748  20868770.199    20868769.8154   20868774.9764
        49.000          51.0004
 129993979.090 7                  24736990.000
        47.000
 124238627.138 7                  23225091.535    23225092.253
        44.100
 145299033.536 6                  27649462.868
        39.400
 128131906.699 5                  23994975.999    23994974.814
        34.600
 132079416.560 5 102919104.31044  25133862.867    25133861.9514   25133871.9574
        35.300          26.0004
 125893213.746 6                  23617225.208    23617225.624
        40.100
 151738423.566 5                  28874821.209
        32.200
 110832708.406 8  86363286.59947  21090712.637    21090711.9854   21090713.9854
        48.000          46.7004
 107926537.524 8  83943041.109 8  20204021.486    20204021.659    20204030.275
        51.700          48.100
 126309488.913 8                  24035850.784
        48.600
 147503277.149 5                  28068928.046
        34.600
 111172387.752 7  86627940.20346  21155366.591    21155366.2114   21155369.3994
        46.400          37.5004
 106653522.680 8  83106768.25747  20295438.980    20295437.5414   20295438.6844
        49.200          42.2004
 25  1  1  0 10 15.0000000  0 31E34R21R11S31S35R20G03S48G24S33G12G02
                                E15R22R05G11E02G06E36R23E27R13G30R10
                                E11G17R12E30E25G14G19
 123438405.098 8                  23489500.183
        48.900
 107715882.236 8  83779171.970 7  20129242.010    20129242.228    20129249.975
        52.900          47.700
 104799559.770 8  81510921.215 8  19611760.590    19611760.979    19611767.571
        52.100          49.500
 198980516.278 7                  37864737.219
        45.200
 200908467.728 7                  38231629.092
        44.000
 129895599.986 5 101030027.151 6  24291088.569    24291088.422    24291098.715
        34.300          39.000
 121173695.050 7  94421158.52546  23058561.352    23058561.0844   23058567.3854
        42.300          38.8004
 412997516.364 5                  78590757.914
        32.600
 120155285.444 7  93627629.66046  22864745.980    22864745.5744   22864753.3464
        42.800          40.1004
 202136524.858 7                  38465290.210
        45.000
 131575474.160 6 102526423.39445  25037970.328    25037969.6984   25037982.6614
        40.400          30.6004
 136120062.339 6 106067685.82643  25902747.108    25902745.9194   25902747.2394
        39.300          21.8004
 139624543.424 7                  26569646.434
        42.000
 105549474.725 8  82094169.668 8  19772933.025    19772933.382    19772939.662
        52.600          49.700
 130986190.799 7 101878170.386 6  24503676.247    24503676.925    24503683.966
        44.900          40.800
 125028817.300 7  97425131.45744  23792174.362    23792173.9734   23792179.8964
        42.100          28.3004
 125799869.037 8                  23938880.771
        48.300
 109635801.794 8  85430634.57048  20862963.216    20862962.8324   20862967.9754
        48.900          51.0004
 130020531.602 7                  24742042.617
        47.000
 124184999.375 7                  23215066.065    23215066.571
        44.000
 145260584.591 6                  27642145.274
        39.300
 128068651.275 6                  23983131.091    23983130.465
        36.400
 132134167.382 5 102961767.30644  25144280.273    25144279.3794   25144290.3104
        35.000          25.1004
 125955980.591 6                  23628998.642    23628999.151
        38.300
 151782662.786 5                  28883239.768
        30.300
 110852143.257 7  86378430.66047  21094411.123    21094410.4844   21094412.3164
        47.700          46.7004
 107887524.237 8  83912697.508 8  20196718.011    20196718.475    20196727.137
        51.600          48.200
 126290998.003 8                  24032332.100
        49.000
 147541033.310 5                  28076113.178
        35.200
 111204578.548 7  86653023.93746  21161492.303    21161491.9324   21161495.1194
        46.400          37.4004
 106646048.238 8  83100944.04547  20294016.474    20294015.0304   20294016.3154
        48.900          42.2004
 25  1  1  0 10 30.0000000  0 31E34R21R11S31S35R20G03S48G24S33G12G02
                                E15R22R05G11E02G06E36R23E27R13G30R10
                                E11G17R12E30E25G14G19
 123422986.742 8                  23486566.167
        48.400
 107752250.147 8  83807458.105 7  20136038.055    20136038.160    20136046.237
        52.700          47.800
 104829469.727 8  81534184.495 8  19617357.981    19617358.261    19617364.925
        52.200          49.700
 198980525.647 7                  37864737.652
        45.300
 200908504.883 7                  38231639.377
        44.200
 129954884.145 5 101076137.565 6  24302175.144    24302174.138    24302184.717
        33.800          38.200
 121171902.329 7  94419761.64246  23058219.986    23058219.7184   23058226.1294
        42.400          38.7004
 412997633.173 5                  78590754.006
        32.200
 120147681.997 7  93621704.95346  22863299.304    22863298.9074   22863306.3554
        42.800          40.1004
 202136523.084 7                  38465289.700
        44.900
 131522886.704 6 102485446.39045  25027963.062    25027962.4364   25027975.3224
        39.400          30.5004
 136171180.465 6 106107518.05943  25912474.765    25912473.5584   25912474.5744
        39.000          22.3004
 139580703.595 6                  26561303.770
        41.500
 105527700.461 8  82077234.148 8  19768853.667    19768854.157    19768860.715
        52.600          49.700
 130959921.941 7 101857738.866 6  24498763.150    24498762.823    24498769.782
        42.200          40.200
 124976157.324 7  97384097.85844  23782152.599    23782152.2024   23782158.7844
        42.500          28.3004
 125818535.278 8                  23942433.056
        48.100
 109605409.735 8  85406952.49448  20857179.713    20857179.3294   20857184.5124
        48.800          50.9004
 130047158.256 7                  24747109.359
        46.700
 124131439.388 7                  23205054.039    23205053.678
        42.500
 145222133.596 6                  27634828.687
        38.400
 128005406.932 5                  23971285.956    23971285.642
        35.300
 132188897.544 5 103004414.16744  25154695.248    25154694.3854   25154705.5464
        35.100          26.0004
 126018790.942 6                  23640784.329    23640784.358
        39.800
 151826908.218 5                  28891659.124
        30.900
 110871617.217 7  86393605.18747  21098116.850    21098116.2114   21098118.0754
        47.800          46.6004
 107848640.413 8  83882454.565 8  20189438.961    20189439.210    20189447.670
        51.900          48.000
 126272558.921 8                  24028823.129
        48.800
 147578816.925 5                  28083303.152
        35.200
 111236865.129 7  86678182.31046  21167636.255    21167635.8844   21167639.0534
        46.300          37.3004
 106638643.713 8  83095174.31847  20292607.533    20292606.0854   20292607.2444
        48.700          42.1004
 25  1  1  0 10 45.0000000  0 31E34R21R11S31S35R20G03S48G24S33G12G02
                                E15R22R05G11E02G06E36R23E27R13G30R10
                                E11G17R12E30E25G14G19
 123407665.131 8                  23483650.492
        48.500
 107788709.417 8  83835815.337 7  20142851.481    20142851.594    20142859.568
        52.600          47.800
 104859545.689 8  81557576.915 8  19622986.312    19622986.558    19622993.396
        52.200          49.800
 198980534.129 7                  37864735.564
        45.200
 200908542.760 7                  38231640.615
        44.000
 130014144.940 5 101122229.634 6  24313256.410    24313256.540    24313266.435
        34.000          38.700
 121170257.685 6  94418480.13846  23057906.874    23057906.5844   23057913.1244
        41.700          38.6004
 412997749.243 5                  78590747.334
        32.300
 120140226.209 7  93615895.30646  22861880.238    22861879.8414   22861887.4564
        42.600          40.0004
 202136522.634 7                  38465290.129
        45.000
 131470295.555 6 102444466.49145  25017955.240    25017954.6104   25017966.9144
        40.700          30.3004
 136222290.474 6 106147343.90843  25922200.830    25922199.6054   25922200.4654
        38.000          21.5004
 139536901.800 7                  26552968.460
        42.000
 105506067.276 8  82060408.375 8  19764801.374    19764801.512    19764807.941
        52.800          49.600
 130933790.566 7 101837414.480 6  24493874.165    24493874.060    24493881.347
        43.000          39.900
 124923542.877 7  97343099.73444  23772140.400    23772139.9984   23772146.4144
        42.100          28.5004
 125837264.902 8                  23945997.052
        48.000
 109575139.666 8  85383365.47248  20851419.192    20851418.7954   20851424.2404
        49.000          51.0004
 130073856.961 7                  24752190.115
        46.800
 124077945.398 7                  23195053.419    23195053.641
        42.900
 145183678.878 6                  27627510.653
        38.600
 127942172.108 6                  23959443.991    23959444.101
        36.200
 132243604.863 6 103047043.22844  25165105.707    25165104.8584   25165116.4984
        36.300          25.8004
 126081642.406 6                  23652572.974    23652572.682
        38.500
 151871157.124 5                  28900079.077
        31.800
 110891128.318 7  86408808.65547  21101829.705    21101829.0624   21101830.9214
        47.600          46.6004
 107809884.668 8  83852311.276 8  20182183.923    20182184.124    20182192.517
        51.800          48.100
 126254169.943 8                  24025323.770
        48.700
 147616626.136 5                  28090498.055
        35.100
 111269245.561 7  86703413.80546  21173798.078    21173797.7034   21173800.8594
        46.500          37.4004
 106631307.261 8  83089457.63447  20291211.397    20291209.9494   20291211.1194
        49.000          42.1004
 25  1  1  0 11  0.0000000  0 30E34R21R11S31S35R20G03S48G24S33G12G02
                                E15R22R05G11E02G06E36R23E27R13G30R10
                                G17R12E30E25G14G19
 123392440.572 8                  23480753.412
        48.700
 107825259.935 8  83864243.518 7  20149681.664    20149681.930    20149689.650
        52.700          47.800
 104889787.801 8  81581098.559 8  19628645.529    19628645.848    19628652.633
        52.100          49.600
 198980542.837 7                  37864745.826
        45.400
 200908579.599 7                  38231645.297
        43.900
 130073382.646 5 101168303.694 6  24324335.059    24324335.258    24324344.593
        34.800          38.400
 121168761.506 7  94417314.32346  23057622.125    23057621.8354   23057628.3984
        42.100          38.6004
 412997865.204 5                  78590746.891
        32.400
 120132918.376 7  93610200.94846  22860489.700    22860489.3074   22860496.8134
        42.900          40.0004
 202136521.517 7                  38465283.896
        44.800
 131417701.223 6 102403484.12145  25007946.628    25007945.9944   25007958.4034
        40.200          30.5004
 136273393.003 6 106187164.13843  25931925.124    25931923.8684   25931925.1794
        39.000          21.4004
 139493138.486 7                  26544640.581
        42.100
 105484575.483 8  82043692.593 8  19760775.056    19760775.384    19760781.826
        52.400          49.600
 130907797.076 7 101817197.316 6  24489011.499    24489011.224    24489019.459
        42.100          40.000
 124870974.528 7  97302137.51644  23762137.168    23762136.7754   23762142.7954
        42.000          28.3004
 125856058.197 8                  23949573.393
        48.100
 109544992.041 8  85359873.86448  20845682.233    20845681.8314   20845687.2644
        48.700          50.9004
 130100627.804 7                  24757284.398
        46.900
 124024517.917 7                  23185065.803    23185065.346
        43.500
 145145220.768 6                  27620192.316
        39.400
 127878947.531 6                  23947605.634    23947604.935
        36.300
 132298289.379 5 103089654.51444  25175512.501    25175511.6614   25175522.9124
        35.400          26.2004
 126144534.945 6                  23664372.930    23664372.851
        40.000
 110910676.727 8  86424041.19647  21105549.628    21105548.9854   21105550.8734
        48.000          46.6004
 107771257.729 8  83822268.151 8  20174952.840    20174953.228    20174961.514
        52.200          48.000
 126235831.521 8                  24021834.113
        48.700
 147654461.187 5                  28097698.092
        33.500
 111301720.078 7  86728718.61946  21179977.657    21179977.2864   21179980.5614
        46.900          37.2004
 106624039.203 8  83083794.24347  20289828.166    20289826.7134   20289828.0014
        48.900          42.1004
 25  1  1  0 11 15.0000000  0 30E34R21R11S31S35R20G03S48G24S33G12G02
                                E15R22R05G11E02G06E36R23E27R13G30R10
                                G17R12E30E25G14G19
 123377311.342 8                  23477874.330
        48.900
 107861899.458 8  83892740.917 7  20156528.603    20156528.977    20156536.705
        53.100          47.800
 104920193.981 8  81604747.798 8  19634335.697    19634336.037    19634342.692
        52.400          49.700
 198980550.341 7                  37864743.617
        45.600
 200908614.787 7                  38231658.417
        44.200
 130132595.362 5 101214358.444 6  24335407.599    24335407.219    24335417.516
        33.500          39.400
 121167412.132 6  94416262.90446  23057365.607    23057365.3124   23057371.4864
        41.100          38.4004
 412997978.438 5                  78590737.326
        32.300
 120125756.784 7  93604620.54346  22859126.864    22859126.4714   22859134.0864
        43.600          40.0004
 202136519.823 7                  38465283.945
        44.900
 131365102.229 6 102362498.12245  24997936.998    24997936.3774   24997949.0164
        40.900          30.6004
 136324485.508 6 106226976.59043  25941648.000    25941646.7354   25941647.6184
        39.700          22.1004
 139449412.077 7                  26536319.617
        42.100
 105463223.292 8  82027085.367 8  19756774.871    19756775.200    19756781.741
        52.300          49.800
 130881940.238 6 101797086.374 6  24484174.549    24484173.899    24484181.999
        40.300          38.600
 124818450.788 6  97261210.06344  23752142.020    23752141.6274   23752148.1064
        41.700          28.3004
 125874913.456 8                  23953161.445
        48.300
 109514965.273 8  85336476.42848  20839968.906    20839968.5174   20839973.3094
        48.800          50.8004
 130127468.814 7                  24762391.935
        47.100
 123971155.455 7                  23175090.315    23175090.010
        43.400
 145106757.635 6                  27612872.910
        40.100
 127815731.943 5                  23935766.310    23935765.076
        35.800
 132352949.027 5 103132246.44044  25185913.720    25185912.8804   25185923.9514
        35.100          24.8004
 126207466.083 6                  23676178.893    23676178.114
        39.600
 110930260.743 8  86439301.47547  21109276.331    21109275.6794   21109277.6134
        48.200          46.6004
 107732758.255 8  83792324.166 7  20167745.603    20167745.809    20167753.947
        52.000          47.700
 126217542.052 8                  24018353.783
        49.100
 147692320.266 5                  28104902.473
        35.100
 111334286.840 7  86754095.31446  21186174.723    21186174.3484   21186177.7384
        46.900          37.3004
 106616837.771 8  83078182.76847  20288457.926    20288456.4784   20288457.5564
        49.100          42.1004
 25  1  1  0 11 30.0000000  0 30E34R21R11S31S35R20G03S48G24S33G12G02
                                E15R22R05G11E02G06E36R23E27R13G30R10
                                G17R12E30E25G14G19
 123362277.086 8                  23475013.433
        48.700
 107898627.184 8  83921306.940 7  20163391.711    20163392.215    20163400.261
        52.600          47.800
 104950763.854 8  81628524.373 8  19640056.088    19640056.785    19640063.708
        52.000          49.500
 198980555.238 7                  37864745.107
        45.800
 200908649.215 7                  38231667.548
        44.500
 130191782.657 5 101260393.477 6  24346474.589    24346475.196    24346485.206
        33.300          39.200
 121166209.290 6  94415325.65446  23057136.896    23057136.6064   23057142.5214
        41.300          38.4004
 412998089.849 5                  78590729.331
        32.600
 120118741.071 7  93599153.81046  22857791.302    22857790.9004   22857798.9854
        42.800          40.0004
 202136515.244 7                  38465283.283
        44.800
 131312498.457 6 102321508.38244  24987926.664    24987926.0384   24987938.1574
        39.900          29.8004
 136375567.956 6 106266781.22943  25951368.130    25951366.8744   25951368.2064
        39.100          22.0004
 139405722.364 6                  26528005.794
        41.300
 105442010.320 8  82010586.428 8  19752801.227    19752801.332    19752807.872
        52.200          49.900
 130856220.059 7 101777081.861 6  24479362.409    24479362.706    24479370.198
        42.700          38.300
 124765971.522 7  97220317.25544  23742155.820    23742155.4544   23742161.2784
        42.600          28.3004
 125893830.347 8                  23956761.189
        48.100
 109485059.134 8  85313172.99448  20834277.577    20834277.1884   20834282.2974
        48.900          50.9004
 130154379.459 7                  24767513.274
        46.900
 123917857.667 7                  23165126.393    23165126.551
        43.000
 145068289.238 6                  27605552.101
        39.300
 127752525.150 5                  23923928.831    23923927.953
        34.800
 132407583.132 5 103174818.43344  25196310.039    25196309.2034   25196320.8004
        35.900          26.0004
 126270435.552 6                  23687991.141    23687991.363
        39.500
 110949879.968 7  86454589.19047  21113009.748    21113009.0964   21113011.0374
        47.600          46.7004
 107694386.549 8  83762479.558 8  20160562.353    20160562.348    20160571.037
        52.200          48.000
 126199301.330 8                  24014882.516
        48.900
 147730202.850 5                  28112111.058
        35.300
 111366945.392 7  86779543.53246  21192389.740    21192389.3604   21192392.4444
        46.800          37.3004
 106609702.440 8  83072622.80247  20287100.053    20287098.6054   20287099.7264
        49.200          42.1004
 25  1  1  0 11 45.0000000  0 30E34R21R11S31S35R20G03S48G24S33G12G02
                                E15R22R05G11E02G06E36R23E27R13G30R10
                                G17R12E30E25G14G19
 123347342.108 8                  23472171.434
        48.500
 107935447.206 8  83949944.752 7  20170272.401    20170272.902    20170281.024
        52.200          47.900
 104981501.541 8  81652431.466 8  19645808.204    19645808.687    19645815.548
        52.000          49.600
 198980562.506 7                  37864744.445
        45.600
 200908685.316 7                  38231669.757
        44.000
 130250948.078 5 101306411.311 6  24357539.774    24357539.148    24357548.904
        33.900          38.800
 121165157.372 7  94414506.01846  23056936.660    23056936.3614   23056942.2904
        42.200          38.4004
 412998203.400 5                  78590729.318
        32.500
 120111875.560 7  93593804.12446  22856485.220    22856484.8184   22856492.4264
        43.600          40.1004
 202136512.865 7                  38465282.939
        44.600
 131259894.191 6 102280518.26945  24977916.682    24977916.0394   24977927.6654
        40.300          30.2004
 136426644.195 6 106306581.15743  25961087.686    25961086.4344   25961087.7874
        38.600          20.6004
 139362073.787 7                  26519699.743
        42.000
 105420940.890 8  81994199.152 8  19748854.099    19748854.307    19748860.699
        52.200          49.900
 130830641.707 7 101757187.841 6  24474577.504    24474577.426    24474585.499
        42.100          40.000
 124713541.286 7  97179462.63044  23732178.400    23732178.0434   23732183.7834
        42.600          28.3004
 125912813.149 8                  23960373.463
        48.100
 109455278.060 8  85289967.00848  20828610.467    20828610.0784   20828615.0844
        48.800          50.9004
 130181363.796 7                  24772648.019
        46.700
 123864629.333 7                  23155176.166    23155176.413
        43.500
 145029819.992 6                  27598231.759
        38.800
 127689332.201 6                  23912095.180    23912094.077
        36.100
 132462195.619 5 103217373.59344  25206703.081    25206702.2234   25206713.5484
        34.000          25.7004
 126333447.217 6                  23699812.236    23699812.052
        39.500
 110969538.384 7  86469907.44447  21116750.740    21116750.0884   21116751.9484
        47.800          46.7004
 107656147.119 8  83732737.832 7  20153404.004    20153404.148    20153412.461
        52.300          47.900
 126181113.770 8                  24011421.440
        48.900
 147768113.283 5                  28119324.774
        34.000
 111399699.916 7  86805066.53746  21198622.611    21198622.2274   21198625.4614
        46.900          37.2004
 106602637.588 8  83067117.75247  20285755.550    20285754.0974   20285755.3104
        49.100          42.1004
 25  1  1  0 12  0.0000000  0 30E34R21R11S31S35R20G03S48G24S33G12G02
                                E15R22R05G11E02G06E36R23E27R13G30R10
                                G17R12E30E25G14G19
 123332503.088 8                  23469347.536
        48.600
 107972355.477 8  83978651.165 7  20177169.742    20177170.139    20177178.046
        52.700          47.500
 105012403.399 8  81676466.245 8  19651591.079    19651591.680    19651598.585
        52.000          49.700
 198980569.038 7                  37864747.789
        45.500
 200908719.912 7                  38231675.011
        44.000
 130310089.237 5 101352410.652 6  24368599.639    24368598.674    24368607.897
        34.900          39.200
 121164253.085 6  94413801.42046  23056764.479    23056764.1844   23056770.2134
        41.800          38.4004
 412998315.705 5                  78590724.265
        32.400
 120105156.913 7  93588568.87446  22855206.670    22855206.2684   22855213.8504
        43.000          40.2004
 202136509.739 7                  38465283.574
        44.800
 131207286.317 6 102239525.33945  24967905.078    24967904.4214   24967916.4224
        40.100          30.1004
 136477710.527 6 106346373.47643  25970805.280    25970804.0334   25970805.1154
        39.900          22.0004
 139318463.194 6                  26511400.818
        41.500
 105400011.599 8  81977920.846 8  19744933.231    19744933.490    19744939.918
        52.200          50.000
 130805201.093 6 101737400.839 6  24469818.096    24469818.395    24469825.176
        41.600          38.600
 124661157.002 7  97138643.83244  23722209.209    23722208.8474   23722215.3424
        42.900          28.8004
 125931858.582 8                  23963997.536
        48.100
 109425618.860 8  85266855.99148  20822966.529    20822966.1364   20822971.0604
        49.200          50.9004
 130208418.345 7                  24777796.204
        46.800
 123811467.242 7                  23145237.347    23145238.196
        43.900
 144991346.640 6                  27590910.371
        39.100
 127626149.974 5                  23900262.729    23900262.154
        35.700
 132516782.979 5 103259909.16644  25217091.553    25217090.7404   25217100.9624
        34.600          25.3004
 126396497.166 6                  23711639.770    23711639.910
        38.300
 110989232.744 7  86485253.72247  21120498.417    21120497.7834   21120499.6734
        47.700          46.7004
 107618037.278 8  83703096.885 7  20146269.559    20146269.791    20146277.835
        52.500          47.900
 126162976.201 8                  24007970.073
        49.000
 147806048.122 5                  28126544.270
        34.600
 111432547.018 7  86830661.67846  21204873.200    21204872.8074   21204876.0114
        46.900          37.2004
 106595639.712 8  83061664.89147  20284423.740    20284422.2834   20284423.6214
        48.900          42.1004
 25  1  1  0 12 15.0000000  0 30E34R21R11S31S35R20G03S48G24S33G12G02
                                E15R22R05G11E02G06E36R23E27R13G30R10
                                G17R12E30E25G14G19
 123317762.580 8                  23466542.474
        48.400
 108009354.345 8  84007428.051 7  20184083.966    20184084.157    20184092.458
        52.200          47.700
 105043471.865 8  81700630.596 8  19657404.986    19657405.558    19657412.513
        52.000          49.700
 198980576.954 7                  37864747.472
        45.700
 200908756.189 7                  38231682.970
        44.200
 130369207.496 5 101398392.067 6  24379652.875    24379653.661    24379662.938
        34.500          38.800
 121163499.077 7  94413213.92446  23056620.820    23056620.5434   23056626.7414
        42.000          38.4004
 412998428.650 5                  78590715.228
        32.200
 120098587.627 7  93583450.01346  22853956.795    22853956.3984   22853963.6074
        43.500          40.2004
 202136508.108 7                  38465281.078
        45.200
 131154677.579 6 102198531.73945  24957894.286    24957893.6254   24957905.6444
        40.400          30.9004
 136528768.143 6 106386158.48643  25980520.615    25980519.3504   25980520.7934
        38.100          20.9004
 139274893.259 6                  26503109.565
        41.400
 105379225.033 8  81961753.561 8  19741038.843    19741039.521    19741046.092
        52.200          50.000
 130779901.403 7 101717723.238 6  24465084.712    24465085.477    24465093.148
        42.600          41.000
 124608821.432 6  97097862.97744  23712250.628    23712250.2754   23712256.0334
        41.600          28.4004
 125950969.196 7                  23967634.206
        47.600
 109396084.218 8  85243842.03448  20817346.074    20817345.6814   20817350.7364
        48.700          50.9004
 130235545.349 7                  24782958.482
        46.400
 123758373.895 7                  23135313.560    23135312.889
        43.500
 144952871.781 6                  27583588.908
        38.400
 127562981.422 6                  23888431.224    23888433.063
        36.900
 132571347.338 5 103302426.83444  25227473.987    25227473.1514   25227483.9534
        33.000          24.4004
 126459587.884 6                  23723475.956    23723476.442
        40.000
 111008965.383 7  86500629.81847  21124253.525    21124252.8994   21124254.6734
        47.700          46.7004
 107580059.933 8  83673558.992 7  20139159.927    20139160.300    20139168.447
        52.600          47.700
 126144891.328 8                  24004528.499
        48.400
 147844009.766 5                  28133767.810
        34.100
 111465489.124 7  86856330.84946  21211141.863    21211141.4704   21211144.6944
        46.400          37.2004
 106588711.414 8  83056266.25247  20283105.582    20283104.1294   20283105.1724
        48.700          42.0004
 25  1  1  0 12 30.0000000  0 30E34R21R11S31S35R20G03S48G24S33G12G02
                                E15R22R05G11E02G06E36R23E27R13G30R10
                                G17R12E30E25G14G19
 123303117.958 8                  23463755.833
        48.200
 108046440.759 8  84036273.039 7  20191014.712    20191014.922    20191022.668
        52.600          47.600
 105074704.041 8  81724922.289 8  19663250.059    19663250.184    19663257.447
        51.600          50.000
 198980583.406 7                  37864748.451
        45.800
 200908791.731 7                  38231686.744
        44.100
 130428299.470 5 101444352.827 6  24390702.089    24390703.992    24390712.840
        35.100          38.000
 121162892.806 7  94412741.54546  23056505.020    23056504.7434   23056511.4904
        42.100          38.4004
 412998540.068 5                  78590719.851
        32.400
 120092165.128 7  93578445.53246  22852734.153    22852733.7644   22852741.3384
        44.100          40.3004
 202136504.535 7                  38465283.359
        45.300
 131102065.733 6 102157535.72645  24947881.954    24947881.3064   24947893.8384
        40.300          30.8004
 136579815.841 6 106425935.87843  25990235.411    25990234.1244   25990234.7314
        39.600          22.0004
 139231361.519 6                  26494825.712
        41.500
 105358578.501 8  81945695.185 8  19737171.603    19737171.750    19737178.174
        52.400          49.900
 130754741.075 7 101698154.211 6  24460378.982    24460378.312    24460385.871
        42.200          39.900
 124556532.259 7  97057118.27244  23702300.522    23702300.1834   23702305.7474
        42.200          28.6004
 125970142.356 7                  23971282.784
        47.500
 109366671.659 8  85220923.19948  20811748.928    20811748.5484   20811753.6954
        48.800          50.9004
 130262742.022 7                  24788133.734
        46.700
 123705347.095 7                  23125399.351    23125400.299
        43.600
 144914392.975 6                  27576266.793
        38.800
 127499824.288 5                  23876603.857    23876604.284
        35.700
 132625885.818 5 103344924.32943  25237852.640    25237851.7864   25237862.1024
        32.400          23.4004
 126522716.416 6                  23735319.490    23735318.671
        39.900
 111028733.673 7  86516033.68747  21128015.262    21128014.6454   21128016.4574
        47.800          46.7004
 107542212.838 8  83644122.427 7  20132074.739    20132075.135    20132083.447
        52.400          47.700
 126126856.624 8                  24001096.847
        48.500
 147881995.603 5                  28140996.500
        34.900
 111498523.514 7  86882071.92946  21217428.036    21217427.6344   21217430.8524
        46.900          37.0004
 106581850.046 8  83050919.76047  20281799.882    20281798.4294   20281799.4444
        49.000          42.1004
 25  1  1  0 12 45.0000000  0 30E34R21R11S31S35R20G03S48G24S33G12G02
                                E15R22R05G11E02G06E36R23E27R13G30R10
                                G17R12E30E25G14G19
 123288570.284 8                  23460987.148
        48.300
 108083615.310 8  84065186.588 7  20197961.254    20197961.721    20197969.468
        52.400          47.600
 105106100.862 8  81749342.045 8  19669125.594    19669125.753    19669132.703
        51.700          49.800
 198980590.176 7                  37864750.240
        45.300
 200908826.522 7                  38231691.346
        43.800
 130487366.036 5 101490293.552 6  24401748.331    24401748.891    24401759.152
        33.800          39.400
 121162435.337 6  94412385.11646  23056418.630    23056418.3444   23056424.4324
        41.400          38.1004
 412997050.381 5                  78590715.232
        32.600
 120085890.425 7  93573556.20846  22851539.906    22851539.5134   22851547.1914
        43.200          40.1004
 202136501.947 7                  38465283.082
        45.000
 131049451.874 6 102116538.14445  24937870.229    24937869.5954   24937881.4324
        41.000          30.3004
 136630854.588 6 106465706.61243  25999947.475    25999946.1834   25999947.2874
        37.900          21.3004
 139187869.159 6                  26486549.306
        41.200
 105338072.983 8  81929746.494 8  19733329.814    19733330.193    19733336.742
        52.200          49.800
 130729720.984 7 101678694.175 6  24455697.560    24455697.780    24455706.300
        42.200          39.700
 124504290.690 6  97016410.66144  23692358.895    23692358.5784   23692364.4494
        41.100          28.5004
 125989379.145 7                  23974943.506
        47.400
 109337382.342 8  85198100.40248  20806175.487    20806175.1124   20806180.0904
        49.000          50.7004
 130290009.251 7                  24793322.352
        46.300
 123652387.962 7                  23115498.904    23115498.910
        43.000
 144875911.316 6                  27568943.581
        39.500
 127436679.951 6                  23864780.662    23864780.818
        36.500
 132680399.177 5 103387402.23743  25248226.196    25248225.3074   25248235.7874
        34.200          23.5004
 126585883.278 6                  23747167.931    23747168.359
        39.100
 111048538.582 7  86531466.09347  21131784.034    21131783.4134   21131785.2034
        47.700          46.6004
 107504497.624 8  83614788.415 7  20125014.668    20125014.908    20125023.059
        52.600          47.700
 126108873.269 8                  23997674.488
        48.700
 147920006.616 5                  28148229.778
        34.900
 111531651.144 7  86907885.66246  21223732.067    21223731.6704   21223734.8564
        46.500          36.8004
 106575056.578 8  83045626.17646  20280506.959    20280505.5064   20280506.6404
        48.800          41.8004
 25  1  1  0 13  0.0000000  0 30E34R21R11S31S35R20G03S48G24S33G12G02
                                E15R22R05G11E02G06E36R23E27R13G30R10
                                G17R12E30E25G14G19
 123274119.617 8                  23458237.434
        48.200
 108120877.642 8  84094168.399 7  20204924.865    20204925.294    20204933.045
        52.700          47.700
 105137662.152 8  81773889.704 8  19675031.720    19675031.912    19675038.938
        51.800          49.700
 198980596.190 7                  37864754.533
        45.500
 200908861.737 7                  38231701.277
        43.800
 130546407.208 5 101536214.456 6  24412789.320    24412789.672    24412800.053
        34.300          39.400
 121162126.842 6  94412144.76646  23056358.914    23056358.6424   23056365.6264
        40.900          37.8004
 412997159.792 5                  78590708.806
        32.300
 120079763.589 7  93568782.11746  22850373.924    22850373.5354   22850381.2474
        43.500          40.0004
 202136498.643 7                  38465284.768
        44.800
 130996836.139 6 102075539.09044  24927857.217    24927856.5654   24927868.5934
        40.600          29.9004
 136681883.075 6 106505469.20443  26009657.515    26009656.2554   26009656.8304
        38.700          20.1004
 139144416.400 6                  26478280.364
        41.500
 105317708.581 8  81913907.558 8  19729515.239    19729515.099    19729521.563
        52.100          49.800
 130704841.282 7 101659343.285 6  24451044.898    24451044.976    24451051.158
        43.000          39.100
 124452097.064 7  96975740.40044  23682426.314    23682426.0064   23682432.1304
        42.000          28.5004
 126008679.615 7                  23978616.311
        47.700
 109308216.474 8  85175373.79648  20800625.201    20800624.8214   20800629.9714
        49.000          50.6004
 130317346.771 7                  24798524.766
        46.400
 123599496.745 7                  23105612.469    23105612.269
        43.100
 144837426.973 6                  27561619.999
        39.100
 127373548.813 6                  23852956.631    23852957.687
        36.100
 132734887.124 5 103429860.35344  25258594.293    25258593.4084   25258604.4034
        34.800          24.6004
 126649087.873 6                  23759026.072    23759026.132
        40.000
 111068379.967 8  86546926.91947  21135559.662    21135559.0364   21135560.9164
        48.000          46.6004
 107466914.592 8  83585557.213 7  20117978.981    20117979.177    20117987.167
        52.400          47.800
 126090941.494 8                  23994262.219
        48.500
 147958042.739 5                  28155467.518
        35.200
 111564871.959 7  86933772.00846  21230053.845    21230053.4434   21230056.4914
        46.400          36.7004
 106568331.016 8  83040385.50646  20279227.404    20279225.9604   20279226.7814
        48.800          41.7004
 25  1  1  0 13 15.0000000  0 30E34R21R11S31S35R20G03S48G24S33G12G02
                                E15R22R05G11E02G06E36R23E27R13G30R10
                                G17R12E30E25G14G19
 123259765.773 8                  23455505.912
        48.200
 108158227.161 8  84123218.031 7  20211904.016    20211904.576    20211912.528
        51.700          47.500
 105169387.592 8  81798565.051 8  19680968.595    19680968.863    19680975.836
        51.900          49.600
 198980601.998 7                  37864750.750
        45.300
 200908896.323 7                  38231706.598
        44.200
 130605422.108 5 101582114.556 6  24423827.057    24423826.423    24423836.496
        35.100          39.400
 121161967.192 6  94412020.40646  23056328.252    23056327.9664   23056335.1434
        41.000          37.8004
 412997268.677 5                  78590701.147
        32.400
 120073784.433 7  93564123.09446  22849236.376    22849235.9874   22849243.4654
        43.400          40.0004
 202136495.014 7                  38465277.600
        44.800
 130944218.610 6 102034538.63744  24917844.390    24917843.7244   24917855.3654
        39.600          29.9004
 136732902.403 6 106545225.15843  26019366.000    26019364.7534   26019365.3044
        38.100          20.5004
 139101003.209 6                  26470019.351
        41.000
 105297485.032 8  81898178.167 8  19725726.144    19725726.677    19725732.985
        52.700          49.800
 130680102.944 7 101640102.449 6  24446415.473    24446416.158    24446423.328
        42.800          40.000
 124399951.455 7  96935107.55644  23672503.901    23672503.6204   23672509.2024
        42.300          28.5004
 126028043.624 7                  23982301.094
        47.700
 109279174.000 8  85152743.34148  20795098.704    20795098.3244   20795103.3134
        48.900          50.7004
 130344754.247 7                  24803740.137
        46.400
 123546673.712 7                  23095737.151    23095736.932
        43.000
 144798939.851 6                  27554295.982
        38.700
 127310431.183 5                  23841136.172    23841136.224
        35.800
 132789349.152 6 103472298.25844  25268958.264    25268957.3794   25268967.9474
        36.000          25.3004
 126712329.994 6                  23770888.268    23770889.293
        39.500
 111088257.574 7  86562415.96947  21139342.114    21139341.4884   21139343.5114
        47.900          46.6004
 107429464.374 8  83556429.314 8  20110968.011    20110968.204    20110976.562
        52.400          48.000
 126073061.293 8                  23990859.823
        48.600
 147996103.787 5                  28162710.224
        34.500
 111598185.724 7  86959730.78446  21236393.308    21236392.9064   21236395.8624
        46.800          36.7004
 106561673.208 8  83035197.63946  20277960.332    20277958.8844   20277959.8194
        48.800          41.7004
 25  1  1  0 13 30.0000000  0 30E34R21R11S31S35R20G03S48G24S33G12G02
                                E15R22R05G11E02G06E36R23E27R13G30R10
                                G17R12E30E25G14G19
 123245510.785 8                  23452793.371
        48.500
 108195665.490 8  84152336.731 7  20218900.716    20218901.149    20218908.950
        52.400          47.500
 105201278.998 8  81823369.476 8  19686936.487    19686936.825    19686944.021
        51.700          49.600
 198980610.349 7                  37864754.439
        45.300
 200908933.296 7                  38231713.784
        44.200
 130664414.060 5 101627997.350 6  24434857.435    24434858.533    24434868.347
        34.700          40.500
 121161958.461 6  94412013.63746  23056327.595    23056327.2964   23056333.4034
        41.700          37.6004
 412997378.641 5                  78590696.210
        32.100
 120067954.948 7  93559580.70146  22848127.301    22848126.9214   22848134.1454
        43.600          39.9004
 202136493.862 7                  38465282.702
        45.200
 130891601.422 6 101993538.44644  24907831.087    24907830.4304   24907842.0424
        40.100          29.4004
 136783912.847 6 106584973.87143  26029072.785    26029071.5564   26029072.1054
        38.800          21.5004
 139057631.777 6                  26461765.815
        41.600
 105277404.388 8  81882559.931 8  19721964.637    19721964.894    19721971.188
        52.400          49.700
 130655507.949 7 101620973.073 6  24441814.394    24441814.809    24441822.825
        42.100          41.200
 124347856.107 6  96894513.87244  23662589.933    23662589.6384   23662595.7764
        41.800          28.3004
 126047473.182 7                  23985998.195
        47.900
 109250257.082 8  85130210.72348  20789595.986    20789595.6154   20789600.5574
        48.900          50.6004
 130372233.471 7                  24808969.125
        46.700
 123493920.686 6                  23085874.513    23085874.491
        41.800
 144760452.090 6                  27546971.668
        39.400
 127247329.404 6                  23829319.117    23829321.293
        36.600
 132843787.060 5 103514717.37344  25279317.140    25279316.2864   25279327.6454
        34.800          24.5004
 126775611.646 6                  23782760.867    23782760.494
        39.200
 111108173.361 7  86577934.76647  21143131.813    21143131.1874   21143133.3814
        47.900          46.5004
 107392149.123 8  83527406.391 8  20103982.837    20103982.734    20103991.127
        52.200          48.000
 126055234.745 8                  23987467.309
        48.900
 148034191.644 6                  28169958.751
        36.200
 111631594.329 7  86985763.46346  21242750.705    21242750.3084   21242753.2884
        46.800          36.6004
 106555085.229 8  83030064.17946  20276706.770    20276705.3264   20276706.1374
        48.900          41.5004
 25  1  1  0 13 45.0000000  0 30E34R21R11S31S35R20G03S48G24S33G12G02
                                E15R22R05G11E02G06E36R23E27R13G30R10
                                G17R12E30E25G14G19
 123231355.023 8                  23450099.566
        48.500
 108233192.723 8  84181524.569 7  20225913.458    20225913.852    20225921.715
        52.500          47.500
 105233336.498 8  81848303.081 8  19692935.592    19692935.896    19692943.060
        51.400          49.500
 198980620.035 7                  37864758.812
        45.700
 200908971.170 7                  38231728.764
        44.500
 130723381.974 5 101673861.165 6  24445884.261    24445885.331    24445895.909
        32.400          37.600
 121162101.097 7  94412124.82346  23056355.155    23056354.8424   23056360.5734
        42.300          37.8004
 412997490.926 5                  78590679.839
        32.300
 120062275.507 7  93555155.22346  22847046.390    22847046.0154   22847053.3764
        43.100          40.0004
 202136493.694 7                  38465281.186
        45.200
 130838985.172 6 101952539.00245  24897819.442    24897818.8034   24897829.6104
        40.800          30.1004
 136834915.110 6 106624716.18543  26038777.529    26038776.2734   26038777.2614
        38.100          20.6004
 139014302.584 6                  26453520.372
        41.700
 105257466.951 8  81867053.072 8  19718229.350    19718229.810    19718236.346
        52.200          49.500
 130631056.804 6 101601955.477 6  24437241.472    24437241.484    24437248.136
        41.000          39.500
 124295811.655 7  96853959.84344  23652686.538    23652686.2434   23652691.8254
        42.400          28.3004
 126066968.678 8                  23989708.083
        48.000
 109221466.217 8  85107776.33048  20784117.280    20784116.9094   20784121.7734
        49.100          50.6004
 130399784.602 7                  24814212.167
        46.600
 123441238.607 7                  23076026.894    23076026.771
        42.700
 144721964.159 6                  27539647.677
        39.300
 127184244.241 5                  23817505.246    23817506.350
        35.500
 132898200.846 5 103557117.69743  25289672.354    25289671.5004   25289682.8284
        34.000          23.6004
 126838932.423 6                  23794641.133    23794640.285
        39.400
 111128127.648 7  86593483.58247  21146929.080    21146928.4594   21146930.5574
        47.500          46.5004
 107354969.822 8  83498489.196 7  20097022.310    20097022.944    20097030.962
        52.400          47.900
 126037462.422 8                  23984085.463
        48.900
 148072306.633 5                  28177211.657
        35.900
 111665098.064 7  87011870.26346  21249126.225    21249125.8364   21249128.8564
        46.500          36.4004
 106548567.319 8  83024985.31746  20275466.108    20275464.6824   20275465.7764
        48.700          41.3004
 25  1  1  0 14  0.0000000  0 30E34R21R11S31S35R20G03S48G24S33G12G02
                                E15R22R05G11E02G06E36R23E27R13G30R10
                                G17R12E30E25G14G19
 123217290.989 8                  23447423.427
        48.300
 108270800.570 8  84210775.122 7  20232941.378    20232941.687    20232949.719
        52.400          47.400
 105265552.341 8  81873359.847 8  19698964.752    19698964.756    19698971.778
        51.700          49.300
 198980624.291 7                  37864757.247
        45.600
 200909004.723 7                  38231727.646
        44.000
 130782318.198 5 101719700.324 6  24456907.519    24456907.151    24456917.162
        33.900          39.000
 121162387.669 6  94412348.16346  23056408.941    23056408.6244   23056415.0734
        40.900          37.8004
 412997597.163 5                  78590682.205
        31.900
 120056738.621 7  93550840.82946  22845992.505    22845992.1394   22845999.6834
        43.800          40.0004
 202136488.447 7                  38465280.658
        45.400
 130786362.614 6 101911534.63444  24887804.735    24887804.0834   24887815.1744
        41.400          29.9004
 136885901.639 6 106664446.28343  26048479.385    26048478.1164   26048479.4664
        39.000          20.1004
 138971008.343 6                  26445281.552
        41.200
 105237665.105 8  81851651.677 8  19714519.854    19714520.492    19714526.513
        52.300          49.500
 130606741.977 6 101583043.837 6  24432692.579    24432692.047    24432699.959
        40.600          38.300
 124243810.824 7  96813439.80244  23642791.022    23642790.7054   23642796.0934
        43.000          28.2004
 126086522.624 7                  23993429.168
        47.900
 109192794.032 8  85085434.41148  20778660.948    20778660.5734   20778665.5984
        49.200          50.6004
 130427399.891 7                  24819467.133
        46.300
 123388619.936 7                  23066190.389    23066190.140
        42.800
 144683468.658 6                  27532322.085
        39.600
 127121168.537 5                  23805692.957    23805693.182
        34.900
 132952582.719 5 103599493.13943  25300020.383    25300019.5034   25300031.0614
        35.000          23.5004
 126902284.438 6                  23806525.471    23806524.941
        39.500
 111148112.811 7  86609056.43747  21150732.239    21150731.6224   21150733.6144
        47.800          46.5004
 107317919.293 8  83469672.170 7  20090086.769    20090086.792    20090095.073
        52.500          47.900
 126019736.937 8                  23980712.239
        48.700
 148110441.147 5                  28184468.393
        35.200
 111698689.278 7  87038045.23146  21255518.657    21255518.2644   21255521.0814
        46.700          36.3004
 106542111.828 8  83019955.09646  20274237.766    20274236.3404   20274237.2964
        49.000          41.4004
 25  1  1  0 14 15.0000000  0 30E34R21R11S31S35R20G03S48G24S33G12G02
                                E15R22R05G11E02G06E36R23E27R13G30R10
                                G17R12E30E25G14G19
 123203326.679 8                  23444765.994
        48.100
 108308496.946 8  84240094.537 7  20239985.933    20239985.825    20239994.117
        51.900          47.500
 105297934.309 8  81898545.824 8  19705023.848    19705024.565    19705031.502
        51.200          49.200
 198980631.374 7                  37864761.459
        45.700
 200909040.313 7                  38231735.789
        44.200
 130841231.292 5 101765521.710 6  24467925.058    24467924.657    24467934.207
        33.500          38.700
 121162826.222 7  94412689.93146  23056492.545    23056492.2324   23056498.5994
        42.000          37.8004
 412997705.559 5                  78590683.801
        32.300
 120051352.221 7  93546643.69546  22844967.419    22844967.0574   22844974.6094
        44.200          40.1004
 202136486.834 7                  38465277.854
        44.900
 130733741.918 6 101870531.68944  24877790.987    24877790.3354   24877801.3744
        40.500          29.6004
 136936879.655 6 106704169.52843  26058180.697    26058179.4374   26058179.9944
        37.500          19.5004
 138927757.133 6                  26437051.303
        41.900
 105218006.925 8  81836362.020 8  19710837.206    19710837.722    19710843.864
        52.200          49.500
 130582573.082 7 101564245.652 6  24428171.715    24428171.885    24428178.424
        42.000          39.600
 124191861.847 7  96772960.16344  23632904.455    23632904.1114   23632910.3774
        43.100          28.5004
 126106143.022 7                  23997162.993
        47.400
 109164248.663 8  85063191.31048  20773228.977    20773228.5974   20773233.5744
        49.500          50.6004
 130455087.153 7                  24824735.652
        46.000
 123336072.800 7                  23056366.574    23056366.706
        43.300
 144644973.684 6                  27524996.939
        39.000
 127058110.668 6                  23793885.575    23793885.375
        36.100
 133006940.432 5 103641849.77344  25310364.418    25310363.5514   25310374.2104
        35.700          24.3004
 126965675.396 6                  23818416.899    23818416.823
        39.500
 111168136.843 8  86624659.59547  21154542.654    21154542.0374   21154544.0814
        48.000          46.6004
 107281005.937 8  83440961.827 7  20083176.232    20083176.315    20083184.583
        52.000          47.700
 126002066.424 8                  23977349.791
        48.400
 148148603.148 5                  28191730.182
        34.200
 111732375.919 7  87064294.55846  21261929.101    21261928.7174   21261931.3584
        46.600          36.4004
 106535726.772 8  83014979.75446  20273022.595    20273021.1744   20273022.2354
        48.900          41.4004
 25  1  1  0 14 30.0000000  0 30E34R21R11S31S35R20G03S48G24S33G12G02
                                E15R22R05G11E02G06E36R23E27R13G30R10
                                G17R12E30E25G14G19
 123189458.890 8                  23442126.991
        48.300
 108346278.176 8  84269479.937 7  20247046.241    20247046.557    20247054.625
        52.400          47.600
 105330479.104 8  81923858.442 8  19711114.476    19711114.870    19711121.981
        51.600          49.300
 198980638.010 7                  37864762.108
        45.600
 200909075.569 7                  38231742.376
        44.100
 130900117.388 5 101811322.159 6  24478933.772    24478935.379    24478945.931
        33.500          39.000
 121163413.597 6  94413147.66246  23056604.164    23056603.8514   23056610.4204
        41.600          37.8004
 412997813.310 5                  78590677.568
        31.800
 120046113.133 7  93542561.34646  22843970.403    22843970.0374   22843977.5894
        44.100          40.2004
 202136482.342 7                  38465276.933
        45.000
 130681120.142 6 101829527.92945  24867777.962    24867777.3284   24867787.9394
        40.800          30.0004
 136987846.067 6 106743883.71843  26067879.577    26067878.3394   26067878.0494
        37.300          19.1004
 138884545.937 6                  26428828.407
        41.500
 105198489.137 8  81821181.561 8  19707181.060    19707181.151    19707187.342
        52.500          49.600
 130558546.488 7 101545558.327 6  24423676.845    24423676.325    24423683.665
        43.000          40.000
 124139961.776 7  96732518.64244  23623028.565    23623028.2124   23623034.4814
        42.500          28.6004
 126125826.689 7                  24000908.334
        47.400
 109135827.010 8  85041044.61248  20767820.431    20767820.0564   20767825.0844
        49.100          50.7004
 130482843.007 7                  24830017.416
        46.300
 123283594.605 7                  23046556.700    23046555.975
        43.400
 144606476.126 6                  27517670.752
        38.500
 126995068.035 6                  23782080.485    23782080.618
        37.000
 133061270.377 5 103684184.77444  25320703.621    25320702.7454   25320713.0134
        35.500          24.5004
 127029101.935 6                  23830315.272    23830314.353
        37.900
 111188196.472 7  86640290.48547  21158359.924    21158359.3074   21158361.2904
        47.800          46.7004
 107244227.144 8  83412356.150 7  20076291.399    20076291.380    20076299.572
        52.700          47.800
 125984447.836 8                  23973997.013
        48.500
 148186789.280 5                  28198996.857
        33.900
 111766154.645 7  87090615.64046  21268356.751    21268356.3714   21268359.2434
        46.800          36.5004
 106529408.919 8  83010056.77746  20271820.553    20271819.1364   20271819.9554
        48.800          41.4004
 25  1  1  0 14 45.0000000  0 30E34R21R11S31S35R20G03S48G24S33G12G02
                                E15R22R05G11E02G06E36R23E27R13G30R10
                                G17R12E30E25G14G19
 123175689.197 8                  23439506.723
        48.500
 108384145.215 8  84298932.081 7  20254122.388    20254122.721    20254131.022
        52.400          47.500
 105363188.034 8  81949298.707 8  19717235.682    19717235.855    19717242.904
        51.600          49.400
 198980644.963 7                  37864764.115
        45.700
 200909111.954 7                  38231746.159
        44.200
 130958977.592 5 101857102.373 6  24489943.046    24489943.280    24489952.919
        34.000          38.600
 121164151.461 6  94413722.66546  23056744.846    23056744.5424   23056750.7624
        40.900          37.9004
 412997921.444 5                  78590666.845
        32.900
 120041022.897 7  93538594.99046  22843001.362    22843000.9964   22843008.8924
        43.200          40.3004
 202136480.957 7                  38465275.095
        45.300
 130628498.812 6 101788524.51845  24857764.228    24857763.5984   24857774.8144
        39.300          30.3004
 137038802.721 6 106783590.51743  26077575.265    26077574.0274   26077574.4584
        38.700          21.1004
 138841376.478 6                  26420613.233
        41.500
 105179113.245 8  81806111.453 8  19703551.043    19703551.521    19703557.874
        52.500          49.500
 130534664.166 7 101526983.133 6  24419208.274    24419209.604    24419216.242
        43.600          40.400
 124088112.425 7  96692116.62844  23613162.312    23613161.9594   23613167.6674
        42.400          28.6004
 126145575.215 7                  24004666.653
        47.800
 109107530.788 8  85018995.65348  20762436.088    20762435.7174   20762440.4454
        49.000          50.8004
 130510668.752 7                  24835312.535
        46.200
 123231186.651 7                  23036759.301    23036759.334
        43.000
 144567977.665 6                  27510344.314
        39.100
 126932042.217 6                  23770277.236    23770277.551
        36.800
 133115573.954 5 103726499.19943  25331036.748    25331035.8544   25331046.4724
        34.400          23.6004
 127092564.979 6                  23842220.427    23842220.804
        38.700
 111208293.127 7  86655950.24147  21162184.099    21162183.4874   21162185.5514
        47.700          46.7004
 107207584.869 8  83383856.644 7  20069431.382    20069431.643    20069439.879
        52.500          47.700
 125966882.865 8                  23970654.534
        48.700
 148225001.136 5                  28206268.333
        35.800
 111800026.954 7  87117009.64746  21274802.448    21274802.0594   21274804.9494
        46.700          36.5004
 106523159.764 8  83005187.33746  20270631.401    20270629.9884   20270630.7534
        48.500          41.5004
 25  1  1  0 15  0.0000000  0 30E34R21R11S31S35R20G03S48G24S33G12G02
                                E15R22R05G11E02G06E36R23E27R13G30R10
                                G17R12E30E25G14G19
 123162015.879 8                  23436904.616
        48.300
 108422096.321 8  84328449.610 7  20261214.792    20261214.871    20261222.877
        52.700          47.500
 105396059.131 8  81974865.121 8  19723387.233    19723387.301    19723394.318
        51.500          49.400
 198980651.534 7                  37864764.124
        45.700
 200909147.309 7                  38231749.857
        44.200
 131017810.142 5 101902861.091 6  24500944.894    24500945.099    24500955.422
        32.900          39.200
 121165038.104 6  94414413.59146  23056913.097    23056912.7984   23056919.3074
        40.500          38.0004
 412998028.522 5                  78590663.030
        32.300
 120036079.766 7  93534743.25746  22842061.055    22842060.6934   22842068.1574
        44.500          40.3004
 202136477.416 7                  38465279.522
        45.300
 130575876.499 6 101747520.33144  24847749.824    24847749.1944   24847760.6914
        39.800          29.9004
 137089746.719 6 106823287.17043  26087269.446    26087268.1994   26087268.7884
        37.800          21.1004
 138798247.185 6                  26412406.165
        41.500
 105159877.472 8  81791150.362 8  19699948.009    19699948.037    19699954.104
        52.700          49.500
 130510924.787 6 101508519.178 6  24414767.388    24414767.557    24414775.648
        41.500          39.600
 124036312.324 7  96651752.99644  23603305.047    23603304.6944   23603310.4584
        42.000          28.5004
 126165386.886 7                  24008436.710
        47.600
 109079358.418 8  84997043.19948  20757074.691    20757074.3114   20757079.3774
        49.400          50.8004
 130538562.471 7                  24840620.496
        46.200
 123178847.612 7                  23026975.484    23026974.900
        44.100
 144529476.681 6                  27503017.999
        39.100
 126869032.490 5                  23758476.563    23758476.783
        35.900
 133169849.028 5 103768791.44543  25341365.073    25341364.1704   25341374.4764
        35.300          23.9004
 127156062.523 6                  23854134.217    23854132.809
        38.900
 111228424.897 7  86671637.37447  21166014.998    21166014.3864   21166016.4934
        47.800          46.8004
 107171077.800 8  83355462.312 7  20062597.594    20062597.962    20062605.523
        52.300          47.900
 125949369.989 8                  23967321.822
        48.600
 148263236.884 5                  28213544.034
        34.800
 111833991.003 7  87143475.13646  21281265.666    21281265.2734   21281268.1434
        46.500          36.4004
 106516977.665 8  83000370.14546  20269454.977    20269453.5734   20269454.2924
        48.400          41.4004
 25  1  1  0 15 15.0000000  0 30E34R21R11S31S35R20G03S48G24S33G12G02
                                E15R22R05G11E02G06E36R23E27R13G30R10
                                G17R12E30E25G14G19
 123148439.326 8                  23434321.232
        48.600
 108460131.017 8  84358032.137 7  20268322.249    20268322.671    20268330.753
        52.500          47.600
 105429092.565 8  82000557.798 8  19729568.996    19729569.020    19729576.010
        51.400          49.200
 198980658.017 7                  37864764.160
        45.700
 200909182.440 7                  38231757.164
        43.900
 131076615.354 5 101948598.637 6  24511941.408    24511942.129    24511951.419
        34.300          38.500
 121166073.993 6  94415220.80946  23057110.873    23057110.6014   23057116.3044
        41.800          38.1004
 412998134.101 5                  78590662.601
        32.700
 120031284.129 7  93531006.45546  22841148.440    22841148.0654   22841155.4504
        44.200          40.4004
 202136473.753 7                  38465277.018
        45.100
 130523253.854 6 101706515.88144  24837736.339    24837735.7094   24837746.7564
        39.800          29.6004
 137140678.544 5 106862974.18542  26096961.898    26096960.6644   26096960.7664
        35.600          17.7004
 138755158.596 6                  26404206.694
        41.400
 105140782.231 8  81776298.532 8  19696370.362    19696370.807    19696377.083
        52.700          49.600
 130487328.906 6 101490166.669 6  24410353.398    24410353.412    24410361.271
        41.500          40.200
 123984562.079 7  96611428.21044  23593457.180    23593456.8324   23593462.4974
        42.500          28.7004
 126185262.088 7                  24012218.793
        47.900
 109051310.388 8  84975187.63648  20751737.199    20751736.8154   20751741.9674
        48.900          50.9004
 130566524.324 7                  24845941.602
        46.400
 123126577.859 7                  23017203.228    23017203.958
        44.300
 144490973.702 6                  27495690.276
        38.500
 126806039.514 6                  23746680.919    23746682.073
        37.800
 133224095.701 5 103811061.53943  25351687.564    25351686.6574   25351697.4714
        33.800          23.4004
 127219594.491 6                  23866050.806    23866050.170
        38.200
 111248592.064 8  86687352.06447  21169852.748    21169852.1314   21169854.1474
        48.100          46.9004
 107134706.788 8  83327173.787 7  20055788.876    20055788.700    20055796.963
        52.100          47.900
 125931909.668 8                  23963999.267
        48.800
 148301496.816 5                  28220824.953
        35.600
 111868047.083 7  87170012.33746  21287746.148    21287745.7594   21287748.8344
        46.800          36.6004
 106510862.901 8  82995605.42546  20268291.222    20268289.8184   20268290.6374
        48.800          41.5004
 25  1  1  0 15 30.0000000  0 30E34R21R11S31S35R20G03S48G24S33G12G02
                                E15R22R05G11E02G06E36R23E27R13G30R10
                                G17R12E30E25G14G19
 123134964.528 8                  23431756.878
        48.500
 108498254.405 8  84387683.647 7  20275446.664    20275446.937    20275454.902
        52.800          47.500
 105462293.200 8  82026380.510 8  19735782.093    19735781.968    19735789.106
        51.500          49.200
 198980668.039 7                  37864766.266
        45.500
 200909222.232 7                  38231767.426
        43.500
 131135397.883 5 101994318.776 6  24522934.281    24522934.191    24522943.884
        33.000          37.800
 121167264.181 6  94416148.26146  23057336.773    23057336.4834   23057342.7964
        40.900          38.0004
 412998243.652 5                  78590647.492
        31.500
 120026640.936 7  93527388.44646  22840264.885    22840264.5104   22840271.7904
        43.900          40.4004
 202136475.238 7                  38465272.810
        44.500
 130470636.126 6 101665515.26045  24827723.696    24827723.0844   24827733.2734
        40.600          30.2004
 137191603.693 6 106902656.09243  26106652.522    26106651.2974   26106651.6404
        38.000          19.1004
 138712115.874 6                  26396015.737
        41.800
 105121832.523 8  81761559.920 8  19692820.483    19692820.638    19692826.981
        52.400          49.500
 130463882.140 7 101471930.210 6  24405967.579    24405968.217    24405974.860
        43.000          39.600
 123932866.978 6  96571146.40044  23583619.207    23583618.8634   23583625.3924
        41.800          29.2004
 126205205.846 7                  24016013.782
        47.700
 109023391.845 8  84953432.97248  20746424.824    20746424.4444   20746429.2194
        49.200          50.9004
 130594559.145 7                  24851276.120
        46.400
 123074382.877 7                  23007445.540    23007445.505
        42.600
 144452473.808 6                  27488364.624
        38.400
 126743068.621 6                  23734888.890    23734889.103
        37.100
 133278318.714 5 103853313.21743  25362006.095    25362005.2014   25362015.9554
        34.700          23.5004
 127283166.016 6                  23877977.136    23877977.052
        38.300
 111268799.568 8  86703098.18347  21173698.139    21173697.5184   21173699.5014
        48.000          47.0004
 107098477.394 8  83298995.412 8  20049006.440    20049006.657    20049014.800
        52.600          48.000
 125914507.083 8                  23960687.532
        48.700
 148339785.839 5                  28228110.902
        35.000
 111902200.110 7  87196625.08246  21294245.220    21294244.8314   21294247.9214
        46.800          36.5004
 106504820.392 8  82990897.00946  20267141.249    20267139.8414   20267140.7594
        48.700          41.5004
 25  1  1  0 15 45.0000000  0 30E34R21R11S31S35R20G03S48G24S33G12G02
                                E15R22R05G11E02G06E36R23E27R13G30R10
                                G17R12E30E25G14G19
 123121581.378 8                  23429210.040
        48.300
 108536455.418 8  84417395.565 7  20282584.733    20282585.377    20282593.803
        51.900          47.600
 105495650.725 8  82052325.246 8  19742024.570    19742024.613    19742031.402
        51.500          49.200
 198980673.076 7                  37864765.810
        45.000
 200909255.857 7                  38231778.006
        43.600
 131194146.276 5 102040011.843 6  24533920.222    24533920.905    24533930.030
        33.900          38.900
 121168598.598 6  94417188.09846  23057591.115    23057590.8564   23057596.6774
        40.500          37.9004
 412996747.326 5                  78590644.236
        31.500
 120022140.081 7  93523881.34346  22839408.167    22839407.7834   22839415.2244
        43.600          40.3004
 202136469.985 7                  38465275.520
        44.400
 130418013.336 6 101624510.70745  24817709.051    24817708.4434   24817719.2584
        40.700          30.5004
 137242511.349 6 106942324.32443  26116339.992    26116338.7854   26116339.1064
        38.300          20.8004
 138669109.021 6                  26387831.840
        41.400
 105103018.088 8  81746926.497 8  19689296.108    19689296.217    19689302.202
        52.500          49.400
 130440574.570 7 101453801.976 6  24401607.002    24401607.232    24401615.046
        42.900          40.500
 123881217.101 6  96530899.83244  23573791.062    23573790.7184   23573796.5244
        41.400          29.0004
 126225208.058 7                  24019820.183
        47.400
 108995592.778 8  84931771.40548  20741134.644    20741134.2604   20741139.1874
        49.100          50.8004
 130622656.560 7                  24856622.972
        45.900
 123022252.583 7                  22997700.078    22997700.153
        43.200
 144413966.987 6                  27481037.208
        38.600
 126680109.776 6                  23723097.667    23723097.068
        37.100
 133332507.714 5 103895538.34243  25372317.159    25372316.2924   25372328.2814
        33.300          23.8004
 127346766.221 6                  23889908.280    23889908.025
        38.400
 111289037.289 7  86718867.85047  21177548.971    21177548.3504   21177550.6014
        47.700          46.9004
 107062379.664 8  83270919.452 8  20042248.597    20042248.842    20042256.859
        52.000          48.200
 125897152.246 8                  23957384.952
        48.500
 148378093.846 5                  28235401.228
        34.600
 111936439.833 7  87223305.37646  21300761.077    21300760.6884   21300763.5674
        46.100          36.5004
 106498840.022 8  82986237.00746  20266003.249    20266001.8414   20266002.7234
        48.300          41.4004
 25  1  1  0 16  0.0000000  0 30E34R21R11S31S35R20G03S48G24S33G12G02
                                E15R22R05G11E02G06E36R23E27R13G30R10
                                G17R12E30E25G14G19
 123108296.827 8                  23426682.210
        48.600
 108574741.068 8  84447173.270 7  20289740.435    20289740.438    20289748.238
        52.900          47.500
 105529171.683 8  82078397.097 8  19748297.778    19748297.606    19748304.449
        51.700          49.200
 198980679.902 7                  37864770.975
        45.800
 200909291.382 7                  38231784.271
        44.100
 131252868.664 5 102085684.754 6  24544900.932    24544902.320    24544911.043
        32.600          37.500
 121170084.239 6  94418345.77046  23057873.826    23057873.5854   23057879.4004
        41.400          38.0004
 412996852.193 5                  78590640.748
        31.800
 120017788.468 7  93520490.53346  22838580.328    22838579.9444   22838587.0664
        43.300          40.5004
 202136466.985 7                  38465272.819
        45.000
 130365392.623 6 101583507.75944  24807695.464    24807694.8524   24807705.4434
        40.100          29.6004
 137293408.732 6 106981984.82542  26126025.665    26126024.4584   26126024.5064
        36.900          17.3004
 138626145.176 6                  26379656.060
        41.200
 105084345.833 8  81732403.665 8  19685797.775    19685798.143    19685804.146
        52.500          49.500
 130417413.617 6 101435787.829 6  24397274.590    24397274.838    24397282.213
        41.800          39.800
 123829619.659 7  96490694.11644  23563972.585    23563972.2554   23563977.7894
        42.600          29.3004
 126245275.676 7                  24023639.006
        47.900
 108967920.287 8  84910208.46748  20735868.744    20735868.3644   20735873.2254
        49.200          51.0004
 130650823.310 7                  24861983.018
        46.100
 122970194.203 7                  22987969.328    22987969.022
        43.700
 144375460.304 6                  27473708.933
        39.700
 126617170.594 6                  23711311.080    23711311.109
        36.500
 133386669.267 5 103937742.12544  25382625.222    25382624.3644   25382634.8664
        34.600          24.1004
 127410401.728 6                  23901846.702    23901845.737
        37.700
 111309311.976 8  86734666.31447  21181407.167    21181406.5464   21181408.7444
        48.100          47.1004
 107026421.213 8  83242951.807 8  20035517.134    20035517.270    20035525.471
        52.600          48.100
 125879852.263 8                  23954093.041
        48.700
 148416427.630 5                  28242696.043
        35.600
 111970773.108 7  87250058.56546  21307294.535    21307294.1604   21307296.9974
        46.800          36.7004
 106492928.790 8  82981630.88146  20264878.472    20264877.0774   20264877.7924
        48.600          41.5004
 25  1  1  0 16 15.0000000  0 30E34R21R11S31S35R20G03S48G24S33G12G02
                                E15R22R05G11E02G06E36R23E27R13G30R10
                                G17R12E30E25G14G19
 123095110.458 8                  23424172.774
        48.500
 108613110.244 8  84477015.936 7  20296909.961    20296910.264    20296918.395
        52.200          47.500
 105562855.673 8  82104595.751 8  19754600.885    19754601.163    19754607.827
        51.900          49.100
 198980686.990 7                  37864769.861
        45.600
 200909327.798 7                  38231785.151
        43.900
 131311564.393 5 102131337.175 6  24555876.610    24555877.815    24555887.857
        32.800          38.500
 121171720.798 7  94419621.04146  23058184.527    23058184.2644   23058190.9294
        42.100          38.2004
 412996957.225 5                  78590638.732
        32.800
 120013585.689 7  93517215.70146  22837780.535    22837780.1424   22837787.2674
        44.300          40.6004
 202136464.697 7                  38465273.513
        45.100
 130312773.881 6 101542506.34544  24797681.872    24797681.2554   24797692.7074
        39.500          29.9004
 137344294.718 6 107021636.23243  26135708.689    26135707.4694   26135707.8774
        38.500          19.0004
 138583224.066 6                  26371488.378
        41.500
 105065815.337 8  81717991.094 8  19682326.268    19682326.563    19682332.825
        52.200          49.500
 130394398.996 7 101417887.455 6  24392969.022    24392969.828    24392977.673
        43.200          40.700
 123778074.502 7  96450529.15044  23554163.182    23554162.8384   23554169.1024
        42.400          29.2004
 126265408.318 7                  24027469.867
        47.500
 108940374.042 8  84888743.90348  20730626.747    20730626.3634   20730631.2864
        49.300          51.0004
 130679058.807 7                  24867355.908
        46.200
 122918207.389 7                  22978250.165    22978250.008
        42.500
 144336953.440 6                  27466380.717
        39.200
 126554251.230 6                  23699528.995    23699528.080
        36.700
 133440802.685 6 103979923.96844  25392926.434    25392925.5674   25392936.2104
        36.200          24.5004
 127474071.709 6                  23913792.180    23913790.823
        38.900
 111329623.359 7  86750493.36947  21185272.381    21185271.7554   21185273.8584
        47.900          47.1004
 106990602.075 8  83215092.514 7  20028811.769    20028812.170    20028819.987
        52.500          47.900
 125862606.880 8                  23950811.220
        48.700
 148454786.816 5                  28249995.554
        35.800
 112005199.448 7  87276884.27646  21313845.535    21313845.1694   21313848.0764
        46.900          36.7004
 106487086.152 8  82977078.20446  20263766.370    20263764.9804   20263765.9904
        48.500          41.5004
 25  1  1  0 16 30.0000000  0 30E34R21R11S31S35R20G03S48G24S33G12G02
                                E15R22R05G11E02G06E36R23E27R13G30R10
                                G17R12E30E25G14G19
 123082020.591 8                  23421682.113
        48.500
 108651561.109 8  84506922.161 7  20304096.033    20304096.063    20304104.118
        52.800          47.700
 105596700.657 8  82130919.628 8  19760934.633    19760934.823    19760941.487
        51.700          48.900
 198980693.732 7                  37864767.357
        45.600
 200909363.411 7                  38231792.771
        44.000
 131370231.534 5 102176967.334 6  24566847.978    24566849.129    24566858.714
        33.300          39.100
 121173506.592 6  94421012.59946  23058524.072    23058523.7914   23058530.7234
        41.700          38.1004
 412997060.992 5                  78590629.623
        32.900
 120009530.004 7  93514055.48246  22837008.327    22837007.9344   22837015.5644
        44.000          40.5004
 202136461.646 7                  38465276.321
        45.000
 130260155.531 6 101501505.24945  24787669.906    24787669.3034   24787679.9394
        39.900          30.3004
 137395167.598 6 107061277.41143  26145389.431    26145388.2064   26145388.6094
        39.100          21.2004
 138540344.156 6                  26363328.476
        41.800
 105047424.824 8  81703687.378 8  19678881.798    19678881.598    19678887.467
        52.500          49.600
 130371529.610 7 101400100.030 6  24388691.254    24388691.590    24388698.898
        42.600          39.700
 123726580.077 7  96410403.70844  23544364.280    23544363.9364   23544369.7784
        42.200          29.2004
 126285604.280 7                  24031313.019
        47.600
 108912952.515 8  84867376.52648  20725408.468    20725408.0714   20725413.1084
        49.100          50.9004
 130707361.135 7                  24872741.781
        46.100
 122866290.712 7                  22968544.877    22968544.629
        43.300
 144298444.857 6                  27459053.264
        37.900
 126491350.212 6                  23687749.063    23687748.306
        36.900
 133494906.043 5 104022082.39943  25403220.774    25403219.8674   25403231.7724
        34.600          23.0004
 127537774.372 6                  23925742.198    23925741.878
        39.300
 111349969.748 7  86766347.68847  21189144.324    21189143.7034   21189145.6304
        47.600          46.9004
 106954920.869 8  83187340.511 8  20022131.778    20022132.152    20022140.380
        52.100          48.000
 125845414.520 8                  23947539.541
        48.700
 148493169.553 5                  28257299.331
        35.400
 112039717.059 7  87303781.11346  21320413.953    21320413.5824   21320416.6354
        46.600          36.6004
 106481310.504 8  82972577.72446  20262667.499    20262666.1134   20262666.8834
        48.400          41.4004
 25  1  1  0 16 45.0000000  0 30E34R21R11S31S35R20G03S48G24S33G12G02
                                E15R22R05G11E02G06E36R23E27R13G30R10
                                G17R12E30E25G14G19
 123069029.494 8                  23419209.780
        48.600
 108690095.235 8  84536893.149 7  20311296.366    20311296.901    20311305.112
        52.800          47.600
 105630708.826 8  82157370.429 8  19767298.519    19767298.872    19767305.697
        51.700          48.900
 198980702.460 7                  37864777.168
        45.900
 200909401.332 7                  38231805.278
        44.200
 131428871.475 5 102222576.446 6  24577815.487    24577814.777    24577824.300
        34.700          39.400
 121175443.933 6  94422522.23546  23058892.823    23058892.5244   23058899.0784
        41.400          38.1004
 412997166.543 5                  78590622.079
        32.300
 120005623.692 7  93511011.65946  22836264.806    22836264.4134   22836272.3084
        43.800          40.5004
 202136460.491 7                  38465272.904
        45.000
 130207540.207 6 101460506.50145  24777656.762    24777656.1454   24777667.2344
        40.300          30.4004
 137446028.779 6 107100909.27543  26155068.022    26155066.8244   26155066.7514
        36.800          18.8004
 138497507.895 6                  26355176.789
        41.300
 105029176.656 8  81689494.410 8  19675462.504    19675462.841    19675469.019
        52.000          49.600
 130348808.387 6 101382428.054 6  24384440.528    24384441.379    24384447.950
        41.700          39.000
 123675139.063 7  96370319.89144  23534575.493    23534575.1544   23534580.8914
        42.000          29.2004
 126305865.868 7                  24035168.868
        47.600
 108885658.109 8  84846108.19848  20720214.805    20720214.4124   20720219.1044
        48.900          50.7004
 130735732.355 7                  24878140.644
        46.100
 122814446.636 7                  22958852.988    22958852.539
        43.900
 144259936.917 6                  27451725.749
        38.100
 126428470.178 6                  23675972.041    23675972.529
        37.400
 133548981.334 5 104064218.96043  25413511.958    25413511.0874   25413521.8574
        34.200          22.8004
 127601511.271 6                  23937698.027    23937697.776
        38.400
 111370353.196 7  86782230.90847  21193023.056    21193022.4394   21193024.4864
        47.800          46.9004
 106919380.522 8  83159698.068 8  20015479.086    20015479.165    20015487.120
        52.500          48.200
 125828277.632 8                  23944278.485
        48.700
 148531578.063 5                  28264608.142
        35.400
 112074328.087 7  87330750.73746  21327000.159    21326999.7844   21327002.8834
        46.400          36.4004
 106475604.152 8  82968131.24146  20261581.601    20261580.2114   20261580.9994
        48.200          41.3004
 25  1  1  0 17  0.0000000  0 30E34R21R11S31S35R20G03S48G24S33G12G02
                                E15R22R05G11E02G06E36R23E27R13G30R10
                                G17R12E30E25G14G19
 123056134.923 8                  23416756.036
        48.400
 108728710.400 8  84566927.181 7  20318512.814    20318513.281    20318521.323
        52.900          47.700
 105664877.515 8  82183946.073 8  19773692.852    19773693.091    19773699.840
        51.800          49.000
 198980710.054 7                  37864771.426
        45.300
 200909437.858 7                  38231810.984
        43.900
 131487482.701 5 102268163.508 6  24588775.517    24588775.099    24588784.734
        33.400          38.500
 121177530.629 6  94424148.25446  23059290.648    23059290.3584   23059296.0824
        41.500          38.1004
 412997271.311 5                  78590611.656
        31.900
 120001864.486 7  93508082.45946  22835549.817    22835549.4244   22835557.0054
        43.900          40.6004
 202136458.372 7                  38465272.439
        44.700
 130154925.549 6 101419508.27345  24767644.630    24767644.0134   24767654.7754
        40.900          30.8004
 137496877.059 6 107140531.21943  26164744.444    26164743.2684   26164743.1594
        37.900          19.2004
 138454713.154 6                  26347033.459
        41.300
 105011068.439 8  81675410.279 8  19672070.460    19672070.655    19672076.802
        52.300          49.500
 130326232.904 6 101364869.333 6  24380217.124    24380217.919    24380225.706
        41.800          39.700
 123623749.428 7  96330276.11744  23524796.361    23524796.0264   23524801.6364
        42.200          29.4004
 126326190.859 7                  24039036.404
        47.500
 108858488.680 8  84824937.25748  20715044.766    20715044.3864   20715048.8754
        48.800          50.8004
 130764170.035 7                  24883551.980
        45.900
 122762673.017 7                  22949174.036    22949174.530
        43.700
 144221427.498 6                  27444396.870
        39.100
 126365609.394 6                  23664201.953    23664201.533
        38.000
 133603026.018 5 104106331.67943  25423795.929    25423795.0314   25423806.1194
        33.800          22.3004
 127665280.361 6                  23949661.146    23949662.004
        39.600
 111390771.165 8  86798141.03547  21196908.266    21196907.6454   21196909.8654
        48.200          47.0004
 106883979.066 8  83132163.650 8  20008852.030    20008851.737    20008859.884
        52.600          48.100
 125811194.120 8                  23941027.642
        48.600
 148570009.992 5                  28271921.991
        35.400
 112109030.193 7  87357791.32946  21333603.947    21333603.5764   21333606.4104
        46.400          36.6004
 106469964.708 8  82963736.89646  20260508.541    20260507.1514   20260507.8054
        48.600          41.3004
 25  1  1  0 17 15.0000000  0 30E34R21R11S31S35R20G03S48G24S33G12G02
                                E15R22R05G11E02G06E36R23E27R13G30R10
                                G17R12E30E25G14G19
 123043336.280 8                  23414320.542
        48.400
 108767405.154 8  84597023.093 7  20325743.860    20325744.445    20325752.173
        52.700          47.500
 105699205.956 8  82210645.976 8  19780117.291    19780117.297    19780124.068
        51.700          49.000
 198980716.165 7                  37864779.542
        45.500
 200909473.202 7                  38231818.626
        44.000
 131546063.495 5 102313726.720 6  24599728.668    24599729.792    24599739.548
        33.900          40.300
 121179766.179 6  94425890.27446  23059715.930    23059715.6314   23059721.5794
        41.200          38.2004
 412997374.187 5                  78590610.681
        31.600
 119998251.752 7  93505267.39446  22834862.257    22834861.8734   22834869.5524
        43.800          40.7004
 202136455.159 7                  38465272.542
        44.900
 130102311.156 6 101378510.25945  24757632.152    24757631.5534   24757642.2984
        39.100          30.4004
 137547711.512 6 107180142.72142  26174417.261    26174416.0944   26174416.5004
        36.300          17.5004
 138411959.508 6                  26338897.689
        41.500
 104993099.496 8  81661434.471 8  19668704.100    19668704.373    19668710.756
        52.400          49.600
 130303803.264 6 101347424.097 6  24376021.228    24376021.502    24376029.218
        41.400          39.400
 123572410.813 7  96290272.08844  23515026.464    23515026.1344   23515032.1514
        42.800          29.5004
 126346578.656 7                  24042916.271
        47.300
 108831443.763 8  84803863.34148  20709898.026    20709897.6514   20709902.3194
        49.100          50.9004
 130792673.332 7                  24888976.198
        45.900
 122710969.515 7                  22939508.609    22939509.074
        44.300
 144182916.100 6                  27437068.521
        39.200
 126302767.439 6                  23652432.520    23652431.028
        36.500
 133657039.139 5 104148419.79143  25434074.502    25434073.6174   25434084.6314
        34.400          23.2004
 127729080.198 6                  23961629.899    23961629.573
        38.700
 111411222.900 7  86814077.46047  21200800.302    21200799.6724   21200801.6704
        47.600          47.1004
 106848716.317 8  83104737.120 8  20002250.402    20002250.513    20002258.491
        53.000          48.100
 125794163.513 8                  23937786.691
        48.500
 148608464.758 5                  28279239.738
        35.100
 112143822.663 7  87384902.33946  21340224.572    21340224.1884   21340227.2874
        46.700          36.5004
 106464391.354 8  82959394.04746  20259447.743    20259446.3484   20259447.2084
        48.700          41.4004
 25  1  1  0 17 30.0000000  0 30E34R21R11S31S35R20G03S48G24S33G12G02
                                E15R22R05G11E02G06E36R23E27R13G30R10
                                G17R12E30E25G14G19
 123030634.591 8                  23411903.406
        48.500
 108806180.401 8  84627181.623 7  20332990.103    20332990.168    20332998.393
        52.800          47.500
 105733694.993 8  82237470.782 8  19786571.310    19786571.543    19786578.118
        51.700          49.000
 198980722.751 7                  37864774.955
        45.900
 200909508.442 7                  38231823.142
        44.300
 131604614.929 5 102359267.239 6  24610677.362    24610678.408    24610687.671
        30.300          36.600
 121182151.615 6  94427749.08446  23060169.812    23060169.5174   23060175.5474
        41.300          38.2004
 412997476.438 5                  78590608.186
        32.500
 119994786.478 7  93502567.23846  22834202.890    22834202.5064   22834210.0194
        43.600          40.7004
 202136451.087 7                  38465273.602
        45.000
 130049698.380 6 101337513.50045  24747620.644    24747620.0454   24747629.7714
        40.000          30.0004
 137598532.460 5 107219743.57842  26184087.996    26184086.8164   26184087.5334
        35.700          15.8004
 138369248.164 6                  26330770.121
        41.500
 104975270.863 8  81647567.800 8  19665364.052    19665364.357    19665370.678
        52.200          49.600
 130281520.124 7 101330092.705 6  24371853.304    24371853.480    24371860.834
        43.700          41.200
 123521124.465 7  96250308.79244  23505267.253    23505266.9234   23505272.4684
        42.300          29.6004
 126367030.315 7                  24046808.022
        47.500
 108804524.513 8  84782887.34448  20704775.267    20704774.8874   20704779.6954
        49.100          50.9004
 130821243.070 7                  24894412.410
        46.100
 122659337.551 7                  22929855.710    22929855.690
        43.600
 144144403.899 6                  27429740.108
        39.000
 126239945.968 6                  23640668.662    23640668.407
        37.700
 133711021.521 5 104190483.96643  25444347.043    25444346.1724   25444357.2184
        34.100          22.9004
 127792911.645 6                  23973604.720    23973604.248
        39.600
 111431709.630 8  86830041.15947  21204698.828    21204698.2024   21204700.1514
        48.000          47.1004
 106813593.878 8  83077419.720 8  19995674.958    19995675.355    19995683.614
        52.400          48.000
 125777187.023 8                  23934556.369
        48.700
 148646943.274 5                  28286561.569
        35.700
 112178706.441 7  87412084.49146  21346862.780    21346862.4054   21346865.5184
        46.500          36.5004
 106458885.171 8  82955103.53646  20258399.847    20258398.4484   20258399.3774
        48.600          41.4004
 25  1  1  0 17 45.0000000  0 30E34R21R11S31S35R20G03S48G24S33G12G02
                                E15R22R05G11E02G06E36R23E27R13G30R10
                                G17R12E30E25G14G19
 123018034.024 8                  23409505.758
        48.500
 108845039.953 8  84657405.712 7  20340251.814    20340252.168    20340260.040
        52.800          47.600
 105768348.707 8  82264423.653 8  19793056.287    19793056.460    19793062.941
        51.900          49.100
 198980732.600 7                  37864779.261
        45.400
 200909547.471 7                  38231832.269
        44.000
 131663140.360 5 102404787.143 6  24621622.401    24621622.212    24621632.339
        30.300          38.100
 121184691.124 7  94429727.94346  23060652.932    23060652.6334   23060658.9924
        42.200          38.4004
 412997581.924 5                  78590604.184
        32.500
 119991472.777 7  93499985.18046  22833572.223    22833571.8394   22833579.2294
        44.300          40.7004
 202136452.050 7                  38465270.293
        44.900
 129997091.594 6 101296521.40445  24737609.037    24737608.4384   24737619.2444
        40.800          31.0004
 137649344.348 6 107259337.47843  26193757.795    26193756.6194   26193756.8084
        39.200          21.4004
 138326583.390 6                  26322650.752
        41.300
 104957586.673 8  81633813.438 8  19662051.512    19662051.788    19662057.800
        52.500          49.500
 130259388.917 7 101312879.531 6  24367712.849    24367713.138    24367721.234
        43.600          41.300
 123469894.785 7  96210389.65044  23495518.581    23495518.2514   23495523.6514
        42.600          29.7004
 126387549.993 7                  24050712.783
        47.600
 108777735.205 8  84762012.60648  20699677.491    20699677.1114   20699681.8314
        49.300          50.8004
 130849883.237 7                  24899862.757
        46.000
 122607781.389 7                  22920219.039    22920218.436
        44.400
 144105895.124 6                  27422411.618
        38.700
 126177149.553 6                  23628908.622    23628908.586
        37.200
 133764977.053 5 104232527.19443  25454614.886    25454614.0414   25454624.5954
        34.400          23.8004
 127856778.558 6                  23985586.203    23985584.163
        36.900
 111452235.430 8  86846035.30547  21208604.728    21208604.1074   21208606.0784
        48.100          47.0004
 106778616.309 8  83050214.979 7  19989127.352    19989127.544    19989135.638
        52.800          47.700
 125760268.919 8                  23931336.705
        48.800
 148685449.662 5                  28293889.562
        35.800
 112213685.597 7  87439340.96846  21353519.233    21353518.8534   21353521.8194
        47.000          36.6004
 106453450.368 8  82950868.65546  20257365.708    20257364.3094   20257365.1404
        48.600          41.4004
 25  1  1  0 18  0.0000000  0 30E34R21R11S31S35R20G03S48G24S33G12G02
                                E15R22R05G11E02G06E36R23E27R13G30R10
                                G17R12E30E25G14G19
 123005527.668 8                  23407125.740
        48.800
 108883976.264 8  84687689.511 7  20347528.181    20347528.281    20347536.313
        52.500          47.600
 105803159.828 8  82291498.981 8  19799570.769    19799570.957    19799577.531
        52.200          49.200
 198980738.953 7                  37864780.745
        45.700
 200909583.605 7                  38231838.574
        43.800
 131721633.142 5 102450281.502 6  24632561.273    24632561.424    24632570.992
        34.300          39.000
 121187377.912 6  94431821.57546  23061163.832    23061163.5244   23061170.2644
        41.500          38.4004
 412997683.621 5                  78590585.662
        31.500
 119988303.788 7  93497515.89146  22832968.773    22832968.3764   22832976.1464
        43.700          40.7004
 202136449.453 7                  38465268.737
        44.700
 129944484.184 6 101255528.84145  24727598.349    24727597.7464   24727608.6274
        40.100          31.2004
 137700139.939 6 107298918.81443  26203423.304    26203422.1154   26203422.8294
        37.000          19.1004
 138283958.450 6                  26314539.759
        41.800
 104940039.911 8  81620165.997 8  19658763.853    19658764.332    19658770.532
        52.400          49.500
 130237402.366 7 101295778.802 6  24363600.205    24363600.497    24363607.243
        42.500          40.000
 123418715.112 7  96170509.48644  23485779.322    23485778.9874   23485784.4394
        42.000          29.7004
 126408130.818 7                  24054629.108
        47.800
 108751069.059 8  84741233.83248  20694602.935    20694602.5554   20694607.3804
        48.900          50.8004
 130878586.705 7                  24905324.690
        46.200
 122556294.014 7                  22910593.089    22910593.393
        44.200
 144067383.043 6                  27415082.792
        38.700
 126114371.635 6                  23617153.436    23617152.439
        37.600
 133818898.474 5 104274543.83743  25464874.858    25464874.0134   25464885.9634
        35.100          23.7004
 127920673.606 6                  23997573.434    23997572.681
        38.200
 111472793.208 7  86862054.37647  21212516.575    21212515.9494   21212518.0734
        47.700          47.0004
 106743777.160 8  83023117.915 7  19982605.414    19982605.535    19982613.745
        52.600          47.900
 125743402.471 8                  23928127.269
        49.100
 148723976.900 6                  28301221.024
        36.100
 112248753.125 7  87466666.31346  21360191.859    21360191.4754   21360195.0044
        46.400          36.5004
 106448080.086 8  82946684.05346  20256343.682    20256342.2834   20256343.2134
        48.400          41.4004
 25  1  1  0 18 15.0000000  0 30E34R21R11S31S35R20G03S48G24S33G12G02
                                E15R22R05G11E02G06E36R23E27R13G30R10
                                G17R12E30E25G14G19
 122993117.338 8                  23404764.087
        48.600
 108922990.756 8  84718034.131 7  20354818.806    20354819.217    20354827.218
        52.900          47.700
 105838129.923 8  82318697.935 8  19806114.772    19806115.029    19806121.827
        52.100          49.100
 198980745.449 7                  37864777.383
        45.500
 200909618.645 7                  38231850.790
        44.400
 131780095.174 5 102495752.223 5  24643495.113    24643494.201    24643503.237
        31.200          35.800
 121190213.791 6  94434031.37146  23061704.326    23061704.0494   23061709.7214
        41.700          38.6004
 412997783.460 5                  78590585.278
        31.700
 119985281.236 7  93495160.70346  22832393.761    22832393.3724   22832400.8674
        43.200          40.6004
 202136445.164 7                  38465272.721
        45.100
 129891878.110 6 101214537.30345  24717587.673    24717587.0704   24717597.5454
        39.200          30.4004
 137750919.443 5 107338487.03141  26213086.061    26213084.7604   26213085.4244
        34.000          10.2004
 138241375.352 7                  26306435.982
        42.000
 104922632.401 8  81606626.855 8  19655503.336    19655503.723    19655509.574
        52.500          49.400
 130215562.730 7 101278792.346 6  24359515.016    24359514.534    24359521.749
        43.300          40.800
 123367587.548 7  96130669.92244  23476049.974    23476049.6484   23476055.0744
        42.600          29.9004
 126428774.615 7                  24058557.580
        47.800
 108724528.002 8  84720552.53348  20689552.362    20689551.9914   20689556.7234
        48.900          50.9004
 130907355.049 7                  24910799.318
        46.000
 122504877.601 7                  22900981.324    22900982.128
        44.100
 144028869.549 6                  27407754.345
        39.900
 126051614.662 6                  23605399.143    23605398.695
        36.900
 133872787.345 5 104316535.17143  25475130.132    25475129.2924   25475140.3774
        32.400          20.9004
 127984598.256 6                  24009563.781    24009563.637
        37.900
 111493384.711 7  86878099.72847  21216435.234    21216434.6174   21216436.4754
        47.900          47.1004
 106709078.598 8  82996130.200 7  19976109.721    19976109.878    19976117.989
        52.600          47.700
 125726589.654 8                  23924927.666
        49.100
 148762526.743 6                  28308556.063
        36.100
 112283910.740 7  87494061.85546  21366882.507    21366882.1184   21366885.2094
        46.800          36.5004
 106442776.091 8  82942551.10446  20255334.446    20255333.0474   20255333.8614
        48.500          41.5004
 25  1  1  0 18 30.0000000  0 30E34R21R11S31S35R20G03S48G24S33G12G02
                                E15R22R05G11E02G06E36R23E27R13G30R10
                                G17R12E30E25G14G19
 122980807.395 8                  23402421.529
        48.800
 108962087.575 8  84748442.793 7  20362125.085    20362125.414    20362133.237
        52.600          47.800
 105873263.184 8  82346023.820 8  19812689.285    19812689.794    19812696.208
        51.900          49.000
 198980753.924 7                  37864778.510
        45.400
 200909656.757 7                  38231849.784
        43.900
 131838531.069 5 102541202.666 6  24654421.096    24654421.751    24654431.458
        34.700          39.400
 121193203.139 6  94436360.75346  23062272.753    23062272.4634   23062278.6504
        41.400          38.3004
 412996285.485 5                  78590569.730
        31.900
 119982409.470 7  93492923.01346  22831847.564    22831847.1674   22831854.3104
        43.900          40.6004
 202136445.298 7                  38465266.505
        44.600
 129839277.904 6 101173550.34845  24707577.929    24707577.2954   24707587.5854
        40.200          30.7004
 137801688.374 6 107378046.90443  26222747.867    26222746.5484   26222746.7134
        38.900          23.2004
 138198838.566 6                  26298341.503
        41.700
 104905368.410 8  81593199.353 8  19652269.138    19652269.389    19652275.371
        52.400          49.400
 130193875.270 7 101261924.413 6  24355458.147    24355458.366    24355465.218
        44.900          41.400
 123316516.630 7  96090874.49344  23466331.151    23466330.8164   23466336.6374
        43.200          29.8004
 126449485.746 7                  24062498.658
        47.700
 108698116.505 8  84699972.18848  20684526.373    20684526.0024   20684530.7044
        48.700          50.8004
 130936192.438 7                  24916286.814
        46.300
 122453536.837 7                  22891383.549    22891383.795
        44.100
 143990359.119 6                  27400425.357
        39.300
 125988883.133 6                  23593652.012    23593651.442
        36.800
 133926647.903 5 104358504.41143  25485378.684    25485377.8304   25485389.1214
        34.400          20.7004
 128048556.570 6                  24021563.709    24021562.699
        38.800
 111514014.361 7  86894174.80847  21220360.691    21220360.0794   21220362.1304
        47.700          46.9004
 106674525.608 8  82969255.709 7  19969641.045    19969641.465    19969649.590
        52.700          47.900
 125709834.938 8                  23921739.468
        49.100
 148801103.514 6                  28315897.405
        36.000
 112319162.674 7  87521530.89446  21373590.627    21373590.2344   21373593.4484
        46.300          36.3004
 106437542.683 8  82938473.13746  20254338.440    20254337.0414   20254337.9324
        48.400          41.4004
 25  1  1  0 18 45.0000000  0 30E34R21R11S31S35R20G03S48G24S33G12G02
                                E15R22R05G11E02G06E36R23E27R13G30R10
                                G17R12E30E25G14G19
 122968592.997 8                  23400097.323
        48.800
 109001261.538 8  84778911.433 7  20369445.317    20369445.939    20369453.944
        52.900          47.700
 105908554.511 8  82373472.641 8  19819294.179    19819294.117    19819300.848
        51.500          49.000
 198980761.084 7                  37864784.971
        45.200
 200909693.369 7                  38231857.458
        43.900
 131896933.493 4 102586626.574 6  24665342.204    24665342.428    24665352.694
        27.900          37.600
 121196341.168 6  94438805.98546  23062869.868    23062869.5784   23062875.8044
        41.400          38.5004
 412996385.744 5                  78590577.725
        32.700
 119979683.643 7  93490799.04446  22831328.393    22831328.0134   22831335.6294
        43.700          40.5004
 202136442.263 7                  38465268.898
        44.700
 129786679.130 6 101132564.49845  24697568.436    24697567.8064   24697577.8544
        40.300          30.7004
 137852441.027 6 107417593.93242  26232406.141    26232404.8224   26232404.7564
        38.900          17.7004
 138156343.450 6                  26290255.152
        41.300
 104888243.083 8  81579879.702 8  19649060.822    19649061.148    19649067.281
        52.400          49.100
 130172334.923 7 101245170.761 6  24351427.590    24351428.173    24351435.030
        42.900          39.000
 123265497.832 7  96051119.68244  23456622.183    23456621.8304   23456627.9224
        42.300          29.9004
 126470259.409 7                  24066451.708
        47.700
 108671829.874 8  84679489.13948  20679524.370    20679523.9994   20679528.4654
        49.000          50.7004
 130965093.855 7                  24921786.418
        46.300
 122402267.057 7                  22881798.940    22881799.511
        44.400
 143951847.082 6                  27393096.509
        39.500
 125926172.736 6                  23581908.007    23581907.531
        37.500
 133980475.014 5 104400447.58243  25495622.572    25495621.7324   25495632.3434
        34.300          23.4004
 128112543.177 6                  24033567.485    24033567.141
        38.900
 111534677.130 7  86910275.68347  21224292.756    21224292.1394   21224294.0824
        47.700          46.9004
 106640113.640 8  82942490.898 8  19963199.141    19963199.521    19963207.292
        52.600          48.000
 125693133.691 8                  23918561.179
        48.900
 148839702.325 6                  28323242.454
        36.200
 112354503.985 7  87549069.57246  21380316.146    21380315.7534   21380318.7244
        46.100          36.2004
 106432375.032 8  82934446.42146  20253354.996    20253353.5924   20253354.5424
        48.600          41.4004
 25  1  1  0 19  0.0000000  0 30E34R21R11S31S35R20G03S48G24S33G12G02
                                E15R22R05G11E02G06E36R23E27R13G30R10
                                G17R12E30E25G14G19
 122956473.512 8                  23397790.991
        49.000
 109040511.297 8  84809439.012 7  20376780.389    20376780.741    20376788.671
        52.600          47.600
 105944003.018 8  82401043.686 8  19825927.772    19825927.769    19825934.433
        52.000          49.200
 198980766.535 7                  37864782.552
        45.200
 200909727.626 7                  38231865.538
        43.900
 131955302.939 5 102632024.652 6  24676259.996    24676258.746    24676268.537
        31.800          39.600
 121199627.337 7  94441366.65646  23063495.135    23063494.8454   23063501.0894
        42.200          38.5004
 412996483.753 5                  78590564.726
        31.700
 119977103.070 7  93488788.25146  22830837.252    22830836.8594   22830844.5554
        43.400          40.5004
 202136437.271 7                  38465268.084
        44.800
 129734081.247 6 101091579.34945  24687559.137    24687558.4984   24687569.1824
        39.300          30.8004
 137903177.879 6 107457128.96343  26242061.297    26242059.9964   26242060.0804
        40.100          21.2004
 138113889.495 6                  26282176.294
        41.800
 104871255.705 8  81566667.325 8  19645878.356    19645879.025    19645884.859
        52.200          49.400
 130150941.719 7 101228531.642 6  24347425.530    24347426.031    24347433.608
        42.900          41.100
 123214530.775 7  96011405.18844  23446924.088    23446923.7354   23446929.1074
        42.700          29.7004
 126491094.976 7                  24070416.641
        47.800
 108645667.579 8  84659102.97548  20674545.732    20674545.3664   20674549.9004
        49.000          50.7004
 130994058.419 7                  24927298.317
        46.200
 122351067.714 7                  22872227.959    22872228.348
        44.600
 143913332.892 6                  27385767.988
        39.500
 125863483.290 6                  23570167.980    23570167.666
        38.400
 134034267.619 6 104442363.89243  25505859.248    25505858.3944   25505869.1174
        36.100          23.4004
 128176557.019 6                  24045575.356    24045575.429
        38.400
 111555372.336 7  86926401.83847  21228230.690    21228230.0824   21228232.1994
        47.500          46.9004
 106605842.499 8  82915835.603 8  19956783.450    19956783.731    19956791.932
        52.300          48.100
 125676485.419 8                  23915393.269
        49.000
 148878322.389 5                  28330591.350
        35.600
 112389933.945 7  87576677.33246  21387058.190    21387057.8104   21387060.7414
        46.000          36.1004
 106427272.368 8  82930470.33946  20252384.111    20252382.6984   20252383.5424
        48.600          41.4004
 25  1  1  0 19 15.0000000  0 30E34R21R11S31S35R20G03S48G24S33G12G02
                                E15R22R05G11E02G06E36R23E27R13G30R10
                                G17R12E30E25G14G19
 122944454.682 8                  23395503.901
        49.100
 109079842.611 8  84840030.033 7  20384130.351    20384130.738    20384138.556
        52.900          47.500
 105979614.312 8  82428741.355 8  19832591.909    19832591.963    19832598.573
        51.700          49.100
 198980774.462 7                  37864783.880
        45.300
 200909765.766 7                  38231874.946
        44.200
 132013645.599 5 102677401.818 6  24687167.982    24687169.317    24687179.287
        32.600          38.500
 121203067.388 7  94444047.23646  23064150.063    23064149.7774   23064155.5154
        42.300          38.7004
 412996584.881 5                  78590566.886
        32.000
 119974673.447 7  93486895.09246  22830375.055    22830374.6584   22830382.1134
        43.300          40.6004
 202136435.779 7                  38465269.779
        44.800
 129681490.205 6 101050599.54745  24677551.597    24677550.9544   24677561.4494
        40.100          31.1004
 137953903.528 5 107496655.25642  26251714.099    26251712.8034   26251712.7974
        30.700          12.2004
 138071482.626 7                  26274106.467
        42.100
 104854412.040 8  81553566.720 8  19642723.293    19642723.562    19642729.485
        51.900          49.200
 130129701.178 7 101212011.014 6  24343452.228    24343451.746    24343460.043
        42.400          40.700
 123163621.374 7  95971735.62645  23437236.054    23437235.7284   23437241.0684
        42.800          30.0004
 126511998.207 7                  24074394.421
        47.500
 108619635.462 8  84638818.25048  20669591.773    20669591.4024   20669596.1154
        48.800          50.8004
 131023091.698 7                  24932823.089
        46.300
 122299944.841 7                  22862671.015    22862671.368
        44.300
 143874822.380 6                  27378439.097
        39.200
 125800821.067 6                  23558432.432    23558431.669
        37.600
 134088031.296 5 104484257.65343  25516089.325    25516088.4894   25516099.9704
        32.100          20.3004
 128240603.913 6                  24057590.967    24057590.553
        38.400
 111576105.733 8  86942557.75647  21232176.614    21232176.0154   21232177.6104
        48.000          47.0004
 106571718.492 8  82889294.758 8  19950395.360    19950395.419    19950403.718
        52.100          48.000
 125659895.994 8                  23912236.407
        49.000
 148916969.461 6                  28337945.792
        36.100
 112425458.194 7  87604358.56446  21393818.026    21393817.6514   21393820.7254
        46.300          36.1004
 106422240.466 8  82926549.40346  20251426.509    20251425.0924   20251426.0114
        48.400          41.5004
 25  1  1  0 19 30.0000000  0 30E34R21R11S31S35R20G03S48G24S33G12G02
                                E15R22R05G11E02G06E36R23E27R13G30R10
                                G17R12E30E25G14G19
 122932532.956 8                  23393235.084
        48.700
 109119251.237 8  84870681.199 7  20391494.963    20391495.170    20391503.046
        52.900          47.600
 106015384.560 8  82456562.651 8  19839286.000    19839285.923    19839292.498
        51.400          49.200
 198980783.017 7                  37864786.845
        45.600
 200909803.150 7                  38231883.330
        44.100
 132071957.964 5 102722755.584 6  24698073.253    24698074.165    24698083.603
        33.100          37.200
 121206657.819 7  94446844.99046  23064832.862    23064832.5814   23064838.7394
        42.600          38.7004
 412996685.337 5                  78590553.386
        32.200
 119972391.194 7  93485116.75646  22829940.799    22829940.3974   22829947.7674
        43.200          40.6004
 202136435.985 7                  38465268.191
        45.400
 129628902.563 6 101009622.39545  24667544.382    24667543.7434   24667553.8334
        39.400          30.8004
 138004615.659 6 107536171.41742  26261363.674    26261362.4274   26261363.0644
        39.000          17.7004
 138029119.424 6                  26266045.069
        41.100
 104837708.434 8  81540575.069 8  19639593.987    19639594.374    19639600.382
        52.200          49.200
 130108610.578 7 101195607.132 6  24339506.813    24339506.971    24339514.945
        42.600          40.600
 123112766.400 7  95932108.46945  23427558.413    23427558.0694   23427563.6634
        42.600          30.0004
 126532965.575 7                  24078384.222
        47.300
 108593730.137 8  84618632.32148  20664662.490    20664662.1284   20664666.4514
        48.900          50.9004
 131052189.969 7                  24938360.483
        46.000
 122248894.886 7                  22853127.504    22853127.423
        44.600
 143836312.175 6                  27371110.770
        38.900
 125738182.719 6                  23546704.288    23546702.701
        37.700
 134141762.298 5 104526125.94943  25526314.340    25526313.4514   25526324.5324
        34.100          21.1004
 128304679.642 6                  24069611.131    24069610.163
        37.900
 111596873.690 7  86958740.60247  21236128.106    21236127.5034   21236129.5904
        47.900          47.0004
 106537738.457 8  82862865.896 8  19944034.122    19944034.433    19944042.549
        52.600          48.100
 125643362.027 8                  23909089.981
        48.800
 148955639.907 5                  28345304.284
        35.200
 112461073.084 7  87632110.42446  21400595.460    21400595.0804   21400597.9754
        46.300          36.2004
 106417275.901 8  82922680.93046  20250481.814    20250480.3934   20250481.2784
        48.500          41.6004
 25  1  1  0 19 45.0000000  0 30E34R21R11S31S35R20G03S48G24S33G12G02
                                E15R22R05G11E02G06E36R23E27R13G30R10
                                G17R12E30E25G14G19
 122920707.696 8                  23390984.869
        48.400
 109158736.274 8  84901391.777 7  20398873.385    20398873.830    20398881.912
        52.800          47.400
 106051312.859 8  82484506.879 8  19846009.361    19846009.495    19846016.204
        51.800          49.000
 198980790.721 7                  37864787.556
        45.100
 200909840.150 7                  38231889.765
        44.300
 132130238.330 4 102768084.374 5  24708974.400    24708973.074    24708982.668
        28.100          34.300
 121210397.998 7  94449759.43346  23065544.885    23065544.6084   23065550.4694
        42.200          38.7004
 412996784.242 5                  78590553.476
        32.300
 119970255.643 7  93483452.73746  22829534.094    22829533.6924   22829541.3454
        43.600          40.7004
 202136433.280 7                  38465267.990
        45.100
 129576318.080 6 100968647.69045  24657537.558    24657536.9284   24657546.6634
        39.500          31.0004
 138055311.078 5 107575674.01442  26271010.952    26271009.7504   26271010.2684
        35.800          13.8004
 137986799.405 6                  26257991.189
        40.600
 104821144.124 8  81527691.727 8  19636490.652    19636491.354    19636497.219
        52.300          49.200
 130087669.427 7 101179319.412 6  24335589.920    24335590.209    24335597.835
        43.600          40.500
 123061965.425 7  95892523.38645  23417891.350    23417891.0114   23417896.6554
        42.500          30.2004
 126553996.431 7                  24082386.363
        47.000
 108567951.033 8  84598544.74548  20659756.612    20659756.2504   20659760.7994
        49.000          51.0004
 131081352.369 7                  24943909.875
        45.700
 122197917.506 7                  22843597.446    22843598.028
        44.400
 143797801.736 6                  27363782.696
        38.500
 125675568.040 6                  23534976.390    23534976.367
        38.200
 134195459.579 5 104567967.99443  25536532.842    25536531.9534   25536542.4004
        32.900          23.2004
 128368783.411 6                  24081638.298    24081637.902
        40.000
 111617675.490 7  86974949.81347  21240086.816    21240086.2134   21240088.0004
        47.800          47.1004
 106503902.071 8  82836548.746 8  19937699.824    19937700.384    19937708.245
        52.500          48.000
 125626883.041 8                  23905953.980
        48.200
 148994332.991 5                  28352667.516
        34.800
 112496777.851 7  87659932.31146  21407389.792    21407389.4084   21407392.3864
        46.200          36.1004
 106412377.903 8  82918864.32646  20249549.774    20249548.3534   20249549.2094
        48.400          41.7004
 25  1  1  0 20  0.0000000  0 30E34R21R11S31S35R20G03S48G24S33G12G02
                                E15R22R05G11E02G06E36R23E27R13G30R10
                                G17R12E30E25G14G19
 122908979.139 8                  23388753.156
        48.300
 109198297.575 8  84932161.680 7  20406266.590    20406266.920    20406274.541
        52.700          47.600
 106087399.257 8  82512574.069 8  19852762.158    19852762.477    19852769.034
        51.500          49.000
 198980798.007 7                  37864788.548
        45.800
 200909877.219 7                  38231892.224
        44.200
 132188486.764 5 102813388.071 6  24719864.892    24719866.349    24719876.820
        30.100          38.400
 121214288.267 7  94452790.83146  23066284.942    23066284.6614   23066290.6484
        42.700          38.8004
 412996882.157 5                  78590551.092
        32.400
 119968266.985 7  93481903.18146  22829155.735    22829155.3294   22829162.9754
        43.100          40.7004
 202136430.667 7                  38465267.981
        45.200
 129523737.090 6 100927675.71645  24647531.543    24647530.9134   24647540.9964
        40.900          32.0004
 138105990.815 5 107615163.97943  26280656.134    26280654.9364   26280654.7084
        34.600          19.3004
 137944522.991 6                  26249946.206
        40.700
 104804719.368 8  81514916.954 8  19633413.946    19633414.485    19633420.166
        52.200          49.300
 130066878.848 7 101163148.993 6  24331700.555    24331700.434    24331707.600
        44.200          39.800
 123011218.936 7  95852980.76445  23408234.595    23408234.2694   23408239.8334
        42.100          30.3004
 126575091.086 7                  24086400.563
        47.200
 108542298.549 8  84578555.83548  20654875.164    20654874.8024   20654879.2544
        49.300          51.0004
 131110578.925 7                  24949471.357
        45.600
 122147013.293 7                  22834081.961    22834081.991
        44.700
 143759291.429 6                  27356454.233
        38.700
 125612977.746 6                  23523256.709    23523256.236
        38.600
 134249123.152 5 104609783.78143  25546745.314    25546744.4434   25546754.0744
        35.000          21.5004
 128432914.806 6                  24093666.995    24093666.598
        38.600
 111638511.195 8  86991185.44647  21244051.715    21244051.1124   21244052.8764
        48.100          47.1004
 106470210.102 8  82810343.932 7  19931392.716    19931392.825    19931401.080
        52.400          47.900
 125610459.434 8                  23902828.614
        48.400
 149033048.954 5                  28360034.952
        34.900
 112532572.667 7  87687824.36646  21414201.290    21414200.9064   21414203.8484
        46.500          36.2004
 106407546.744 8  82915099.80546  20248630.474    20248629.0574   20248629.8574
        48.800          41.7004
 25  1  1  0 20 15.0000000  0 30E34R21R11S31S35R20G03S48G24S33G12G02
                                E15R22R05G11E02G06E36R23E27R13G30R10
                                G17R12E30E25G14G19
 122897345.593 8                  23386539.195
        48.300
 109237932.880 8  84962989.122 7  20413673.147    20413673.465    20413681.444
        52.400          47.600
 106123641.737 8  82540762.654 8  19859544.971    19859544.847    19859551.421
        51.700          49.000
 198980802.713 7                  37864788.978
        45.600
 200909910.647 7                  38231899.200
        44.200
 132246702.259 5 102858666.545 5  24730752.442    24730753.793    24730763.101
        30.200          35.000
 121218326.907 7  94455937.84746  23067053.400    23067053.1104   23067059.2264
        42.600          38.8004
 412996976.662 5                  78590549.594
        33.400
 119966423.514 7  93480466.75646  22828805.333    22828804.9314   22828812.2164
        42.800          40.7004
 202136425.741 7                  38465268.276
        45.200
 129471158.241 6 100886705.41545  24637525.628    24637524.9894   24637535.8124
        39.700          32.0004
 138156654.796 6 107654642.37741  26290296.988    26290295.8084   26290295.9154
        36.900           8.1004
 137902288.631 6                  26241909.547
        41.300
 104788432.414 8  81502249.338 8  19630363.162    19630363.193    19630369.178
        52.100          49.300
 130046236.242 7 101147093.509 6  24327839.292    24327839.506    24327846.211
        44.700          41.600
 122960525.547 7  95813479.52045  23398587.970    23398587.6494   23398593.0184
        43.000          30.3004
 126596247.806 7                  24090426.580
        47.300
 108516771.092 8  84558664.34848  20650017.393    20650017.0314   20650021.5034
        49.200          51.1004
 131139867.743 7                  24955044.969
        45.900
 122096180.356 7                  22824579.523    22824579.547
        44.100
 143720779.687 6                  27349126.107
        39.000
 125550410.435 6                  23511537.749    23511537.396
        36.700
 134302751.073 5 104651571.74543  25556950.110    25556949.2394   25556959.4264
        34.400          23.5004
 128497072.154 6                  24105703.167    24105702.730
        38.500
 111659379.124 8  87007446.18547  21248022.761    21248022.1624   21248023.8964
        48.100          47.2004
 106436661.311 8  82784250.473 7  19925112.256    19925112.472    19925120.583
        52.300          47.900
 125594089.668 8                  23899713.867
        48.500
 149071785.947 5                  28367406.569
        34.600
 112568455.703 7  87715785.16346  21421029.994    21421029.6144   21421032.0964
        45.500          36.1004
 106402780.534 8  82911385.89546  20247723.348    20247721.9224   20247722.8644
        48.900          41.8004
 25  1  1  0 20 30.0000000  0 28E34R21R11S31S35G03S48G24S33G12E15R22
                                R05G11E02G06E36R23E27R13G30R10G17R12
                                E30E25G14G19
 122885810.701 8                  23384344.043
        48.300
 109277645.690 8  84993876.874 7  20421094.630    20421094.803    20421103.090
        52.200          47.500
 106160043.850 8  82569075.427 8  19866356.751    19866356.840    19866363.630
        51.500          48.900
 198980809.460 7                  37864794.979
        45.500
 200909946.701 7                  38231908.358
        44.100
 121222517.660 7  94459203.38646  23067850.762    23067850.4634   23067856.7404
        42.500          38.9004
 412997073.047 5                  78590538.733
        32.100
 119964728.850 7  93479146.28546  22828482.529    22828482.1324   22828489.6744
        43.400          40.6004
 202136421.970 7                  38465268.003
        45.300
 129418585.283 6 100845739.69645  24627521.240    24627520.5834   24627531.1834
        40.700          31.8004
 137860100.144 6                  26233881.415
        41.100
 104772286.892 8  81489691.768 8  19627338.087    19627338.440    19627344.412
        52.000          49.100
 130025746.687 7 101131157.137 6  24324006.052    24324006.485    24324014.205
        43.300          39.700
 122909889.088 7  95774022.63445  23388951.901    23388951.5754   23388957.1184
        42.400          30.2004
 126617470.310 7                  24094465.086
        47.000
 108491372.411 8  84538873.20848  20645184.253    20645183.8914   20645188.2914
        49.100          51.1004
 131169222.279 7                  24960630.902
        45.600
 122045422.887 7                  22815089.469    22815090.022
        43.900
 143682270.296 6                  27341797.211
        39.600
 125487870.460 6                  23499826.805    23499826.092
        36.100
 134356346.710 5 104693334.59642  25567148.786    25567147.9014   25567158.8934
        31.300          17.0004
 128561258.640 6                  24117745.561    24117744.179
        38.100
 111680282.928 8  87023734.87847  21252000.476    21251999.8734   21252001.7624
        48.200          47.0004
 106403259.879 8  82758271.660 8  19918859.258    19918859.668    19918867.703
        52.300          48.100
 125577777.568 8                  23896609.498
        48.500
 149110547.648 5                  28374782.249
        35.100
 112604430.514 7  87743817.47545  21427875.420    21427875.0404   21427877.9624
        46.200          35.9004
 106398082.959 8  82907725.46646  20246829.410    20246827.9754   20246828.9334
        48.700          41.7004
 25  1  1  0 20 45.0000000  0 28E34R21R11S31S35G03S48G24S33G12E15R22
                                R05G11E02G06E36R23E27R13G30R10G17R12
                                E30E25G14G19
 122874372.283 8                  23382167.513
        48.400
 109317433.310 8  85024822.787 7  20428529.821    20428530.136    20428538.182
        52.600          47.500
 106196603.096 8  82597510.367 8  19873198.444    19873198.477    19873205.167
        51.600          49.000
 198980815.589 7                  37864795.318
        45.300
 200909982.351 7                  38231917.471
        43.700
 121226858.293 6  94462585.71346  23068676.828    23068676.5294   23068682.7124
        41.700          38.9004
 412997168.773 5                  78590528.748
        31.900
 119963180.772 7  93477940.03946  22828187.582    22828187.1804   22828195.0524
        43.300          40.6004
 202136418.530 7                  38465267.020
        45.100
 129366016.320 6 100804777.09645  24617517.156    24617516.4864   24617527.3814
        40.200          31.4004
 137817955.525 6                  26225861.607
        41.100
 104756280.500 8  81477242.363 8  19624339.719    19624339.948    19624345.943
        52.200          49.400
 130005408.099 7 101115338.221 6  24320200.738    24320201.322    24320208.899
        43.400          41.000
 122859307.658 7  95734608.63045  23379326.981    23379326.6604   23379331.8084
        42.800          30.3004
 126638756.409 7                  24098515.603
        47.200
 108466100.473 8  84519180.82748  20640374.873    20640374.5164   20640379.1604
        48.900          51.1004
 131198640.131 7                  24966228.934
        45.900
 121994738.938 7                  22805615.617    22805615.284
        43.400
 143643761.241 6                  27334468.981
        39.200
 125425356.384 6                  23488120.216    23488118.637
        38.000
 134409907.840 5 104735070.55943  25577340.672    25577339.7834   25577351.2054
        34.900          23.0004
 128625471.726 6                  24129791.742    24129790.216
        38.100
 111701220.437 8  87040049.83747  21255984.722    21255984.1104   21255986.0094
        48.000          47.0004
 106370003.839 8  82732405.886 8  19912633.677    19912633.944    19912642.162
        52.500          48.100
 125561521.085 8                  23893515.983
        48.600
 149149331.746 5                  28382163.084
        34.900
 112640494.846 7  87771919.55045  21434738.246    21434737.8714   21434740.7724
        45.900          35.8004
 106393451.838 8  82904116.82046  20245947.994    20245946.5554   20245947.6174
        48.700          41.8004
 25  1  1  0 21  0.0000000  0 28E34R21R11S31S35G03S48G24S33G12E15R22
                                R05G11E02G06E36R23E27R13G30R10G17R12
                                E30E25G14G19
 122863032.572 8                  23380009.733
        48.500
 109357297.645 8  85055828.375 7  20435979.487    20435979.546    20435987.677
        52.100          47.500
 106233321.543 8  82626069.167 8  19880069.832    19880069.863    19880076.366
        51.700          48.900
 198980822.226 7                  37864799.177
        45.500
 200910019.016 7                  38231917.860
        43.900
 121231351.147 7  94466086.66146  23069531.937    23069531.6244   23069537.6284
        42.900          39.0004
 412997265.956 5                  78590525.895
        32.600
 119961781.420 7  93476849.68246  22827921.311    22827920.9094   22827928.7764
        43.700          40.6004
 202136416.177 7                  38465265.374
        45.000
 129313453.716 6 100763819.43445  24607514.932    24607514.2714   24607524.4424
        40.900          31.4004
 137775857.114 6                  26217850.269
        41.700
 104740415.451 8  81464902.923 8  19621367.403    19621368.041    19621373.718
        52.500          49.500
 129985222.849 7 101099638.426 6  24316425.575    24316426.047    24316432.788
        44.600          40.000
 122808783.723 7  95695239.41945  23369711.890    23369711.5424   23369717.1534
        42.600          30.2004
 126660108.345 7                  24102578.832
        47.100
 108440957.588 8  84499589.01348  20635590.473    20635590.1254   20635594.5864
        49.400          51.1004
 131228123.344 7                  24971839.405
        45.700
 121944130.772 7                  22796154.488    22796154.440
        44.200
 143605254.778 6                  27327141.424
        39.000
 125362870.586 6                  23476418.477    23476417.948
        38.700
 134463436.146 5 104776780.92343  25587528.111    25587527.2224   25587537.0744
        33.100          20.7004
 128689713.368 6                  24141843.614    24141842.379
        38.300
 111722193.746 8  87056392.69247  21259975.766    21259975.1584   21259977.0754
        48.100          47.0004
 106336896.083 8  82706655.477 8  19906435.753    19906436.190    19906444.270
        52.200          48.300
 125545322.614 8                  23890433.404
        48.500
 149188140.422 5                  28389547.978
        35.300
 112676650.812 7  87800093.02845  21441618.606    21441618.2444   21441621.0204
        45.800          35.8004
 106388889.434 8  82900561.72346  20245079.832    20245078.3844   20245079.3934
        49.000          41.8004
 25  1  1  0 21 15.0000000  0 28E34R21R11S31S35G03S48G24S33G12E15R22
                                R05G11E02G06E36R23E27R13G30R10G17R12
                                E30E25G14G19
 122851789.580 8                  23377869.969
        48.500
 109397236.377 8  85086891.835 7  20443442.967    20443443.270    20443451.236
        52.700          47.300
 106270196.891 8  82654749.982 8  19886970.946    19886970.681    19886977.407
        51.700          49.000
 198980829.488 7                  37864802.151
        45.600
 200910055.667 7                  38231925.560
        44.200
 121235994.228 7  94469704.66646  23070415.603    23070415.2904   23070421.2114
        42.400          39.1004
 412997361.889 5                  78590517.671
        32.400
 119960528.835 7  93475873.69246  22827682.617    22827682.2114   22827690.4614
        43.000          40.6004
 202136413.784 7                  38465265.128
        45.300
 129260895.854 6 100722865.48245  24597513.883    24597513.2174   24597523.3854
        40.000          32.0004
 137733803.135 6                  26209847.787
        41.300
 104724689.682 8  81452671.788 8  19618421.815    19618422.127    19618427.751
        52.500          49.500
 129965189.563 7 101084056.915 6  24312677.702    24312678.327    24312685.058
        44.000          40.700
 122758315.584 7  95655913.69645  23360108.184    23360107.8404   23360113.5304
        42.000          30.4004
 126681524.147 7                  24106654.001
        47.100
 108415941.907 8  84480096.31448  20630830.317    20630829.9644   20630834.2134
        49.100          51.2004
 131257669.751 7                  24977461.817
        45.700
 121893596.552 7                  22786707.910    22786707.690
        44.800
 143566749.203 6                  27319814.037
        39.500
 125300411.306 6                  23464721.019    23464720.389
        38.300
 134516929.554 5 104818464.08443  25597705.860    25597704.9714   25597716.6294
        33.400          22.5004
 128753981.175 6                  24153899.940    24153898.741
        38.600
 111743200.727 7  87072761.77547  21263973.341    21263972.7294   21263974.5674
        47.700          47.0004
 106303935.042 8  82681019.158 8  19900265.579    19900265.686    19900273.579
        52.000          48.200
 125529180.354 8                  23887361.703
        48.800
 149226971.590 5                  28396937.033
        35.200
 112712896.288 7  87828336.25645  21448515.914    21448515.5434   21448518.2744
        46.000          35.7004
 106384393.831 8  82897058.67346  20244224.411    20244222.9584   20244223.9274
        48.700          41.8004
 25  1  1  0 21 30.0000000  0 27E34R21R11S31S35G03S48G24S33G12E15R22
                                R05G11E02G06E36R23E27R13R10G17R12E30
                                E25G14G19
 122840645.122 8                  23375749.472
        48.500
 109437250.986 8  85118014.294 7  20450920.260    20450920.923    20450928.956
        52.300          47.200
 106307230.691 8  82683554.043 8  19893900.987    19893900.913    19893907.398
        51.200          48.800
 198980838.159 7                  37864800.237
        45.600
 200910093.222 7                  38231933.515
        44.100
 121240789.380 6  94473441.16346  23071327.783    23071327.4844   23071333.6514
        41.600          38.8004
 412997458.619 5                  78590507.963
        32.300
 119959424.753 7  93475013.41846  22827472.517    22827472.1154   22827480.3394
        43.200          40.5004
 202136412.631 7                  38465264.529
        45.100
 129208344.908 6 100681916.91445  24587513.381    24587512.7294   24587522.8744
        39.500          32.0004
 137691795.556 6                  26201854.044
        41.700
 104709104.959 8  81440550.349 8  19615501.968    19615502.435    19615508.170
        52.300          49.400
 129945310.476 6 101068595.423 6  24308958.666    24308959.041    24308967.034
        41.600          39.100
 122707905.287 7  95616633.03945  23350515.452    23350515.1174   23350520.7014
        43.100          30.5004
 126703005.674 7                  24110741.791
        47.200
 108391055.352 8  84460704.23648  20626094.309    20626093.9564   20626098.4344
        49.300          51.2004
 131287280.954 7                  24983096.572
        45.800
 121843138.307 7                  22777274.500    22777274.771
        44.800
 143528246.313 6                  27312487.115
        39.200
 125237981.025 5                  23453029.436    23453027.968
        35.500
 128818276.725 6                  24165959.311    24165960.492
        36.900
 111764243.076 8  87089158.41747  21267977.537    21267976.9254   21267978.7854
        48.000          47.0004
 106271122.884 8  82655498.640 8  19894122.785    19894122.947    19894131.130
        52.200          48.100
 125513096.235 8                  23884301.020
        48.500
 149265827.040 5                  28404331.422
        35.400
 112749233.025 7  87856650.59345  21455430.303    21455429.9374   21455432.8614
        45.900          35.6004
 106379966.702 8  82893608.97546  20243381.787    20243380.3254   20243381.4514
        48.700          41.8004
 25  1  1  0 21 45.0000000  0 27E34R21R11S31S35G03S48G24S33G12E15R22
                                R05G11E02G06E36R23E27R13R10G17R12E30
                                E25G14G19
 122829594.256 8                  23373646.374
        48.600
 109477335.840 8  85149191.376 7  20458411.831    20458411.911    20458419.890
        52.600          47.100
 106344417.783 8  82712477.338 8  19900860.238    19900860.077    19900866.670
        51.600          48.900
 198980842.680 7                  37864798.520
        45.600
 200910127.394 7                  38231942.718
        44.500
 121245731.714 7  94477292.35646  23072268.455    23072268.1654   23072274.0154
        42.600          39.0004
 412995951.192 5                  78590500.111
        31.700
 119958464.188 7  93474264.97046  22827289.563    22827289.1614   22827297.4284
        43.100          40.6004
 202136407.766 7                  38465262.029
        45.100
 129155795.830 6 100640969.78645  24577513.733    24577513.1034   24577523.0344
        39.500          32.4004
 137649829.577 6                  26193867.908
        41.700
 104693656.232 8  81428534.726 8  19612608.370    19612608.374    19612614.243
        52.400          49.600
 129925580.303 7 101053249.662 6  24305267.773    24305268.477    24305275.741
        44.400          40.300
 122657548.140 7  95577393.79645  23340933.099    23340932.7694   23340937.8264
        42.700          30.5004
 126724548.004 7                  24114841.225
        47.200
 108366293.078 8  84441408.99448  20621382.134    20621381.7774   20621386.3324
        49.200          51.4004
 131316951.784 7                  24988742.956
        45.900
 121792751.134 7                  22767855.123    22767855.620
        45.000
 143489741.404 6                  27305159.646
        39.600
 125175574.934 6                  23441343.740    23441342.943
        37.600
 128882594.427 6                  24178025.909    24178025.166
        36.600
 111785315.870 8  87105578.80047  21271987.515    21271986.9034   21271988.7934
        48.000          47.1004
 106238455.096 8  82630090.417 8  19888007.536    19888007.699    19888015.524
        52.400          48.100
 125497065.489 8                  23881250.424
        48.700
 149304701.828 5                  28411729.151
        35.400
 112785655.960 7  87885032.09445  21462361.452    21462361.0904   21462363.8894
        46.300          35.7004
 106375603.033 8  82890208.76046  20242551.597    20242550.1354   20242551.0624
        48.400          41.9004
 25  1  1  0 22  0.0000000  0 27E34R21R11S31S35G03S48G24S33G12E15R22
                                R05G11E02G06E36R23E27R13R10G17R12E30
                                E25G14G19
 122818641.627 8                  23371562.172
        48.600
 109517495.544 8  85180426.685 7  20465916.032    20465916.492    20465924.417
        52.200          47.300
 106381762.574 8  82741523.274 8  19907848.500    19907848.575    19907855.257
        52.000          48.900
 198980848.738 7                  37864799.088
        45.600
 200910163.417 7                  38231950.986
        44.200
 121250825.921 7  94481261.89646  23073237.572    23073237.2734   23073243.3244
        42.100          39.1004
 412996045.400 5                  78590499.624
        31.900
 119957651.748 7  93473631.94546  22827135.221    22827134.8104   22827142.7594
        43.200          40.5004
 202136403.751 7                  38465263.760
        44.900
 129103253.439 6 100600027.87745  24567514.449    24567513.8234   24567524.1284
        40.900          32.0004
 137607910.007 6                  26185890.740
        41.800
 104678348.152 8  81416628.462 8  19609740.239    19609740.673    19609746.516
        52.400          49.600
 129906005.096 7 101038024.627 6  24301606.410    24301606.115    24301614.063
        43.800          39.600
 122607249.036 7  95538199.78145  23331360.996    23331360.6664   23331366.1304
        42.900          30.5004
 126746155.777 7                  24118953.097
        47.400
 108341659.884 8  84422214.33648  20616694.560    20616694.2124   20616698.7714
        49.100          51.4004
 131346686.726 7                  24994401.259
        45.600
 121742440.090 7                  22758450.845    22758450.443
        44.200
 143451239.183 6                  27297833.058
        38.900
 125113198.271 6                  23429660.358    23429661.272
        38.000
 128946938.776 6                  24190098.391    24190097.684
        38.200
 111806423.654 7  87122026.45647  21276004.124    21276003.4984   21276005.4364
        47.900          47.0004
 106205936.862 8  82604798.512 7  19881919.625    19881920.041    19881927.942
        51.800          47.900
 125481092.955 8                  23878210.971
        48.500
 149343600.438 5                  28419131.007
        35.700
 112822169.661 7  87913484.32045  21469309.829    21469309.4724   21469312.2144
        46.000          35.6004
 106371307.482 8  82886861.59746  20241734.121    20241732.6734   20241733.5914
        48.300          41.9004
 25  1  1  0 22 15.0000000  0 27E34R21R11S31S35G03S48G24S33G12E15R22
                                R05G11E02G06E36R23E27R13R10G17R12E30
                                E25G14G19
 122807790.164 8                  23369496.988
        48.400
 109557732.636 8  85211722.236 7  20473435.994    20473435.977    20473444.058
        52.500          47.300
 106419267.886 8  82770694.056 8  19914867.245    19914867.229    19914873.956
        51.800          49.000
 198980858.977 7                  37864800.631
        45.600
 200910203.037 7                  38231956.254
        44.200
 121256074.896 7  94485352.02246  23074236.355    23074236.0654   23074242.0754
        42.600          38.8004
 412996143.108 5                  78590495.854
        32.600
 119956990.342 7  93473116.61146  22827009.339    22827008.9284   22827016.8024
        42.900          40.4004
 202136404.745 7                  38465264.516
        45.000
 129050721.128 6 100559093.81545  24557517.524    24557516.8984   24557526.9844
        41.000          31.9004
 137566039.949 6                  26177923.327
        41.900
 104663183.625 8  81404833.856 8  19606899.604    19606899.744    19606905.618
        52.500          49.300
 129886587.049 7 101022921.757 6  24297974.179    24297974.035    24297981.062
        45.000          41.100
 122557011.178 7  95499053.49245  23321801.432    23321801.0974   23321805.9674
        42.900          30.4004
 126767831.971 7                  24123077.754
        47.100
 108317158.772 8  84403122.60148  20612032.341    20612031.9934   20612036.3534
        49.300          51.4004
 131376488.504 7                  25000072.462
        45.500
 121692208.301 7                  22749059.495    22749059.821
        43.400
 143412742.769 6                  27290507.002
        39.100
 125050854.576 6                  23417986.586    23417985.512
        38.000
 129011312.328 6                  24202172.087    24202172.831
        37.200
 111827569.275 8  87138503.57647  21280028.163    21280027.5424   21280029.2934
        48.300          47.0004
 106173571.550 8  82579625.530 8  19875860.941    19875861.046    19875869.028
        52.200          48.000
 125465181.694 8                  23875183.171
        48.500
 149382525.786 5                  28426538.147
        35.000
 112858776.896 7  87942009.42645  21476275.680    21476275.3274   21476278.3674
        46.200          35.5004
 106367083.048 8  82883569.85746  20240930.110    20240928.6574   20240929.6744
        48.700          41.9004
 25  1  1  0 22 30.0000000  0 27E34R21R11S31S35G03S48G24S33G12E15R22
                                R05G11E02G06E36R23E27R13R10G17R12E30
                                E25G14G19
 122797029.835 8                  23367449.554
        48.500
 109598036.509 8  85243069.725 7  20480967.592    20480967.477    20480975.375
        52.300          47.100
 106456923.305 8  82799981.617 8  19921914.205    19921913.934    19921920.629
        51.600          48.900
 198980863.192 7                  37864804.481
        45.600
 200910236.253 7                  38231961.002
        44.100
 121261468.680 7  94489554.99546  23075262.942    23075262.6474   23075268.5044
        43.300          39.2004
 412996234.628 5                  78590489.241
        32.600
 119956469.884 7  93472711.10746  22826910.170    22826909.7554   22826917.6214
        42.900          40.4004
 202136398.421 7                  38465265.012
        44.900
 128998189.231 6 100518160.06745  24547521.275    24547520.6414   24547530.1044
        41.100          31.8004
 137524209.553 7                  26169963.125
        42.000
 104648152.479 8  81393142.994 8  19604083.385    19604083.798    19604089.784
        52.200          49.500
 129867316.951 7 101007934.093 6  24294367.502    24294368.356    24294376.416
        43.100          39.600
 122506824.781 7  95459947.30245  23312250.808    23312250.4784   23312255.8334
        42.800          30.6004
 126789566.568 7                  24127213.859
        47.100
 108292779.858 8  84384126.08448  20607392.901    20607392.5534   20607397.1704
        49.900          51.5004
 131406346.932 7                  25005754.197
        45.600
 121642045.922 7                  22739683.045    22739682.377
        44.700
 143374242.225 6                  27283180.591
        38.800
 124988534.269 6                  23406315.495    23406315.083
        38.600
 129075704.937 6                  24214253.747    24214253.242
        38.300
 111848742.656 8  87155002.33247  21284057.309    21284056.6794   21284058.4354
        48.000          47.0004
 106141349.523 8  82554563.997 8  19869828.907    19869829.114    19869837.158
        52.400          48.100
 125449321.854 8                  23872165.053
        48.600
 149421467.794 5                  28433948.221
        35.200
 112895467.615 7  87970599.59145  21483257.993    21483257.6364   21483260.4084
        46.100          35.4004
 106362919.660 8  82880325.68246  20240137.940    20240136.4874   20240137.3924
        48.600          41.9004
 25  1  1  0 22 45.0000000  0 27E34R21R11S31S35G03S48G24S33G12E15R22
                                R05G11E02G06E36R23E27R13R10G17R12E30
                                E25G14G19
 122786368.529 8                  23365420.708
        48.400
 109638414.731 8  85274475.037 7  20488513.042    20488513.197    20488521.288
        52.800          46.900
 106494736.512 8  82829391.877 8  19928990.164    19928990.313    19928996.932
        51.700          49.000
 198980869.107 7                  37864803.743
        45.600
 200910272.662 7                  38231970.201
        44.100
 121267015.187 7  94493876.96546  23076318.013    23076317.7184   23076324.0714
        42.600          39.1004
 412996327.712 5                  78590478.415
        32.100
 119956098.213 7  93472421.53846  22826839.329    22826838.9094   22826846.8544
        43.000          40.2004
 202136395.142 7                  38465262.852
        44.700
 128945665.494 6 100477232.68445  24537526.612    24537525.9784   24537535.3564
        41.800          32.8004
 137482426.852 6                  26162012.062
        41.600
 104633262.566 8  81381561.975 8  19601294.199    19601294.480    19601300.310
        52.100          49.300
 129848202.645 7 100993067.486 6  24290792.702    24290792.793    24290800.343
        44.000          39.200
 122456697.995 7  95420887.56145  23302711.882    23302711.5564   23302716.8434
        42.800          30.5004
 126811367.485 7                  24131362.353
        46.700
 108268531.124 8  84365231.00448  20602778.577    20602778.2294   20602782.7504
        49.800          51.5004
 131436269.662 7                  25011448.263
        45.600
 121591961.040 7                  22730319.523    22730319.148
        44.300
 143335745.618 6                  27275854.694
        38.800
 124926245.296 6                  23394649.888    23394649.339
        38.500
 129140123.800 6                  24226338.527    24226337.600
        37.500
 111869951.780 8  87171528.93647  21288093.245    21288092.6194   21288094.3744
        48.100          46.9004
 106109278.962 8  82529620.280 8  19863825.087    19863825.477    19863833.200
        52.300          48.100
 125433521.515 8                  23869158.270
        48.300
 149460434.289 5                  28441364.164
        35.100
 112932249.557 7  87999260.83945  21490257.169    21490256.8074   21490259.7894
        46.300          35.3004
 106358825.212 8  82877135.22946  20239358.665    20239357.2124   20239358.2074
        48.800          41.8004
 25  1  1  0 23  0.0000000  0 27E34R21R11S31S35G03S48G24S33G12E15R22
                                R05G11E02G06E36R23E27R13R10G17R12E30
                                E25G14G19
 122775806.453 8                  23363410.831
        48.600
 109678867.117 8  85305938.000 7  20496072.551    20496072.909    20496080.405
        53.200          46.800
 106532707.494 8  82858924.855 8  19936096.184    19936096.101    19936102.367
        51.900          48.900
 198980877.852 7                  37864808.657
        45.500
 200910310.804 7                  38231977.717
        44.000
 121272714.583 7  94498318.06546  23077403.148    23077402.8584   23077408.7394
        42.600          39.2004
 412996422.647 5                  78590469.172
        32.000
 119955875.464 7  93472248.01846  22826797.101    22826796.6864   22826804.4314
        42.600          40.3004
 202136393.889 7                  38465261.891
        44.900
 128893150.491 6 100436312.09645  24527532.614    24527531.9974   24527541.9154
        41.300          32.2004
 137440692.190 7                  26154070.328
        42.200
 104618514.098 8  81370090.979 8  19598531.400    19598531.599    19598537.451
        52.000          49.000
 129829245.103 7 100978322.816 6  24287246.663    24287247.078    24287253.756
        44.200          40.200
 122406631.294 7  95381874.63845  23293184.583    23293184.2574   23293189.3804
        44.000          30.6004
 126833234.934 7                  24135523.442
        47.300
 108244412.871 8  84346437.59848  20598189.044    20598188.6964   20598193.1444
        49.900          51.5004
 131466256.708 7                  25017154.710
        46.100
 121541954.048 7                  22720971.166    22720970.881
        44.500
 143297253.238 6                  27268529.742
        39.300
 124863988.762 6                  23382991.481    23382991.645
        38.300
 129204569.144 6                  24238427.590    24238426.757
        36.500
 111891196.755 8  87188083.47547  21292135.961    21292135.3354   21292137.1464
        48.300          46.9004
 106077360.778 8  82504795.079 8  19857849.995    19857850.455    19857858.093
        52.300          48.000
 125417781.001 8                  23866162.919
        48.400
 149499425.422 5                  28448783.512
        34.700
 112969122.835 7  88027993.25545  21497274.166    21497273.8044   21497276.4854
        46.200          35.3004
 106354799.979 8  82873998.71146  20238592.854    20238591.4014   20238592.2054
        49.100          41.9004
 25  1  1  0 23 15.0000000  0 27E34R21R11S31S35G03S48G24S33G12E15R22
                                R05G11E02G06E36R23E27R13R10G17R12E30
                                E25G14G19
 122765341.097 8                  23361419.289
        48.600
 109719390.832 8  85337456.444 7  20503645.072    20503645.633    20503653.518
        52.900          46.800
 106570833.475 8  82888578.393 8  19943230.742    19943230.946    19943237.427
        52.000          49.100
 198980885.662 7                  37864806.779
        45.300
 200910348.145 7                  38231984.447
        44.100
 121278564.455 7  94502876.42746  23078516.353    23078516.0674   23078522.0754
        42.300          39.1004
 412996516.161 5                  78590470.657
        31.500
 119955799.110 7  93472188.56546  22826783.375    22826782.9644   22826789.7964
        43.200          40.2004
 202136391.623 7                  38465263.143
        45.000
 128840641.995 6 100395396.56445  24517540.811    24517540.1684   24517549.4044
        40.400          32.1004
 137399003.253 7                  26146136.967
        42.400
 104603904.437 8  81358727.918 8  19595794.512    19595794.760    19595800.384
        52.300          48.900
 129810441.710 7 100963697.983 6  24283729.114    24283728.846    24283736.441
        43.200          39.300
 122356622.360 7  95342906.73445  23283668.298    23283667.9774   23283672.9804
        42.600          30.8004
 126855166.428 7                  24139697.062
        47.400
 108220422.718 8  84327744.00648  20593623.751    20593623.4034   20593627.9624
        49.100          51.4004
 131496305.361 7                  25022872.723
        45.800
 121492022.406 7                  22711636.697    22711636.499
        44.100
 143258762.774 6                  27261205.175
        39.300
 124801762.413 6                  23371339.397    23371339.035
        38.600
 129269038.233 6                  24250522.677    24250521.660
        38.000
 111912475.025 8  87204663.95447  21296185.130    21296184.4964   21296186.2724
        48.100          46.8004
 106045592.807 8  82480086.700 8  19851902.962    19851903.264    19851911.063
        52.300          48.100
 125402097.986 8                  23863178.537
        48.600
 149538438.591 5                  28456207.050
        33.800
 113006084.820 7  88056794.79345  21504307.674    21504307.3124   21504310.2094
        45.600          35.2004
 106350841.375 8  82870914.10646  20237839.229    20237837.7674   20237838.8884
        48.800          41.8004
 25  1  1  0 23 30.0000000  0 27E34R21R11S31S35G03S48G24S33G12E15R22
                                R05G11E02G06E36R23E27R13R10G17R12E30
                                E25G14G19
 122754972.408 8                  23359446.283
        48.400
 109759985.634 8  85369030.172 7  20511231.450    20511231.664    20511239.688
        52.400          47.000
 106609114.155 8  82918352.262 8  19950394.490    19950394.544    19950401.029
        52.000          48.900
 198980893.385 7                  37864812.659
        45.600
 200910385.498 7                  38231992.129
        44.200
 121284564.783 7  94507552.02146  23079658.121    23079657.8404   23079663.9574
        42.500          39.1004
 412996609.104 5                  78590447.149
        32.100
 119955869.054 7  93472243.11046  22826795.927    22826795.5034   22826803.0104
        43.000          40.1004
 202136390.139 7                  38465259.208
        44.800
 128788140.202 6 100354486.27045  24507549.716    24507549.0644   24507558.6004
        41.100          31.9004
 137357360.148 7                  26138212.534
        42.000
 104589433.450 8  81347472.741 8  19593083.483    19593083.848    19593089.391
        52.300          48.700
 129791793.099 7 100949193.495 6  24280240.591    24280240.658    24280248.052
        44.900          40.900
 122306671.465 7  95303984.04945  23274163.008    23274162.6954   23274167.6654
        43.300          30.6004
 126877161.958 7                  24143882.344
        47.300
 108196560.733 8  84309150.28748  20589083.075    20589082.7224   20589087.1364
        49.400          51.4004
 131526415.388 7                  25028602.476
        46.000
 121442166.411 7                  22702317.162    22702316.940
        44.500
 143220274.311 6                  27253881.004
        39.600
 124739566.639 6                  23359689.675    23359689.389
        36.300
 129333530.078 6                  24262620.298    24262620.721
        37.000
 111933786.309 8  87221270.15547  21300240.381    21300239.7384   21300241.6804
        48.100          46.8004
 106013975.450 8  82455495.466 7  19845983.646    19845984.321    19845991.998
        52.100          47.800
 125386472.572 8                  23860205.199
        48.600
 149577473.738 5                  28463636.030
        33.100
 113043135.362 7  88085665.32845  21511358.062    21511357.7054   21511360.7104
        46.200          35.2004
 106346949.297 8  82867881.33546  20237098.719    20237097.2534   20237098.2494
        48.700          41.8004
 25  1  1  0 23 45.0000000  0 27E34R21R11S31S35G03S48G24S33G12E15R22
                                R05G11E02G06E36R23E27R13R10G17R12E30
                                E25G14G19
 122744698.172 8                  23357490.970
        48.600
 109800648.649 8  85400656.970 7  20518830.004    20518830.650    20518838.169
        52.600          46.900
 106647546.961 8  82948244.440 8  19957586.838    19957586.983    19957593.285
        52.200          49.100
 198980898.748 7                  37864811.890
        45.300
 200910420.900 7                  38231999.660
        44.300
 121290713.323 7  94512343.11046  23080827.776    23080827.4994   23080833.9224
        42.300          39.0004
 412996699.011 5                  78590446.470
        31.300
 119956083.024 7  93472409.88746  22826836.446    22826836.0314   22826843.7064
        42.500          40.1004
 202136385.512 7                  38465260.925
        44.700
 128735643.272 6 100313579.74645  24497559.992    24497559.3224   24497568.3254
        41.500          32.1004
 137315760.844 7                  26130296.654
        42.500
 104575098.875 8  81336323.663 8  19590398.399    19590398.473    19590404.155
        52.300          48.800
 129773297.089 7 100934807.727 6  24276779.767    24276780.342    24276787.548
        44.900          39.900
 122256776.610 7  95265105.03645  23264667.427    23264667.1064   23264672.7124
        43.100          30.8004
 126899219.297 7                  24148079.974
        47.300
 108172824.786 8  84290654.78048  20584566.359    20584566.0114   20584570.3014
        49.300          51.6004
 131556584.399 7                  25034343.457
        46.100
 121392384.059 7                  22693010.434    22693010.411
        44.600
 143181785.749 6                  27246556.699
        39.300
 124677399.534 6                  23348050.051    23348049.546
        38.900
 129398042.412 6                  24274723.628    24274722.421
        37.500
 111955128.605 7  87237900.52447  21304301.537    21304300.8944   21304303.0004
        47.500          46.9004
 105982506.825 8  82431019.918 8  19840092.972    19840093.352    19840101.056
        52.200          48.200
 125370902.740 8                  23857242.386
        48.600
 149616528.521 5                  28471067.745
        34.300
 113080272.179 7  88114603.10845  21518424.937    21518424.5714   21518427.6174
        46.100          35.2004
 106343121.404 8  82864898.58246  20236370.373    20236368.9074   20236369.7994
        48.300          41.9004
 25  1  1  0 24  0.0000000  0 27E34R21R11S31S35G03S48G24S33G12E15R22
                                R05G11E02G06E36R23E27R13R10G17R12E30
                                E25G14G19
 122734523.379 8                  23355554.825
        48.500
 109841384.599 8  85432340.487 7  20526442.670    20526442.962    20526450.847
        52.400          46.900
 106686136.848 8  82978258.794 8  19964808.135    19964808.372    19964814.758
        52.000          49.000
 198980906.300 7                  37864808.407
        45.300
 200910458.121 7                  38232003.058
        43.800
 121297015.116 7  94517253.60446  23082027.105    23082026.8284   23082032.8714
        42.500          39.1004
 412996791.846 5                  78590449.917
        32.500
 119956445.961 7  93472692.74346  22826905.774    22826905.3504   22826912.7344
        42.500          40.0004
 202136383.730 7                  38465257.218
        44.800
 128683156.357 6 100272681.03145  24487571.575    24487570.9004   24487580.5494
        41.400          32.8004
 137274210.467 7                  26122389.306
        42.400
 104560905.664 8  81325284.534 8  19587739.396    19587739.428    19587745.172
        52.200          48.900
 129754959.097 7 100920544.755 6  24273349.973    24273350.129    24273357.376
        45.600          41.100
 122206943.072 7  95226273.80345  23255184.899    23255184.5734   23255189.4784
        42.900          30.5004
 126921343.490 7                  24152289.913
        47.000
 108149220.009 8  84272261.48248  20580074.246    20580073.8984   20580078.4184
        49.700          51.5004
 131586817.130 7                  25040096.632
        45.700
 121342680.683 7                  22683718.849    22683718.683
        45.200
 143143302.237 6                  27239233.505
        39.500
 124615266.711 6                  23336412.604    23336413.015
        37.500
 129462579.927 6                  24286831.230    24286830.381
        37.400
 111976506.657 7  87254558.75547  21308370.139    21308369.5094   21308371.0944
        47.800          46.8004
 105951192.540 8  82406664.403 8  19834230.999    19834231.153    19834239.014
        52.100          48.200
 125355393.628 8                  23854290.870
        48.400
 149655607.944 5                  28478503.737
        34.100
 113117500.150 7  88143611.91345  21525509.319    21525508.9484   21525511.8264
        45.700          35.2004
 106339362.835 8  82861969.84746  20235655.124    20235653.6674   20235654.5684
        48.500          41.9004
 25  1  1  0 24 15.0000000  0 27E34R21R11S31S35G03S48G24S33G12E15R22
                                R05G11E02G06E36R23E27R13R10G17R12E30
                                E25G14G19
 122724445.652 8                  23353636.976
        48.700
 109882190.757 8  85464078.595 7  20534068.365    20534068.853    20534076.497
        52.500          46.700
 106724881.076 8  83008393.180 8  19972058.616    19972058.813    19972065.253
        52.100          48.900
 198980914.231 7                  37864812.512
        45.400
 200910495.571 7                  38232012.770
        44.300
 121303467.780 7  94522281.67246  23083255.022    23083254.7454   23083260.5774
        42.700          39.0004
 412996884.615 5                  78590445.057
        32.700
 119956955.455 7  93473089.79546  22827002.740    22827002.3024   22827009.7284
        42.600          39.9004
 202136381.718 7                  38465258.152
        45.400
 128630677.216 6 100231788.36445  24477585.492    24477584.8084   24477593.9494
        40.800          32.1004
 137232706.831 7                  26114491.571
        42.300
 104546851.371 8  81314353.435 8  19585106.404    19585106.702    19585112.245
        52.200          48.900
 129736776.663 7 100906402.600 6  24269947.997    24269948.387    24269956.447
        44.700          40.900
 122157168.699 7  95187488.66945  23245712.924    23245712.5894   23245717.5894
        43.500          30.5004
 126943532.160 7                  24156512.464
        47.200
 108125744.096 8  84253968.60148  20575606.937    20575606.5844   20575611.0794
        49.900          51.5004
 131617111.051 7                  25045861.179
        45.800
 121293053.899 7                  22674441.018    22674441.475
        45.600
 143104821.537 6                  27231910.781
        39.500
 124553166.396 6                  23324784.424    23324783.479
        38.900
 129527140.129 6                  24298940.635    24298940.711
        36.700
 111997918.086 7  87271243.00547  21312444.271    21312443.6454   21312445.5614
        47.700          46.7004
 105920030.457 8  82382427.263 8  19828397.190    19828397.559    19828405.420
        52.400          48.400
 125339943.040 8                  23851350.874
        48.500
 149694709.511 5                  28485944.437
        35.100
 113154816.755 7  88172689.77845  21532610.506    21532610.1404   21532612.9104
        46.200          35.1004
 106335671.334 8  82859093.37946  20234952.788    20234951.3314   20234952.0894
        48.700          41.8004
 25  1  1  0 24 30.0000000  0 27E34R21R11S31S35G03S48G24S33G12E15R22
                                R05G11E02G06E36R23E27R13R10G17R12E30
                                E25G14G19
 122714462.624 8                  23351737.458
        48.600
 109923064.426 8  85495869.212 7  20541706.406    20541706.698    20541714.561
        52.400          46.700
 106763777.001 8  83038645.551 8  19979337.818    19979337.805    19979344.232
        52.300          49.000
 198980919.842 7                  37864814.166
        45.700
 200910531.167 7                  38232021.240
        44.400
 121310069.006 7  94527425.49346  23084511.596    23084511.3334   23084516.7504
        42.700          39.1004
 412996974.673 5                  78590426.106
        32.400
 119957609.079 7  93473599.15046  22827127.530    22827127.0974   22827134.1154
        42.300          40.0004
 202136376.660 7                  38465251.467
        45.000
 128578203.870 6 100190900.21445  24467599.932    24467599.2444   24467608.2794
        39.800          31.8004
 137191247.727 7                  26106601.992
        42.900
 104532933.538 8  81303528.473 8  19582498.963    19582499.308    19582504.994
        52.100          49.000
 129718748.268 7 100892380.439 6  24266575.619    24266576.194    24266583.391
        44.200          40.000
 122107451.415 7  95148748.03045  23236251.658    23236251.3374   23236256.7404
        43.700          30.7004
 126965782.998 7                  24160746.363
        47.300
 108102394.834 8  84235774.40248  20571163.852    20571163.4954   20571167.8294
        49.400          51.5004
 131647463.653 7                  25051637.194
        46.200
 121243501.659 7                  22665177.741    22665178.031
        44.700
 143066341.464 6                  27224588.182
        39.500
 124491096.541 6                  23313160.035    23313159.067
        38.300
 129591719.785 6                  24311056.075    24311056.680
        37.100
 112019360.575 7  87287951.43947  21316524.814    21316524.1884   21316525.8944
        47.700          46.8004
 105889018.725 8  82358307.065 8  19822591.707    19822592.226    19822599.689
        52.700          48.200
 125324548.806 8                  23848421.213
        48.600
 149733830.860 5                  28493389.122
        35.900
 113192219.573 7  88201834.82445  21539727.974    21539727.6034   21539730.5534
        46.100          35.0004
 106332044.329 8  82856267.16146  20234262.322    20234260.8694   20234261.8544
        48.500          41.8004
 25  1  1  0 24 45.0000000  0 27E34R21R11S31S35G03S48G24S33G12E15R22
                                R05G11E02G06E36R23E27R13R10G17R12E30
                                E25G14G19
 122704578.132 8                  23349856.367
        48.800
 109964009.060 8  85527715.022 7  20549358.089    20549358.462    20549366.124
        52.600          46.800
 106802828.290 8  83069018.778 8  19986645.550    19986645.639    19986652.026
        51.900          49.000
 198980926.932 7                  37864815.253
        45.900
 200910567.930 7                  38232027.357
        44.300
 121316822.626 7  94532688.06746  23085796.691    23085796.4104   23085801.9974
        42.500          39.1004
 412995465.418 5                  78590422.618
        32.100
 119958410.594 7  93474223.75146  22827279.662    22827279.2294   22827286.6024
        43.200          40.1004
 202136374.909 7                  38465254.951
        45.100
 128525740.510 6 100150019.84045  24457616.162    24457615.4834   24457624.4974
        40.800          31.9004
 137149837.148 7                  26098721.744
        43.100
 104519155.940 8  81292812.606 8  19579918.062    19579918.287    19579923.902
        52.500          48.900
 129700878.542 7 100878481.950 6  24263232.734    24263233.629    24263240.544
        45.900          41.200
 122057795.302 7  95110055.04745  23226802.796    23226802.4664   23226807.4014
        43.400          30.7004
 126988099.833 7                  24164993.315
        47.600
 108079176.131 8  84217681.93848  20566745.359    20566745.0024   20566749.4194
        49.500          51.6004
 131677878.563 7                  25057424.938
        46.300
 121194027.918 7                  22655928.826    22655929.414
        45.300
 143027865.951 6                  27217266.372
        40.800
 124429060.992 6                  23301542.804    23301542.113
        38.000
 129656322.852 6                  24323175.786    24323174.929
        36.700
 112040837.954 7  87304687.05647  21320611.744    21320611.1324   21320612.9124
        47.900          46.8004
 105858161.764 8  82334307.266 8  19816815.106    19816815.466    19816823.368
        51.900          48.100
 125309214.868 8                  23845503.420
        48.800
 149772975.730 5                  28500838.159
        35.200
 113229712.312 7  88231049.93945  21546862.684    21546862.3094   21546865.1874
        46.000          35.1004
 106328485.758 8  82853494.26846  20233585.205    20233583.7614   20233584.6454
        48.700          41.9004
 25  1  1  0 25  0.0000000  0 27E34R21R11S31S35G03S48G24S33G12E15R22
                                R05G11E02G06E36R23E27R13R10G17R12E30
                                E25G14G19
 122694789.217 8                  23347993.547
        48.600
 110005021.324 8  85559613.470 7  20557022.290    20557022.658    20557030.109
        52.400          46.700
 106842031.701 8  83099510.316 8  19993981.952    19993982.065    19993988.581
        52.100          49.000
 198980933.094 7                  37864819.572
        45.700
 200910603.420 7                  38232032.790
        44.300
 121323725.674 7  94538067.06546  23087110.261    23087109.9934   23087115.7024
        42.700          38.8004
 412995554.137 5                  78590419.609
        31.800
 119959357.024 7  93474961.26946  22827459.030    22827458.5794   22827466.6754
        42.900          40.0004
 202136371.155 7                  38465256.449
        45.100
 128473284.131 6 100109144.90345  24447633.878    24447633.2174   24447642.1814
        40.300          32.0004
 137108472.301 7                  26090850.411
        42.300
 104505515.605 8  81282203.497 8  19577362.364    19577362.934    19577368.606
        52.800          48.500
 129683164.146 7 100864704.181 6  24259919.414    24259919.598    24259926.598
        44.200          40.300
 122008197.643 7  95071407.61745  23217364.796    23217364.4704   23217369.0984
        43.900          30.6004
 127010479.756 7                  24169252.128
        47.300
 108056085.149 8  84199688.99848  20562351.364    20562351.0114   20562355.3254
        49.600          51.5004
 131708352.640 7                  25063223.958
        46.100
 121144629.721 7                  22646695.175    22646694.834
        44.800
 142989392.237 6                  27209944.507
        39.100
 124367057.953 6                  23289930.799    23289930.517
        39.000
 129720946.052 6                  24335299.707    24335298.544
        36.600
 112062347.112 7  87321447.45247  21324704.885    21324704.2734   21324705.9674
        47.800          46.7004
 105827456.806 8  82310425.668 8  19811067.724    19811067.786    19811075.200
        52.400          48.100
 125293938.474 8                  23842596.354
        48.700
 149812141.169 5                  28508291.093
        34.300
 113267291.911 7  88260332.73345  21554014.173    21554013.8024   21554016.3404
        45.900          35.0004
 106324992.567 8  82850772.32346  20232920.692    20232919.2534   20232919.8764
        48.900          41.8004
 25  1  1  0 25 15.0000000  0 27E34R21R11S31S35G03S48G24S33G12E15R22
                                R05G11E02G06E36R23E27R13R10G17R12E30
                                E25G14G19
 122685101.881 8                  23346150.187
        48.800
 110046107.014 8  85591569.005 7  20564700.038    20564700.376    20564708.247
        52.300          46.600
 106881393.103 8  83130124.714 8  20001347.435    20001347.927    20001354.529
        52.000          49.100
 198980943.525 7                  37864818.119
        45.200
 200910644.422 7                  38232042.328
        44.100
 121330784.210 7  94543567.23446  23088453.553    23088453.2764   23088458.9784
        42.300          38.8004
 412995647.139 5                  78590414.694
        32.100
 119960454.298 7  93475816.33046  22827668.327    22827667.8804   22827675.5044
        42.900          40.0004
 202136371.317 7                  38465260.876
        45.100
 128420841.131 6 100068280.40245  24437653.764    24437653.1074   24437663.0134
        41.000          32.3004
 137067159.375 7                  26082988.576
        42.800
 104492018.506 8  81271705.766 8  19574834.515    19574834.705    19574840.186
        52.800          48.500
 129665611.562 7 100851052.187 6  24256635.357    24256636.363    24256642.893
        46.400          41.300
 121958664.705 7  95032810.62445  23207938.909    23207938.5654   23207943.1594
        43.000          30.4004
 127032928.785 7                  24173523.979
        47.600
 108033127.999 8  84181800.34248  20557982.651    20557982.2944   20557986.7074
        50.100          51.5004
 131738891.645 7                  25069035.359
        46.400
 121095313.503 7                  22637475.890    22637475.846
        45.700
 142950926.394 6                  27202625.354
        39.700
 124305093.819 6                  23278326.741    23278327.734
        39.600
 129785594.818 6                  24347426.811    24347426.971
        37.800
 112083894.000 7  87338237.26247  21328805.133    21328804.5164   21328806.1994
        47.700          46.7004
 105796910.657 8  82286667.593 8  19805348.861    19805349.292    19805356.835
        52.500          48.000
 125278725.794 8                  23839701.573
        48.600
 149851333.091 5                  28515749.294
        34.500
 113304964.283 7  88289687.81845  21561182.764    21561182.3984   21561185.1434
        46.300          34.8004
 106321570.759 8  82848105.99946  20232269.213    20232267.7694   20232268.7184
        49.100          41.8004
 25  1  1  0 25 30.0000000  0 27E34R21R11S31S35G03S48G24S33G12E15R22
                                R05G11E02G06E36R23E27R13R10G17R12E30
                                E25G14G19
 122675506.607 8                  23344324.048
        48.800
 110087256.026 8  85623573.780 7  20572389.586    20572389.988    20572397.708
        52.300          46.600
 106920902.413 8  83160854.173 8  20008741.450    20008741.411    20008748.075
        52.000          49.200
 198980949.611 7                  37864819.353
        45.300
 200910679.331 7                  38232047.291
        44.100
 121337988.716 7  94549181.13846  23089824.555    23089824.2924   23089829.9064
        42.600          38.7004
 412995735.590 5                  78590407.075
        31.900
 119961692.845 7  93476781.46946  22827903.748    22827903.2884   22827911.1234
        43.600          40.0004
 202136367.381 7                  38465257.616
        44.800
 128368402.180 6 100027419.04745  24427675.462    24427674.8104   24427683.9524
        40.100          31.9004
 137025889.001 7                  26075135.105
        43.200
 104478654.891 8  81261311.857 8  19572330.576    19572331.178    19572336.752
        52.700          48.700
 129648210.936 7 100837518.235 6  24253380.146    24253380.315    24253388.402
        44.400          39.800
 121909187.253 7  94994256.86445  23198523.779    23198523.4404   23198527.8634
        43.400          30.4004
 127055437.414 7                  24177807.290
        47.500
 108010295.273 8  84164008.63948  20553637.637    20553637.2754   20553641.7614
        50.000          51.6004
 131769485.905 7                  25074857.209
        46.400
 121046069.748 7                  22628269.713    22628269.571
        45.800
 142912459.133 6                  27195305.103
        40.200
 124243159.273 6                  23266728.313    23266728.121
        39.200
 129850259.293 6                  24359558.656    24359557.646
        38.100
 112105469.162 8  87355049.08247  21332910.714    21332910.1024   21332911.7704
        48.000          46.6004
 105766513.877 8  82263025.682 8  19799658.710    19799658.866    19799666.418
        52.400          48.200
 125263567.492 8                  23836816.941
        48.700
 149890541.891 5                  28523209.833
        35.300
 113342719.797 7  88319107.69745  21568367.314    21568366.9434   21568369.8734
        46.000          34.9004
 106318210.870 8  82845487.92746  20231629.954    20231628.5014   20231629.3164
        49.200          41.8004
 25  1  1  0 25 45.0000000  0 27E34R21R11S31S35G03S48G24S33G12E15R22
                                R05G11E02G06E36R23E27R13R10G17R12E30
                                E25G14G19
 122666011.706 8                  23342517.332
        49.200
 110128476.492 8  85655634.152 7  20580092.461    20580092.930    20580100.476
        51.900          46.700
 106960567.952 8  83191705.153 8  20016164.471    20016164.407    20016170.772
        52.300          48.900
 198980958.897 7                  37864823.606
        45.500
 200910719.031 7                  38232055.796
        44.300
 121345347.513 7  94554915.26746  23091224.343    23091224.0664   23091230.0654
        42.900          38.8004
 412995827.609 5                  78590401.642
        32.300
 119963080.918 7  93477863.12546  22828168.116    22828167.6514   22828175.1724
        42.400          39.9004
 202136367.562 7                  38465255.881
        45.000
 128315975.821 6  99986567.50445  24417698.581    24417697.9334   24417706.7474
        40.400          32.0004
 136984669.672 7                  26067291.151
        43.100
 104465433.123 8  81251028.289 8  19569853.959    19569854.212    19569859.822
        52.500          48.600
 129630971.290 7 100824109.338 6  24250155.735    24250156.222    24250163.302
        45.000          40.000
 121859773.835 7  94955752.99545  23189120.228    23189119.8984   23189124.7744
        43.900          30.6004
 127078013.999 8                  24182103.360
        48.000
 107987595.376 8  84146320.43848  20549317.967    20549317.6054   20549322.0844
        49.800          51.5004
 131800143.531 7                  25080691.293
        46.800
 120996907.198 7                  22619079.047    22619079.260
        45.300
 142873998.911 6                  27187985.757
        40.100
 124181263.304 6                  23255136.540    23255136.911
        38.800
 129914947.870 6                  24371693.382    24371693.134
        36.600
 112127080.804 7  87371889.32847  21337023.459    21337022.8474   21337024.3224
        47.800          46.8004
 105736275.287 8  82239506.813 8  19793998.089    19793998.217    19794005.608
        52.800          48.300
 125248472.027 8                  23833944.316
        49.100
 149929775.805 5                  28530676.594
        35.300
 113380566.686 7  88348598.77545  21575569.575    21575569.2044   21575571.9274
        46.400          34.9004
 106314921.117 8  82842924.50346  20231003.614    20231002.1574   20231003.2934
        49.300          41.8004
