     2.11           OBSERVATION DATA    M (MIXED)           RINEX VERSION / TYPE
teqc  2019Feb25                         20260317 16:20:09UTCPGM / RUN BY / DATE
Linux 2.4.21-27.ELsmp|Opteron|gcc -static|Linux 64|=+       COMMENT
BIT 2 OF LLI FLAGS DATA COLLECTED UNDER A/S CONDITION       COMMENT
-Unknown-                                                   MARKER NAME
-Unknown-           -Unknown-                               OBSERVER / AGENCY
-Unknown-           -Unknown-           -Unknown-           REC # / TYPE / VERS
-Unknown-           -Unknown-                               ANT # / TYPE
        0.0000        0.0000        0.0000                  APPROX POSITION XYZ
        0.0000        0.0000        0.0000                  ANTENNA: DELTA H/E/N
     1     1                                                WAVELENGTH FACT L1/2
     7    L1    L2    C1    P1    P2    S1    S2            # / TYPES OF OBSERV
 SNR is mapped to RINEX snr flag value [0-9]                COMMENT
  L1 & L2: min(max(int(snr_dBHz/6), 0), 9)                  COMMENT
  2025     1     1     7     0    0.0000000     GPS         TIME OF FIRST OBS
    18                                                      LEAP SECONDS
                                                            END OF HEADER
 25  1  1  7  0  0.0000000  0 29G10G24E03E08S31S35G13E21E13S48S33R02
                                G16G20E15G23G05G26G18E07G29G15E26G30
                                R24R18R17R03R01
 134607125.130 6 104888681.02244  25614883.709    25614883.1194   25614887.1674
        38.300          29.5004
 132847894.027 6 103517865.06944  25280114.969    25280114.5274   25280120.0814
        37.200          28.9004
 138895954.288 7                  26431006.141
        42.600
 125777867.526 7                  23934722.094
        46.500
 198975614.469 7                  37863795.007
        45.700
 200951088.281 7                  38239730.921
        44.100
 110912373.254 7  86425251.42545  21105912.374    21105911.7574   21105911.8574
        47.700          35.9004
 146395404.710 6                  27858105.932
        36.800
 123247592.670 8                  23453214.723
        48.400
 412810504.839 5                  78555453.725
        33.400
 202111295.614 7                  38460471.111
        44.700
 102497116.437 8  79720023.741 8  19207910.425    19207910.428    19207915.648
        53.000          48.400
 131066491.333 6 102129748.69842  24941119.461    24941118.3884   24941119.5114
        37.800          16.8004
 130881785.137 6 101985857.25943  24905952.133    24905950.7964   24905952.5684
        38.700          19.6004
 135782178.992 7                  25838454.643
        43.100
 115706100.451 7  90160604.57645  22018135.595    22018135.2024   22018136.2144
        46.800          35.2004
 117146880.867 7  91283334.22347  22292290.505    22292290.0584   22292289.9764
        46.100          44.4004
 133968036.226 6 104390705.71644  25493266.748    25493266.0914   25493269.5294
        36.800          28.2004
 111350143.959 8  86766351.35446  21189221.342    21189220.9854   21189220.9794
        48.300          38.6004
 133193105.033 7                  25345803.239
        44.300
 110946180.710 8  86451607.01948  21112341.129    21112340.4814   21112340.6474
        48.300          48.4004
 105086870.532 8  81885893.35848  19997357.316    19997356.8784   19997356.8894
        49.000          50.6004
 134566142.435 7                  25607084.178
        43.600
 135586050.819 6 105651480.27745  25801166.845    25801165.9604   25801170.2794
        38.200          30.1004
 108617555.946 8  84480394.500 7  20312015.426    20312015.861    20312021.950
        51.700          47.000
 120785110.567 7  93944016.497 7  22627114.471    22627114.969    22627120.521
        46.100          42.300
 104304719.247 8  81125938.158 8  19491824.550    19491824.574    19491830.103
        52.700          48.000
 117826175.431 7  91642611.073 7  22010917.918    22010917.982    22010924.818
        46.600          44.200
 110602886.634 8  86024521.422 6  20690542.888    20690543.127    20690550.762
        48.300          41.200
 25  1  1  7  0 15.0000000  0 29G10G24E03E08S31S35G13E21E13S48S33R02
                                G16G20E15G23G05G26G18E07G29G15E26G30
                                R24R18R17R03R01
 134566513.862 6 104857035.86744  25607156.234    25607155.6494   25607159.0544
        36.600          28.2004
 132799913.621 6 103480477.81844  25270984.283    25270983.8454   25270989.8864
        37.200          28.8004
 138928188.829 7                  26437139.990
        42.700
 125772791.082 7                  23933756.028
        46.600
 198975610.414 7                  37863798.178
        45.700
 200951094.155 7                  38239726.793
        44.200
 110929233.548 7  86438389.30345  21109121.053    21109120.4364   21109120.2644
        47.400          35.8004
 146432486.010 6                  27865162.349
        37.800
 123244970.427 8                  23452715.798
        48.400
 412810257.220 5                  78555429.632
        33.100
 202111268.771 7                  38460466.353
        44.800
 102488931.210 8  79713657.464 8  19206375.922    19206376.393    19206381.739
        52.800          48.400
 131072714.841 6 102134598.17642  24942304.073    24942302.9654   24942304.1874
        37.000          16.8004
 130924106.676 6 102018835.01643  24914005.656    24914004.3154   24914006.3724
        37.100          19.0004
 135808476.109 7                  25843458.630
        43.200
 115675800.711 7  90136994.40645  22012369.543    22012369.1374   22012370.3694
        46.200          35.2004
 117185703.509 7  91313585.58447  22299677.857    22299677.4154   22299677.7504
        46.200          44.2004
 133994390.508 5 104411241.52044  25498280.770    25498280.1044   25498285.0394
        35.800          27.8004
 111322800.038 8  86745044.41046  21184018.088    21184017.7224   21184017.6424
        48.300          38.6004
 133152265.964 7                  25338031.751
        44.000
 110978707.307 8  86476952.39548  21118530.709    21118530.0614   21118530.2814
        48.200          48.2004
 105075069.867 8  81876698.03548  19995111.603    19995111.1704   19995111.2854
        49.200          50.5004
 134536258.786 7                  25601397.346
        43.600
 135592817.128 6 105656752.68344  25802454.689    25802453.8094   25802457.5974
        38.700          29.6004
 108650166.335 8  84505758.108 7  20318113.605    20318113.929    20318120.223
        51.000          46.900
 120728881.568 7  93900282.879 7  22616581.080    22616581.592    22616586.979
        46.400          42.500
 104279075.928 8  81105993.359 8  19487032.420    19487032.515    19487038.151
        52.800          48.200
 117770464.029 7  91599279.996 7  22000510.354    22000510.790    22000517.246
        46.900          44.300
 110649722.173 8  86060949.055 6  20699305.058    20699304.560    20699311.878
        48.200          41.300
 25  1  1  7  0 30.0000000  0 29G10G24E03E08S31S35G13E21E13S48S33R02
                                G16G20E15G23G05G26G18E07G29G15E26G30
                                R24R18R17R03R01
 134525923.176 6 104825406.76144  25599431.915    25599431.3164   25599435.1444
        37.800          29.7004
 132751899.406 6 103443064.21844  25261848.034    25261847.5964   25261853.4534
        36.400          29.1004
 138960488.998 7                  26443286.729
        42.700
 125767819.894 7                  23932809.829
        46.800
 198975604.078 7                  37863795.030
        46.000
 200951098.531 7                  38239730.116
        44.200
 110946247.756 7  86451647.11945  21112358.562    21112357.9544   21112357.9434
        47.600          35.8004
 146469577.506 6                  27872219.893
        37.100
 123242389.947 8                  23452224.648
        48.400
 412810008.484 5                  78555390.505
        32.900
 202111239.203 7                  38460461.434
        44.800
 102480921.128 8  79707427.413 8  19204875.210    19204875.390    19204880.660
        52.700          48.300
 131079065.866 6 102139547.05842  24943512.900    24943511.8144   24943512.8664
        36.900          16.5004
 130966421.500 6 102051807.54143  24922058.494    24922057.1494   24922058.4814
        37.200          18.7004
 135834808.623 7                  25848469.572
        43.200
 115645555.879 7  90113427.01945  22006614.616    22006614.2104   22006614.9044
        46.300          35.2004
 117224552.979 7  91343857.88947  22307070.833    22307070.3864   22307070.6304
        46.400          44.3004
 134020809.334 5 104431827.62844  25503308.794    25503308.1334   25503311.9254
        35.700          27.1004
 111295512.582 8  86723781.45646  21178825.285    21178824.9234   21178825.0114
        48.400          38.6004
 133111476.924 7                  25330269.849
        44.200
 111011357.483 8  86502394.08148  21124743.605    21124742.9534   21124743.4574
        48.500          48.2004
 105063424.910 8  81867624.04948  19992895.669    19992895.2364   19992895.3234
        49.200          50.5004
 134506380.664 7                  25595711.883
        43.700
 135599696.373 6 105662113.19945  25803763.920    25803763.0444   25803766.7584
        38.500          30.6004
 108682905.479 8  84531221.867 7  20324236.392    20324236.439    20324243.100
        51.400          47.100
 120672662.253 7  93856556.715 7  22606049.296    22606049.633    22606055.498
        46.000          43.000
 104253553.569 8  81086142.636 8  19482262.501    19482263.042    19482268.651
        52.900          48.100
 117714837.954 7  91556015.305 7  21990119.189    21990119.768    21990126.273
        47.200          44.400
 110696650.573 8  86097448.912 6  20708083.765    20708084.211    20708090.536
        48.500          40.900
 25  1  1  7  0 45.0000000  0 29G10G24E03E08S31S35G13E21E13S48S33R02
                                G16G20E15G23G05G26G18E07G29G15E26G30
                                R24R18R17R03R01
 134485356.926 6 104793796.69744  25591712.165    25591711.5624   25591715.5504
        37.400          29.6004
 132703855.175 6 103405627.04344  25252705.245    25252704.7804   25252711.1054
        36.500          29.0004
 138992858.339 7                  26449446.374
        42.700
 125762957.728 7                  23931884.690
        46.700
 198975600.146 7                  37863792.669
        46.100
 200951105.481 7                  38239732.446
        44.300
 110963419.565 7  86465027.74645  21115626.128    21115625.5204   21115625.6534
        47.600          35.7004
 146506682.652 6                  27879281.321
        37.200
 123239855.173 8                  23451742.313
        48.300
 412809762.292 5                  78555369.184
        33.300
 202111213.467 7                  38460459.480
        45.100
 102473089.834 8  79701336.409 8  19203407.657    19203407.772    19203413.024
        52.600          48.300
 131085548.083 6 102144598.14442  24944745.523    24944744.4554   24944746.1314
        37.800          16.0004
 131008733.402 6 102084777.79143  24930109.816    24930108.4794   24930110.1834
        36.600          18.8004
 135861180.339 7                  25853487.870
        43.200
 115615369.716 7  90089905.34945  22000870.152    22000869.7414   22000870.6084
        46.200          35.3004
 117263433.009 7  91374153.99847  22314469.782    22314469.3354   22314469.2604
        46.100          44.2004
 134047296.145 6 104452466.71744  25508349.015    25508348.3764   25508351.4624
        36.500          26.8004
 111268285.597 8  86702565.62246  21173644.085    21173643.7194   21173643.8944
        48.200          38.6004
 133070741.907 7                  25322518.298
        44.200
 111044134.675 7  86527934.74548  21130980.902    21130980.2454   21130980.7584
        47.900          48.2004
 105051939.294 8  81858674.22248  19990710.176    19990709.7474   19990709.6754
        49.100          50.5004
 134476511.918 7                  25590027.886
        43.500
 135606692.328 6 105667564.61645  25805094.947    25805094.0584   25805098.4344
        38.800          30.3004
 108715777.254 8  84556788.760 7  20330383.150    20330383.686    20330389.904
        51.400          47.000
 120616457.010 7  93812841.500 7  22595520.292    22595520.523    22595526.356
        46.300          42.500
 104228156.362 8  81066389.235 8  19477516.735    19477516.961    19477522.646
        53.100          48.200
 117659301.093 7  91512819.986 7  21979744.547    21979744.311    21979751.147
        46.200          44.200
 110743675.050 8  86134023.498 6  20716880.898    20716880.903    20716887.805
        48.700          41.000
 25  1  1  7  1  0.0000000  0 29G10G24E03E08S31S35G13E21E13S48S33R02
                                G16G20E15G23G05G26G18E07G29G15E26G30
                                R24R18R17R03R01
 134444808.392 6 104762200.44745  25583996.242    25583995.6524   25583999.2604
        39.000          30.0004
 132655774.838 6 103368161.67244  25243555.862    25243555.3894   25243561.3604
        36.300          28.2004
 139025289.908 7                  26455617.744
        42.700
 125758197.857 7                  23930978.969
        46.700
 198975591.983 7                  37863793.362
        45.600
 200951107.192 7                  38239732.392
        44.300
 110980742.052 7  86478525.77645  21118922.591    21118921.9834   21118921.9674
        47.700          35.7004
 146543794.555 6                  27886343.246
        36.600
 123237359.432 8                  23451267.558
        48.300
 412809510.498 5                  78555334.601
        33.100
 202111182.738 7                  38460456.126
        45.000
 102465430.517 8  79695379.180 8  19201972.146    19201972.525    19201977.718
        52.700          48.400
 131092154.608 6 102149746.11442  24946002.919    24946001.8374   24946003.2204
        37.300          16.3004
 131051035.616 6 102117740.51543  24938159.502    24938158.2064   24938159.6894
        36.800          18.9004
 135887584.517 7                  25858512.491
        43.300
 115585235.518 7  90066424.16845  21995136.015    21995135.6134   21995136.1414
        46.600          35.4004
 117302336.395 7  91404468.29847  22321872.829    22321872.3824   22321872.3534
        46.300          44.3004
 134073843.905 6 104473153.27444  25513400.764    25513400.1254   25513403.4614
        36.300          27.2004
 111241112.544 8  86681391.80146  21168473.302    21168472.9364   21168472.9944
        48.300          38.7004
 133030054.386 7                  25314775.398
        44.600
 111077031.912 8  86553568.91248  21137241.243    21137240.5954   21137240.9134
        48.200          48.2004
 105040606.309 8  81849843.33048  19988553.470    19988553.0414   19988553.0744
        49.500          50.5004
 134446645.836 7                  25584344.724
        43.900
 135613798.219 6 105673101.73444  25806446.973    25806446.0934   25806450.4294
        38.000          29.8004
 108748774.645 8  84582453.375 7  20336554.350    20336554.596    20336560.587
        51.700          46.900
 120560259.428 7  93769132.286 7  22584992.145    22584992.651    22584997.957
        45.500          42.600
 104202877.718 8  81046728.067 8  19472792.905    19472793.107    19472798.622
        53.200          48.100
 117603847.311 7  91469689.271 7  21969385.170    21969386.092    21969391.869
        47.500          44.200
 110790788.450 8  86170667.245 6  20725694.260    20725694.185    20725700.751
        48.500          41.100
 25  1  1  7  1 15.0000000  0 29G10G24E03E08S31S35G13E21E13S48S33R02
                                G16G20E15G23G05G26G18E07G29G15E26G30
                                R24R18R17R03R01
 134404283.793 6 104730622.84145  25576284.842    25576284.2484   25576287.4774
        39.300          30.1004
 132607665.278 6 103330673.62244  25234401.043    25234400.5874   25234405.8564
        36.900          28.5004
 139057789.802 7                  26461802.361
        42.600
 125753546.525 7                  23930093.860
        47.100
 198975585.621 7                  37863791.546
        45.800
 200951111.618 7                  38239733.277
        44.200
 110998221.206 8  86492145.88845  21122248.765    21122248.1624   21122248.1934
        48.100          35.7004
 146580919.051 6                  27893407.936
        37.200
 123234909.063 8                  23450801.003
        48.600
 412810860.905 5                  78555303.062
        31.700
 202111153.044 7                  38460448.001
        44.900
 102457949.262 8  79689560.417 8  19200570.120    19200570.403    19200575.784
        52.600          48.500
 131098891.490 6 102154995.59742  24947285.339    24947284.2484   24947284.8554
        37.200          15.7004
 131093334.242 6 102150700.41843  24946209.597    24946208.3104   24946208.9054
        37.200          18.6004
 135914027.474 7                  25863544.613
        43.600
 115555159.500 7  90042988.33045  21989412.664    21989412.2584   21989412.8584
        46.800          35.4004
 117341269.511 7  91434805.77147  22329281.685    22329281.2474   22329281.1214
        46.700          44.3004
 134100458.449 6 104493891.89344  25518464.984    25518464.3364   25518468.9784
        36.900          27.4004
 111213999.880 8  86660265.03746  21163314.059    21163313.6974   21163313.6904
        48.400          38.7004
 132989420.627 7                  25307043.386
        44.600
 111110055.127 8  86579301.26548  21143525.293    21143524.6414   21143525.0724
        48.400          48.2004
 105029432.216 8  81841136.24848  19986427.041    19986426.6174   19986426.7054
        49.300          50.6004
 134416788.781 7                  25578663.024
        44.100
 135621020.142 6 105678729.21844  25807821.141    25807820.2564   25807824.5684
        38.500          29.9004
 108781904.079 8  84608220.667 7  20342749.091    20342749.596    20342756.181
        50.900          46.900
 120504076.011 7  93725434.067 7  22574466.574    22574467.543    22574473.162
        46.000          42.900
 104177724.421 8  81027164.388 8  19468092.351    19468092.614    19468098.182
        53.000          48.100
 117548482.802 7  91426628.020 7  21959042.274    21959042.800    21959049.301
        46.800          44.400
 110837996.401 8  86207384.510 6  20734525.445    20734525.564    20734532.313
        48.300          41.000
 25  1  1  7  1 30.0000000  0 29G10G24E03E08S31S35G13E21E13S48S33R02
                                G16G20E15G23G05G26G18E07G29G15E26G30
                                R24R18R17R03R01
 134363780.283 6 104699061.65945  25568577.113    25568576.5194   25568580.2294
        38.400          30.0004
 132559523.648 6 103293160.63444  25225239.810    25225239.3634   25225244.9054
        37.100          28.0004
 139090354.947 7                  26467999.412
        43.200
 125749000.712 7                  23929228.711
        47.200
 198975577.322 7                  37863783.931
        45.300
 200951113.803 7                  38239733.832
        44.200
 111015853.679 8  86505885.47445  21125604.149    21125603.5324   21125603.6004
        48.100          35.5004
 146618052.981 6                  27900474.171
        36.800
 123232501.140 8                  23450343.002
        48.700
 412810610.287 5                  78555283.454
        32.500
 202111122.424 7                  38460438.767
        44.800
 102450642.994 8  79683877.776 8  19199200.715    19199201.187    19199206.564
        52.800          48.500
 131105755.480 6 102160344.13742  24948591.214    24948590.1104   24948590.9714
        36.500          15.3004
 131135626.271 6 102183655.17943  24954256.631    24954255.3624   24954257.0704
        37.600          18.2004
 135940506.223 7                  25868583.372
        43.500
 115525138.654 7  90019595.47645  21983699.767    21983699.3564   21983700.0704
        46.800          35.1004
 117380229.370 7  91465164.09747  22336695.266    22336694.8194   22336694.9154
        46.300          44.0004
 134127136.516 6 104514680.01344  25523541.962    25523541.3144   25523545.4854
        36.600          26.9004
 111186944.835 8  86639183.18646  21158165.612    21158165.2504   21158165.2964
        48.600          38.4004
 132948837.992 7                  25299320.538
        45.000
 111143201.024 8  86605129.21447  21149832.823    21149832.1804   21149832.5824
        48.100          47.8004
 105018414.181 8  81832550.77548  19984330.381    19984329.9614   19984330.0474
        49.500          50.3004
 134386937.805 7                  25572982.820
        44.300
 135628355.136 6 105684444.76245  25809216.990    25809216.1054   25809220.7564
        38.300          30.2004
 108815162.348 8  84634088.168 7  20348969.046    20348969.225    20348975.488
        51.600          46.600
 120447904.014 7  93681744.718 7  22563943.681    22563944.138    22563950.490
        45.900          42.900
 104152693.962 8  81007696.244 8  19463414.927    19463415.162    19463420.628
        53.500          48.000
 117493205.193 7  91383634.349 7  21948715.347    21948716.089    21948722.500
        46.900          44.300
 110885295.717 8  86244172.854 6  20743374.084    20743373.818    20743380.389
        48.100          40.800
 25  1  1  7  1 45.0000000  0 29G10G24E03E08S31S35G13E21E13S48S33R02
                                G16G20E15G23G05G26G18E07G29G15E26G30
                                R24R18R17R03R01
 134323298.654 6 104667517.53945  25560873.839    25560873.2454   25560876.8304
        39.000          30.1004
 132511351.222 5 103255623.67444  25216073.696    25216073.2584   25216078.2404
        35.200          28.8004
 139122985.787 7                  26474208.647
        42.800
 125744561.327 7                  23928384.048
        46.800
 198975569.432 7                  37863785.599
        45.300
 200951115.619 7                  38239733.841
        44.200
 111033640.261 7  86519745.14145  21128988.752    21128988.1354   21128988.2654
        47.400          35.7004
 146655196.942 6                  27907542.131
        37.400
 123230136.651 8                  23449893.069
        48.400
 412810359.892 5                  78555248.052
        32.100
 202111091.637 7                  38460435.713
        44.900
 102443512.392 8  79678331.748 8  19197864.670    19197864.888    19197870.233
        52.900          48.400
 131112747.318 6 102165792.27442  24949922.577    24949921.5004   24949921.3324
        36.900          15.7004
 131177912.541 6 102216605.48043  24962303.936    24962302.6804   24962304.1484
        37.100          19.4004
 135967021.651 7                  25873628.875
        43.500
 115495173.911 7  89996246.33545  21977997.700    21977997.2894   21977997.9064
        46.000          35.3004
 117419216.570 7  91495543.71747  22344114.253    22344113.8024   22344113.9094
        46.100          44.2004
 134153878.678 6 104535518.06244  25528631.002    25528630.3504   25528634.1744
        36.000          27.4004
 111159948.464 7  86618147.04646  21153028.277    21153027.9114   21153028.1174
        47.900          38.6004
 132908307.584 7                  25291607.987
        45.200
 111176470.375 7  86631053.38148  21156163.718    21156163.0704   21156163.5864
        47.700          48.0004
 105007553.096 8  81824087.59848  19982263.598    19982263.1784   19982263.2404
        48.900          50.5004
 134357093.903 7                  25567303.546
        43.900
 135635804.030 6 105690249.00444  25810635.269    25810634.3804   25810638.2074
        37.600          29.5004
 108848550.144 8  84660056.410 7  20355212.654    20355213.059    20355219.295
        51.400          46.600
 120391745.031 7  93638065.611 7  22553423.805    22553424.243    22553429.742
        46.100          42.600
 104127787.490 8  80988324.516 8  19458760.517    19458760.642    19458766.273
        53.000          48.200
 117438015.459 7  91340709.007 7  21938405.752    21938406.620    21938413.438
        47.300          44.400
 110932686.634 8  86281032.410 6  20752239.333    20752239.302    20752246.302
        48.300          40.600
 25  1  1  7  2  0.0000000  0 29G10G24E03E08S31S35G13E21E13S48S33R02
                                G16G20E15G23G05G26G18E07G29G15E26G30
                                R24R18R17R03R01
 134282842.200 6 104635993.02045  25553174.959    25553174.3784   25553178.2574
        38.300          30.4004
 132463151.636 5 103218065.66444  25206901.215    25206900.7774   25206905.9364
        35.500          28.9004
 139155685.302 7                  26480431.376
        42.700
 125740231.535 7                  23927560.204
        46.800
 198975563.973 7                  37863786.596
        45.800
 200951121.003 7                  38239735.647
        44.400
 111051584.395 7  86533727.57045  21132403.478    21132402.8574   21132402.8854
        47.700          35.6004
 146692353.888 6                  27914613.160
        37.200
 123227818.940 8                  23449452.043
        48.400
 412810112.133 5                  78555215.758
        32.000
 202111063.212 7                  38460432.512
        45.100
 102436560.901 8  79672925.058 8  19196561.705    19196562.125    19196567.480
        52.700          48.600
 131119870.177 6 102171342.51342  24951277.892    24951276.8244   24951276.9994
        37.500          16.6004
 131220196.219 6 102249553.75243  24970350.366    24970349.0974   24970350.4794
        37.400          19.1004
 135993577.001 7                  25878682.480
        43.100
 115465268.417 7  89972943.36945  21972306.985    21972306.5794   21972307.1184
        46.100          35.4004
 117458233.975 7  91525946.89347  22351538.863    22351538.3944   22351538.7304
        46.500          44.2004
 134180687.760 5 104556408.24844  25533732.046    25533731.3854   25533735.9244
        35.900          27.4004
 111133014.201 8  86597159.31146  21147902.923    21147902.5614   21147902.6724
        48.100          38.7004
 132867832.659 7                  25283905.814
        44.900
 111209865.988 8  86657075.93348  21162518.691    21162518.0484   21162518.5894
        48.200          48.1004
 104996852.066 8  81815749.13748  19980227.140    19980226.7204   19980226.9084
        49.200          50.5004
 134327260.352 7                  25561626.397
        44.000
 135643370.558 6 105696145.05545  25812074.484    25812073.5954   25812077.9134
        39.100          30.6004
 108882070.752 8  84686127.979 7  20361481.275    20361481.473    20361487.638
        51.100          46.800
 120335602.081 7  93594398.888 7  22542905.997    22542906.361    22542912.458
        45.800          42.900
 104103008.623 8  80969052.074 8  19454129.701    19454130.178    19454135.702
        53.100          48.100
 117382917.284 7  91297854.880 7  21928113.327    21928113.607    21928120.501
        47.500          44.400
 110980172.016 8  86317965.522 6  20761122.355    20761122.323    20761129.028
        48.000          40.700
 25  1  1  7  2 15.0000000  0 29G10G24E03E08S31S35G13E21E13S48S33R02
                                G16G20E15G23G05G26G18E07G29G15E26G30
                                R24R18R17R03R01
 134242404.417 6 104604483.06545  25545480.058    25545479.4684   25545483.2704
        38.800          30.6004
 132414918.494 5 103180481.49144  25197723.273    25197722.8534   25197727.2064
        34.700          27.5004
 139188446.749 7                  26486665.555
        42.600
 125736004.835 7                  23926755.892
        47.000
 198975555.035 7                  37863785.067
        45.400
 200951122.360 7                  38239733.300
        44.300
 111069679.103 7  86547827.33445  21135846.815    21135846.1814   21135846.2274
        47.500          35.6004
 146729517.052 6                  27921684.429
        37.100
 123225541.558 8                  23449018.639
        48.600
 412809861.700 5                  78555196.732
        32.700
 202111031.286 7                  38460420.264
        45.000
 102429781.753 8  79667652.401 8  19195291.438    19195291.746    19195296.962
        52.600          48.500
 131127117.405 6 102176989.66742  24952656.826    24952655.7584   24952655.9314
        37.400          16.8004
 131262470.774 6 102282494.88943  24978394.822    24978393.5394   24978395.1074
        36.600          19.7004
 136020165.779 7                  25883742.150
        43.400
 115435415.720 7  89949681.53945  21966626.323    21966625.9264   21966626.4714
        46.200          35.3004
 117497275.082 7  91556368.53647  22358968.267    22358967.7984   22358968.0444
        46.000          44.2004
 134207556.965 6 104577345.31144  25538845.566    25538844.9094   25538849.0774
        36.700          27.7004
 111106135.738 7  86576215.06646  21142788.255    21142787.8934   21142787.9014
        47.800          38.8004
 132827406.940 7                  25276213.379
        44.300
 111243381.175 7  86683191.67247  21168896.400    21168895.7524   21168896.3214
        47.800          47.9004
 104986304.887 8  81807530.56048  19978220.006    19978219.5864   19978219.8344
        49.000          50.5004
 134297430.724 7                  25555950.043
        44.200
 135651047.623 6 105702127.23644  25813535.581    25813534.6874   25813538.5014
        38.700          29.4004
 108915717.145 8  84712297.378 7  20367773.265    20367773.346    20367780.029
        51.100          46.600
 120279469.231 7  93550740.006 7  22532390.543    22532391.229    22532397.129
        46.000          43.200
 104078351.290 8  80949874.169 8  19449521.818    19449522.377    19449527.914
        52.900          48.100
 117327904.546 8  91255067.221 7  21917836.705    21917836.700    21917843.496
        48.000          44.400
 111027744.696 7  86354966.473 6  20770022.310    20770021.939    20770028.840
        47.900          40.700
 25  1  1  7  2 30.0000000  0 29G10G24E03E08S31S35G13E21E13S48S33R02
                                G16G20E15G23G05G26G18E07G29G15E26G30
                                R24R18R17R03R01
 134201994.383 6 104572994.74745  25537789.480    25537788.8864   25537793.7334
        39.100          30.7004
 132366661.013 6 103142878.28844  25188539.562    25188539.1564   25188543.9514
        37.400          28.7004
 139221279.143 7                  26492913.450
        42.800
 125731890.236 7                  23925972.941
        46.900
 198975551.149 7                  37863781.405
        45.600
 200951129.227 7                  38239738.151
        44.400
 111087933.339 7  86562051.40845  21139320.689    21139320.0554   21139319.8914
        47.000          35.8004
 146766695.145 6                  27928759.541
        37.000
 123223313.665 8                  23448594.631
        48.400
 412809616.087 5                  78555167.170
        33.300
 202111004.863 7                  38460418.676
        45.100
 102423183.796 8  79662520.659 8  19194055.272    19194055.280    19194060.603
        52.700          48.400
 131134497.814 6 102182740.56142  24954061.341    24954060.2734   24954060.3914
        37.400          15.8004
 131304745.227 6 102315435.95643  24986439.223    24986437.9544   24986439.7714
        36.900          19.2004
 136046797.058 7                  25888809.844
        43.400
 115405624.773 7  89926467.82445  21960956.681    21960956.2704   21960957.3664
        46.500          35.5004
 117536348.562 7  91586815.39547  22366403.661    22366403.1884   22366403.4184
        46.400          44.2004
 134234494.950 6 104598335.95944  25543971.414    25543970.7484   25543974.9344
        37.500          27.2004
 111079322.286 8  86555321.46646  21137685.737    21137685.3844   21137685.4484
        48.000          38.8004
 132787039.756 7                  25268531.753
        45.200
 111277024.578 8  86709407.31848  21175298.502    21175297.8544   21175298.4464
        48.200          48.0004
 104975920.530 8  81799438.85748  19976243.948    19976243.5244   19976243.7574
        49.500          50.6004
 134267614.085 7                  25550275.982
        44.000
 135658844.397 6 105708202.65744  25815018.267    25815017.3644   25815022.4094
        37.000          29.0004
 108949498.751 8  84738571.908 7  20374091.026    20374091.216    20374097.243
        51.600          46.600
 120223355.997 7  93507096.412 7  22521878.726    22521879.209    22521885.279
        46.500          42.800
 104053824.844 8  80930798.030 8  19444938.821    19444938.964    19444944.653
        53.000          48.200
 117272986.278 7  91212353.032 7  21907577.046    21907577.434    21907584.458
        47.700          44.300
 111075413.271 8  86392042.018 6  20778939.322    20778939.110    20778946.244
        48.000          40.700
 25  1  1  7  2 45.0000000  0 29G10G24E03E08S31S35G13E21E13S48S33R02
                                G16G20E15G23G05G26G18E07G29G15E26G30
                                R24R18R17R03R01
 134161602.762 6 104541520.75545  25530104.140    25530103.5504   25530106.9924
        40.000          31.0004
 132318370.385 5 103105249.27344  25179349.410    25179348.9954   25179354.7404
        35.600          28.4004
 139254172.950 7                  26499172.885
        42.800
 125727878.400 7                  23925209.242
        46.900
 198975543.785 7                  37863780.725
        45.500
 200951132.496 7                  38239737.955
        44.100
 111106337.462 7  86576392.27345  21142823.105    21142822.4884   21142822.0574
        47.500          35.7004
 146803878.661 6                  27935835.158
        36.900
 123221126.004 8                  23448178.363
        48.400
 412809365.710 5                  78555132.631
        32.700
 202110974.272 7                  38460411.285
        44.900
 102416757.785 8  79657522.670 8  19192850.559    19192851.001    19192856.324
        52.400          48.400
 131142001.900 6 102188587.81742  24955488.922    24955487.8544   24955488.2704
        37.500          15.3004
 131347010.190 6 102348369.63243  24994482.193    24994480.9504   24994482.5974
        37.100          18.7004
 136073461.520 7                  25893883.849
        43.200
 115375886.276 7  89903294.98745  21955297.923    21955297.5124   21955298.3404
        46.600          35.4004
 117575444.688 7  91617279.89447  22373843.469    22373842.9964   22373843.1164
        46.300          44.2004
 134261492.115 6 104619372.71144  25549108.909    25549108.2664   25549112.1404
        36.400          26.8004
 111052564.695 7  86534471.39046  21132593.993    21132593.6544   21132593.6304
        47.900          38.7004
 132746721.922 7                  25260859.122
        45.300
 111310786.480 7  86735715.26647  21181723.210    21181722.5624   21181723.0724
        47.900          47.9004
 104965689.674 8  81791466.77348  19974297.059    19974296.6264   19974296.8804
        49.400          50.6004
 134237801.230 7                  25544603.167
        44.400
 135666751.426 6 105714363.92544  25816524.233    25816523.3394   25816527.0974
        38.700          29.3004
 108983405.837 8  84764944.065 7  20380430.974    20380431.888    20380437.923
        51.300          46.600
 120167253.053 7  93463460.811 7  22511368.641    22511368.611    22511375.070
        46.800          43.400
 104029420.245 8  80911816.675 8  19440378.291    19440378.450    19440383.911
        53.100          48.200
 117218153.483 7  91169705.330 7  21897333.177    21897334.351    21897341.009
        47.700          44.500
 111123167.931 8  86429184.536 6  20787872.928    20787872.732    20787879.531
        48.000          40.800
 25  1  1  7  3  0.0000000  0 29G10G24E03E08S31S35G13E21E13S48S33R02
                                G16G20E15G23G05G26G18E07G29G15E26G30
                                R24R18R17R03R01
 134121236.009 6 104510066.14645  25522422.489    25522421.9044   25522425.2274
        38.900          30.6004
 132270053.337 6 103067599.63644  25170156.108    25170155.7024   25170160.3604
        36.400          28.7004
 139287134.297 7                  26505445.541
        42.500
 125723975.744 7                  23924466.683
        46.900
 198975538.385 7                  37863780.519
        45.200
 200951137.662 7                  38239742.100
        44.200
 111124897.573 7  86590854.69145  21146354.551    21146353.9344   21146353.9954
        47.600          35.6004
 146841073.663 6                  27942913.338
        36.900
 123218985.077 8                  23447771.108
        48.500
 412809118.328 5                  78555106.959
        33.000
 202110945.965 7                  38460407.605
        44.800
 102410510.110 8  79652663.369 8  19191679.995    19191680.097    19191685.537
        52.800          48.300
 131149635.890 6 102194536.31942  24956942.082    24956941.0544   24956941.2794
        37.500          16.7004
 131389272.007 6 102381300.86843  25002524.234    25002522.9744   25002524.7654
        37.800          19.3004
 136100165.570 7                  25898965.823
        43.200
 115346206.656 7  89880168.01845  21949650.207    21949649.7924   21949650.4084
        46.500          35.5004
 117614570.523 7  91647767.53647  22381288.963    22381288.4854   22381288.5784
        46.100          44.2004
 134288554.507 6 104640460.29244  25554258.828    25554258.1854   25554262.2284
        36.900          27.2004
 111025869.632 8  86513670.05146  21127514.046    21127513.7074   21127513.7104
        48.400          38.9004
 132706460.017 7                  25253197.544
        44.600
 111344673.416 8  86762120.65348  21188171.933    21188171.2854   21188171.5684
        48.200          48.0004
 104955618.872 8  81783619.40048  19972380.673    19972380.2404   19972380.4584
        49.500          50.6004
 134207998.628 7                  25538932.155
        44.300
 135674775.269 6 105720616.20144  25818050.435    25818049.5414   25818053.8704
        38.400          28.8004
 109017444.960 8  84791418.892 7  20386796.748    20386796.988    20386803.711
        50.600          46.800
 120111167.160 7  93419838.333 7  22500862.969    22500862.516    22500868.233
        47.100          43.100
 104005144.243 8  80892935.321 8  19435841.757    19435841.837    19435847.262
        53.100          48.000
 117163413.256 7  91127129.609 7  21887108.094    21887108.475    21887115.110
        47.400          44.900
 111171014.634 8  86466398.633 6  20796823.406    20796823.664    20796829.819
        48.200          40.500
 25  1  1  7  3 15.0000000  0 29G10G24E03E08S31S35G13E21E13S48S33R02
                                G16G20E15G23G05G26G18E07G29G15E26G30
                                R24R18R17R03R01
 134080890.711 6 104478628.25345  25514744.624    25514744.0394   25514748.0334
        40.000          31.7004
 132221706.951 6 103029927.21944  25160954.978    25160954.5854   25160960.2474
        36.500          28.5004
 139320159.443 7                  26511729.785
        43.100
 125720178.817 7                  23923744.254
        47.300
 198975531.859 7                  37863778.386
        45.600
 200951141.968 7                  38239742.717
        44.300
 111143610.042 7  86605435.82245  21149915.377    21149914.7564   21149914.8514
        47.800          35.8004
 146878276.584 6                  27949993.499
        36.100
 123216887.582 8                  23447371.955
        48.800
 412808870.221 5                  78555078.202
        32.600
 202110916.033 7                  38460399.627
        45.000
 102404436.952 8  79647939.806 8  19190541.703    19190542.065    19190547.505
        53.100          48.700
 131157396.274 6 102200583.28542  24958419.340    24958418.3344   24958418.0154
        37.600          16.9004
 131431527.208 6 102414226.94643  25010564.781    25010563.5124   25010565.2614
        37.900          19.3004
 136126905.840 7                  25904054.135
        43.600
 115316582.472 7  89857084.25145  21944012.975    21944012.5694   21944013.0744
        46.000          35.6004
 117653722.254 7  91678275.36747  22388739.228    22388738.7504   22388738.9094
        46.100          44.1004
 134315678.346 6 104661595.75444  25559419.618    25559418.9484   25559423.4734
        36.400          27.3004
 110999233.883 8  86492914.92846  21122445.204    21122444.8604   21122445.1174
        48.200          38.9004
 132666250.789 7                  25245546.210
        44.900
 111378681.556 7  86788620.50847  21194643.262    21194642.6104   21194643.1864
        47.500          47.9004
 104945704.617 8  81775894.00848  19970494.012    19970493.5834   19970493.8234
        49.200          50.6004
 134178202.979 7                  25533261.550
        44.500
 135682912.498 6 105726956.87744  25819599.286    25819598.3884   25819602.3714
        37.800          29.0004
 109051612.367 8  84817993.497 7  20393186.672    20393186.847    20393193.164
        51.600          46.700
 120055095.551 7  93376227.069 7  22490357.296    22490358.089    22490364.530
        45.600          43.200
 103980994.020 8  80874151.821 8  19431328.597    19431328.852    19431334.385
        53.000          48.100
 117108762.075 8  91084623.146 7  21876899.503    21876899.555    21876905.747
        48.100          44.800
 111218949.634 7  86503681.381 6  20805791.024    20805790.832    20805797.533
        47.500          40.400
 25  1  1  7  3 30.0000000  0 29G10G24E03E08S31S35G13E21E13S48S33R02
                                G16G20E15G23G05G26G18E07G29G15E26G30
                                R24R18R17R03R01
 134040569.162 6 104447208.87845  25507071.553    25507070.9724   25507075.4044
        40.300          32.0004
 132173333.606 6 102992233.81844  25151750.376    25151749.9704   25151755.0724
        36.200          28.3004
 139353250.606 7                  26518026.914
        42.500
 125716489.857 7                  23923042.221
        47.100
 198975527.048 7                  37863779.594
        45.600
 200951147.705 7                  38239737.181
        44.000
 111162477.211 8  86620137.50745  21153505.686    21153505.0564   21153505.1394
        48.100          35.8004
 146915489.301 6                  27957074.073
        36.600
 123214835.848 8                  23446981.434
        48.600
 412808623.710 5                  78555052.236
        33.400
 202110888.686 7                  38460398.156
        45.100
 102398540.595 8  79643353.749 8  19189437.212    19189437.114    19189442.544
        53.200          48.500
 131165285.148 6 102206730.35742  24959920.510    24959919.4954   24959919.2374
        38.200          16.9004
 131473777.964 6 102447149.55743  25018605.631    25018604.3754   25018605.5024
        37.900          18.8004
 136153684.600 7                  25909149.801
        43.100
 115287016.017 7  89834045.47545  21938386.672    21938386.2794   21938386.7084
        46.800          35.6004
 117692901.902 7  91708804.92847  22396195.127    22396194.6544   22396194.5124
        45.600          44.1004
 134342865.615 6 104682780.65644  25564593.605    25564592.9574   25564596.7964
        36.400          27.0004
 110972659.863 8  86472207.88846  21117388.650    21117388.3114   21117388.2264
        48.100          39.1004
 132626096.766 7                  25237905.034
        45.200
 111412812.917 8  86815216.40648  21201138.335    21201137.6924   21201138.1914
        48.100          48.0004
 104935949.183 8  81768292.37448  19968637.574    19968637.1414   19968637.4114
        49.100          50.7004
 134148416.564 7                  25527593.859
        44.600
 135691165.447 6 105733387.80945  25821169.297    25821168.3944   25821172.9074
        38.600          30.7004
 109085910.393 8  84844669.698 7  20399600.603    20399600.750    20399607.076
        51.200          46.700
 119999040.872 7  93332629.024 7  22479857.171    22479856.984    22479863.081
        46.300          42.800
 103956972.036 8  80855468.048 8  19426839.462    19426839.776    19426845.470
        53.200          48.100
 117054202.969 8  91042188.296 7  21866707.661    21866707.381    21866713.788
        48.000          44.900
 111266974.627 7  86541034.168 6  20814775.063    20814774.818    20814781.434
        47.500          40.700
 25  1  1  7  3 45.0000000  0 29G10G24E03E08S31S35G13E21E13S48S33R02
                                G16G20E15G23G05G26G18E07G29G15E26G30
                                R24R18R17R03R01
 134000269.255 6 104415806.35545  25499403.281    25499402.7054   25499406.7684
        40.300          32.2004
 132124931.378 6 102954517.80844  25142539.525    25142539.1284   25142544.1464
        36.400          28.7004
 139386405.543 7                  26524335.860
        42.500
 125712906.701 7                  23922360.311
        46.800
 198975520.696 7                  37863780.376
        45.400
 200951151.942 7                  38239738.554
        43.900
 111181496.618 8  86634957.81945  21157125.007    21157124.3594   21157124.4574
        48.000          35.8004
 146952709.458 5                  27964157.673
        35.600
 123212827.831 8                  23446599.400
        48.300
 412808376.360 5                  78555021.167
        32.600
 202110858.991 7                  38460388.801
        44.700
 102392818.879 8  79638903.526 8  19188364.705    19188364.846    19188370.285
        53.300          48.600
 131173300.089 6 102212975.67642  24961445.364    24961444.3544   24961444.8114
        37.900          16.6004
 131516022.214 6 102480067.10343  25026644.348    25026643.0964   25026644.9924
        38.200          19.6004
 136180499.716 7                  25914252.742
        43.300
 115257505.065 7  89811049.94245  21932770.529    21932770.1274   21932770.9764
        47.100          35.5004
 117732106.764 7  91739354.14747  22403655.825    22403655.3564   22403654.9724
        46.300          44.0004
 134370113.767 6 104704012.98744  25569778.580    25569777.9284   25569782.0004
        37.300          26.9004
 110946145.665 8  86451547.46546  21112343.083    21112342.7534   21112342.7604
        48.700          39.0004
 132585995.890 7                  25230273.999
        44.800
 111447064.974 8  86841906.32947  21207656.102    21207655.4544   21207656.1044
        48.100          47.9004
 104926350.558 8  81760812.93148  19966811.158    19966810.7384   19966810.8344
        49.400          50.7004
 134118637.336 7                  25521926.712
        44.600
 135699531.518 6 105739906.73545  25822762.496    25822761.5934   25822765.2974
        39.900          31.5004
 109120336.713 8  84871445.685 7  20406038.791    20406038.769    20406045.197
        51.500          46.800
 119943001.052 7  93289042.582 7  22469359.053    22469358.938    22469365.402
        46.400          43.800
 103933076.498 8  80836882.619 8  19422374.160    19422374.325    19422379.916
        53.200          48.100
 116999733.531 8  90999823.197 7  21856531.651    21856532.038    21856538.486
        48.200          44.600
 111315086.905 7  86578454.818 6  20823775.401    20823775.144    20823781.920
        47.400          40.600
 25  1  1  7  4  0.0000000  0 29G10G24E03E08S31S35G13E21E13S48S33R02
                                G16G20E15G23G05G26G18E07G29G15E26G30
                                R24R18R17R03R01
 133959992.864 6 104384422.16545  25491739.106    25491738.5214   25491742.4384
        39.700          31.7004
 132076502.510 6 102916780.95744  25133324.001    25133323.6304   25133328.8924
        36.400          28.9004
 139419625.430 7                  26530657.610
        42.200
 125709431.261 7                  23921699.007
        46.900
 198975515.459 7                  37863775.927
        45.600
 200951157.758 7                  38239744.371
        44.200
 111200669.877 7  86649898.01945  21160773.706    21160773.0584   21160773.0014
        47.500          35.7004
 146989938.676 5                  27971241.061
        35.400
 123210865.527 8                  23446225.930
        48.400
 412808130.043 5                  78555000.374
        32.900
 202110830.984 7                  38460385.747
        45.100
 102387273.465 8  79634590.434 8  19187325.470    19187325.757    19187331.174
        52.900          48.600
 131181442.895 6 102219320.62042  24962995.712    24962994.7024   24962994.7294
        37.400          17.1004
 131558261.811 6 102512981.02443  25034681.968    25034680.7164   25034683.2884
        37.100          19.2004
 136207353.092 7                  25919362.846
        43.100
 115228051.562 7  89788099.17745  21927165.894    21927165.4924   21927166.1604
        46.300          35.6004
 117771338.973 7  91769924.67147  22411121.230    22411120.7574   22411120.6724
        45.700          43.9004
 134397424.417 6 104725294.03044  25574975.620    25574974.9594   25574979.1394
        36.500          26.7004
 110919693.405 7  86430935.32146  21107309.167    21107308.8324   21107309.0554
        47.900          39.0004
 132545950.302 7                  25222653.626
        45.300
 111481439.387 8  86868691.55847  21214197.491    21214196.8434   21214197.2974
        48.000          47.9004
 104916910.584 8  81753457.11748  19965014.854    19965014.4394   19965014.4764
        49.100          50.7004
 134088867.263 7                  25516261.788
        44.000
 135708013.157 6 105746515.83845  25824375.907    25824375.0004   25824379.3744
        37.900          30.1004
 109154892.994 8  84898322.753 7  20412500.469    20412501.037    20412507.631
        51.700          46.900
 119886978.083 7  93245469.078 7  22458863.808    22458864.008    22458869.591
        46.700          42.900
 103909309.787 8  80818397.388 8  19417932.619    19417932.836    19417938.575
        53.000          48.000
 116945356.107 7  90957529.685 7  21846372.951    21846373.080    21846380.471
        47.500          44.600
 111363287.789 8  86615944.389 6  20832792.911    20832792.613    20832798.844
        48.200          40.800
 25  1  1  7  4 15.0000000  0 29G10G24E03E08S31S35G13E21E13S48S33R02
                                G16G20E15G23G05G26G18E07G29G15E26G30
                                R24R18R17R03R01
 133919736.506 6 104353053.57545  25484078.626    25484078.0454   25484081.8024
        38.500          31.1004
 132028043.919 6 102879020.91244  25124102.648    25124102.2824   25124107.6474
        36.400          29.1004
 139452907.033 7                  26536991.003
        42.400
 125706059.925 7                  23921057.556
        46.800
 198975508.073 7                  37863774.930
        45.700
 200951160.604 7                  38239741.393
        44.100
 111219993.302 7  86664955.22545  21164450.555    21164449.9124   21164450.1284
        47.700          35.5004
 147027173.151 5                  27978326.853
        35.600
 123208945.466 8                  23445860.644
        48.400
 412807881.456 5                  78554966.439
        33.000
 202110800.440 7                  38460380.149
        44.900
 102381900.584 8  79630411.535 8  19186318.652    19186318.868    19186324.124
        53.300          48.600
 131189709.903 6 102225762.33242  24964568.390    24964567.3534   24964567.9314
        37.300          16.2004
 131600492.990 6 102545888.39143  25042717.781    25042716.5614   25042719.2194
        37.700          19.1004
 136234241.205 7                  25924479.638
        43.200
 115198651.893 7  89765190.36345  21921571.494    21921571.1014   21921571.5874
        46.100          35.3004
 117810594.953 7  91800513.72247  22418591.232    22418590.7724   22418590.8714
        45.800          43.6004
 134424793.621 6 104746620.67844  25580184.153    25580183.5014   25580186.9164
        37.100          26.3004
 110893299.672 8  86410368.77646  21102286.756    21102286.4214   21102286.5154
        48.300          38.9004
 132505956.551 7                  25215043.024
        44.500
 111515932.469 7  86895569.30847  21220761.217    21220760.5694   21220761.1694
        47.700          47.7004
 104907625.716 8  81746222.15748  19963247.969    19963247.5544   19963247.6304
        49.200          50.6004
 134059102.913 7                  25510597.967
        44.100
 135716606.273 6 105753211.74144  25826010.689    25826009.7954   25826014.2664
        38.400          28.7004
 109189575.671 8  84925298.153 7  20418986.410    20418986.540    20418993.223
        50.900          47.000
 119830969.039 7  93201906.496 7  22448371.397    22448371.484    22448377.931
        46.500          43.800
 103885668.688 8  80800009.874 8  19413514.776    19413515.003    19413520.487
        53.000          48.100
 116891067.306 8  90915305.084 7  21836231.443    21836231.775    21836238.996
        48.000          44.800
 111411573.405 7  86653499.853 6  20841825.397    20841824.857    20841831.862
        47.800          40.900
 25  1  1  7  4 30.0000000  0 29G10G24E03E08S31S35G13E21E13S48S33R02
                                G16G20E15G23G05G26G18E07G29G15E26G30
                                R24R18R17R03R01
 133879505.691 6 104321704.89845  25476422.770    25476422.1944   25476425.9734
        39.000          31.6004
 131979561.657 6 102841242.52744  25114876.475    25114876.1094   25114882.0504
        36.900          29.1004
 139486255.364 7                  26543336.423
        42.300
 125702798.209 7                  23920436.964
        46.600
 198975503.248 7                  37863771.491
        45.500
 200951166.005 7                  38239744.470
        44.400
 111239472.195 7  86680133.57545  21168157.384    21168156.7454   21168156.8404
        47.500          35.5004
 147064418.123 5                  27985414.341
        35.800
 123207073.259 8                  23445504.201
        48.200
 412807636.203 5                  78554940.034
        33.000
 202110772.449 7                  38460377.385
        45.200
 102376705.725 8  79626371.095 8  19185345.125    19185345.356    19185350.603
        53.000          48.600
 131198106.572 6 102232305.11742  24966166.181    24966165.1574   24966165.6824
        37.800          16.8004
 131642721.158 6 102578793.40743  25050754.647    25050753.4184   25050754.7254
        38.000          18.9004
 136261169.632 7                  25929603.618
        43.000
 115169311.628 7  89742327.84345  21915988.003    21915987.6014   21915988.2704
        46.800          35.6004
 117849879.664 7  91831125.18447  22426066.562    22426066.0894   22426066.5164
        45.800          43.6004
 134452226.612 6 104767997.05044  25585403.827    25585403.1844   25585407.5354
        36.300          26.9004
 110866970.241 7  86389852.33346  21097276.557    21097276.2224   21097276.2324
        47.900          39.0004
 132466020.463 7                  25207443.419
        44.500
 111550549.310 7  86922543.46947  21227348.675    21227348.0234   21227348.5274
        47.500          47.7004
 104898501.783 8  81739112.60548  19961511.623    19961511.2124   19961511.3984
        49.400          50.7004
 134029349.808 7                  25504936.141
        44.200
 135725316.395 6 105759998.65644  25827668.732    25827667.8384   25827671.7094
        38.600          29.0004
 109224390.231 8  84952376.107 7  20425496.865    20425497.584    20425503.664
        51.700          46.900
 119774979.994 7  93158359.492 7  22437882.216    22437883.124    22437889.552
        46.200          42.900
 103862159.005 8  80781724.570 8  19409121.257    19409121.571    19409127.279
        52.200          48.100
 116836873.660 7  90873154.494 7  21826108.083    21826107.901    21826114.626
        47.500          44.800
 111459948.795 8  86691125.148 6  20850875.203    20850874.352    20850881.473
        48.000          40.500
 25  1  1  7  4 45.0000000  0 29G10G24E03E08S31S35G13E21E13S48S33R02
                                G16G20E15G23G05G26G18E07G29G15E26G30
                                R24R18R17R03R01
 133839295.910 6 104290372.61945  25468771.009    25468770.4334   25468774.0474
        39.400          31.7004
 131931051.418 6 102803442.36844  25105645.386    25105645.0244   25105650.5954
        37.000          28.8004
 139519665.745 7                  26549694.633
        42.500
 125699641.571 7                  23919836.122
        46.600
 198975497.000 7                  37863770.588
        45.700
 200951171.098 7                  38239746.594
        44.200
 111259101.577 8  86695429.19045  21171892.752    21171892.1314   21171892.2374
        48.100          35.7004
 147101668.808 6                  27992503.094
        36.800
 123205244.494 8                  23445156.080
        48.400
 412807389.043 5                  78554913.642
        33.100
 202110742.280 7                  38460368.670
        45.100
 102371684.417 8  79622465.628 8  19184404.010    19184404.383    19184409.675
        53.100          48.700
 131206628.026 6 102238945.12342  24967787.652    24967786.6374   24967787.9204
        38.500          17.3004
 131684941.987 6 102611692.71543  25058788.934    25058787.6784   25058789.4574
        38.000          18.9004
 136288133.820 7                  25934734.972
        43.100
 115140026.196 7  89719508.03945  21910415.033    21910414.6184   21910415.4574
        47.000          35.7004
 117889188.699 7  91861755.58547  22433547.273    22433546.8004   22433546.7494
        46.200          43.5004
 134479718.514 6 104789419.29644  25590636.084    25590635.4454   25590639.3204
        36.200          26.8004
 110840700.777 8  86369382.62046  21092277.603    21092277.2734   21092277.3334
        48.600          39.1004
 132426137.710 7                  25199854.003
        44.900
 111585285.018 8  86949610.23647  21233958.634    21233957.9734   21233958.4844
        48.000          47.7004
 104889534.281 8  81732124.94748  19959805.119    19959804.7084   19959804.9504
        49.500          50.7004
 133999603.533 7                  25499275.457
        44.200
 135734139.355 6 105766873.60444  25829347.693    25829346.7954   25829350.9644
        38.600          29.8004
 109259331.665 8  84979552.736 7  20432031.429    20432031.555    20432038.019
        51.500          46.900
 119719006.332 7  93114824.355 7  22427397.452    22427397.719    22427403.235
        46.500          43.300
 103838776.591 8  80763538.237 8  19404751.901    19404752.018    19404757.770
        52.700          48.000
 116782770.485 7  90831074.258 7  21816000.693    21816000.925    21816008.388
        47.400          45.100
 111508409.094 8  86728816.495 6  20859940.333    20859940.402    20859946.941
        48.000          40.600
 25  1  1  7  5  0.0000000  0 29G10G24E03E08S31S35G13E21E13S48S33R02
                                G16G20E15G23G05G26G18E07G29G15E26G30
                                R24R18R17R03R01
 133799109.935 6 104259058.88545  25461124.191    25461123.6104   25461127.0764
        40.000          31.5004
 131882516.268 6 102765622.81544  25096409.477    25096409.1154   25096414.4594
        36.200          28.1004
 139553140.634 7                  26556064.747
        42.000
 125696592.716 7                  23919255.926
        46.900
 198975491.726 7                  37863773.843
        45.400
 200951176.655 7                  38239750.184
        44.100
 111278884.331 8  86710844.31745  21175657.022    21175656.3924   21175656.7704
        48.200          35.5004
 147138927.665 6                  27999592.909
        37.100
 123203461.984 8                  23444817.050
        48.400
 412807143.127 5                  78554881.245
        32.300
 202110713.791 7                  38460363.447
        44.900
 102366839.065 8  79618697.022 8  19183496.036    19183496.362    19183501.663
        53.000          48.700
 131215276.770 6 102245684.32942  24969433.837    24969432.8134   24969433.5444
        37.300          16.6004
 131727158.023 6 102644588.25843  25066822.635    25066821.3614   25066822.7004
        37.900          18.7004
 136315136.513 7                  25939873.416
        43.100
 115110798.340 7  89696733.11345  21904853.237    21904852.8264   21904853.6084
        46.600          35.6004
 117928524.607 7  91892406.91747  22441032.644    22441032.1754   22441032.0444
        45.600          43.3004
 134507271.679 6 104810889.32144  25595879.932    25595879.3024   25595882.4104
        36.700          27.2004
 110814494.228 8  86348961.93546  21087290.406    21087290.0674   21087290.3794
        48.500          39.0004
 132386311.131 7                  25192274.983
        44.400
 111620142.179 8  86976771.66147  21240591.695    21240591.0344   21240591.5904
        48.100          47.6004
 104880725.742 8  81725261.15748  19958129.005    19958128.5944   19958128.7364
        49.700          50.6004
 133969866.903 7                  25493616.928
        44.500
 135743077.685 6 105773838.44744  25831048.109    25831047.1934   25831051.8804
        39.600          29.3004
 109294402.986 8  85006830.380 7  20438590.110    20438589.986    20438596.481
        51.200          46.800
 119663051.362 7  93071303.829 7  22416914.428    22416914.599    22416921.676
        45.600          43.500
 103815524.599 8  80745453.326 7  19400406.855    19400407.010    19400412.511
        52.700          47.800
 116728760.524 7  90789066.512 7  21805911.128    21805911.970    21805918.592
        47.400          44.900
 111556956.422 7  86766575.533 6  20869021.874    20869021.918    20869029.106
        47.800          40.700
 25  1  1  7  5 15.0000000  0 29G10G24E03E08S31S35G13E21E13S48S33R02
                                G16G20E15G23G05G26G18E07G29G15E26G30
                                R24R18R17R03R01
 133758946.669 6 104227762.82745  25453480.473    25453479.8834   25453484.1254
        39.900          31.3004
 131833955.416 6 102727783.27544  25087168.654    25087168.2834   25087173.6854
        37.100          28.9004
 139586678.834 7                  26562446.751
        42.100
 125693650.517 7                  23918695.914
        46.900
 198975486.700 7                  37863771.737
        45.300
 200951182.244 7                  38239748.825
        44.100
 111298819.073 8  86726377.87545  21179450.789    21179450.1594   21179450.1954
        48.100          35.6004
 147176193.397 5                  28006684.658
        35.800
 123201724.690 8                  23444486.442
        48.400
 412808497.771 5                  78554853.780
        32.700
 202110685.882 7                  38460358.640
        44.800
 102362168.659 8  79615064.494 8  19182620.840    19182621.172    19182626.406
        52.900          48.700
 131224051.608 6 102252521.77942  24971103.887    24971102.9044   24971103.2934
        38.100          17.5004
 131769368.248 6 102677479.29743  25074855.092    25074853.8004   25074854.9324
        36.000          18.3004
 136342176.644 7                  25945019.035
        43.100
 115081626.919 7  89674002.14945  21899301.869    21899301.4494   21899302.4154
        46.700          35.7004
 117967885.975 7  91923078.08447  22448522.727    22448522.2584   22448522.3254
        45.000          43.2004
 134534884.740 6 104832405.98144  25601133.378    25601132.7524   25601137.3674
        37.300          27.0004
 110788349.649 8  86328589.53246  21082315.590    21082315.2464   21082315.2744
        48.500          39.1004
 132346539.889 7                  25184706.908
        44.800
 111655119.195 8  87004026.45247  21247247.455    21247246.7894   21247247.5114
        48.300          47.6004
 104872075.060 8  81718520.36748  19956482.730    19956482.3194   19956482.5484
        49.400          50.7004
 133940138.896 7                  25487959.786
        44.400
 135752130.435 6 105780892.55044  25832771.261    25832770.3544   25832774.4204
        38.600          28.9004
 109329602.858 8  85034208.022 7  20445172.542    20445172.724    20445179.367
        51.700          47.000
 119607114.443 7  93027797.353 7  22406436.296    22406436.818    22406442.079
        47.400          43.500
 103792402.280 8  80727469.308 7  19396085.547    19396085.795    19396091.533
        52.600          47.900
 116674843.370 7  90747130.964 7  21795839.585    21795839.698    21795845.873
        47.400          44.700
 111605589.283 8  86804401.099 6  20878119.431    20878119.520    20878126.614
        48.000          40.400
 25  1  1  7  5 30.0000000  0 29G10G24E03E08S31S35G13E21E13S48S33R02
                                G16G20E15G23G05G26G18E07G29G15E26G30
                                R24R18R17R03R01
 133718803.252 6 104196482.25245  25445842.257    25445841.6634   25445845.2934
        38.700          31.9004
 131785366.163 6 102689921.51744  25077921.657    25077921.2914   25077927.5414
        36.300          29.5004
 139620277.249 7                  26568840.438
        42.400
 125690812.078 7                  23918156.001
        47.000
 198975478.584 7                  37863768.768
        45.700
 200951184.984 7                  38239748.669
        44.200
 111318902.681 7  86742027.43045  21183272.535    21183271.9054   21183272.0064
        47.200          35.7004
 147213462.739 5                  28013777.126
        35.500
 123200029.928 8                  23444164.077
        48.500
 412808249.518 5                  78554822.484
        32.700
 202110654.941 7                  38460350.305
        45.000
 102357670.148 8  79611565.659 8  19181777.888    19181778.115    19181783.389
        52.700          48.600
 131232949.590 6 102259455.23242  24972796.567    24972795.6024   24972796.4554
        37.900          16.5004
 131811569.632 6 102710363.44143  25082885.761    25082884.4474   25082885.8064
        36.800          19.0004
 136369251.338 7                  25950171.119
        43.100
 115052509.088 7  89651312.94445  21893760.989    21893760.5744   21893761.3104
        46.100          35.8004
 118007270.118 7  91953767.00747  22456017.525    22456017.0694   22456016.9574
        45.000          43.3004
 134562554.467 5 104853966.82144  25606399.354    25606398.7284   25606402.6754
        35.600          26.4004
 110762264.424 8  86308263.37846  21077351.680    21077351.3364   21077351.4334
        48.300          39.4004
 132306821.160 7                  25177148.741
        44.900
 111690213.000 7  87031372.21947  21253925.800    21253925.1344   21253925.6564
        47.900          47.8004
 104863579.389 8  81711900.36948  19954866.073    19954865.6624   19954865.8824
        49.400          50.9004
 133910416.732 7                  25482303.860
        44.300
 135761294.336 6 105788033.18044  25834515.362    25834514.4594   25834518.7154
        38.600          29.3004
 109364928.164 8  85061683.230 7  20451778.605    20451778.536    20451785.380
        51.400          47.000
 119551192.808 7  92984302.771 7  22395959.970    22395960.361    22395966.414
        46.500          43.300
 103769407.077 8  80709584.139 7  19391788.336    19391788.677    19391794.228
        52.600          47.800
 116621016.300 7  90705265.496 7  21785783.750    21785783.663    21785790.745
        46.700          44.900
 111654304.198 7  86842290.452 6  20887232.586    20887232.615    20887239.695
        47.600          40.700
 25  1  1  7  5 45.0000000  0 29G10G24E03E08S31S35G13E21E13S48S33R02
                                G16G20E15G23G05G26G18E07G29G15E26G30
                                R24R18R17R03R01
 133678684.559 6 104165220.93745  25438208.116    25438207.5264   25438211.0884
        39.600          32.1004
 131736753.772 6 102652041.69244  25068671.886    25068671.5384   25068676.5464
        37.300          29.2004
 139653940.386 7                  26575246.181
        42.000
 125688082.204 7                  23917636.351
        46.900
 198975472.565 7                  37863769.653
        45.200
 200951190.095 7                  38239745.199
        44.000
 111339139.898 8  86757796.68645  21187123.672    21187123.0464   21187123.0484
        48.100          35.8004
 147250740.377 6                  28020870.740
        36.400
 123198382.514 8                  23443850.378
        48.500
 412808003.080 5                  78554786.456
        32.200
 202110625.402 7                  38460345.637
        44.900
 102353348.009 8  79608203.994 8  19180967.765    19180968.125    19180973.511
        52.300          48.700
 131241975.319 6 102266488.18242  24974514.690    24974513.6714   24974514.0814
        39.000          16.7004
 131853766.944 6 102743244.40443  25090915.299    25090913.9804   25090915.8434
        37.500          19.0004
 136396365.460 7                  25955330.726
        43.000
 115023449.636 7  89628669.23245  21888231.454    21888231.0484   21888231.4694
        46.900          35.9004
 118046681.457 7  91984477.11647  22463517.320    22463516.8644   22463516.6954
        45.600          43.2004
 134590285.287 6 104875575.27844  25611676.397    25611675.7634   25611679.3694
        37.000          26.8004
 110736243.602 8  86287987.42746  21072399.851    21072399.5074   21072399.8984
        48.700          39.5004
 132267160.029 7                  25169601.465
        44.500
 111725428.408 8  87058812.78147  21260627.191    21260626.5254   21260626.9594
        48.100          47.8004
 104855243.764 8  81705405.08448  19953279.610    19953279.1904   19953279.6464
        49.900          51.0004
 133880705.288 7                  25476650.115
        44.300
 135770574.484 6 105795264.45744  25836281.291    25836280.3844   25836284.7294
        36.600          28.6004
 109400383.836 8  85089259.824 7  20458408.867    20458409.357    20458415.656
        51.400          47.000
 119495291.732 7  92940824.210 7  22385487.148    22385487.763    22385494.312
        45.600          43.700
 103746544.329 8  80691802.001 7  19387516.019    19387516.261    19387521.915
        52.500          47.700
 116567284.366 7  90663473.991 7  21775746.035    21775746.198    21775753.258
        47.300          44.800
 111703105.494 7  86880247.001 6  20896362.898    20896362.255    20896368.880
        47.800          40.500
 25  1  1  7  6  0.0000000  0 29G10G24E03E08S31S35G13E21E13S48S33R02
                                G16G20E15G23G05G26G18E07G29G15E26G30
                                R24R18R17R03R01
 133638590.384 6 104133978.73245  25430578.799    25430578.2184   25430581.2794
        39.500          32.1004
 131688118.504 6 102614144.12545  25059416.383    25059416.0214   25059421.6734
        36.300          30.1004
 139687667.989 6                  26581664.310
        41.800
 125685460.678 7                  23917137.602
        46.500
 198975468.347 7                  37863768.567
        45.300
 200951196.115 7                  38239750.998
        44.100
 111359530.171 8  86773685.20145  21191003.509    21191002.8884   21191003.1474
        48.000          35.9004
 147288025.789 6                  28027965.635
        37.100
 123196782.392 8                  23443546.088
        48.100
 412807757.659 5                  78554764.496
        32.700
 202110597.211 7                  38460339.524
        44.700
 102349202.272 8  79604979.525 8  19180191.047    19180191.301    19180196.517
        53.000          48.800
 131251128.391 6 102273620.35942  24976256.238    24976255.2104   24976255.8674
        37.700          17.1004
 131895960.008 6 102776122.05443  25098943.898    25098942.6024   25098945.0704
        37.000          18.9004
 136423518.806 7                  25960498.373
        42.600
 114994448.373 7  89606070.86346  21882712.626    21882712.2244   21882712.7904
        47.000          36.0004
 118086119.666 7  92015208.16347  22471021.683    22471021.2104   22471021.5174
        45.300          43.3004
 134618076.719 6 104897230.92544  25616965.024    25616964.3904   25616967.9264
        36.300          27.2004
 110710287.127 8  86267761.60446  21067460.613    21067460.2694   21067460.5084
        48.100          39.7004
 132227556.558 7                  25162064.982
        44.200
 111760764.843 8  87086347.64947  21267351.294    21267350.6284   21267351.2824
        48.200          47.9004
 104847067.953 8  81699034.32548  19951724.045    19951723.6254   19951723.8434
        49.400          51.2004
 133851004.481 7                  25470998.081
        44.200
 135779970.434 6 105802585.91745  25838069.516    25838068.6184   25838072.9274
        38.100          30.3004
 109435969.436 8  85116937.458 7  20465063.471    20465063.968    20465070.258
        51.900          47.000
 119439411.377 7  92897361.711 7  22375019.700    22375019.990    22375025.501
        47.000          43.200
 103723814.192 8  80674122.993 7  19383268.384    19383268.604    19383274.142
        52.200          47.700
 116513647.790 7  90621756.671 7  21765726.189    21765726.567    21765733.537
        47.900          45.000
 111751992.595 7  86918270.269 6  20905507.110    20905507.229    20905514.439
        46.900          40.300
 25  1  1  7  6 15.0000000  0 29G10G24E03E08S31S35G13E21E13S48S33R02
                                G16G20E15G23G05G26G18E07G29G15E26G30
                                R24R18R17R03R01
 133598517.716 6 104102753.27245  25422952.174    25422951.5894   25422955.6474
        40.000          32.1004
 131639457.386 6 102576226.27444  25050155.962    25050155.6144   25050161.6364
        36.400          29.1004
 139721456.762 6                  26588094.356
        41.800
 125682944.465 7                  23916658.628
        47.100
 198975462.525 7                  37863767.400
        45.600
 200951201.684 7                  38239750.685
        44.000
 111380070.227 8  86789690.43945  21194912.117    21194911.4784   21194911.8464
        48.000          35.7004
 147325315.689 6                  28035061.730
        36.700
 123195226.629 8                  23443249.984
        48.500
 412807510.424 5                  78554741.972
        32.800
 202110568.306 7                  38460335.987
        44.800
 102345229.611 8  79601889.702 8  19179446.079    19179446.669    19179452.032
        52.600          48.700
 131260405.444 6 102280849.10842  24978021.705    24978020.6774   24978021.2464
        37.500          17.3004
 131938145.781 6 102808994.02043  25106972.529    25106971.2374   25106972.8354
        36.300          18.4004
 136450708.388 7                  25965671.810
        42.800
 114965502.278 7  89583515.48246  21877204.247    21877203.8414   21877204.5114
        46.500          36.0004
 118125581.330 7  92045957.50247  22478531.302    22478530.8374   22478530.8704
        44.800          43.0004
 134645925.390 6 104918931.19344  25622263.770    25622263.1404   25622267.2684
        36.500          26.5004
 110684392.216 8  86247583.75246  21062533.061    21062532.7224   21062532.8604
        48.300          39.6004
 132188007.848 7                  25154539.403
        45.200
 111796219.073 8  87113974.31447  21274098.076    21274097.4064   21274098.0304
        48.100          47.7004
 104839048.768 8  81692785.61248  19950198.035    19950197.6114   19950197.8404
        49.500          51.0004
 133821311.340 7                  25465347.506
        44.800
 135789479.181 6 105809995.22944  25839878.899    25839878.0144   25839882.2394
        38.100          29.8004
 109471681.844 8  85144713.749 7  20471742.114    20471742.564    20471748.912
        51.700          47.000
 119383549.136 7  92853913.414 7  22364554.099    22364554.314    22364561.015
        46.300          43.800
 103701213.820 8  80656544.938 7  19379045.175    19379045.076    19379050.868
        52.200          47.700
 116460103.787 8  90580111.359 7  21755723.551    21755724.491    21755730.835
        48.600          44.900
 111800962.047 7  86956357.633 6  20914668.305    20914668.488    20914674.965
        47.400          40.400
 25  1  1  7  6 30.0000000  0 29G10G24E03E08S31S35G13E21E13S48S33R02
                                G16G20E15G23G05G26G18E07G29G15E26G30
                                R24R18R17R03R01
 133558464.497 6 104071542.97845  25415330.607    25415330.0174   25415333.9454
        39.800          32.2004
 131590768.857 6 102538287.04044  25040891.879    25040891.5404   25040896.1754
        37.200          28.8004
 139755304.369 7                  26594535.256
        42.100
 125680531.428 7                  23916199.522
        47.200
 198975454.068 7                  37863765.119
        45.200
 200951203.275 7                  38239745.972
        43.600
 111400757.859 7  86805810.66345  21198849.073    21198848.4434   21198848.5594
        47.800          35.4004
 147362607.748 6                  28042157.646
        36.700
 123193713.208 8                  23442962.007
        48.600
 412807259.656 5                  78554714.118
        32.900
 202110536.289 7                  38460326.440
        44.400
 102341427.830 8  79598932.753 8  19178734.130    19178734.192    19178739.672
        52.700          48.700
 131269804.284 6 102288172.79142  24979810.209    24979809.1684   24979810.1864
        38.500          17.4004
 131980322.148 6 102841858.66543  25114998.139    25114996.8384   25114998.6564
        36.400          18.6004
 136477932.125 7                  25970852.503
        42.700
 114936609.237 7  89561001.44045  21871706.012    21871705.6014   21871706.2134
        47.000          35.7004
 118165064.745 7  92076723.75947  22486044.802    22486044.3374   22486044.2694
        44.800          42.6004
 134673828.953 6 104940674.23244  25627574.392    25627573.7494   25627577.1054
        36.000          25.3004
 110658556.989 8  86227452.41346  21057616.802    21057616.4724   21057616.5754
        48.400          39.4004
 132148511.953 7                  25147023.251
        44.700
 111831788.597 8  87141690.81647  21280866.827    21280866.1574   21280866.6854
        48.100          47.4004
 104831184.376 8  81686657.51748  19948701.448    19948701.0244   19948701.2864
        49.500          50.8004
 133791623.908 7                  25459698.420
        44.800
 135799098.704 6 105817490.89544  25841709.153    25841708.2734   25841712.6714
        37.600          28.6004
 109507518.673 8  85172586.778 7  20478444.045    20478444.118    20478450.636
        51.700          47.100
 119327702.850 7  92810477.345 7  22354092.550    22354093.292    22354098.902
        46.700          43.900
 103678741.440 8  80639066.406 7  19374845.627    19374845.717    19374851.358
        52.400          47.700
 116406650.494 8  90538536.557 7  21745738.409    21745738.977    21745745.112
        48.100          44.900
 111850011.176 7  86994506.930 6  20923844.324    20923844.203    20923850.989
        47.600          40.800
 25  1  1  7  6 45.0000000  0 29G10G24E03E08S31S35G13E21E13S48S33R02
                                G16G20E15G23G05G26G18E07G29G15E26G30
                                R24R18R17R03R01
 133518437.587 6 104040353.19245  25407713.081    25407712.5004   25407717.3464
        39.300          32.4004
 131542060.328 6 102500332.35444  25031623.266    25031622.9184   25031627.8524
        36.700          28.7004
 139789217.335 6                  26600988.498
        41.800
 125678228.364 7                  23915761.218
        47.000
 198975448.197 7                  37863763.728
        45.200
 200951208.591 7                  38239748.190
        43.800
 111421599.566 8  86822050.95345  21202815.005    21202814.3754   21202814.6024
        48.200          35.4004
 147399908.504 6                  28049256.369
        37.000
 123192249.076 8                  23442683.251
        48.500
 412807013.104 5                  78554686.698
        32.600
 202110506.670 7                  38460322.291
        44.700
 102337803.519 8  79596113.854 8  19178054.818    19178055.109    19178060.450
        53.000          48.800
 131279331.832 6 102295596.72342  24981623.427    24981622.3774   24981623.4784
        38.400          17.4004
 132022495.878 6 102874721.26343  25123023.511    25123022.2244   25123023.9574
        37.900          18.0004
 136505196.857 7                  25976040.778
        42.800
 114907776.068 7  89538534.05045  21866219.269    21866218.8544   21866219.4514
        46.900          35.8004
 118204576.468 7  92107512.09647  22493563.691    22493563.2354   22493563.1324
        44.800          42.4004
 134701793.796 5 104962465.02644  25632895.204    25632894.5614   25632898.1664
        35.900          25.1004
 110632788.452 8  86207373.03746  21052713.057    21052712.7224   21052712.9764
        48.500          39.3004
 132109075.994 7                  25139518.855
        44.300
 111867479.893 7  87169502.20247  21287658.801    21287658.1314   21287658.5394
        47.900          47.5004
 104823481.530 8  81680655.30248  19947235.914    19947235.4904   19947235.4844
        49.600          50.8004
 133761949.051 7                  25454051.470
        44.700
 135808835.744 6 105825078.10144  25843562.203    25843561.3274   25843565.6534
        37.300          28.8004
 109543486.945 8  85200562.068 7  20485170.010    20485170.091    20485176.962
        51.200          47.000
 119271880.148 7  92767059.711 7  22343635.203    22343635.603    22343641.548
        46.700          43.600
 103656404.583 8  80621693.297 7  19370671.253    19370671.440    19370676.816
        52.500          47.600
 116353295.185 7  90497038.027 7  21735771.499    21735771.440    21735778.455
        47.800          45.200
 111899146.250 7  87032723.107 6  20933035.562    20933035.445    20933042.642
        47.400          40.400
 25  1  1  7  7  0.0000000  0 29G10G24E03E08S31S35G13E21E13S48S33R02
                                G16G20E15G23G05G26G18E07G29G15E26G30
                                R24R18R17R03R01
 133478433.103 6 104009180.88545  25400101.099    25400100.5094   25400104.6414
        38.900          32.2004
 131493328.167 6 102462359.27444  25022349.863    25022349.5064   25022354.1714
        37.700          28.7004
 139823191.706 6                  26607453.618
        41.700
 125676031.354 7                  23915343.471
        47.000
 198975442.113 7                  37863761.855
        45.500
 200951213.508 7                  38239750.971
        44.200
 111442591.187 7  86838408.05345  21206809.662    21206809.0324   21206809.2194
        47.500          35.4004
 147437213.826 6                  28056355.243
        37.300
 123190830.425 8                  23442413.493
        48.400
 412806766.317 5                  78554656.850
        32.600
 202110477.016 7                  38460318.758
        45.000
 102334352.962 8  79593430.093 8  19177408.298    19177408.419    19177413.782
        53.000          48.800
 131288983.712 6 102303117.53742  24983460.417    24983459.3854   24983460.4434
        37.300          16.7004
 132064663.059 6 102907578.76143  25131047.573    25131046.2814   25131048.4234
        37.000          18.6004
 136532498.726 7                  25981236.349
        42.700
 114878998.852 7  89516110.26145  21860743.117    21860742.7064   21860743.2884
        46.700          35.8004
 118244112.326 7  92138319.23147  22501087.004    22501086.5484   22501086.5884
        44.900          42.4004
 134729815.684 6 104984300.28244  25638227.668    25638227.0254   25638230.4334
        36.600          26.4004
 110607082.928 8  86187342.75846  21047821.493    21047821.1584   21047821.4144
        48.300          39.4004
 132069696.235 7                  25132025.030
        45.000
 111903288.600 7  87197405.04847  21294473.088    21294472.4184   21294472.7024
        47.800          47.4004
 104815936.365 8  81674775.96148  19945799.990    19945799.5614   19945799.6774
        49.400          50.8004
 133732282.945 7                  25448406.128
        44.500
 135818686.395 6 105832753.88744  25845436.298    25845435.4314   25845440.2874
        36.300          27.9004
 109579582.500 8  85228636.337 7  20491920.130    20491920.283    20491926.935
        51.600          47.000
 119216077.389 7  92723657.600 7  22333181.045    22333181.526    22333187.919
        46.600          44.000
 103634199.457 8  80604422.650 7  19366521.750    19366521.770    19366527.522
        52.100          47.600
 116300034.173 8  90455612.787 7  21725822.197    21725822.160    21725827.986
        48.200          44.800
 111948363.208 7  87071002.912 6  20942242.732    20942242.896    20942249.932
        47.300          40.900
 25  1  1  7  7 15.0000000  0 29G10G24E03E08S31S35G13E21E13S48S33R02
                                G16G20E15G23G05G26G18E07G29G15E26G30
                                R24R18R17R03R01
 133438452.081 6 103978026.84345  25392492.649    25392492.0464   25392495.7284
        39.200          31.3004
 131444573.623 6 102424368.77544  25013072.097    25013071.7264   25013076.5344
        36.100          29.1004
 139857228.144 6                  26613930.752
        41.500
 125673941.446 7                  23914945.404
        47.000
 198975436.920 7                  37863754.664
        45.100
 200951219.241 7                  38239751.978
        44.300
 111463733.692 8  86854882.72545  21210833.186    21210832.5654   21210832.4594
        48.000          35.3004
 147474524.468 6                  28063455.242
        37.200
 123189458.395 8                  23442152.408
        48.400
 412806520.286 5                  78554624.485
        33.100
 202110448.479 7                  38460313.151
        45.000
 102331076.566 8  79590881.796 8  19176794.211    19176794.425    19176799.878
        53.200          48.600
 131298760.875 6 102310736.00942  24985321.290    24985320.2224   24985321.2374
        38.200          17.0004
 132106824.641 5 102940431.88243  25139071.410    25139070.1274   25139071.5374
        35.500          18.2004
 136559838.775 7                  25986438.831
        42.400
 114850278.658 7  89493730.90445  21855277.986    21855277.5754   21855278.0624
        46.800          35.7004
 118283673.231 7  92169145.89447  22508615.269    22508614.8094   22508614.9274
        44.700          42.3004
 134757895.366 6 105006180.53944  25643571.141    25643570.5024   25643574.1924
        37.500          27.0004
 110581441.679 8  86167362.56946  21042942.184    21042941.8544   21042942.0654
        48.700          39.4004
 132030373.796 7                  25124542.153
        44.200
 111939215.559 8  87225400.02747  21301309.705    21301309.0354   21301309.4104
        48.200          47.4004
 104808549.971 8  81669020.33648  19944394.294    19944393.8704   19944394.0764
        49.600          50.7004
 133702626.727 7                  25442762.790
        44.900
 135828651.648 6 105840518.95344  25847333.241    25847332.3874   25847337.0154
        37.700          29.1004
 109615806.147 8  85256810.251 7  20498694.217    20498694.518    20498701.085
        51.800          47.000
 119160295.929 7  92680272.066 7  22322731.961    22322732.440    22322737.647
        46.400          43.800
 103612127.568 8  80587255.614 7  19362397.014    19362397.217    19362403.027
        52.500          47.700
 116246868.895 7  90414262.043 7  21715889.624    21715890.190    21715896.437
        47.300          44.800
 111997662.470 7  87109346.791 6  20951464.960    20951464.884    20951472.166
        46.900          41.000
 25  1  1  7  7 30.0000000  0 29G10G24E03E08S31S35G13E21E13S48S33R02
                                G16G20E15G23G05G26G18E07G29G15E26G30
                                R24R18R17R03R01
 133398492.641 6 103946889.61645  25384889.126    25384888.5364   25384891.7834
        38.900          31.7004
 131395795.011 5 102386359.46944  25003789.624    25003789.2314   25003794.8724
        35.800          29.0004
 139891324.572 6                  26620419.150
        41.800
 125671956.643 7                  23914567.752
        47.100
 198975430.119 7                  37863759.919
        45.400
 200951223.108 7                  38239752.733
        44.100
 111485025.065 8  86871473.40345  21214884.677    21214884.0564   21214884.0624
        48.300          35.4004
 147511838.286 6                  28070555.364
        37.300
 123188131.154 8                  23441899.735
        48.600
 412806272.319 5                  78554590.706
        32.600
 202110418.132 7                  38460308.920
        45.000
 102327972.745 8  79588467.730 8  19176212.425    19176212.778    19176218.187
        52.800          48.800
 131308661.215 6 102318450.45042  24987204.377    24987203.2914   24987205.3024
        37.100          16.5004
 132148978.612 6 102973279.06243  25147092.206    25147090.9104   25147093.3784
        38.100          18.1004
 136587215.133 7                  25991648.446
        42.700
 114821613.521 7  89471394.44745  21849823.056    21849822.6504   21849823.3534
        46.600          35.8004
 118323257.127 7  92199990.49147  22516148.012    22516147.5614   22516147.4294
        44.500          42.2004
 134786030.573 6 105028104.08144  25648925.137    25648924.5034   25648928.3874
        36.900          27.8004
 110555862.982 8  86147431.11346  21038074.483    21038074.1484   21038074.5964
        48.300          39.4004
 131991107.024 7                  25117069.979
        44.400
 111975258.992 7  87253485.79547  21308168.524    21308167.8544   21308168.3024
        47.700          47.4004
 104801320.427 8  81663386.93048  19943018.425    19943018.0014   19943018.3414
        49.400          50.8004
 133672978.560 7                  25437120.660
        44.900
 135838729.733 6 105848372.04944  25849251.055    25849250.2104   25849254.8144
        37.800          29.8004
 109652155.945 8  85285082.286 7  20505491.798    20505491.975    20505498.721
        51.600          46.900
 119104534.106 7  92636901.773 7  22312285.498    22312285.929    22312292.241
        47.300          44.100
 103590187.257 8  80570190.935 7  19358297.062    19358297.195    19358302.875
        52.800          47.500
 116193797.614 7  90372984.413 7  21705975.479    21705975.830    21705982.438
        47.500          44.900
 112047041.684 7  87147752.847 6  20960702.788    20960702.407    20960709.241
        47.400          41.100
 25  1  1  7  7 45.0000000  0 29G10G24E03E08S31S35G13E21E13S48S33R02
                                G16G20E15G23G05G26G18E07G29G15E26G30
                                R24R18R17R03R01
 133358556.856 6 103915770.83245  25377289.643    25377289.0404   25377292.2164
        38.300          31.4004
 131346994.729 6 102348333.21944  24994503.177    24994502.7804   24994508.0854
        37.800          29.2004
 139925482.963 6                  26626919.266
        40.900
 125670078.991 7                  23914210.531
        46.800
 198975424.104 7                  37863760.339
        46.000
 200951227.904 7                  38239755.439
        44.100
 111506466.685 8  86888181.15145  21218964.555    21218963.9124   21218964.1944
        48.200          35.4004
 147549157.028 6                  28077657.367
        37.200
 123186850.878 8                  23441656.077
        48.300
 412806025.482 5                  78554567.914
        33.000
 202110388.423 7                  38460301.202
        45.100
 102325043.386 8  79586189.323 8  19175663.582    19175663.847    19175669.223
        52.800          48.600
 131318686.514 6 102326262.28042  24989112.696    24989111.6144   24989113.0934
        37.400          17.1004
 132191127.097 6 103006121.96143  25155112.666    25155111.3704   25155113.7964
        37.100          18.8004
 136614629.810 7                  25996865.329
        42.400
 114793005.490 7  89449102.49045  21844379.213    21844378.8244   21844379.3724
        46.600          35.8004
 118362865.490 7  92230854.13747  22523685.043    22523684.5874   22523684.4834
        44.200          42.0004
 134814222.997 5 105050072.20344  25654289.666    25654289.0274   25654293.2524
        35.200          26.3004
 110530349.100 8  86127550.16046  21033219.573    21033219.2344   21033219.4924
        49.000          39.6004
 131951898.092 7                  25109608.815
        44.300
 112011420.358 8  87281663.46547  21315049.743    21315049.0824   21315049.5884
        48.000          47.4004
 104794249.791 8  81657877.34848  19941672.963    19941672.5394   19941672.8304
        49.800          50.8004
 133643340.571 7                  25431480.889
        44.300
 135848922.442 6 105856314.43744  25851190.328    25851189.4794   25851194.5774
        37.100          29.7004
 109688633.612 8  85313453.749 7  20512313.386    20512313.667    20512320.194
        51.800          47.000
 119048794.478 7  92593548.764 7  22301843.500    22301843.921    22301850.381
        46.300          44.100
 103568381.058 8  80553230.549 7  19354222.063    19354222.080    19354227.792
        52.600          47.300
 116140822.735 8  90331781.725 7  21696079.669    21696079.530    21696086.147
        48.000          44.800
 112096502.368 7  87186222.254 6  20969955.059    20969955.084    20969962.285
        47.100          40.900
 25  1  1  7  8  0.0000000  0 29G10G24E03E08S31S35G13E21E13S48S33R02
                                G16G20E15G23G05G26G18E07G29G15E26G30
                                R24R18R17R03R01
 133318643.051 6 103884669.17345  25369694.143    25369693.5134   25369697.2144
        39.800          31.7004
 131298171.408 6 102310288.95644  24985211.676    24985211.2794   24985217.5074
        38.100          29.6004
 139959701.303 6                  26633430.476
        41.800
 125668306.760 7                  23913873.379
        47.200
 198975416.867 7                  37863762.418
        45.800
 200951232.208 7                  38239753.323
        44.300
 111528056.828 7  86905004.63345  21223073.177    21223072.5434   21223072.6854
        47.700          35.3004
 147586478.777 6                  28084759.397
        37.400
 123185615.909 8                  23441421.259
        48.500
 412805777.109 5                  78554542.994
        32.700
 202110357.635 7                  38460296.668
        45.100
 102322286.222 8  79584044.885 8  19175146.690    19175147.119    19175152.438
        52.700          48.700
 131328835.012 6 102334170.09742  24991044.523    24991043.4644   24991044.3374
        38.200          17.2004
 132233268.393 6 103038959.26042  25163132.585    25163131.2804   25163133.1644
        36.700          17.8004
 136642081.163 7                  26002089.285
        42.500
 114764452.888 7  89426853.72045  21838945.834    21838945.4454   21838945.9394
        47.000          35.7004
 118402497.321 7  92261736.07546  22531226.288    22531225.8594   22531226.1334
        44.700          41.9004
 134842470.613 5 105072083.33544  25659665.302    25659664.6594   25659668.9834
        35.900          26.0004
 110504898.545 8  86107718.56446  21028376.248    21028375.9044   21028376.4654
        48.700          39.5004
 131912745.527 7                  25102158.245
        44.700
 112047697.672 8  87309931.47747  21321953.203    21321952.5424   21321952.9874
        48.300          47.3004
 104787336.351 8  81652490.25348  19940357.442    19940357.0184   19940357.2434
        49.600          50.7004
 133613711.170 7                  25425842.919
        45.100
 135859228.037 5 105864344.81344  25853152.017    25853151.1594   25853155.2674
        35.900          27.2004
 109725237.617 8  85341923.502 7  20519158.730    20519158.689    20519165.305
        51.200          47.300
 118993075.502 7  92550211.760 7  22291405.800    22291406.389    22291411.812
        47.700          44.300
 103546707.426 8  80536373.271 7  19350171.780    19350171.948    19350177.539
        52.500          47.600
 116087942.699 8  90290652.832 7  21686201.033    21686201.425    21686207.899
        48.400          45.200
 112146042.328 7  87224753.342 6  20979222.380    20979222.275    20979229.870
        46.300          40.800
 25  1  1  7  8 15.0000000  0 29G10G24E03E08S31S35G13E21E13S48S33R02
                                G16G20E15G23G05G26G18E07G29G15E26G30
                                R24R18R17R03R01
 133278755.367 6 103853587.85645  25362103.758    25362103.1324   25362107.0064
        38.300          31.5004
 131249329.795 6 102272230.48644  24975917.339    24975916.9594   24975923.5664
        36.800          29.1004
 139993983.447 6                  26639954.398
        41.800
 125666644.024 7                  23913556.699
        46.900
 198975413.542 7                  37863760.187
        45.600
 200951239.003 7                  38239758.909
        44.300
 111549799.666 7  86921947.09245  21227210.908    21227210.2744   21227210.2284
        47.800          35.3004
 147623807.352 6                  28091862.879
        37.900
 123184430.536 8                  23441195.503
        48.300
 412805533.184 5                  78554509.439
        32.700
 202110330.724 7                  38460295.497
        45.000
 102319705.670 8  79582037.783 8  19174663.200    19174663.496    19174668.913
        52.700          48.600
 131339110.647 6 102342176.99942  24992999.526    24992998.4894   24992999.9434
        38.100          17.8004
 132275406.432 6 103071794.02443  25171150.947    25171149.6514   25171152.1524
        37.200          18.3004
 136669573.316 7                  26007320.784
        42.400
 114735959.796 7  89404651.32545  21833523.548    21833523.1644   21833523.7484
        46.400          35.6004
 118442156.244 7  92292639.11446  22538773.490    22538773.0574   22538773.1194
        44.600          41.7004
 134870777.234 5 105094140.44344  25665051.357    25665050.7144   25665055.3304
        35.900          25.9004
 110479515.646 8  86087939.68246  21023546.174    21023545.8304   21023546.2554
        48.400          39.4004
 131873653.643 7                  25094719.383
        44.400
 112084094.856 7  87338292.90447  21328879.319    21328878.6584   21328879.1954
        47.900          47.2004
 104780584.125 8  81647228.77948  19939072.556    19939072.1274   19939072.3314
        49.600          50.6004
 133584094.567 7                  25420206.870
        44.700
 135869650.569 6 105872466.26844  25855135.849    25855135.0004   25855138.3334
        38.000          29.4004
 109761971.843 8  85370494.516 7  20526028.347    20526028.366    20526034.826
        51.500          47.100
 118937381.716 7  92506894.321 7  22280972.259    22280972.837    22280978.738
        47.500          44.300
 103525171.115 8  80519622.810 7  19346147.249    19346147.349    19346152.887
        52.400          47.400
 116035161.963 8  90249601.151 7  21676341.065    21676341.381    21676347.658
        48.300          44.800
 112195665.394 7  87263349.046 6  20988505.605    20988505.592    20988512.771
        46.300          40.600
 25  1  1  7  8 30.0000000  0 29G10G24E03E08S31S35G13E21E13S48S33R02
                                G16G20E15G23G05G26G18E07G29G15E26G30
                                R24R18R17R03R01
 133238888.254 6 103822522.58145  25354517.064    25354516.4344   25354520.4964
        40.200          32.3004
 131200464.528 6 102234153.56644  24966619.506    24966619.1494   24966624.7734
        36.000          28.6004
 140028323.776 6                  26646489.132
        41.500
 125665085.239 7                  23913260.340
        46.900
 198975406.696 7                  37863758.000
        45.600
 200951243.892 7                  38239757.388
        44.000
 111571689.389 7  86939004.01945  21231376.442    21231375.8034   21231375.7594
        47.900          35.4004
 147661136.958 6                  28098966.172
        38.100
 123183289.259 8                  23440978.416
        48.200
 412805286.358 5                  78554479.658
        32.900
 202110300.118 7                  38460285.637
        45.000
 102317295.766 8  79580163.412 8  19174211.496    19174211.902    19174217.265
        52.700          48.600
 131349507.613 6 102350278.43242  24994978.177    24994977.1404   24994978.3554
        37.100          16.2004
 132317535.721 6 103104621.97543  25179167.776    25179166.4714   25179169.4444
        36.600          18.2004
 136697100.740 7                  26012559.046
        42.000
 114707520.655 7  89382490.96645  21828111.927    21828111.5474   21828112.0024
        46.600          35.8004
 118481836.382 7  92323558.67646  22546323.988    22546323.5234   22546324.0894
        44.700          41.7004
 134899136.925 6 105116238.91644  25670448.604    25670447.9654   25670451.5814
        36.900          26.5004
 110454195.043 8  86068209.33446  21018728.149    21018727.8144   21018727.8854
        48.300          39.6004
 131834617.048 7                  25087290.566
        44.400
 112120605.866 7  87366742.98647  21335827.283    21335826.6264   21335827.0274
        47.800          47.2004
 104773987.701 8  81642088.71148  19937817.324    19937816.9004   19937817.0714
        49.400          50.8004
 133554485.265 7                  25414572.041
        44.900
 135880184.354 6 105880674.34444  25857139.549    25857138.7044   25857142.9044
        36.800          29.3004
 109798830.478 8  85399162.296 7  20532920.979    20532921.051    20532927.757
        51.500          47.100
 118881708.052 7  92463592.539 7  22270542.732    22270543.127    22270548.956
        47.400          44.100
 103503766.763 8  80502974.983 7  19342147.181    19342147.335    19342153.003
        52.300          47.300
 115982475.290 8  90208622.656 7  21666498.224    21666498.906    21666505.738
        48.000          44.900
 112245365.177 7  87302004.435 6  20997802.972    20997803.003    20997810.008
        46.800          40.900
 25  1  1  7  8 45.0000000  0 29G10G24E03E08S31S35G13E21E13S48S33R02
                                G16G20E15G23G05G26G18E07G29G15E26G30
                                R24R18R17R03R01
 133199044.741 6 103791475.70145  25346935.146    25346934.5164   25346938.3594
        39.000          32.4004
 131151579.131 5 102196061.04844  24957316.611    24957316.2184   24957322.2514
        35.900          29.0004
 140062724.867 6                  26653035.603
        41.600
 125663633.346 7                  23912983.984
        47.000
 198975401.077 7                  37863757.866
        45.300
 200951249.174 7                  38239758.014
        44.000
 111593728.619 7  86956177.43645  21235570.221    21235569.5824   21235569.7034
        47.800          35.5004
 147698470.382 6                  28106070.152
        37.800
 123182195.189 8                  23440770.141
        48.600
 412805039.438 5                  78554464.933
        32.600
 202110270.716 7                  38460279.139
        44.800
 102315059.437 8  79578424.045 8  19173792.270    19173792.915    19173798.100
        52.700          48.600
 131360028.777 6 102358476.68642  24996980.509    24996979.4944   24996980.6004
        37.100          16.4004
 132359659.189 6 103137445.41842  25187183.625    25187182.3474   25187185.1054
        36.100          17.5004
 136724666.436 7                  26017804.830
        42.600
 114679138.482 7  89360375.00245  21822710.790    21822710.4154   21822711.1234
        46.500          35.9004
 118521540.816 7  92354497.17146  22553880.076    22553879.6204   22553879.4994
        44.500          41.7004
 134927552.359 5 105138380.82544  25675855.962    25675855.3054   25675858.9804
        35.400          25.4004
 110428939.976 8  86048530.05746  21013922.182    21013921.8524   21013922.0224
        48.400          39.7004
 131795638.969 7                  25079873.514
        45.000
 112157233.703 8  87395284.14147  21342797.220    21342796.5684   21342797.1154
        48.000          47.4004
 104767550.041 8  81637072.35748  19936592.300    19936591.8714   19936592.0214
        49.100          50.8004
 133524886.360 7                  25408939.839
        45.100
 135890832.543 6 105888971.60044  25859165.506    25859164.6664   25859169.2114
        36.800          27.6004
 109835816.392 8  85427929.060 7  20539837.630    20539837.667    20539844.404
        51.600          47.000
 118826057.835 7  92420309.074 7  22260117.504    22260117.963    22260124.047
        46.800          44.200
 103482497.698 8  80486432.360 7  19338172.911    19338172.591    19338178.446
        52.200          47.500
 115929885.793 7  90167719.720 7  21656673.926    21656674.492    21656681.342
        47.800          44.700
 112295144.452 7  87340721.620 6  21007114.885    21007114.956    21007122.497
        46.500          41.000
 25  1  1  7  9  0.0000000  0 29G10G24E03E08S31S35G13E21E13S48S33R02
                                G16G20E15G23G05G26G18E07G29G15E26G30
                                R24R18R17R03R01
 133159221.373 6 103760444.50445  25339357.555    25339356.9294   25339360.1354
        40.000          32.6004
 131102670.203 6 102157950.16145  24948009.963    24948009.6014   24948015.6024
        36.800          30.1004
 140097183.250 6                  26659592.275
        41.600
 125662284.830 7                  23912727.354
        46.800
 198975392.530 7                  37863756.547
        45.700
 200951251.476 7                  38239760.214
        44.200
 111615913.705 8  86973464.51145  21239791.953    21239791.3234   21239791.4294
        48.000          35.7004
 147735803.826 6                  28113175.250
        38.100
 123181144.933 8                  23440570.424
        48.400
 412804790.292 5                  78554429.607
        33.400
 202110238.297 7                  38460272.875
        45.000
 102312993.216 8  79576816.990 8  19173405.414    19173405.646    19173410.947
        52.700          48.600
 131370670.515 6 102366768.83342  24999005.653    24999004.6564   24999005.4854
        36.500          16.2004
 132401773.283 6 103170261.51442  25195198.725    25195197.4334   25195199.0264
        36.100          17.9004
 136752266.957 7                  26023056.752
        42.200
 114650809.760 7  89338300.68546  21817320.171    21817319.8054   21817320.3364
        46.500          36.1004
 118561265.641 7  92385451.56846  22561439.259    22561438.7864   22561438.8704
        44.400          41.8004
 134956019.711 5 105160563.18044  25681273.148    25681272.4734   25681276.1014
        35.800          25.4004
 110403747.151 8  86028899.27646  21009127.952    21009127.6174   21009127.9824
        48.700          39.9004
 131756716.034 7                  25072466.612
        44.100
 112193974.482 7  87423913.30747  21349788.465    21349787.8084   21349788.7034
        47.800          47.6004
 104761267.553 8  81632176.91048  19935396.809    19935396.3854   19935396.5064
        49.400          51.0004
 133495294.483 7                  25403308.469
        44.900
 135901591.464 5 105897355.07944  25861213.463    25861212.6144   25861216.5524
        35.700          27.6004
 109872926.068 8  85456792.109 7  20546777.367    20546777.348    20546784.063
        51.500          47.000
 118770427.834 7  92377041.311 7  22249696.018    22249696.646    22249702.332
        47.200          44.000
 103461360.898 8  80469992.619 7  19334222.899    19334222.945    19334228.456
        52.400          47.500
 115877390.371 8  90126889.975 7  21646867.590    21646868.371    21646874.926
        48.000          45.300
 112344999.331 7  87379497.645 6  21016441.734    21016441.593    21016448.933
        47.100          41.000
 25  1  1  7  9 15.0000000  0 29G10G24E03E08S31S35G13E21E13S48S33R02
                                G16G20E15G23G05G26G18E07G29G15E26G30
                                R24R18R17R03R01
 133119424.150 6 103729433.69245  25331783.437    25331782.8204   25331787.0664
        39.600          32.9004
 131053744.010 6 102119825.71244  24938699.938    24938699.5764   24938705.1514
        37.300          29.6004
 140131704.653 7                  26666161.808
        42.100
 125661045.635 7                  23912491.539
        47.200
 198975386.438 7                  37863753.824
        45.500
 200951256.647 7                  38239756.937
        44.100
 111638250.329 7  86990869.66845  21244042.331    21244041.7014   21244041.9394
        47.600          35.4004
 147773143.031 6                  28120279.996
        37.800
 123180144.566 8                  23440379.932
        48.600
 412806144.851 5                  78554399.777
        33.200
 202110208.969 7                  38460267.164
        45.100
 102311102.745 8  79575346.627 8  19173050.936    19173051.422    19173056.652
        52.800          48.600
 131381438.440 6 102375159.38242  25001054.296    25001053.2994   25001054.6464
        37.500          17.0004
 132443884.044 6 103203075.06243  25203211.791    25203210.5044   25203212.1654
        37.700          18.6004
 136779908.285 7                  26028316.497
        42.300
 114622540.445 7  89316272.65845  21811940.584    21811940.2184   21811940.8264
        46.200          35.8004
 118601016.770 7  92416426.46546  22569003.562    22569003.0844   22569003.3854
        44.400          41.6004
 134984544.626 5 105182790.41244  25686700.643    25686699.9684   25686704.2614
        35.600          25.2004
 110378622.772 8  86009321.83046  21004346.911    21004346.5814   21004346.9724
        48.800          39.7004
 131717854.471 7                  25065071.890
        44.700
 112230833.852 7  87452634.88147  21356802.965    21356802.3264   21356802.8324
        47.700          47.3004
 104755146.287 8  81627407.09648  19934231.915    19934231.4954   19934231.6754
        49.400          50.8004
 133465715.699 7                  25397680.029
        44.800
 135912467.342 5 105905829.75544  25863283.135    25863282.2954   25863286.4664
        34.800          26.9004
 109910165.365 8  85485755.965 7  20553741.016    20553741.238    20553748.074
        51.300          47.000
 118714824.502 7  92333794.283 7  22239280.341    22239280.238    22239285.955
        47.700          44.300
 103440362.633 8  80453660.631 7  19330298.756    19330298.850    19330304.424
        52.400          47.500
 115824995.559 7  90086138.474 7  21637079.638    21637079.967    21637087.233
        47.400          44.800
 112394935.357 7  87418336.767 6  21025783.488    21025783.448    21025790.341
        47.100          40.800
 25  1  1  7  9 30.0000000  0 29G10G24E03E08S31S35G13E21E13S48S33R02
                                G16G20E15G23G05G26G18E07G29G15E26G30
                                R24R18R17R03R01
 133079650.020 6 103698440.87845  25324214.544    25324213.9274   25324218.8094
        39.600          33.0004
 131004798.029 6 102081685.83444  24929385.458    24929385.0744   24929390.9814
        36.800          29.5004
 140166285.649 6                  26672742.249
        41.800
 125659912.701 7                  23912276.040
        47.200
 198975381.493 7                  37863754.530
        45.800
 200951261.702 7                  38239762.253
        44.000
 111660734.840 7  87008390.05545  21248321.141    21248320.5114   21248320.6254
        47.900          35.4004
 147810484.668 6                  28127386.288
        38.100
 123179191.154 8                  23440198.453
        48.400
 412805899.093 5                  78554370.680
        33.000
 202110179.430 7                  38460263.046
        45.200
 102309384.948 8  79574010.571 8  19172729.354    19172729.416    19172734.753
        52.900          48.600
 131392329.361 6 102383645.73042  25003126.862    25003125.8744   25003126.7204
        38.300          16.0004
 132485988.311 6 103235883.55943  25211223.905    25211222.6134   25211224.0744
        37.400          18.6004
 136807587.404 7                  26033584.212
        42.100
 114594327.547 7  89294288.59445  21806571.820    21806571.4544   21806572.0264
        46.500          35.8004
 118640791.137 7  92447419.44946  22576572.440    22576571.9714   22576572.2684
        43.500          41.4004
 135013123.768 5 105205059.84544  25692139.699    25692139.0334   25692142.1484
        35.800          25.6004
 110353563.993 8  85989795.48446  20999578.345    20999578.0014   20999578.4654
        48.800          39.8004
 131679051.415 7                  25057687.794
        44.900
 112267808.338 8  87481446.13047  21363839.025    21363838.3914   21363838.8234
        48.100          47.3004
 104749183.457 8  81622760.73548  19933097.217    19933096.7934   19933096.9524
        49.300          50.7004
 133436147.027 7                  25392053.496
        44.700
 135923457.059 6 105914393.19844  25865374.362    25865373.5224   25865378.0544
        37.000          28.2004
 109947530.970 8  85514818.056 7  20560728.723    20560728.900    20560735.387
        51.300          46.900
 118659245.156 7  92290565.892 7  22228868.466    22228868.396    22228874.180
        47.500          44.400
 103419500.364 8  80437434.421 7  19326399.955    19326400.231    19326405.643
        52.700          47.400
 115772698.412 7  90045462.917 7  21627310.145    21627310.532    21627317.444
        47.600          45.000
 112444948.868 7  87457236.150 6  21035139.559    21035139.299    21035146.460
        46.900          40.600
 25  1  1  7  9 45.0000000  0 29G10G24E03E08S31S35G13E21E13S48S33R02
                                G16G20E15G23G05G26G18E07G29G15E26G30
                                R24R18R17R03R01
 133039899.032 6 103667466.08945  25316650.768    25316650.1694   25316654.5724
        40.300          32.6004
 130955832.787 6 102043530.97144  24920067.687    24920067.2944   24920073.2064
        37.000          29.5004
 140200926.152 7                  26679334.417
        42.300
 125658886.039 7                  23912080.620
        47.000
 198975376.039 7                  37863749.062
        45.500
 200951267.251 7                  38239761.936
        44.200
 111683367.673 8  87026026.02045  21252627.959    21252627.3384   21252627.4634
        48.000          35.5004
 147847828.601 6                  28134493.161
        38.100
 123178284.823 8                  23440026.032
        48.500
 412805653.384 5                  78554344.042
        32.800
 202110149.477 7                  38460256.862
        45.100
 102307839.635 8  79572808.659 8  19172439.256    19172439.843    19172445.157
        52.800          48.700
 131403343.239 6 102392227.93442  25005222.546    25005221.5634   25005222.8024
        38.300          16.0004
 132528086.076 6 103268686.94543  25219234.333    25219233.0504   25219235.1154
        36.700          18.5004
 136835304.366 7                  26038858.382
        42.100
 114566171.055 7  89272348.48945  21801214.022    21801213.6604   21801214.0434
        46.800          35.9004
 118680588.802 7  92478430.60346  22584146.083    22584145.6274   22584145.4034
        44.500          41.4004
 135041756.794 5 105227371.29644  25697587.783    25697587.1174   25697591.1514
        35.500          25.1004
 110328571.121 8  85970320.51946  20994822.643    20994822.2994   20994822.4924
        48.800          39.9004
 131640307.118 7                  25050314.858
        44.100
 112304897.916 7  87510347.06947  21370897.107    21370896.4904   21370896.7784
        47.800          47.3004
 104743379.052 8  81618237.82848  19931992.725    19931992.3054   19931992.4074
        49.500          50.8004
 133406588.626 7                  25386428.400
        44.900
 135934560.393 5 105923045.13644  25867486.450    25867485.6054   25867490.8114
        35.500          27.3004
 109985023.091 8  85543978.560 7  20567740.216    20567740.145    20567747.034
        51.600          47.000
 118603690.006 7  92247356.329 7  22218461.011    22218461.455    22218467.422
        47.600          44.400
 103398774.386 8  80421314.204 7  19322526.612    19322527.027    19322532.627
        52.600          47.600
 115720499.464 8  90004863.738 7  21617559.352    21617559.828    21617566.288
        48.000          44.900
 112495039.566 7  87496195.560 6  21044509.872    21044509.718    21044517.152
        46.600          41.100
 25  1  1  7 10  0.0000000  0 29G10G24E03E08S31S35G13E21E13S48S33R02
                                G16G20E15G23G05G26G18E07G29G15E26G30
                                R24R18R17R03R01
 133000172.703 6 103636510.50445  25309090.696    25309090.0844   25309094.5394
        40.600          32.6004
 130906850.049 6 102005362.55844  24910746.521    24910746.1014   24910752.3954
        37.400          29.8004
 140235627.405 6                  26685937.690
        41.800
 125657966.997 7                  23911905.658
        47.000
 198975371.510 7                  37863747.143
        45.800
 200951274.114 7                  38239766.381
        44.500
 111706149.941 8  87043778.43345  21256963.193    21256962.5634   21256962.8274
        48.200          35.5004
 147885175.903 6                  28141599.635
        37.600
 123177427.105 8                  23439862.819
        48.600
 412805409.747 5                  78554315.272
        33.100
 202110121.733 7                  38460252.797
        45.400
 102306468.122 8  79571741.938 8  19172182.631    19172182.836    19172188.128
        53.000          48.600
 131414481.266 6 102400906.85542  25007342.419    25007341.4184   25007342.8214
        36.800          16.9004
 132570178.676 6 103301486.29843  25227244.632    25227243.3764   25227245.2364
        37.400          18.8004
 136863060.619 7                  26044140.801
        42.200
 114538072.390 7  89250453.44346  21795866.520    21795866.1494   21795867.0344
        47.300          36.1004
 118720410.716 7  92509460.64946  22591723.909    22591723.4444   22591723.2164
        44.500          41.4004
 135070444.780 5 105249725.56443  25703046.782    25703046.1124   25703050.4034
        35.100          23.9004
 110303645.745 8  85950898.14446  20990079.320    20990078.9764   20990079.3664
        49.000          40.0004
 131601623.213 7                  25042953.842
        44.600
 112342103.426 8  87539338.36347  21377976.817    21377976.2054   21377976.8194
        48.200          47.6004
 104737734.291 8  81613839.31748  19930918.504    19930918.0844   19930918.2214
        49.300          50.8004
 133377042.016 7                  25380805.996
        44.800
 135945778.824 5 105931786.79644  25869621.805    25869620.9694   25869625.4744
        35.300          27.1004
 110022642.853 8  85573238.342 7  20574775.439    20574775.483    20574781.795
        51.500          46.900
 118548161.138 7  92204167.227 7  22208058.197    22208058.305    22208064.237
        47.100          44.400
 103378186.504 8  80405301.420 7  19318679.232    19318679.849    19318685.360
        52.300          47.500
 115668400.313 8  89964342.195 7  21607826.744    21607827.261    21607834.111
        48.400          45.200
 112545208.346 7  87535215.725 6  21053894.831    21053894.983    21053901.979
        46.600          40.800
 25  1  1  7 10 15.0000000  0 29G10G24E03E08S31S35G13E21E13S48S33R02
                                G16G20E15G23G05G26G18E07G29G15E26G30
                                R24R18R17R03R01
 132960467.928 6 103605571.72245  25301534.724    25301534.1124   25301538.6504
        40.500          32.9004
 130857847.128 6 101967178.48044  24901422.290    24901421.8574   24901427.2334
        36.800          29.5004
 140270386.122 6                  26692551.828
        41.700
 125657152.508 7                  23911750.784
        47.200
 198975365.825 7                  37863748.292
        45.600
 200951279.313 7                  38239763.859
        44.300
 111729078.127 7  87061644.55245  21261326.482    21261325.8564   21261325.8294
        47.700          35.2004
 147922523.266 6                  28148706.582
        37.800
 123176615.011 8                  23439708.350
        48.800
 412805165.087 5                  78554284.221
        32.600
 202110091.784 7                  38460245.625
        45.100
 102305267.165 8  79570807.863 8  19171957.314    19171957.757    19171963.108
        52.900          48.600
 131425740.190 6 102409680.07442  25009484.634    25009483.6514   25009485.4524
        37.100          15.8004
 132612263.123 6 103334279.32143  25235253.081    25235251.8344   25235253.6704
        37.900          18.4004
 136890853.087 6                  26049428.800
        41.800
 114510028.452 7  89228601.03245  21790529.941    21790529.5614   21790530.4294
        46.800          35.8004
 118760253.248 7  92540506.75046  22599305.142    22599304.6734   22599305.0674
        44.800          41.1004
 135099184.406 6 105272120.08344  25708516.073    25708515.4074   25708518.9514
        36.600          24.7004
 110278785.006 8  85931526.14146  20985348.537    20985348.1934   20985348.5154
        48.800          39.8004
 131562996.751 7                  25035603.280
        44.500
 112379421.731 8  87568417.50247  21385078.037    21385077.4204   21385078.2884
        48.200          47.0004
 104732246.200 8  81609562.88748  19929874.109    19929873.6894   19929873.8554
        49.500          50.6004
 133347504.177 7                  25375185.203
        45.000
 135957109.145 6 105940615.63744  25871777.872    25871777.0414   25871781.6234
        36.800          27.5004
 110060386.921 8  85602594.788 7  20581833.528    20581833.461    20581840.220
        51.100          47.000
 118492655.609 7  92160996.264 7  22197659.884    22197660.745    22197666.418
        47.600          44.200
 103357733.803 8  80389393.745 7  19314857.366    19314857.739    19314863.388
        52.300          47.500
 115616397.859 7  89923895.867 7  21598111.722    21598111.950    21598118.348
        47.700          44.600
 112595451.565 7  87574293.739 6  21063294.503    21063294.597    21063301.128
        47.200          40.600
 25  1  1  7 10 30.0000000  0 29G10G24E03E08S31S35G13E21E13S48S33R02
                                G16G20E15G23G05G26G18E07G29G15E26G30
                                R24R18R17R03R01
 132920783.390 6 103574648.72045  25293983.400    25293982.7924   25293986.8584
        39.900          32.9004
 130808823.093 6 101928978.01344  24892093.529    24892093.0914   24892098.3864
        37.700          29.9004
 140305200.696 7                  26699177.201
        42.000
 125656441.225 7                  23911615.521
        47.300
 198975357.248 7                  37863751.534
        45.700
 200951281.588 7                  38239766.001
        44.200
 111752150.820 8  87079623.27145  21265717.101    21265716.4844   21265716.3954
        48.200          35.4004
 147959869.204 6                  28155813.443
        37.900
 123175847.355 8                  23439562.202
        48.700
 412804917.096 5                  78554263.665
        33.300
 202110059.353 7                  38460237.330
        44.900
 102304235.300 8  79570005.300 8  19171764.144    19171764.355    19171769.746
        52.900          48.600
 131437118.322 6 102418546.08442  25011650.510    25011649.5364   25011650.7554
        38.100          17.2004
 132654338.173 6 103367065.00743  25243259.809    25243258.5934   25243260.5494
        37.000          18.5004
 136918680.536 6                  26054724.740
        41.900
 114482037.959 7  89206790.26646  21785203.751    21785203.3624   21785204.0344
        47.000          36.1004
 118800115.903 7  92571568.53846  22606890.823    22606890.3454   22606890.7094
        44.700          41.2004
 135127973.878 6 105294553.43644  25713994.550    25713993.8754   25713997.7584
        37.400          26.3004
 110253987.834 8  85912203.67346  20980629.610    20980629.2664   20980629.7864
        49.000          39.9004
 131524426.467 7                  25028263.352
        45.200
 112416851.147 8  87597583.23947  21392200.817    21392200.2004   21392200.9164
        48.300          47.2004
 104726913.287 8  81605407.37648  19928859.272    19928858.8574   19928859.0344
        49.500          50.8004
 133317973.926 7                  25369565.822
        45.300
 135968550.246 6 105949530.90944  25873954.838    25873954.0024   25873958.6914
        37.700          28.3004
 110098253.780 8  85632046.755 7  20588914.808    20588915.084    20588921.889
        51.500          47.000
 118437172.430 7  92117842.647 7  22187266.263    22187266.240    22187272.744
        47.500          44.300
 103337415.536 8  80373590.648 7  19311060.199    19311060.768    19311066.413
        52.500          47.500
 115564491.328 7  89883524.116 7  21588416.052    21588415.853    21588422.444
        47.900          44.900
 112645767.600 7  87613428.397 6  21072705.878    21072706.039    21072713.992
        46.700          41.100
 25  1  1  7 10 45.0000000  0 29G10G24E03E08S31S35G13E21E13S48S33R02
                                G16G20E15G23G05G26G18E07G29G15E26G30
                                R24R18R17R03R01
 132881122.410 6 103543744.06345  25286436.529    25286435.9394   25286439.2334
        39.800          32.2004
 130759781.206 6 101890763.57744  24882760.720    24882760.3054   24882765.9224
        37.100          29.9004
 140340074.274 7                  26705813.141
        42.100
 125655836.355 7                  23911500.077
        47.400
 198975348.941 7                  37863745.529
        45.600
 200951284.831 7                  38239765.603
        44.100
 111775371.021 8  87097716.92945  21270135.741    21270135.1294   21270135.0514
        48.100          35.5004
 147997216.647 6                  28162920.686
        37.400
 123175127.477 8                  23439425.381
        48.600
 412804669.346 5                  78554227.695
        33.000
 202110027.191 7                  38460231.602
        45.100
 102303375.582 8  79569336.638 8  19171602.916    19171603.305    19171608.642
        53.000          48.700
 131448618.841 6 102427507.44642  25013838.681    25013837.7204   25013839.2164
        38.500          17.9004
 132696407.096 6 103399845.91742  25251265.440    25251264.2294   25251266.1124
        37.200          17.5004
 136946546.160 6                  26060027.440
        41.900
 114454104.142 7  89185023.67746  21779888.085    21779887.6924   21779888.3934
        46.700          36.2004
 118840001.831 7  92602648.46646  22614481.152    22614480.6654   22614480.7654
        44.700          41.2004
 135156816.233 5 105317028.02344  25719483.142    25719482.4544   25719486.2904
        35.500          24.8004
 110229257.670 8  85892933.42046  20975923.981    20975923.6424   20975923.7384
        48.500          40.0004
 131485916.116 7                  25020935.398
        45.500
 112454394.725 8  87626837.93847  21399345.141    21399344.5154   21399345.2734
        48.400          47.3004
 104721738.358 8  81601374.96748  19927874.494    19927874.0834   19927874.2584
        49.200          50.8004
 133288454.586 7                  25363948.168
        44.900
 135980104.972 5 105958534.67844  25876153.804    25876152.9644   25876157.1914
        35.700          26.8004
 110136246.791 8  85661596.828 7  20596019.630    20596019.826    20596026.608
        51.700          46.900
 118381715.586 7  92074709.574 7  22176877.330    22176877.762    22176883.881
        47.700          44.600
 103317235.284 8  80357894.895 7  19307289.664    19307289.764    19307295.149
        52.500          47.600
 115512684.067 7  89843229.595 7  21578737.188    21578737.675    21578744.507
        47.700          45.000
 112696159.300 7  87652621.934 6  21082133.944    21082133.668    21082140.503
        47.000          40.700
 25  1  1  7 11  0.0000000  0 29G10G24E03E08S31S35G13E21E13S48S33R02
                                G16G20E15G23G05G26G18E07G29G15E26G30
                                R24R18R17R03R01
 132841491.903 6 103512863.13445  25278895.048    25278894.4674   25278897.6364
        39.900          32.2004
 130710729.065 6 101852541.17744  24873426.050    24873425.6354   24873431.6294
        36.900          29.6004
 140375013.560 6                  26712461.847
        41.700
 125655344.762 7                  23911406.696
        47.300
 198975347.775 7                  37863742.980
        45.500
 200951294.637 7                  38239768.183
        44.300
 111798745.298 7  87115930.64245  21274583.436    21274582.8104   21274583.0814
        47.800          35.3004
 148034572.253 6                  28170029.137
        38.100
 123174462.365 8                  23439298.684
        48.700
 412804427.784 5                  78554204.979
        33.200
 202110001.863 7                  38460225.748
        45.100
 102302694.926 8  79568807.251 8  19171475.290    19171475.712    19171481.103
        52.700          48.700
 131460248.443 6 102436569.39642  25016051.923    25016050.9844   25016052.2134
        37.800          17.5004
 132738476.589 6 103432627.28543  25259271.000    25259269.7804   25259271.7034
        37.700          18.3004
 136974456.890 6                  26065338.377
        41.700
 114426233.889 7  89163306.60846  21774584.906    21774584.5174   21774584.9724
        46.700          36.1004
 118879917.375 7  92633751.47346  22622076.526    22622076.0394   22622076.5814
        44.700          41.0004
 135185717.983 6 105339548.85044  25724982.605    25724981.9084   25724986.1674
        36.400          24.8004
 110204601.647 8  85873720.94246  20971231.872    20971231.5334   20971231.8354
        48.800          39.9004
 131447472.594 7                  25013619.701
        45.000
 112492059.169 7  87656186.84047  21406512.218    21406511.5924   21406512.6314
        47.900          47.1004
 104716729.280 8  81597471.79548  19926921.341    19926920.9304   19926921.0554
        49.600          50.6004
 133258953.140 7                  25358334.511
        45.200
 135991780.365 6 105967632.46144  25878375.408    25878374.5864   25878378.8194
        36.200          26.8004
 110174372.691 8  85691250.271 7  20603149.632    20603149.614    20603156.512
        51.800          47.100
 118326292.046 8  92031602.364 7  22166494.963    22166495.267    22166501.360
        48.300          44.400
 103297200.500 8  80342312.286 7  19303545.373    19303545.620    19303551.064
        52.400          47.600
 115460983.680 7  89803018.207 7  21569079.461    21569080.151    21569086.656
        47.400          44.900
 112746633.264 7  87691879.473 6  21091575.585    21091575.571    21091582.598
        47.100          40.400
 25  1  1  7 11 15.0000000  0 29G10G24E03E08S31S35G13E21E13S48S33R02
                                G16G20E15G23G05G26G18E07G29G15E26G30
                                R24R18R17R03R01
 132801879.105 6 103481996.02845  25271356.538    25271355.9624   25271360.1264
        39.800          32.8004
 130661654.265 6 101814301.20345  24864087.754    24864087.3254   24864092.7044
        36.900          30.2004
 140410005.502 6                  26719120.712
        41.700
 125654953.656 7                  23911332.205
        47.400
 198975341.425 7                  37863742.613
        45.800
 200951299.088 7                  38239771.581
        44.600
 111822260.745 7  87134254.36245  21279058.419    21279057.8074   21279057.8614
        47.900          35.5004
 148071923.009 6                  28177136.707
        37.400
 123173839.405 8                  23439180.168
        48.600
 412804180.385 5                  78554169.980
        33.100
 202109971.017 7                  38460221.800
        45.400
 102302180.088 8  79568406.810 8  19171378.881    19171379.130    19171384.592
        52.900          48.800
 131471994.101 6 102445721.75042  25018286.065    25018285.1314   25018287.2654
        37.300          16.7004
 132780533.914 6 103465399.18443  25267273.666    25267272.4014   25267275.1074
        38.200          18.8004
 137002400.050 6                  26070655.469
        41.800
 114398414.443 7  89141629.12846  21769290.812    21769290.4324   21769291.1704
        46.300          36.2004
 118919849.704 7  92664867.55746  22629675.531    22629675.0264   22629675.4374
        45.300          41.2004
 135214666.037 5 105362105.78943  25730491.304    25730490.6204   25730494.7724
        35.100          23.0004
 110180007.191 8  85854556.42646  20966551.689    20966551.3454   20966551.6784
        48.800          40.0004
 131409083.220 7                  25006314.401
        45.300
 112529831.347 8  87685619.68647  21413700.303    21413699.6824   21413700.4514
        48.200          47.2004
 104711873.200 8  81593687.84048  19925997.128    19925996.7174   19925996.9544
        49.100          50.7004
 133229456.996 7                  25352721.515
        45.300
 136003563.357 6 105976813.94344  25880617.185    25880616.3814   25880621.2844
        36.000          26.5004
 110212618.251 8  85720996.769 7  20610301.746    20610301.930    20610308.421
        51.700          47.200
 118270889.385 7  91988511.375 7  22156116.246    22156115.598    22156122.321
        47.300          44.700
 103277298.454 8  80326832.912 7  19299826.070    19299826.447    19299831.890
        52.300          47.600
 115409377.525 7  89762880.087 7  21559438.967    21559439.256    21559445.663
        47.500          44.700
 112797175.826 7  87731190.319 6  21101031.053    21101030.915    21101038.403
        47.800          40.600
 25  1  1  7 11 30.0000000  0 29G10G24E03E08S31S35G13E21E13S48S33R02
                                G16G20E15G23G05G26G18E07G29G15E26G30
                                R24R18R17R03R01
 132762292.777 6 103451149.54945  25263823.491    25263822.9064   25263827.3824
        40.100          33.0004
 130612565.613 6 101776050.40145  24854746.352    24854745.9234   24854751.6004
        37.500          30.4004
 140445058.695 6                  26725791.206
        41.400
 125654671.708 7                  23911278.677
        47.300
 198975338.083 7                  37863740.865
        45.700
 200951306.810 7                  38239772.265
        44.300
 111845925.742 7  87152694.61445  21283561.849    21283561.2324   21283561.1964
        47.500          35.4004
 148109277.360 6                  28184245.208
        38.100
 123173267.380 8                  23439071.279
        48.700
 412803936.143 5                  78554149.379
        32.900
 202109943.922 7                  38460216.550
        45.000
 102301839.909 8  79568142.234 8  19171315.280    19171315.418    19171320.871
        52.400          48.800
 131483864.332 6 102454971.16942  25020545.300    25020544.3844   25020545.7834
        37.600          16.5004
 132822587.862 6 103498168.45743  25275276.248    25275275.0144   25275277.6174
        36.600          18.5004
 137030384.289 6                  26075981.299
        41.300
 114370654.488 7  89119998.01146  21764008.281    21764007.9154   21764008.5974
        46.800          36.1004
 118959807.281 7  92696003.31946  22637279.239    22637278.7164   22637279.1234
        43.600          41.1004
 135243668.799 6 105384705.34844  25736010.144    25736009.4604   25736013.5284
        36.200          24.3004
 110155483.261 8  85835446.86946  20961884.895    20961884.5514   20961884.9144
        48.800          39.9004
 131370757.060 7                  24999021.430
        44.800
 112567719.646 7  87715143.03647  21420910.186    21420909.5654   21420910.3614
        47.400          47.1004
 104707178.614 8  81590029.72848  19925104.000    19925103.5984   19925103.5874
        49.300          50.6004
 133199974.883 7                  25347111.187
        44.900
 136015463.057 5 105986086.45944  25882881.452    25882880.6654   25882885.9154
        34.900          25.3004
 110250992.525 8  85750843.386 7  20617477.627    20617478.021    20617484.928
        51.600          47.000
 118215516.819 7  91945443.796 7  22145743.078    22145743.115    22145749.060
        47.800          44.300
 103257538.292 8  80311463.902 7  19296133.507    19296133.790    19296139.193
        52.500          47.700
 115357874.304 7  89722822.047 7  21549817.814    21549818.256    21549824.896
        47.300          45.000
 112847795.304 7  87770561.010 6  21110499.440    21110499.996    21110507.050
        46.800          40.300
 25  1  1  7 11 45.0000000  0 29G10G24E03E08S31S35G13E21E13S48S33R02
                                G16G20E15G23G05G26G18E07G29G15E26G30
                                R24R18R17R03R01
 132722728.609 6 103420320.33745  25256294.892    25256294.3114   25256298.6464
        39.500          32.6004
 130563459.206 6 101737785.70545  24845401.885    24845401.4704   24845406.9694
        37.100          30.8004
 140480168.455 6                  26732472.560
        41.200
 125654494.578 7                  23911244.698
        47.100
 198975333.075 7                  37863742.113
        45.300
 200951313.096 7                  38239773.732
        43.900
 111869735.822 7  87171247.91645  21288092.784    21288092.1764   21288092.1354
        47.900          35.5004
 148146630.746 6                  28191353.138
        38.000
 123172742.053 8                  23438971.442
        48.500
 412803691.456 5                  78554120.193
        32.500
 202109914.557 7                  38460211.828
        44.700
 102301669.880 8  79568009.979 8  19171283.115    19171283.486    19171288.984
        52.600          48.600
 131495854.789 6 102464314.27442  25022827.454    25022826.5424   25022827.3174
        36.900          16.0004
 132864633.961 6 103530931.60943  25283277.916    25283276.6914   25283278.7714
        37.100          18.1004
 137058405.363 6                  26081313.416
        41.100
 114342949.727 7  89098409.89646  21758736.054    21758735.6744   21758736.5364
        46.700          36.3004
 118999785.738 7  92727155.34446  22644887.464    22644886.9864   22644886.8464
        44.000          41.2004
 135272721.598 5 105407343.87244  25741538.994    25741538.3374   25741542.1704
        35.900          25.2004
 110131025.755 8  85816389.07446  20957230.830    20957230.4824   20957230.8094
        48.700          40.2004
 131332489.875 7                  24991739.312
        44.600
 112605719.338 7  87744753.16047  21428141.528    21428140.9164   21428141.4854
        47.700          47.2004
 104702641.052 8  81586493.96948  19924240.564    19924240.1674   19924240.0944
        49.300          50.8004
 133170502.600 7                  25341502.899
        45.200
 136027474.980 5 105995446.53044  25885166.981    25885166.2034   25885171.3384
        34.100          25.1004
 110289490.694 8  85780786.353 7  20624677.456    20624677.592    20624684.267
        51.700          47.200
 118160170.420 7  91902396.588 7  22135374.405    22135374.652    22135381.393
        47.500          44.600
 103237916.161 8  80296202.216 7  19292466.750    19292467.153    19292472.597
        52.700          47.700
 115306470.055 7  89682840.952 7  21540214.893    21540215.527    21540221.720
        47.700          44.700
 112898487.169 7  87809987.996 6  21119983.528    21119982.971    21119990.548
        47.000          41.000
 25  1  1  7 12  0.0000000  0 29G10G24E03E08S31S35G13E21E13S48S33R02
                                G16G20E15G23G05G26G18E07G29G15E26G30
                                R24R18R17R03R01
 132683186.814 6 103389508.54945  25248770.575    25248769.9904   25248773.5134
        38.200          31.8004
 130514335.649 6 101699507.63345  24836053.862    24836053.4334   24836058.9034
        36.100          30.2004
 140515334.913 6                  26739164.386
        41.600
 125654422.407 7                  23911231.234
        47.100
 198975327.641 7                  37863741.115
        45.800
 200951319.033 7                  38239773.025
        44.400
 111893690.916 7  87189914.22045  21292651.070    21292650.4674   21292650.6414
        47.300          35.3004
 148183983.112 6                  28198461.059
        37.800
 123172263.755 8                  23438880.395
        48.500
 412803446.304 5                  78554085.310
        32.800
 202109885.089 7                  38460203.251
        45.000
 102301669.978 8  79568010.091 8  19171283.276    19171283.518    19171289.020
        52.700          48.700
 131507965.341 6 102473750.95242  25025132.192    25025131.2804   25025131.6874
        37.100          16.0004
 132906672.358 6 103563688.75343  25291277.599    25291276.4284   25291278.5494
        37.800          18.3004
 137086463.451 6                  26086652.603
        41.100
 114315300.340 7  89076864.92946  21753474.826    21753474.4554   21753474.9394
        46.400          36.3004
 119039785.057 7  92758323.62746  22652498.577    22652498.1124   22652498.3664
        44.400          41.1004
 135301824.268 5 105430021.27844  25747077.436    25747076.7664   25747080.5664
        35.600          25.8004
 110106635.069 8  85797383.34146  20952589.427    20952589.0744   20952589.4034
        48.300          40.1004
 131294282.014 7                  24984468.369
        44.500
 112643830.274 7  87774449.93147  21435393.599    21435392.9874   21435393.7814
        47.000          46.9004
 104698260.712 8  81583080.72248  19923406.903    19923406.5064   19923406.5354
        48.800          50.7004
 133141040.449 7                  25335896.169
        44.900
 136039598.978 5 106004893.79944  25887475.072    25887474.2774   25887478.2134
        35.400          26.9004
 110328113.016 8  85810825.916 7  20631899.898    20631899.795    20631906.850
        51.300          47.100
 118104850.672 8  91859370.099 7  22125011.894    22125011.778    22125017.487
        48.100          44.400
 103218432.526 8  80281048.306 7  19288825.842    19288826.063    19288831.578
        52.600          47.700
 115255165.478 7  89642937.425 7  21530630.929    21530631.293    21530637.745
        47.900          44.800
 112949251.136 7  87849471.115 6  21129479.395    21129479.548    21129486.727
        46.800          40.400
 25  1  1  7 12 15.0000000  0 29G10G24E03E08S31S35G13E21E13S48S33R02
                                G16G20E15G23G05G26G18E07G29G15E26G30
                                R24R18R17R03R01
 132643666.001 6 103358713.10745  25241250.263    25241249.6784   25241252.3334
        40.000          32.5004
 130465193.905 6 101661215.36345  24826702.812    24826702.3794   24826707.3454
        36.900          30.0004
 140550556.337 6                  26745866.895
        41.200
 125654453.759 7                  23911237.024
        47.100
 198975319.944 7                  37863739.537
        45.700
 200951322.438 7                  38239775.284
        44.400
 111917789.352 7  87208692.21345  21297237.206    21297236.6074   21297236.4064
        47.500          35.4004
 148221332.816 6                  28205568.530
        37.800
 123171831.184 8                  23438798.002
        48.500
 412803198.764 5                  78554062.402
        33.100
 202109853.352 7                  38460197.599
        45.100
 102301838.567 8  79568141.206 8  19171314.689    19171315.217    19171320.612
        52.600          48.700
 131520194.264 6 102483279.86242  25027459.495    25027458.5834   25027459.0814
        36.600          16.6004
 132948701.596 6 103596438.77142  25299275.428    25299274.2484   25299276.3594
        37.200          17.7004
 137114557.169 6                  26091998.751
        41.200
 114287704.921 7  89055362.01946  21748223.442    21748223.0584   21748223.6534
        46.400          36.4004
 119079803.497 7  92789506.82646  22660113.638    22660113.1694   22660113.5314
        44.400          41.2004
 135330975.106 5 105452736.20444  25752624.544    25752623.8564   25752627.6764
        35.900          24.9004
 110082310.047 8  85778428.78246  20947960.722    20947960.3694   20947960.4834
        48.600          40.1004
 131256132.352 7                  24977208.603
        44.500
 112682051.010 7  87804232.31347  21442666.991    21442666.3834   21442667.0184
        47.600          47.2004
 104694036.259 8  81579788.94648  19922603.054    19922602.6574   19922602.6354
        49.100          50.7004
 133111587.140 7                  25330291.506
        44.800
 136051833.998 5 106014427.63544  25889802.513    25889801.7094   25889806.6274
        34.600          26.2004
 110366857.587 8  85840960.524 7  20639145.482    20639145.661    20639152.461
        51.400          47.100
 118049556.548 7  91816363.580 7  22114652.300    22114652.773    22114659.179
        47.300          44.400
 103199086.260 8  80266001.191 7  19285210.388    19285210.716    19285216.276
        52.400          47.800
 115203959.129 7  89603110.266 7  21521064.867    21521065.263    21521072.216
        47.400          45.200
 113000085.219 7  87889008.716 6  21138989.132    21138989.066    21138996.241
        47.000          40.500
 25  1  1  7 12 30.0000000  0 29G10G24E03E08S31S35G13E21E13S48S33R02
                                G16G20E15G23G05G26G18E07G29G15E26G30
                                R24R18R17R03R01
 132604169.319 6 103327936.48045  25233733.300    25233732.7104   25233736.6634
        40.200          32.7004
 130416037.285 6 101622911.45245  24817348.179    24817347.7464   24817353.3244
        36.800          30.8004
 140585835.707 6                  26752580.285
        41.300
 125654591.684 7                  23911262.949
        47.100
 198975313.002 7                  37863738.231
        45.700
 200951326.152 7                  38239773.544
        44.200
 111942034.088 7  87227584.21245  21301850.566    21301849.9634   21301850.0614
        47.500          35.3004
 148258682.694 6                  28212675.670
        37.600
 123171447.502 8                  23438724.950
        48.200
 412802951.788 5                  78554031.024
        32.700
 202109822.100 7                  38460192.573
        45.200
 102302178.522 8  79568405.621 8  19171378.840    19171378.844    19171384.265
        52.700          48.800
 131532544.728 6 102492903.51242  25029809.956    25029809.0174   25029809.6174
        36.400          16.4004
 132990724.855 6 103629184.15142  25307272.456    25307271.2634   25307272.9934
        37.100          17.9004
 137142689.656 6                  26097351.775
        40.800
 114260166.537 7  89033903.54546  21742983.154    21742982.7794   21742983.2514
        46.400          36.2004
 119119844.590 7  92820707.65346  22667733.485    22667733.0164   22667733.1264
        44.400          41.1004
 135360176.823 5 105475490.81244  25758181.284    25758180.6184   25758184.8344
        35.800          24.3004
 110058053.957 8  85759527.93546  20943344.837    20943344.4894   20943344.7264
        48.700          40.0004
 131218044.241 7                  24969960.884
        44.500
 112720384.167 7  87834102.24247  21449961.277    21449960.6654   21449961.5944
        47.600          46.9004
 104689970.676 8  81576620.96448  19921829.294    19921828.9014   19921828.9644
        49.300          50.6004
 133082145.813 7                  25324689.121
        44.800
 136064182.687 5 106024050.00944  25892153.155    25892152.3334   25892156.5094
        35.300          26.4004
 110405727.617 8  85871192.724 7  20646413.916    20646414.333    20646421.294
        51.400          47.100
 117994291.645 7  91773379.802 7  22104300.482    22104300.001    22104305.874
        47.600          44.200
 103179880.930 8  80251063.716 7  19281621.385    19281621.792    19281627.258
        52.600          47.700
 115152854.850 7  89563362.508 7  21511518.436    21511518.653    21511524.935
        47.800          44.600
 113050992.283 7  87928603.105 6  21148513.177    21148512.705    21148519.853
        47.800          40.700
 25  1  1  7 12 45.0000000  0 29G10G24E03E08S31S35G13E21E13S48S33R02
                                G16G20E15G23G05G26G18E07G29G15E26G30
                                R24R18R17R03R01
 132564697.768 6 103297179.42845  25226222.706    25226222.1214   25226225.5714
        39.000          32.2004
 130366867.475 6 101584597.29145  24807991.750    24807991.3484   24807996.4534
        37.800          30.7004
 140621173.790 6                  26759304.721
        41.100
 125654837.189 7                  23911309.977
        46.900
 198975307.511 7                  37863740.275
        46.100
 200951332.263 7                  38239775.534
        44.400
 111966425.792 7  87246590.72745  21306492.261    21306491.6534   21306491.6684
        47.400          35.3004
 148296033.534 6                  28219783.605
        37.200
 123171113.882 8                  23438661.639
        48.200
 412802707.034 5                  78554003.300
        33.000
 202109792.238 7                  38460185.566
        45.100
 102302690.792 8  79568804.060 8  19171474.313    19171474.707    19171480.298
        52.600          48.700
 131545017.379 5 102502622.38542  25032183.249    25032182.3104   25032183.1494
        35.900          15.9004
 133032743.157 6 103661925.64943  25315268.038    25315266.8404   25315268.6474
        37.500          18.1004
 137170861.920 6                  26102713.275
        40.700
 114232686.240 7  89012490.33746  21737753.957    21737753.5824   21737753.9664
        46.400          36.5004
 119159909.090 7  92851926.72246  22675357.843    22675357.3654   22675357.3104
        44.500          41.2004
 135389430.197 5 105498285.62244  25763748.125    25763747.4684   25763751.4994
        35.700          24.1004
 110033868.103 8  85740681.82146  20938742.233    20938741.8764   20938742.2644
        48.900          40.1004
 131180018.907 7                  24962724.711
        44.500
 112758830.558 7  87864060.42347  21457277.542    21457276.9304   21457277.7594
        47.700          47.0004
 104686065.051 8  81573577.62548  19921086.035    19921085.6424   19921085.7274
        49.300          50.6004
 133052717.641 7                  25319089.044
        44.600
 136076646.037 5 106033761.66244  25894524.834    25894524.0074   25894528.2404
        34.400          26.6004
 110444723.938 8  85901523.134 7  20653707.168    20653707.062    20653713.621
        51.600          47.000
 117939057.046 7  91730419.510 7  22093952.386    22093952.425    22093958.607
        47.400          44.000
 103160817.750 8  80236236.793 7  19278059.148    19278059.429    19278064.864
        52.600          47.900
 115101853.466 7  89523694.779 7  21501990.836    21501991.002    21501997.651
        47.200          44.700
 113101972.660 7  87968254.494 6  21158049.253    21158049.639    21158056.666
        47.600          40.800
 25  1  1  7 13  0.0000000  0 29G10G24E03E08S31S35G13E21E13S48S33R02
                                G16G20E15G23G05G26G18E07G29G15E26G30
                                R24R18R17R03R01
 132525250.354 6 103266441.19045  25218715.780    25218715.1954   25218718.6784
        39.400          32.1004
 130317683.609 6 101546272.13145  24798632.422    24798631.9984   24798637.3434
        36.700          31.1004
 140656569.409 6                  26766040.234
        41.000
 125655189.165 7                  23911377.281
        47.000
 198975303.062 7                  37863738.142
        46.000
 200951338.810 7                  38239774.143
        44.300
 111990963.265 7  87265710.82745  21311161.625    21311161.0264   21311160.9634
        47.500          35.4004
 148333383.999 6                  28226891.101
        37.500
 123170829.368 8                  23438607.446
        48.200
 412802462.924 5                  78553972.321
        32.600
 202109763.199 7                  38460180.379
        45.100
 102303374.248 8  79569335.652 8  19171602.559    19171602.711    19171608.316
        52.400          48.700
 131557611.114 5 102512435.60842  25034579.795    25034578.8074   25034579.8014
        35.800          14.8004
 133074755.293 6 103694662.34143  25323262.519    25323261.2634   25323263.5064
        37.700          18.3004
 137199072.976 6                  26108081.511
        41.000
 114205262.972 7  88991121.56446  21732535.288    21732534.9224   21732535.5294
        46.600          36.4004
 119199995.690 7  92883163.01646  22682985.570    22682985.0834   22682985.6394
        44.300          41.3004
 135418733.777 5 105521119.58744  25769323.662    25769322.9834   25769327.2994
        35.600          24.0004
 110009751.590 8  85721889.72746  20934152.978    20934152.6214   20934153.1054
        48.700          40.1004
 131142055.432 7                  24955500.493
        45.100
 112797388.818 7  87894105.79947  21464614.975    21464614.3584   21464615.2044
        47.400          46.9004
 104682318.259 8  81570658.05248  19920373.076    19920372.6834   19920372.7224
        49.400          50.6004
 133023301.656 7                  25313491.380
        44.900
 136089223.137 6 106043561.94944  25896918.798    25896917.9764   25896921.5874
        36.800          27.4004
 110483845.247 8  85931950.787 7  20661022.551    20661022.789    20661029.642
        51.700          47.000
 117883852.412 8  91687482.565 7  22083611.385    22083611.583    22083617.144
        48.200          44.100
 103141896.374 8  80221520.172 7  19274523.265    19274523.525    19274528.955
        52.700          47.800
 115050954.434 7  89484106.637 7  21492482.830    21492483.126    21492489.014
        47.600          44.800
 113153024.984 8  88007961.867 6  21167600.542    21167600.077    21167606.643
        48.000          40.400
 25  1  1  7 13 15.0000000  0 30G10G24E03E08S31S35G13E21E13S48S33R02
                                G16G20E15G23G05G26G18E07G29G15E26G30
                                G27R24R18R17R03R01
 132485824.200 6 103235719.49645  25211214.111    25211213.5084   25211215.9974
        38.900          32.2004
 130268483.210 6 101507934.10245  24789269.506    24789269.1174   24789274.9954
        37.000          31.1004
 140692019.383 6                  26772786.559
        41.200
 125655644.705 7                  23911463.916
        47.000
 198975296.561 7                  37863735.517
        46.000
 200951343.789 7                  38239775.753
        44.500
 112015643.318 7  87284942.03345  21315857.972    21315857.3734   21315857.4374
        47.300          35.2004
 148370730.984 6                  28233997.978
        38.000
 123170591.168 8                  23438562.081
        48.400
 412802216.363 5                  78553940.827
        32.800
 202109732.470 7                  38460175.362
        45.500
 102304225.700 8  79569997.891 8  19171761.980    19171762.357    19171767.846
        52.200          48.600
 131570322.911 5 102522340.85242  25036998.817    25036997.7984   25036999.0114
        34.800          16.1004
 133116758.468 6 103727392.06443  25331255.568    25331254.2994   25331256.7594
        38.100          18.5004
 137227319.936 6                  26113456.656
        41.300
 114177893.810 7  88969794.95646  21727327.054    21727326.6834   21727327.3634
        46.400          36.4004
 119240101.460 7  92914414.24346  22690617.834    22690617.3384   22690617.5544
        44.800          41.1004
 135448084.326 6 105543990.13044  25774909.082    25774908.4074   25774912.6154
        36.800          25.2004
 109985701.785 8  85703149.61246  20929576.685    20929576.3284   20929576.5964
        48.600          40.1004
 131104150.991 7                  24948287.364
        45.200
 112836055.792 7  87924235.91647  21471973.176    21471972.5554   21471973.3494
        47.200          47.0004
 104678727.187 8  81567859.81248  19919689.678    19919689.2854   19919689.3564
        49.400          50.6004
 132993895.091 7                  25307895.508
        45.100
 136101910.882 6 106053448.37844  25899332.190    25899331.3724   25899336.1474
        36.000          27.5004
 133700437.323 5                  25442348.675
        30.200
 110523089.008 8  85962473.661 7  20668361.563    20668361.763    20668368.527
        51.600          47.000
 117828675.287 7  91644567.070 7  22073274.532    22073274.461    22073280.402
        47.400          44.300
 103123113.977 8  80206911.622 7  19271013.246    19271013.494    19271019.098
        52.600          47.900
 115000155.121 7  89444596.092 7  21482992.382    21482992.719    21482999.368
        46.900          44.700
 113204145.835 7  88047722.519 6  21177162.847    21177162.718    21177170.415
        47.100          40.600
 25  1  1  7 13 30.0000000  0 30G10G24E03E08S31S35G13E21E13S48S33R02
                                G16G20E15G23G05G26G18E07G29G15E26G30
                                G27R24R18R17R03R01
 132446422.650 6 103205017.01245  25203716.393    25203715.7994   25203719.0234
        40.200          32.9004
 130219270.003 6 101469586.09345  24779904.654    24779904.2574   24779910.0624
        38.400          31.1004
 140727526.777 6                  26779542.842
        41.100
 125656207.042 7                  23911570.714
        47.300
 198975290.763 7                  37863737.046
        45.700
 200951348.891 7                  38239779.241
        44.300
 112040469.047 7  87304286.74645  21320582.338    21320581.7444   21320581.6174
        47.500          35.2004
 148408077.534 6                  28241104.361
        37.400
 123170402.662 8                  23438526.227
        48.600
 412803570.891 5                  78553916.542
        32.700
 202109702.477 7                  38460174.235
        45.400
 102305248.414 8  79570793.339 8  19171953.672    19171954.127    19171959.509
        52.500          48.800
 131583155.764 6 102532340.53042  25039440.771    25039439.7564   25039441.2284
        36.000          15.7004
 133158755.931 6 103760117.32543  25339247.812    25339246.5474   25339248.4884
        37.000          18.2004
 137255606.117 6                  26118839.296
        40.700
 114150582.074 7  88948513.09546  21722129.804    21722129.4334   21722130.1214
        46.700          36.5004
 119280229.441 7  92945682.79146  22698253.680    22698253.1664   22698253.6184
        44.900          41.2004
 135477484.831 5 105566899.62644  25780503.967    25780503.2794   25780507.4694
        35.100          24.2004
 109961722.208 8  85684464.22546  20925013.421    20925013.0684   20925013.3954
        48.400          40.1004
 131066309.064 7                  24941086.432
        44.800
 112874834.378 7  87954452.98447  21479352.423    21479351.8114   21479352.6714
        47.600          46.9004
 104675295.423 8  81565185.71548  19919036.812    19919036.4154   19919036.2894
        49.400          50.6004
 132964501.304 7                  25302302.215
        45.100
 136114712.730 5 106063423.76044  25901768.523    25901767.6964   25901772.4484
        34.300          26.5004
 133650585.446 5                  25432861.112    25432860.8174
        34.200
 110562457.691 8  85993093.703 7  20675723.838    20675724.107    20675730.897
        51.800          47.000
 117773529.059 7  91601675.518 7  22062943.573    22062943.748    22062949.322
        47.400          44.000
 103104474.346 8  80192414.124 7  19267529.920    19267530.372    19267535.726
        52.900          47.900
 114949459.310 8  89405166.027 7  21473522.334    21473522.596    21473529.276
        48.000          44.800
 113255338.184 7  88087538.781 6  21186739.894    21186739.413    21186747.146
        47.200          40.500
 25  1  1  7 13 45.0000000  0 30G10G24E03E08S31S35G13E21E13S48S33R02
                                G16G20E15G23G05G26G18E07G29G15E26G30
                                G27R24R18R17R03R01
 132407043.209 6 103174331.73345  25196221.723    25196221.1154   25196225.3484
        39.400          32.2004
 130170041.822 6 101431226.41745  24770536.229    24770535.8004   24770542.1294
        37.200          30.9004
 140763088.845 6                  26786310.085
        41.100
 125656873.664 7                  23911697.491
        47.300
 198975284.267 7                  37863734.882
        46.000
 200951353.191 7                  38239781.088
        44.400
 112065437.685 7  87323742.82445  21325333.553    21325332.9544   21325332.9174
        47.600          35.2004
 148445420.918 6                  28248211.228
        37.400
 123170261.487 8                  23438499.395
        48.400
 412803324.079 5                  78553891.917
        33.300
 202109671.250 7                  38460164.737
        45.300
 102306439.531 8  79571719.764 8  19172177.147    19172177.275    19172182.687
        52.200          48.700
 131596106.825 6 102542432.28842  25041905.171    25041904.1564   25041905.8254
        36.100          16.0004
 133200745.221 6 103792836.21542  25347237.308    25347236.0214   25347238.7194
        37.300          17.5004
 137283929.038 6                  26124229.334
        41.200
 114123325.260 7  88927274.02646  21716942.923    21716942.5394   21716943.3304
        46.900          36.4004
 119320376.941 7  92976966.54846  22705893.330    22705892.8074   22705893.3674
        44.700          41.2004
 135506932.510 5 105589845.85343  25786108.109    25786107.4344   25786110.9494
        34.100          21.6004
 109937810.604 8  85665831.80646  20920463.341    20920462.9974   20920463.1614
        48.500          40.1004
 131028527.397 7                  24933896.783
        44.500
 112913721.910 7  87984754.96147  21486752.283    21486751.6664   21486752.7324
        47.200          46.9004
 104672020.518 8  81562633.84348  19918413.425    19918413.0284   19918413.0874
        49.200          50.6004
 132935117.920 7                  25296710.619
        45.000
 136127626.137 5 106073486.15444  25904226.381    25904225.5544   25904229.8234
        35.700          26.6004
 133600788.129 5 104104521.65443  25423385.194    25423384.7974   25423387.5184
        34.000          23.1004
 110601949.032 8  86023809.142 7  20683108.456    20683108.982    20683115.943
        51.500          47.100
 117718411.848 7  91558806.614 7  22052618.065    22052618.087    22052625.003
        46.800          44.500
 103085975.140 8  80178025.843 7  19264072.976    19264073.249    19264078.809
        52.800          47.800
 114898864.313 8  89365814.366 7  21464070.454    21464071.639    21464077.447
        48.000          44.800
 113306598.973 7  88127408.261 6  21196329.499    21196329.335    21196335.674
        47.900          40.400
 25  1  1  7 14  0.0000000  0 30G10G24E03E08S31S35G13E21E13S48S33R02
                                G16G20E15G23G05G26G18E07G29G15E26G30
                                G27R24R18R17R03R01
 132367689.005 6 103143666.11745  25188733.153    25188732.5364   25188736.2394
        39.500          32.1004
 130120802.053 6 101392857.66145  24761167.666    24761167.2514   24761172.3274
        37.600          31.4004
 140798708.727 6                  26793088.417
        41.200
 125657647.647 7                  23911844.993
        47.100
 198975278.977 7                  37863731.765
        45.900
 200951359.929 7                  38239782.505
        44.400
 112090551.765 7  87343312.23145  21330112.738    21330112.1354   21330112.0044
        47.700          35.4004
 148482764.001 6                  28255316.972
        37.300
 123170170.868 8                  23438482.358
        48.200
 412803079.024 5                  78553863.227
        32.800
 202109641.517 7                  38460155.244
        45.100
 102307802.252 8  79572779.669 8  19172432.599    19172432.564    19172438.147
        52.300          48.800
 131609179.040 6 102552618.45442  25044392.740    25044391.7084   25044393.3944
        37.300          16.9004
 133242729.495 6 103825551.17843  25355227.652    25355226.3874   25355228.0554
        37.100          18.4004
 137312291.826 6                  26129626.580
        40.500
 114096126.490 7  88906080.19046  21711767.197    21711766.8084   21711767.5474
        46.500          36.6004
 119360547.135 7  93008267.98946  22713538.091    22713537.5824   22713537.5124
        44.200          41.4004
 135536430.150 6 105612831.03743  25791721.033    25791720.3494   25791724.2794
        36.100          23.8004
 109913970.297 8  85647254.94346  20915926.685    20915926.3504   20915926.5174
        48.400          40.2004
 130990809.261 7                  24926719.388
        44.700
 112952721.057 7  88015143.89847  21494173.803    21494173.1914   21494174.0204
        47.700          47.2004
 104668905.472 8  81560206.53648  19917820.851    19917820.4544   19917820.3024
        49.300          50.7004
 132905748.179 7                  25291121.591
        44.700
 136140654.080 6 106083637.76044  25906705.240    25906704.4134   25906708.9854
        36.200          27.0004
 133551049.299 6 104065764.10144  25413920.394    25413919.6664   25413922.6494
        36.300          25.6004
 110641565.993 8  86054622.278 7  20690517.670    20690517.942    20690524.715
        51.900          47.100
 117663326.932 8  91515962.780 7  22042299.392    22042299.550    22042305.294
        48.000          44.400
 103067619.925 8  80163749.559 7  19260642.910    19260643.229    19260648.833
        52.700          47.900
 114848373.991 7  89326544.136 7  21454638.429    21454638.890    21454645.605
        47.800          44.800
 113357930.761 7  88167333.013 6  21205931.586    21205931.648    21205938.832
        47.400          40.400
 25  1  1  7 14 15.0000000  0 30G10G24E03E08S31S35G13E21E13S48S33R02
                                G16G20E15G23G05G26G18E07G29G15E26G30
                                G27R24R18R17R03R01
 132328360.024 6 103113020.17145  25181248.689    25181248.0594   25181252.1384
        39.600          32.1004
 130071551.233 6 101354480.32145  24751795.102    24751794.7134   24751800.2984
        37.700          31.2004
 140834385.981 6                  26799877.745
        41.300
 125658528.894 7                  23912012.435
        47.300
 198975275.615 7                  37863732.364
        45.600
 200951367.853 7                  38239783.297
        44.200
 112115811.413 7  87362995.07345  21334919.227    21334918.6194   21334918.7834
        47.600          35.3004
 148520106.501 6                  28262423.252
        36.900
 123170130.886 8                  23438474.658
        48.200
 412802835.113 5                  78553836.871
        33.100
 202109614.030 7                  38460152.288
        44.900
 102309336.034 8  79573972.607 8  19172719.777    19172720.049    19172725.516
        52.500          48.700
 131622372.224 6 102562898.91142  25046902.710    25046901.7044   25046903.9594
        37.600          16.6004
 133284708.514 6 103858262.05943  25363215.815    25363214.5554   25363216.4254
        39.200          18.8004
 137340694.462 6                  26135031.354
        40.700
 114068985.722 7  88884931.55446  21706602.611    21706602.2224   21706602.8374
        46.300          36.6004
 119400739.452 7  93039586.66246  22721186.289    22721185.7804   22721185.9814
        44.900          41.5004
 135565977.258 6 105635854.77044  25797343.423    25797342.7214   25797347.0774
        36.000          24.8004
 109890201.463 8  85628733.76846  20911403.650    20911403.3204   20911403.4444
        48.600          40.2004
 130953154.839 7                  24919553.721
        44.100
 112991831.310 7  88045619.35947  21501616.114    21501615.4884   21501616.4284
        47.900          47.1004
 104665950.201 8  81557903.73048  19917258.371    19917257.9744   19917257.9334
        49.300          50.6004
 132876392.124 7                  25285535.460
        44.700
 136153796.417 5 106093878.50444  25909206.073    25909205.2424   25909209.7224
        34.700          27.5004
 133501368.903 5 104027052.12244  25404466.132    25404465.4174   25404468.7764
        33.800          24.1004
 110681308.196 8  86085532.834 7  20697948.963    20697949.551    20697956.767
        51.300          47.300
 117608274.863 7  91473144.490 7  22031985.166    22031985.658    22031992.038
        47.400          44.400
 103049409.272 8  80149585.720 8  19257239.887    19257240.127    19257245.673
        52.600          48.000
 114797988.241 7  89287355.238 7  21445225.667    21445226.240    21445232.786
        47.000          44.600
 113409333.305 7  88207312.729 6  21215547.721    21215547.493    21215554.783
        47.300          40.500
 25  1  1  7 14 30.0000000  0 30G10G24E03E08S31S35G13E21E13S48S33R02
                                G16G20E15G23G05G26G18E07G29G15E26G30
                                G27R24R18R17R03R01
 132289050.708 6 103082389.53645  25173768.836    25173768.2154   25173771.8114
        40.400          32.7004
 130022284.116 6 101316090.33345  24742420.048    24742419.6644   24742424.9244
        38.100          31.0004
 140870114.847 6                  26806676.803
        40.900
 125659511.792 7                  23912199.654
        47.100
 198975268.859 7                  37863731.242
        45.600
 200951371.604 7                  38239786.239
        44.400
 112141210.946 7  87382786.91245  21339752.978    21339752.3844   21339752.1784
        47.800          35.0004
 148557442.527 6                  28269527.939
        37.300
 123170136.039 8                  23438475.686
        48.200
 412802587.160 5                  78553795.066
        32.400
 202109581.728 7                  38460145.903
        44.800
 102311035.309 8  79575294.264 8  19173038.163    19173038.500    19173043.998
        52.400          48.700
 131635680.564 5 102573269.06542  25049435.899    25049434.8934   25049436.5484
        35.700          15.1004
 133326676.549 6 103890964.40142  25371202.434    25371201.1514   25371202.7704
        38.400          17.8004
 137369131.395 6                  26140442.708
        40.600
 114041897.333 7  88863823.73046  21701447.688    21701447.3044   21701448.0394
        47.100          36.3004
 119440948.567 7  93070918.42946  22728837.613    22728837.0904   22728837.5894
        45.200          41.3004
 135595568.108 6 105658912.56444  25802974.505    25802973.8214   25802978.4994
        36.100          25.3004
 109866498.739 8  85610264.12046  20906893.124    20906892.7944   20906892.9674
        49.000          40.1004
 130915558.844 7                  24912399.593
        45.000
 113031047.104 7  88076177.10247  21509078.804    21509078.1784   21509079.0254
        47.900          46.7004
 104663149.110 8  81555721.06248  19916725.306    19916724.9094   19916724.9034
        49.600          50.5004
 132847044.288 7                  25279950.806
        44.900
 136167047.334 5 106104203.71944  25911727.698    25911726.8804   25911731.3104
        34.300          24.5004
 133451741.777 5 103988381.69744  25395022.815    25395022.0824   25395025.0754
        34.900          24.8004
 110721170.118 8  86116536.487 7  20705404.024    20705404.063    20705410.930
        51.400          47.200
 117553250.230 7  91430347.529 7  22021677.999    22021677.880    22021683.669
        47.500          44.000
 103031337.530 8  80135529.907 8  19253862.699    19253862.907    19253868.534
        52.300          48.200
 114747701.863 8  89248243.605 7  21435832.060    21435832.600    21435839.629
        48.000          45.100
 113460800.261 7  88247342.569 6  21225175.350    21225175.656    21225182.531
        47.200          40.400
 25  1  1  7 14 45.0000000  0 30G10G24E03E08S31S35G13E21E13S48S33R02
                                G16G20E15G23G05G26G18E07G29G15E26G30
                                G27R24R18R17R03R01
 132249768.052 6 103051779.68045  25166293.518    25166292.8924   25166296.8414
        40.000          32.4004
 129973008.201 6 101277693.54745  24733042.628    24733042.2394   24733048.0034
        37.600          30.9004
 140905902.147 6                  26813486.667
        41.000
 125660603.285 7                  23912407.277
        47.300
 198975264.599 7                  37863730.996
        45.600
 200951379.402 7                  38239785.403
        44.100
 112166756.929 8  87402692.87145  21344613.902    21344613.3084   21344613.4534
        48.000          35.1004
 148594778.931 6                  28276632.785
        37.600
 123170193.425 8                  23438486.266
        48.300
 412802343.498 5                  78553782.804
        33.200
 202109554.016 7                  38460143.421
        45.100
 102312906.914 8  79576749.959 8  19173389.059    19173389.219    19173394.792
        52.200          48.700
 131649110.858 5 102583734.26642  25051991.105    25051990.0554   25051992.1744
        35.600          15.4004
 133368640.834 6 103923663.83142  25379187.825    25379186.5154   25379188.3594
        38.100          17.6004
 137397609.639 6                  26145862.192
        40.800
 114014868.346 7  88842762.19046  21696304.066    21696303.6694   21696304.5964
        46.900          36.4004
 119481181.629 7  93102268.85246  22736494.109    22736493.6044   22736493.6874
        44.500          41.1004
 135625209.088 6 105682009.42944  25808615.660    25808614.9764   25808618.7544
        37.000          25.2004
 109842869.351 8  85591851.60346  20902396.600    20902396.2704   20902396.4384
        48.800          40.0004
 130878028.380 7                  24905257.979
        44.800
 113070375.061 7  88106822.27547  21516562.405    21516561.7794   21516562.9614
        47.800          46.9004
 104660509.200 8  81553663.99348  19916223.129    19916222.7364   19916222.5164
        49.500          50.5004
 132817711.769 7                  25274368.680
        44.900
 136180414.223 5 106114619.43743  25914270.765    25914269.9254   25914275.2924
        33.100          23.6004
 133402175.097 5 103949758.35343  25385590.637    25385589.8914   25385592.8584
        35.600          23.3004
 110761158.336 8  86147638.385 7  20712881.414    20712881.841    20712888.914
        51.600          47.000
 117498260.658 7  91387577.855 7  22011377.017    22011376.809    22011382.329
        47.900          44.400
 103013412.181 8  80121587.966 8  19250512.860    19250513.143    19250518.717
        52.700          48.000
 114697522.114 8  89209214.935 7  21426457.575    21426458.680    21426464.859
        48.000          44.800
 113512338.683 8  88287428.011 6  21234817.441    21234817.279    21234823.814
        48.000          40.300
 25  1  1  7 15  0.0000000  0 30G10G24E03E08S31S35G13E21E13S48S33R02
                                G16G20E15G23G05G26G18E07G29G15E26G30
                                G27R24R18R17R03R01
 132210506.981 6 103021186.63945  25158822.495    25158821.8924   25158825.4174
        39.500          32.1004
 129923718.392 6 101239285.90745  24723663.179    24723662.8084   24723668.5744
        37.300          31.0004
 140941742.569 6                  26820307.022
        40.800
 125661798.194 7                  23912634.867
        47.000
 198975258.378 7                  37863730.589
        45.500
 200951384.399 7                  38239785.649
        44.200
 112192443.942 7  87422708.71445  21349501.749    21349501.1464   21349501.4914
        47.500          35.1004
 148632110.237 6                  28283736.941
        37.700
 123170298.043 8                  23438506.317
        48.100
 412802098.814 5                  78553746.034
        32.900
 202109523.016 7                  38460136.817
        45.000
 102314945.603 8  79578335.606 8  19173771.039    19173771.288    19173776.727
        52.300          48.800
 131662657.843 6 102594290.38242  25054569.376    25054568.2944   25054570.1314
        36.000          15.4004
 133410596.233 6 103956356.30243  25387172.024    25387170.7284   25387172.5484
        38.000          19.3004
 137426124.110 6                  26151288.214
        40.000
 113987893.602 7  88821742.91946  21691171.227    21691170.8344   21691171.4554
        46.600          36.5004
 119521433.275 7  93133633.75646  22744153.571    22744153.0754   22744153.2994
        44.900          41.4004
 135654894.934 5 105705141.28443  25814264.168    25814263.4984   25814267.4914
        35.200          22.2004
 109819308.372 8  85573492.38746  20897913.087    20897912.7574   20897912.9654
        48.400          40.1004
 130840558.418 7                  24898127.774
        44.700
 113109809.692 7  88137550.49847  21524066.776    21524066.1504   21524067.0724
        47.600          46.7004
 104658025.074 8  81551728.31248  19915750.189    19915749.8004   19915749.7984
        49.300          50.6004
 132788389.523 7                  25268789.076
        44.800
 136193891.705 5 106125121.37044  25916836.370    25916835.5434   25916839.9164
        35.500          26.7004
 133352664.082 5 103911178.31344  25376167.954    25376167.2084   25376171.3424
        34.600          25.0004
 110801267.794 8  86178834.560 7  20720382.644    20720382.894    20720389.887
        51.600          47.100
 117443301.293 7  91344831.697 7  22001081.097    22001080.728    22001087.107
        47.400          44.500
 102995628.586 8  80107756.274 8  19247189.428    19247189.959    19247195.532
        52.900          48.100
 114647444.288 7  89170265.528 7  21417103.085    21417103.468    21417110.511
        47.900          45.200
 113563942.583 7  88327564.374 6  21244470.857    21244470.542    21244477.681
        47.300          40.300
 25  1  1  7 15 15.0000000  0 30G10G24E03E08S31S35G13E21E13S48S33R02
                                G16G20E15G23G05G26G18E07G29G15E26G30
                                G27R24R18R17R03R01
 132171272.152 6 102990614.03745  25151356.255    25151355.6164   25151358.7824
        39.700          31.8004
 129874419.859 6 101200871.47145  24714282.446    24714282.0714   24714288.0184
        36.400          31.0004
 140977640.517 6                  26827138.403
        41.500
 125663101.126 7                  23912882.623
        46.900
 198975255.762 7                  37863729.105
        45.600
 200951392.844 7                  38239788.846
        44.200
 112218276.430 7  87442837.91845  21354417.689    21354417.0774   21354417.3474
        47.800          35.0004
 148669440.909 6                  28290840.670
        38.100
 123170454.592 8                  23438536.282
        48.200
 412801856.411 5                  78553718.346
        32.500
 202109495.829 7                  38460132.479
        45.000
 102317155.476 8  79580054.412 8  19174185.547    19174185.436    19174190.799
        52.400          48.600
 131676325.735 6 102604940.72242  25057170.308    25057169.2624   25057171.1894
        36.100          15.9004
 133452547.402 6 103989045.51542  25395154.716    25395153.4244   25395155.5264
        38.100          17.3004
 137454679.431 6                  26156722.146
        40.500
 113960977.757 7  88800769.53946  21686049.315    21686048.9264   21686049.4664
        46.400          36.5004
 119561707.741 7  93165016.43246  22751817.754    22751817.2544   22751817.1954
        44.200          41.2004
 135684629.957 5 105728311.40243  25819921.784    25819921.1184   25819926.1684
        34.000          22.5004
 109795820.691 8  85555190.29646  20893443.576    20893443.2504   20893443.4004
        48.700          40.0004
 130803153.858 7                  24891009.883
        44.600
 113149355.469 7  88168365.35247  21531592.126    21531591.5004   21531592.3884
        47.500          46.6004
 104655701.611 8  81549917.82048  19915308.129    19915307.7324   19915307.6494
        49.300          50.5004
 132759082.327 7                  25263212.075
        44.600
 136207484.014 5 106135712.66744  25919423.152    25919422.3254   25919426.3204
        35.900          26.6004
 133303213.867 5 103872645.69744  25366757.918    25366757.1634   25366761.2194
        35.500          24.5004
 110841502.861 8  86210128.458 7  20727906.678    20727906.949    20727913.888
        51.300          47.000
 117388377.148 7  91302112.912 7  21990791.499    21990791.453    21990797.608
        47.300          44.200
 102977991.641 8  80094038.645 8  19243893.917    19243894.252    19243899.624
        53.000          48.100
 114597473.286 8  89131399.207 7  21407768.454    21407768.840    21407774.948
        48.000          45.100
 113615616.340 7  88367755.077 6  21254137.914    21254137.779    21254144.300
        47.900          40.000
 25  1  1  7 15 30.0000000  0 30G10G24E03E08S31S35G13E21E13S48S33R02
                                G16G20E15G23G05G26G18E07G29G15E26G30
                                G27R24R18R17R03R01
 132132060.275 6 102960059.33845  25143894.420    25143893.7904   25143897.1734
        40.600          32.6004
 129825109.582 6 101162447.84745  24704898.738    24704898.3544   24704904.4654
        37.800          30.9004
 141013592.436 6                  26833979.416
        41.200
 125664508.723 7                  23913150.600
        47.200
 198975251.537 7                  37863730.003
        45.600
 200951400.640 7                  38239791.864
        44.300
 112244250.755 7  87463077.64145  21359360.495    21359359.8874   21359360.1144
        47.300          35.2004
 148706767.390 6                  28297943.632
        37.300
 123170659.904 8                  23438575.079
        48.100
 412801613.889 5                  78553695.295
        33.200
 202109467.269 7                  38460123.795
        45.100
 102319533.368 8  79581903.882 8  19174630.698    19174631.145    19174636.535
        52.700          48.900
 131690111.131 5 102615682.62342  25059793.428    25059792.4134   25059794.2614
        35.400          15.8004
 133494490.947 6 104021728.78842  25403135.940    25403134.6264   25403136.9614
        38.500          17.9004
 137483272.305 6                  26162162.817
        40.900
 113934117.489 7  88779839.47346  21680937.820    21680937.4364   21680938.1744
        46.500          36.7004
 119602001.689 7  93196414.28646  22759485.583    22759485.0924   22759485.0394
        44.600          41.4004
 135714410.462 6 105751516.96644  25825589.613    25825588.9524   25825593.4044
        36.700          24.7004
 109772403.229 8  85536942.92546  20888987.205    20888986.8704   20888987.1824
        48.700          40.2004
 130765811.490 7                  24883903.865
        44.800
 113189008.834 7  88199264.06747  21539137.832    21539137.2064   21539138.1664
        47.500          46.8004
 104653535.387 8  81548229.85548  19914895.934    19914895.5374   19914895.4324
        49.800          50.6004
 132729786.941 7                  25257637.239
        44.700
 136221187.966 5 106146390.93344  25922030.484    25922029.6754   25922034.3944
        35.000          26.9004
 133253821.291 5 103834157.98544  25357359.545    25357358.8124   25357362.0564
        35.500          26.3004
 110881860.258 8  86241517.472 7  20735453.856    20735454.047    20735461.088
        51.100          47.000
 117333485.527 7  91259419.469 7  21980508.134    21980508.389    21980514.719
        47.400          44.200
 102960498.343 8  80080432.725 8  19240624.842    19240625.112    19240630.636
        52.900          48.100
 114547605.817 8  89092613.417 7  21398452.029    21398453.100    21398459.722
        48.200          45.000
 113667356.076 7  88407997.075 6  21263815.778    21263816.087    21263823.266
        47.300          40.100
 25  1  1  7 15 45.0000000  0 30G10G24E03E08S31S35G13E21E13S48S33R02
                                G16G20E15G23G05G26G18E07G29G15E26G30
                                G27R24R18R17R03R01
 132092867.001 6 102929519.12545  25136435.641    25136435.0114   25136438.9764
        38.800          32.5004
 129775783.687 6 101124012.04145  24695512.890    24695512.4664   24695517.8854
        36.600          31.0004
 141049593.803 6                  26840830.270
        40.900
 125666016.607 7                  23913437.454
        47.100
 198975242.933 7                  37863726.216
        45.400
 200951402.855 7                  38239792.352
        44.200
 112270362.358 7  87483424.33745  21364329.498    21364328.8864   21364328.9094
        47.100          35.4004
 148744085.066 6                  28305045.125
        37.200
 123170909.774 8                  23438622.901
        48.300
 412801365.749 5                  78553660.989
        32.900
 202109433.346 7                  38460115.523
        44.800
 102322074.768 8  79583880.518 8  19175106.964    19175107.377    19175112.759
        52.600          48.900
 131704009.367 6 102626512.46542  25062439.005    25062437.9954   25062438.7924
        36.100          15.0004
 133536422.419 6 104054402.64542  25411115.621    25411114.3114   25411116.3344
        36.600          16.9004
 137511898.455 6                  26167610.619
        40.700
 113907308.482 7  88758949.34146  21675836.078    21675835.6894   21675836.5494
        46.300          36.8004
 119642310.542 7  93227823.76046  22767155.728    22767155.2324   22767155.6304
        44.400          41.5004
 135744231.815 5 105774754.40043  25831263.767    25831263.1064   25831267.6024
        35.300          23.9004
 109749051.849 8  85518747.04046  20884543.536    20884543.1974   20884543.5614
        48.000          40.3004
 130728527.267 7                  24876809.011
        45.000
 113228764.904 7  88230242.81747  21546703.028    21546702.3944   21546703.5034
        47.200          47.0004
 104651521.934 8  81546660.93348  19914512.703    19914512.3064   19914512.2814
        49.000          50.7004
 132700499.181 7                  25252063.958
        44.800
 136234999.226 5 106157152.70044  25924659.462    25924658.6714   25924662.6444
        34.000          24.5004
 133204482.319 5 103795712.07243  25347970.145    25347969.4264   25347973.3574
        33.000          22.5004
 110922335.061 8  86272997.821 7  20743023.078    20743023.019    20743030.239
        51.000          46.900
 117278621.943 7  91216747.735 7  21970230.686    21970230.829    21970236.824
        47.400          44.200
 102943144.736 8  80066935.470 8  19237381.609    19237381.991    19237387.837
        52.500          48.100
 114497838.174 7  89053905.265 7  21389155.604    21389155.850    21389162.355
        47.900          45.200
 113719156.952 8  88448286.624 6  21273507.142    21273506.911    21273513.608
        48.100          40.600
 25  1  1  7 16  0.0000000  0 30G10G24E03E08S31S35G13E21E13S48S33R02
                                G16G20E15G23G05G26G18E07G29G15E26G30
                                G27R24R18R17R03R01
 132053700.741 6 102898999.97645  25128983.126    25128982.5054   25128986.0514
        40.300          32.8004
 129726450.751 6 101085570.70445  24686125.310    24686124.8684   24686130.0144
        36.700          31.2004
 141085652.817 6                  26847692.344
        40.900
 125667633.042 7                  23913744.988
        47.100
 198975237.663 7                  37863725.058
        45.500
 200951408.827 7                  38239788.569
        44.000
 112296619.218 7  87503884.21945  21369325.970    21369325.3624   21369325.5094
        47.400          35.3004
 148781401.991 6                  28312146.244
        38.000
 123171212.574 8                  23438680.457
        48.300
 412801120.806 5                  78553640.741
        33.100
 202109403.492 7                  38460114.016
        45.100
 102324787.633 8  79585990.533 8  19175615.291    19175615.676    19175621.079
        52.600          48.800
 131718028.602 6 102637436.54642  25065105.255    25065104.2854   25065106.3974
        36.000          14.7004
 133578350.236 6 104087073.64642  25419094.583    25419093.2734   25419095.0554
        38.500          17.5004
 137540566.185 6                  26173065.796
        40.800
 113880559.024 7  88738105.62146  21670746.135    21670745.7464   21670746.3084
        46.400          36.8004
 119682642.814 7  93259251.47846  22774830.878    22774830.3914   22774830.5444
        44.800          41.6004
 135774102.013 5 105798029.87843  25836947.756    25836947.0904   25836951.9434
        33.200          22.2004
 109725775.115 8  85500609.32346  20880114.321    20880113.9824   20880114.1554
        48.800          40.3004
 130691309.665 7                  24869726.542
        44.900
 113268631.740 7  88261307.85447  21554289.663    21554289.0294   21554289.9374
        47.800          47.0004
 104649669.769 8  81545217.69248  19914160.195    19914159.7934   19914159.8194
        49.600          50.8004
 132671227.442 7                  25246493.822
        44.800
 136248926.315 5 106168004.94444  25927309.754    25927308.9674   25927313.2024
        33.100          25.5004
 133155205.941 5 103757314.89744  25338593.395    25338592.6984   25338596.2534
        35.700          27.2004
 110962935.780 8  86304576.109 7  20750615.509    20750615.821    20750622.818
        51.000          47.000
 117223795.590 7  91174104.999 7  21959959.672    21959960.317    21959966.410
        47.900          44.500
 102925939.486 8  80053553.606 8  19234166.796    19234167.016    19234172.535
        52.700          48.200
 114448178.332 8  89015280.936 7  21379878.421    21379878.964    21379885.773
        48.400          45.300
 113771026.996 7  88488629.977 6  21283209.894    21283210.212    21283216.952
        47.600          39.800
 25  1  1  7 16 15.0000000  0 30G10G24E03E08S31S35G13E21E13S48S33R02
                                G16G20E15G23G05G26G18E07G29G15E26G30
                                G27R24R18R17R03R01
 132014561.530 6 102868501.88145  25121534.908    25121534.2914   25121537.7284
        39.700          32.3004
 129677111.553 6 101047124.54445  24676735.993    24676735.5644   24676741.3104
        37.700          32.0004
 141121769.186 6                  26854565.111
        41.300
 125669358.089 7                  23914073.330
        47.500
 198975235.867 7                  37863722.594
        45.700
 200951418.215 7                  38239793.465
        44.100
 112323021.273 7  87524457.24145  21374350.042    21374349.4394   21374349.5924
        47.900          35.3004
 148818718.058 6                  28319247.643
        37.900
 123171568.542 8                  23438748.102
        48.500
 412800879.000 5                  78553612.834
        33.100
 202109376.713 7                  38460108.654
        44.900
 102327671.865 8  79588233.819 8  19176155.944    19176156.143    19176161.538
        52.800          48.700
 131732168.758 6 102648454.87642  25067796.284    25067795.2784   25067797.2764
        36.400          15.7004
 133620274.403 6 104119741.79843  25427072.355    25427071.0234   25427072.5864
        38.300          18.0004
 137569275.583 6                  26178529.327
        41.400
 113853869.206 7  88717308.37746  21665667.196    21665666.8074   21665667.4224
        46.400          36.9004
 119722998.357 7  93290697.34646  22782510.083    22782509.5924   22782509.8944
        44.700          41.6004
 135804020.738 5 105821343.15644  25842641.973    25842641.3034   25842645.8564
        35.900          24.6004
 109702573.320 8  85482529.99346  20875699.039    20875698.6914   20875698.9954
        48.800          40.4004
 130654158.973 7                  24862656.905
        45.200
 113308609.154 7  88292459.01947  21561897.169    21561896.5264   21561897.3124
        47.900          46.9004
 104647978.877 8  81543900.11748  19913838.582    19913838.1804   19913838.0594
        49.800          50.9004
 132641971.933 7                  25240926.497
        45.000
 136262968.905 5 106178947.03044  25929980.539    25929979.7394   25929985.6544
        33.500          24.5004
 133105992.292 5 103718966.63644  25329228.534    25329227.8414   25329231.1554
        35.100          24.0004
 111003662.362 8  86336252.270 7  20758231.577    20758231.575    20758238.957
        51.000          47.100
 117169006.860 7  91131491.533 7  21949695.875    21949695.958    21949702.413
        47.700          44.300
 102908883.062 8  80040287.479 8  19230979.185    19230979.527    19230984.988
        52.900          48.100
 114398627.292 8  88976741.238 7  21370622.623    21370622.548    21370629.479
        48.100          45.400
 113822965.970 7  88529026.921 6  21292925.845    21292925.997    21292933.077
        47.100          39.800
 25  1  1  7 16 30.0000000  0 30G10G24E03E08S31S35G13E21E13S48S33R02
                                G16G20E15G23G05G26G18E07G29G15E26G30
                                G27R24R18R17R03R01
 131975436.870 6 102838015.14245  25114090.291    25114089.6744   25114092.9734
        39.800          32.3004
 129627753.598 6 101008663.76245  24667343.046    24667342.6044   24667349.1234
        36.800          31.2004
 141157930.300 6                  26861446.383
        40.700
 125671179.109 7                  23914419.846
        47.500
 198975224.807 7                  37863721.820
        45.600
 200951418.978 7                  38239792.955
        44.300
 112349555.649 7  87545133.37245  21379399.417    21379398.8144   21379398.9394
        47.500          35.0004
 148856020.448 6                  28326345.878
        38.100
 123171965.207 8                  23438823.630
        48.300
 412800628.939 5                  78553583.741
        33.100
 202109341.052 7                  38460100.954
        44.900
 102330714.806 8  79590600.559 8  19176726.249    19176726.413    19176731.831
        52.700          48.700
 131746417.060 6 102659557.46242  25070508.086    25070507.1254   25070508.6314
        36.400          15.9004
 133662182.512 6 104152397.51842  25435047.133    25435045.7884   25435047.2374
        38.100          16.6004
 137598014.148 6                  26183997.956
        40.600
 113827226.462 7  88696547.80646  21660596.917    21660596.5334   21660597.4474
        46.200          36.5004
 119763364.401 7  93322151.38746  22790191.467    22790190.9804   22790191.3724
        44.300          41.2004
 135833975.091 5 105844684.19544  25848341.460    25848340.7854   25848345.8254
        35.300          24.0004
 109679434.142 8  85464499.46046  20871295.919    20871295.5664   20871295.7754
        48.300          40.1004
 130617062.800 7                  24855598.079
        45.400
 113348684.349 7  88323686.40847  21569523.324    21569522.6904   21569523.4144
        47.300          46.7004
 104646436.393 8  81542698.18648  19913544.944    19913544.5384   19913544.5294
        49.300          50.6004
 132612720.173 7                  25235360.216
        44.600
 136277114.831 5 106189969.90443  25932673.094    25932672.2944   25932677.5804
        33.500          22.4004
 133056829.267 5 103680657.85344  25319872.318    25319871.6344   25319875.4744
        35.100          25.3004
 111044501.730 8  86368016.172 7  20765869.390    20765869.156    20765876.162
        50.900          47.000
 117114243.346 7  91088897.684 7  21939436.363    21939436.880    21939443.031
        47.700          44.200
 102891962.976 8  80027127.425 8  19227816.997    19227817.535    19227823.162
        52.700          48.100
 114349172.282 8  88938276.249 7  21361383.567    21361384.006    21361390.221
        48.300          45.300
 113874960.561 7  88569467.165 6  21302653.083    21302653.140    21302659.599
        47.200          39.700
 25  1  1  7 16 45.0000000  0 30G10G24E03E08S31S35G13E21E13S48S33R02
                                G16G20E15G23G05G26G18E07G29G15E26G30
                                G27R24R18R17R03R01
 131936342.403 6 102807551.91745  25106650.434    25106649.8224   25106653.5974
        40.300          32.4004
 129578393.161 6 100970201.10045  24657950.751    24657950.2914   24657955.9564
        37.100          30.9004
 141194151.483 6                  26868339.123
        41.400
 125673111.708 7                  23914787.704
        47.400
 198975220.488 7                  37863721.159
        45.600
 200951425.569 7                  38239793.166
        43.800
 112376237.733 7  87565924.59345  21384477.049    21384476.4504   21384476.4044
        47.200          35.0004
 148893324.542 6                  28333444.860
        38.300
 123172418.302 8                  23438909.879
        48.600
 412800386.263 5                  78553556.125
        33.000
 202109311.722 7                  38460094.810
        44.900
 102333931.975 8  79593102.810 8  19177329.155    19177329.354    19177334.833
        52.500          48.700
 131760788.961 6 102670756.38142  25073241.714    25073240.7674   25073243.3594
        36.000          15.6004
 133704090.053 6 104185052.70143  25443021.532    25443020.2184   25443021.9874
        39.000          18.1004
 137626797.494 6                  26189475.511
        41.200
 113800646.420 7  88675836.08446  21655539.091    21655538.7024   21655539.3534
        46.700          36.7004
 119803756.449 7  93353625.66746  22797878.165    22797877.6744   22797877.7874
        44.900          41.0004
 135863980.453 5 105868064.96843  25854051.709    25854051.0524   25854055.2644
        31.300          20.8004
 109656373.436 8  85446530.06946  20866907.573    20866907.2164   20866907.4774
        48.600          39.9004
 130580036.884 7                  24848552.112
        45.300
 113388872.514 7  88355001.80547  21577171.138    21577170.5124   21577170.9804
        46.800          46.1004
 104645058.297 8  81541624.34548  19913282.964    19913282.5674   19913282.2864
        49.200          50.5004
 132583487.927 7                  25229797.269
        44.800
 136291379.207 5 106201084.99144  25935387.803    25935386.9904   25935392.2754
        35.600          28.1004
 133007732.586 5 103642400.72744  25310530.179    25310529.4914   25310532.6854
        35.100          25.5004
 111085469.826 8  86399880.198 7  20773530.142    20773530.311    20773537.469
        51.100          47.000
 117059521.425 7  91046336.187 7  21929186.193    21929185.900    21929192.167
        47.700          44.300
 102875195.442 8  80014086.001 8  19224684.015    19224684.193    19224689.717
        52.500          48.200
 114299829.686 8  88899898.707 7  21352166.016    21352166.369    21352172.709
        48.500          45.300
 113927026.209 8  88609962.696 6  21312393.116    21312392.901    21312399.996
        48.100          40.000
 25  1  1  7 17  0.0000000  0 31G10G24E03E08S31S35G13E21E13S48S33R02
                                G16G20E15G23G05E31G26G18E07G29G15E26
                                G30G27R24R18R17R03R01
 131897270.200 6 102777106.05145  25099214.772    25099214.1424   25099218.4294
        39.600          32.2004
 129529022.521 6 100931730.49945  24648554.749    24648554.2804   24648560.9834
        37.600          31.0004
 141230424.576 6                  26875241.270
        40.800
 125675147.875 7                  23915175.192
        47.100
 198975214.768 7                  37863722.437
        45.900
 200951431.543 7                  38239790.885
        44.000
 112403059.405 7  87586824.58945  21389581.161    21389580.5674   21389580.4084
        46.900          34.9004
 148930622.161 6                  28340542.184
        38.200
 123172919.976 8                  23439005.325
        48.200
 412800142.404 5                  78553519.766
        33.300
 202109281.126 7                  38460086.247
        45.000
 102337315.136 8  79595734.161 8  19177963.126    19177963.367    19177968.753
        52.700          48.600
 131775276.164 5 102682045.13442  25076000.034    25075999.0954   25076000.0214
        35.800          15.7004
 133745989.026 6 104217701.23542  25450994.746    25450993.4544   25450995.1944
        37.800          17.7004
 137655617.714 6                  26194959.837
        41.100
 113774121.104 7  88655167.01946  21650491.330    21650490.9374   21650491.7774
        46.700          36.5004
 119844166.363 7  93385113.88846  22805567.488    22805566.9924   22805567.5654
        44.800          41.0004


 135894028.583 5 105891479.09543  25859769.919    25859769.3024   25859772.7524
        35.300          19.8004
 109633383.494 8  85428615.83546  20862532.859    20862532.5024   20862532.6474
        48.300          40.0004
 130543073.520 7                  24841517.978
        44.800
 113429165.440 7  88386398.86947  21584838.443    21584837.8174   21584838.5204
        46.900          46.2004
 104643836.529 8  81540672.32048  19913050.223    19913049.8304   19913049.7884
        49.400          50.6004
 132554267.344 7                  25224237.275
        44.800
 136305754.114 5 106212286.18744  25938123.968    25938123.1684   25938127.5274
        35.600          27.5004
 132958694.839 5 103604189.56244  25301198.843    25301198.1684   25301200.9144
        35.400          25.5004
 111126558.103 8  86431837.708 7  20781213.759    20781213.949    20781221.040
        50.500          46.700
 117004833.288 7  91003800.956 7  21918940.664    21918941.095    21918947.161
        47.300          44.400
 102858572.990 8  80001157.421 8  19221577.557    19221577.766    19221583.433
        52.800          48.100
 114250591.528 8  88861602.368 7  21342967.240    21342968.425    21342974.765
        49.100          45.400
 113979154.355 7  88650506.802 6  21322144.374    21322144.352    21322151.147
        47.200          39.400
 25  1  1  7 17 15.0000000  0 31G10G24E03E08S31S35G13E21E13S48S33R02
                                G16G20E15G23G05E31G26G18E07G29G15E26
                                G30G27R24R18R17R03R01
 131858221.506 6 102746678.50245  25091784.876    25091784.2284   25091787.9204
        38.800          32.5004
 129479643.371 6 100893253.30645  24639159.372    24639158.8944   24639164.0304
        37.100          30.8004
 141266750.566 6                  26882154.126
        41.100
 125677288.819 7                  23915582.659
        47.200
 198975208.844 7                  37863718.301
        45.600
 200951436.638 7                  38239800.150
        44.200
 112430021.584 7  87607834.07045  21394711.807    21394711.2174   21394711.1304
        47.500          34.8004
 148967914.293 6                  28347638.343
        37.900
 123173471.580 8                  23439110.185
        48.300
 412799898.606 5                  78553491.241
        33.200
 202109249.809 7                  38460080.680
        45.000
 102340865.327 8  79598495.410 8  19178628.222    19178628.597    19178634.063
        52.500          48.700
 131789879.719 6 102693424.53642  25078778.676    25078777.7204   25078778.7814
        36.000          14.6004
 133787880.486 6 104250343.92542  25458966.516    25458965.2604   25458966.5284
        37.700          16.5004
 137684476.050 6                  26200451.551
        40.900
 113747651.782 7  88634541.58346  21645454.164    21645453.7584   21645454.8024
        46.500          36.5004
 119884595.565 7  93416617.13546  22813260.799    22813260.2944   22813260.9964
        44.500          40.9004


 135924120.207 6 105914927.14644  25865495.597    25865494.9494   25865499.4964
        37.200          25.0004
 109610465.734 8  85410757.83146  20858171.618    20858171.2614   20858171.4874
        48.300          40.0004
 130506174.127 7                  24834496.417
        45.400
 113469564.163 7  88417878.38947  21592525.950    21592525.3244   21592526.1744
        47.100          46.1004
 104642772.042 8  81539842.85248  19912847.910    19912847.5174   19912847.2104
        49.500          50.5004
 132525059.772 7                  25218679.024
        44.400
 136320240.765 5 106223574.55544  25940880.457    25940879.6444   25940883.8934
        33.100          24.7004
 132909717.621 5 103566025.60544  25291878.192    25291877.5404   25291881.0914
        35.600          26.0004
 111167767.913 8  86463889.724 7  20788920.244    20788920.634    20788927.761
        51.100          46.900
 116950180.696 7  90961293.370 7  21908702.613    21908703.038    21908708.585
        47.900          44.100
 102842096.963 8  79988342.729 8  19218498.327    19218498.799    19218504.578
        52.700          48.100
 114201459.054 8  88823388.247 7  21333789.603    21333789.422    21333796.348
        48.300          45.400
 114031346.050 7  88691100.340 6  21331908.192    21331908.203    21331914.590
        47.400          40.200
 25  1  1  7 17 30.0000000  0 31G10G24E03E08S31S35G13E21E13S48S33R02
                                G16G20E15G23G05E31G26G18E07G29G15E26
                                G30G27R24R18R17R03R01
 131819198.661 6 102716271.09545  25084358.912    25084358.2554   25084361.9234
        38.900          32.0004
 129430258.334 6 100854771.53145  24629760.670    24629760.1794   24629766.0794
        36.900          30.7004
 141303131.814 6                  26889077.470
        41.000
 125679536.791 7                  23916010.295
        46.900
 198975205.531 7                  37863714.219
        45.600
 200951444.828 7                  38239795.782
        44.400
 112457125.928 7  87628954.32645  21399869.536    21399868.9374   21399868.9274
        47.500          34.8004
 149005203.020 6                  28354734.605
        38.200
 123174075.549 8                  23439225.363
        48.000
 412801256.146 5                  78553467.287
        32.900
 202109222.133 7                  38460072.685
        44.800
 102344584.608 8  79601388.191 8  19179325.470    19179325.589    19179330.984
        52.600          48.700
 131804601.740 5 102704896.22942  25081580.513    25081579.5664   25081580.3424
        35.400          15.4004
 133829766.930 6 104282982.71042  25466937.587    25466936.3274   25466937.7904
        38.600          17.3004
 137713374.872 6                  26205950.399
        40.200
 113721240.741 7  88613961.55946  21640428.676    21640428.2654   21640428.9624
        46.900          36.5004
 119925045.785 7  93448136.74946  22820958.906    22820958.4014   22820958.4474
        44.200          40.9004


 135954257.447 5 105938410.72444  25871230.142    25871229.4944   25871234.8804
        34.000          24.1004
 109587622.760 8  85392958.11446  20853824.823    20853824.4664   20853824.6234
        48.500          39.9004
 130469341.148 7                  24827487.460
        45.100
 113510070.626 7  88449441.84947  21600234.131    21600233.5104   21600234.2994
        47.300          46.0004
 104641867.009 8  81539137.63248  19912675.621    19912675.2244   19912674.9864
        49.800          50.5004
 132495867.645 7                  25213123.878
        44.500
 136334841.165 5 106234951.47044  25943659.252    25943658.4304   25943662.2914
        34.400          25.4004
 132860803.327 6 103527910.60044  25282570.763    25282570.1114   25282572.9934
        37.700          27.9004
 111209101.395 8  86496037.934 7  20796649.881    20796650.142    20796657.313
        51.200          47.000
 116895566.396 8  90918815.587 7  21898471.635    21898471.653    21898477.929
        48.000          44.500
 102825770.085 8  79975644.045 8  19215447.571    19215447.829    19215453.545
        52.600          48.200
 114152435.555 8  88785258.845 7  21324631.573    21324632.389    21324638.367
        49.600          45.400
 114083603.025 7  88731744.647 6  21341683.756    21341683.532    21341690.402
        46.800          39.700
 25  1  1  7 17 45.0000000  0 31G10G24E03E08S31S35G13E21E13S48S33R02
                                G16G20E15G23G05E31G26G18E07G29G15E26
                                G30G27R24R18R17R03R01
 131780196.449 6 102685879.75945  25076936.702    25076936.0634   25076939.8534
        39.600          31.8004
 129380862.414 6 100816281.22045  24620360.968    24620360.4684   24620366.5584
        37.500          31.1004
 141339562.741 6                  26896009.682
        40.500
 125681886.498 7                  23916457.502
        46.900
 198975198.332 7                  37863714.836
        45.700
 200951449.471 7                  38239794.011
        44.100
 112484367.549 7  87650181.55745  21405053.268    21405052.6694   21405052.8084
        47.200          34.9004
 149042482.832 6                  28361828.491
        38.300
 123174726.748 8                  23439349.103
        48.100
 412801011.081 5                  78553441.356
        33.200
 202109190.060 7                  38460071.540
        44.900
 102348467.431 8  79604408.174 8  19180053.184    19180053.341    19180058.566
        52.600          48.600
 131819436.761 5 102716455.95242  25084403.260    25084402.2954   25084403.3354
        35.800          14.5004
 133871643.294 6 104315613.62842  25474906.103    25474904.7984   25474906.9504
        37.800          16.2004
 137742308.910 6                  26211456.806
        40.700
 113694882.750 7  88593422.87846  21635412.779    21635412.3644   21635413.2374
        46.700          36.5004
 119965512.085 7  93479668.89646  22828659.137    22828658.6324   22828658.9174
        44.700          40.8004
 151812349.013 5                  28888931.928
        34.200
 135984434.620 5 105961925.35243  25876972.919    25876972.2624   25876977.4504
        33.400          20.6004
 109564849.514 8  85375212.72546  20849491.198    20849490.8364   20849491.0214
        48.500          39.9004
 130432569.508 7                  24820490.214
        45.100
 113550679.189 7  88481084.86347  21607961.649    21607961.0284   21607961.7994
        47.100          45.8004
 104641116.552 8  81538552.86148  19912532.591    19912532.1944   19912532.1944
        49.600          50.5004
 132466685.819 7                  25207570.862
        44.200
 136349550.021 5 106246412.77444  25946457.405    25946456.5694   25946461.2364
        35.400          26.5004
 132811947.181 5 103489840.89144  25273272.248    25273271.6054   25273276.0884
        35.100          25.2004
 111250552.873 8  86528277.921 7  20804401.507    20804401.884    20804409.135
        51.200          46.700
 116840985.394 8  90876363.694 7  21888246.952    21888247.180    21888253.309
        48.500          44.500
 102809587.484 8  79963057.573 7  19212423.319    19212423.783    19212429.329
        52.600          47.900
 114103515.375 8  88747209.849 7  21315492.542    21315493.291    21315500.235
        49.000          46.000
 114135919.558 7  88772435.300 6  21351471.363    21351471.220    21351477.532
        47.700          39.600
 25  1  1  7 18  0.0000000  0 31G10G24E03E08S31S35G13E21E13S48S33R02
                                G16G20E15G23G05E31G26G18E07G29G15E26
                                G30G27R24R18R17R03R01
 131741221.285 6 102655509.50345  25069520.853    25069520.2324   25069522.9964
        39.300          31.9004
 129331462.473 6 100777787.76345  24610961.012    24610960.5034   24610966.5374
        36.700          31.0004
 141376049.423 6                  26902953.070
        41.100
 125684344.251 7                  23916925.203
        47.200
 198975195.127 7                  37863714.183
        45.300
 200951457.397 7                  38239800.834
        44.100
 112511752.426 7  87671520.41145  21410264.619    21410264.0254   21410264.0014
        47.400          34.7004
 149079759.879 6                  28368922.011
        37.900
 123175431.647 8                  23439483.308
        48.200
 412800769.563 5                  78553409.420
        32.700
 202109161.875 7                  38460064.193
        44.600
 102352520.140 8  79607560.279 8  19180812.762    19180812.882    19180818.098
        52.600          48.700
 131834391.005 6 102728108.63342  25087249.460    25087248.4774   25087249.0764
        36.000          15.2004
 133913515.966 6 104348241.69042  25482874.343    25482873.0334   25482874.9394
        38.000          16.6004
 137771284.570 6                  26216969.863
        40.600
 113668584.153 7  88572930.47546  21630408.294    21630407.8794   21630408.7324
        46.500          36.5004
 120006000.837 7  93511218.53146  22836363.979    22836363.4744   22836363.6974
        44.100          40.7004
 151806782.171 5                  28887872.443
        33.400
 136014657.955 5 105985475.95843  25882725.137    25882724.4804   25882728.6144
        35.100          22.1004
 109542152.581 8  85357526.80446  20845172.099    20845171.7374   20845171.9574
        48.200          39.9004
 130395865.808 7                  24813505.485
        45.300
 113591396.053 7  88512812.28947  21615709.844    21615709.2144   21615709.9414
        47.100          45.9004
 104640526.994 8  81538093.46748  19912420.441    19912420.0394   19912420.0234
        49.600          50.6004
 132437520.805 7                  25202020.964
        44.400
 136364374.024 5 106257963.90944  25949278.103    25949277.2634   25949282.1904
        35.100          25.3004
 132763155.850 5 103451821.63843  25263989.063    25263988.4114   25263991.5324
        34.800          23.9004
 111292128.822 8  86560614.711 7  20812176.094    20812176.864    20812183.954
        50.800          46.800
 116786444.563 7  90833943.052 7  21878028.972    21878029.214    21878035.964
        47.300          44.600
 102793555.933 8  79950588.582 8  19209427.789    19209427.845    19209433.489
        52.500          48.100
 114054705.777 8  88709246.845 7  21306375.170    21306375.371    21306381.922
        48.500          45.700
 114188301.638 7  88813176.908 6  21361269.939    21361269.731    21361276.592
        47.300          39.800
 25  1  1  7 18 15.0000000  0 31G10G24E03E08S31S35G13E21E13S48S33R02
                                G16G20E15G23G05E31G26G18E07G29G15E26
                                G30G27R24R18R17R03R01
 131702267.323 6 102625155.77145  25062107.182    25062106.5484   25062110.4944
        39.900          32.2004
 129282053.138 6 100739286.99445  24601558.117    24601557.6174   24601564.0114
        38.200          31.0004
 141412585.790 6                  26909905.756
        41.300
 125686904.172 7                  23917412.465
        47.300
 198975189.292 7                  37863716.401
        45.800
 200951463.185 7                  38239799.578
        44.200
 112539274.436 7  87692966.12245  21415501.822    21415501.2234   21415501.2644
        47.800          34.7004
 149117028.086 6                  28376014.239
        37.800
 123176184.504 8                  23439626.709
        48.200
 412800525.481 5                  78553385.063
        32.700
 202109130.300 7                  38460057.486
        44.800
 102356736.842 8  79610839.930 8  19181602.747    19181603.040    19181608.305
        52.700          48.600
 131849458.398 6 102739849.46742  25090115.844    25090114.8834   25090116.4014
        36.000          15.6004
 133955378.874 6 104380862.11842  25490839.944    25490838.6254   25490841.1834
        38.200          17.5004
 137800296.041 6                  26222491.110
        41.200
 113642339.146 7  88552479.82546  21625414.254    21625413.8394   21625414.4174
        46.400          36.4004
 120046505.618 7  93542780.67746  22844072.034    22844071.5254   22844071.5584
        44.400          40.8004
 151801311.293 5                  28886831.630
        34.700
 136044921.125 5 106009057.72943  25888483.476    25888482.8374   25888487.3574
        33.800          19.9004
 109519526.392 8  85339896.00446  20840866.545    20840866.1884   20840866.3354
        48.300          39.9004
 130359224.461 7                  24806532.845
        45.400
 113632214.794 7  88544619.03847  21623477.533    21623476.9074   21623477.4624
        46.800          45.6004
 104640092.226 8  81537754.68748  19912337.820    19912337.4184   19912337.2854
        49.600          50.6004
 132408366.838 7                  25196472.937
        44.500
 136379306.906 5 106269599.89044  25952120.010    25952119.1704   25952123.9514
        34.100          25.3004
 132714423.989 5 103413848.77844  25254715.001    25254714.3444   25254718.1164
        35.600          27.0004
 111333822.983 8  86593043.453 7  20819973.649    20819973.813    20819981.230
        51.100          46.800
 116731938.409 8  90791549.341 7  21867818.834    21867818.863    21867825.019
        48.100          44.700
 102777669.626 8  79938232.543 8  19206458.836    19206459.058    19206464.775
        52.700          48.100
 114006000.463 8  88671364.933 7  21297276.022    21297276.764    21297283.422
        49.200          45.600
 114240743.096 7  88853964.697 6  21371080.510    21371080.265    21371087.180
        47.400          39.600
 25  1  1  7 18 30.0000000  0 31G10G24E03E08S31S35G13E21E13S48S33R02
                                G16G20E15G23G05E31G26G18E07G29G15E26
                                G30G27R24R18R17R03R01
 131663338.452 6 102594821.58445  25054699.540    25054698.9014   25054702.6754
        39.400          32.7004
 129232638.536 6 100700782.10645  24592155.335    24592154.8304   24592160.3864
        37.600          31.2004
 141449175.622 6                  26916868.812
        41.400
 125689570.102 7                  23917919.630
        47.700
 198975184.336 7                  37863710.767
        45.400
 200951470.156 7                  38239797.771
        44.100
 112566937.203 7  87714521.51545  21420765.888    21420765.2764   21420765.3704
        47.300          34.9004
 149154291.077 6                  28383104.685
        38.300
 123176989.322 8                  23439779.806
        48.400
 412800282.755 5                  78553365.705
        33.200
 202109101.089 7                  38460057.477
        44.800
 102361120.710 8  79614249.614 8  19182424.144    19182424.513    19182429.845
        52.600          48.500
 131864642.351 6 102751681.09842  25093005.683    25093004.7584   25093005.8384
        36.200          15.8004
 133997235.868 6 104413477.97442  25498805.329    25498804.0284   25498806.2254
        36.100          15.9004
 137829347.205 6                  26228018.916
        41.100
 113616151.573 7  88532073.93046  21620430.736    21620430.3164   21620431.0534
        46.900          36.6004
 120087030.636 7  93574358.57946  22851783.404    22851782.8954   22851783.2114
        44.100          40.9004
 151795940.230 5                  28885809.256
        35.600
 136075227.692 6 106032673.20643  25894251.562    25894250.9284   25894254.7714
        36.000          23.6004
 109496975.028 8  85322323.51046  20836575.220    20836574.8584   20836574.9364
        48.200          40.1004
 130322649.432 7                  24799572.954
        45.200
 113673139.267 7  88576508.18747  21631265.300    21631264.6744   21631265.1594
        46.900          45.8004
 104639816.011 8  81537539.45348  19912285.231    19912284.8344   19912284.7304
        49.500          50.8004
 132379227.927 7                  25190928.139
        44.800
 136394352.660 5 106281323.80644  25954982.724    25954981.8934   25954987.1094
        33.600          24.3004
 132665755.808 6 103375925.58344  25245453.551    25245452.8854   25245456.8724
        36.600          26.9004
 111375639.356 8  86625567.263 7  20827793.655    20827793.742    20827800.868
        51.200          46.700
 116677471.340 8  90749186.082 7  21857615.640    21857615.636    21857620.897
        48.400          44.500
 102761933.090 8  79925993.015 8  19203517.991    19203518.278    19203524.070
        52.700          48.000
 113957404.014 8  88633567.715 7  21288197.844    21288198.329    21288204.816
        49.200          46.000
 114293247.195 7  88894801.211 6  21380902.586    21380902.510    21380909.162
        47.300          40.200
 25  1  1  7 18 45.0000000  0 31G10G24E03E08S31S35G13E21E13S48S33R02
                                G16G20E15G23G05E31G26G18E07G29G15E26
                                G30G27R24R18R17R03R01
 131624431.941 6 102564504.82845  25047295.642    25047295.0034   25047298.8484
        39.400          32.6004
 129183216.372 6 100662271.33645  24582750.215    24582749.7244   24582756.0674
        37.200          31.2004
 141485815.988 6                  26923840.895
        41.400
 125692339.196 7                  23918446.522
        47.800
 198975178.635 7                  37863712.314
        45.600
 200951475.878 7                  38239802.310
        43.900
 112594737.631 7  87736184.17945  21426055.995    21426055.3834   21426055.6574
        47.400          34.8004
 149191545.845 6                  28390194.261
        37.800
 123177843.446 8                  23439942.259
        48.500
 412800038.761 5                  78553336.738
        33.100
 202109069.936 7                  38460051.283
        44.900
 102365669.307 8  79617787.410 8  19183276.862    19183276.925    19183282.311
        52.900          48.600
 131879940.120 6 102763601.44942  25095917.159    25095916.2344   25095916.9324
        36.500          15.8004
 134039084.188 6 104446087.05242  25506769.003    25506767.6984   25506769.9624
        37.600          15.7004
 137858435.317 6                  26233554.691
        40.700
 113590018.679 7  88511710.65346  21615457.829    21615457.4054   21615458.1524
        46.800          36.7004
 120127573.044 7  93605950.05446  22859498.283    22859497.7694   22859498.2224
        44.100          40.8004
 151790666.254 6                  28884805.919
        36.800
 136105574.792 5 106056320.24143  25900025.984    25900025.3414   25900029.6254
        32.700          21.8004
 109474495.947 8  85304807.33746  20832297.598    20832297.2364   20832297.2934
        48.600          40.1004
 130286138.165 7                  24792625.383
        45.600
 113714166.327 7  88608477.31347  21639072.406    21639071.7764   21639072.3894
        47.300          45.7004
 104639695.600 8  81537445.63048  19912262.457    19912262.0554   19912261.8354
        49.600          50.9004
 132350101.414 7                  25185385.486
        44.900
 136409508.525 5 106293133.56844  25957867.675    25957866.8444   25957871.1134
        34.000          26.2004
 132617148.774 6 103338050.02344  25236204.727    25236204.0664   25236206.8244
        36.600          26.3004
 111417574.834 8  86658183.694 7  20835635.939    20835635.787    20835643.213
        51.100          46.800
 116623040.813 8  90706851.202 7  21847418.501    21847418.955    21847424.815
        48.200          44.900
 102746343.632 8  79913867.854 8  19200604.976    19200605.132    19200610.929
        52.700          48.200
 113908913.758 8  88595853.087 7  21279139.691    21279139.836    21279146.776
        48.700          46.000
 114345810.710 7  88935683.930 6  21390735.506    21390735.581    21390741.960
        47.200          39.700
 25  1  1  7 19  0.0000000  0 31G10G24E03E08S31S35G13E21E13S48S33R02
                                G16G20E15G23G05E31G26G18E07G29G15E26
                                G30G27R24R18R17R03R01
 131585547.292 6 102534205.09245  25039896.505    25039895.8664   25039899.3734
        39.100          32.6004
 129133786.471 6 100623754.50445  24573344.237    24573343.7554   24573349.6474
        37.000          30.7004
 141522505.999 6                  26930822.841
        40.800
 125695210.851 7                  23918993.202
        47.400
 198975171.190 7                  37863709.890
        45.600
 200951479.418 7                  38239799.091
        44.000
 112622674.890 7  87757953.46045  21431372.536    21431371.9194   21431371.9564
        47.100          34.7004
 149228791.625 6                  28397281.881
        37.600
 123178746.429 8                  23440114.202
        48.300
 412799792.817 5                  78553305.472
        33.000
 202109036.792 7                  38460042.904
        45.400
 102370381.546 8  79621452.496 8  19184159.666    19184159.968    19184165.309
        52.900          48.400
 131895351.107 5 102775610.05642  25098848.562    25098847.6554   25098849.8424
        34.400          13.8004
 134080923.406 6 104478689.02542  25514730.312    25514729.0024   25514731.6944
        38.100          16.4004
 137887559.855 6                  26239097.469
        41.100
 113563939.905 7  88491389.53546  21610495.134    21610494.7054   21610495.4924
        46.700          36.6004
 120168131.853 7  93637554.29946  22867216.535    22867216.0124   22867216.3414
        43.400          40.7004
 151785488.826 6                  28883820.777
        36.300
 136135961.183 6 106079997.90144  25905808.348    25905807.7094   25905811.7024
        37.500          24.7004
 109452088.853 8  85287347.26546  20828033.386    20828033.0114   20828033.3824
        48.300          40.0004
 130249690.293 7                  24785689.382
        45.400
 113755294.973 7  88640525.60647  21646898.690    21646898.0514   21646898.9274
        47.000          45.5004
 104639730.560 8  81537472.87348  19912269.254    19912268.8574   19912268.4894
        49.700          50.8004
 132320986.875 7                  25179844.938
        44.700
 136424773.657 5 106305028.44444  25960771.324    25960770.4934   25960776.0854
        34.000          25.7004
 132568602.660 6 103300221.91944  25226965.927    25226965.2484   25226969.0914
        36.800          26.6004
 111459628.593 8  86690892.144 7  20843500.127    20843500.352    20843507.572
        51.600          46.900
 116568646.894 8  90664544.825 7  21837228.278    21837229.191    21837234.922
        48.800          44.500
 102730901.320 8  79901857.179 8  19197719.094    19197719.241    19197725.105
        52.300          48.100
 113860529.504 8  88558220.909 7  21270101.007    21270101.176    21270107.775
        49.100          45.900
 114398432.728 7  88976612.169 6  21400579.106    21400579.067    21400586.595
        46.400          40.200
 25  1  1  7 19 15.0000000  0 31G10G24E03E08S31S35G13E21E13S48S33R02
                                G16G20E15G23G05E31G26G18E07G29G15E26
                                G30G27R24R18R17R03R01
 131546690.060 6 102503926.72445  25032502.551    25032501.9304   25032505.2194
        39.600          32.8004
 129084354.768 6 100585236.25645  24563937.902    24563937.4154   24563942.7484
        37.200          30.9004
 141559251.081 6                  26937815.138
        41.600
 125698190.633 7                  23919560.103
        47.500
 198975166.516 7                  37863710.279
        45.400
 200951487.098 7                  38239800.356
        44.200
 112650754.293 7  87779833.50445  21436715.832    21436715.2204   21436715.1914
        47.000          34.8004
 149266033.751 6                  28404369.037
        38.100
 123179703.991 8                  23440296.351
        48.200
 412799550.690 5                  78553278.329
        33.000
 202109007.718 7                  38460032.516
        44.500
 102375262.999 8  79625249.183 8  19185074.677    19185074.844    19185079.957
        52.600          48.500
 131910880.412 5 102787710.84742  25101804.196    25101803.2754   25101805.1024
        35.800          15.7004
 134122758.991 5 104511288.17842  25522692.266    25522690.9924   25522692.4034
        35.600          15.4004
 137916726.386 6                  26244647.136
        40.900
 113537920.856 7  88471114.96046  21605544.099    21605543.6794   21605544.2344
        46.400          36.8004
 120208712.635 7  93669175.64646  22874938.948    22874938.4434   22874938.6454
        44.500          40.9004
 151780413.665 5                  28882855.071
        35.900
 136166392.211 6 106103710.41444  25911598.593    25911597.9544   25911602.5244
        37.900          27.7004
 109429759.552 8  85269947.81446  20823784.231    20823783.8514   20823784.2894
        48.000          40.2004
 130213311.604 7                  24778766.576
        45.500
 113796530.633 7  88672657.25147  21654745.695    21654745.0614   21654745.8334
        47.000          45.7004
 104639926.362 8  81537625.44748  19912306.214    19912305.8124   19912305.7694
        49.700          51.0004
 132291890.035 7                  25174308.082
        44.400
 136440153.595 5 106317012.72244  25963697.938    25963697.1024   25963702.6504
        34.100          26.1004
 132520123.497 6 103262445.97044  25217741.411    25217740.7324   25217744.0044
        38.000          27.0004
 111501806.198 8  86723696.905 7  20851387.162    20851387.632    20851395.152
        50.800          46.800
 116514295.492 8  90622271.514 7  21827046.986    21827046.998    21827053.162
        48.000          44.900
 102715611.916 8  79889965.416 8  19194861.987    19194862.098    19194867.819
        52.300          48.100
 113812257.078 8  88520675.710 7  21261082.985    21261083.876    21261090.283
        49.500          46.100
 114451118.418 7  89017589.889 6  21410435.068    21410435.073    21410441.796
        46.500          39.900
 25  1  1  7 19 30.0000000  0 31G10G24E03E08S31S35G13E21E13S48S33R02
                                G16G20E15G23G05E31G26G18E07G29G15E26
                                G30G27R24R18R17R03R01
 131507857.221 6 102473667.37745  25025112.257    25025111.6314   25025115.7684
        39.500          33.0004
 129034918.666 6 100546714.59145  24554530.735    24554530.2704   24554535.5194
        36.600          30.7004
 141596048.010 6                  26944817.277
        41.200
 125701275.406 7                  23920147.205
        47.400
 198975163.182 7                  37863708.821
        45.500
 200951494.977 7                  38239803.231
        44.400
 112678972.487 7  87801821.69545  21442085.546    21442084.9344   21442084.9844
        47.000          34.7004
 149303268.910 6                  28411454.537
        37.800
 123180713.146 8                  23440488.443
        48.200
 412799308.237 5                  78553246.532
        33.200
 202108978.888 7                  38460032.748
        44.900
 102380310.351 8  79629174.897 8  19186020.458    19186020.677    19186025.817
        52.700          48.400
 131926524.722 5 102799901.27642  25104780.650    25104779.7294   25104781.9154
        35.800          15.6004
 134164588.038 6 104543882.23742  25530651.552    25530650.2514   25530652.3124
        36.700          14.0004
 137945931.940 6                  26250205.170
        40.800
 113511958.431 7  88450884.50846  21600603.475    21600603.0554   21600603.7714
        46.900          36.7004
 120249312.205 7  93700811.65346  22882664.370    22882663.8654   22882664.4514
        43.500          40.8004
 151775437.651 6                  28881907.871
        36.400
 136196864.583 5 106127455.20343  25917397.814    25917397.1714   25917401.2224
        33.600          19.2004
 109407505.198 8  85252606.75246  20819549.759    20819549.3884   20819549.4574
        48.000          40.1004
 130176999.221 7                  24771856.370
        45.600
 113837869.967 7  88704869.66147  21662612.408    21662611.7654   21662612.4414
        47.100          45.6004
 104640279.872 8  81537900.90948  19912373.451    19912373.0494   19912373.0494
        49.600          50.9004
 132262807.894 7                  25168774.110
        44.600
 136455645.240 5 106329084.06444  25966647.065    25966646.2254   25966650.9744
        34.400          25.3004
 132471708.495 6 103224720.00944  25208527.375    25208526.7054   25208530.8614
        37.900          28.2004
 111544104.445 8  86756595.480 7  20859298.076    20859297.798    20859305.054
        51.000          46.900
 116459983.914 8  90580029.152 7  21816872.762    21816872.675    21816879.103
        48.500          45.100
 102700472.756 8  79878190.495 8  19192032.837    19192032.920    19192038.806
        52.300          48.000
 113764093.690 8  88483215.314 7  21252085.547    21252086.359    21252092.990
        48.800          46.300
 114503864.514 7  89058614.603 6  21420302.490    21420302.647    21420309.500
        46.700          39.800
 25  1  1  7 19 45.0000000  0 31G10G24E03E08S31S35G13E21E13S48S33R02
                                G16G20E15G23G05E31G26G18E07G29G15E26
                                G30G27R24R18R17R03R01
 131469046.329 6 102443425.12145  25017727.092    25017726.4714   25017730.5624
        40.100          33.1004
 128985476.132 6 100508187.95645  24545121.747    24545121.2874   24545126.7954
        36.700          30.8004
 141632893.984 6                  26951829.118
        40.500
 125704462.630 7                  23920753.407
        47.400
 198975158.207 7                  37863709.622
        45.500
 200951500.845 7                  38239811.513
        44.400
 112707326.614 7  87823915.80445  21447481.179    21447480.5674   21447480.5924
        46.900          34.5004
 149340494.421 6                  28418538.412
        37.800
 123181771.541 8                  23440689.923
        48.000
 412799064.332 5                  78553219.836
        33.000
 202108948.493 7                  38460025.889
        45.100
 102385520.803 8  79633227.494 8  19186996.592    19186997.159    19187002.357
        52.600          48.200
 131942281.307 5 102812179.17542  25107779.447    25107778.5134   25107780.2944
        35.300          14.9004
 134206407.953 6 104576469.17842  25538609.860    25538608.5504   25538610.5084
        38.600          17.5004
 137975173.972 6                  26255769.772
        40.600
 113486050.173 7  88430696.26546  21595672.969    21595672.5404   21595673.5924
        46.500          36.7004
 120289927.890 7  93732460.21046  22890393.763    22890393.2674   22890393.3464
        44.300          40.7004
 151770558.284 5                  28880979.292
        35.300
 136227375.392 5 106151229.86643  25923203.113    25923202.4794   25923207.2484
        33.500          19.1004
 109385323.535 8  85235322.33446  20815328.661    20815328.2904   20815328.4654
        48.100          40.0004
 130140750.816 7                  24764958.817
        45.300
 113879310.148 7  88737160.65647  21670498.280    21670497.6324   21670498.3314
        46.400          45.1004
 104640788.552 8  81538297.28548  19912470.216    19912469.8144   19912469.8554
        49.600          50.9004
 132233738.080 7                  25163241.993
        44.100
 136471245.922 5 106341240.34843  25969615.515    25969614.6844   25969619.7874
        32.000          21.1004
 132423355.444 6 103187042.31944  25199326.448    25199325.7554   25199329.6434
        37.100          28.0004
 111586520.554 8  86789585.743 7  20867229.209    20867229.683    20867237.136
        50.600          46.700
 116405710.071 8  90537816.184 7  21806705.251    21806705.140    21806711.233
        48.600          44.900
 102685481.587 8  79866530.708 8  19189231.090    19189231.502    19189237.339
        52.400          48.000
 113716037.153 8  88445838.020 7  21243108.766    21243108.915    21243115.881
        48.900          46.200
 114556667.707 7  89099683.728 6  21430180.169    21430180.752    21430187.287
        46.700          39.600
 25  1  1  7 20  0.0000000  0 31G10G24E03E08S31S35G13E21E13S48S33R02
                                G16G20E15G23G05E31G26G18E07G29G15E26
                                G30G27R24R18R17R03R01
 131430259.231 6 102413201.39545  25010345.726    25010345.1004   25010349.4964
        39.700          33.2004
 128936029.315 6 100469658.01845  24535712.655    24535712.1954   24535717.3614
        37.200          30.7004
 141669790.724 6                  26958849.939
        40.600
 125707754.073 7                  23921379.981
        47.300
 198975152.316 7                  37863707.954
        45.400
 200951507.518 7                  38239812.810
        43.900
 112735818.459 7  87846117.22645  21452903.039    21452902.4314   21452902.4704
        47.000          34.6004
 149377711.826 6                  28425620.501
        37.500
 123182881.101 8                  23440900.944
        48.100
 412798821.056 5                  78553185.190
        33.000
 202108917.772 7                  38460018.810
        44.900
 102390896.191 8  79637408.326 8  19188004.132    19188004.463    19188009.715
        52.600          48.300
 131958151.839 6 102824545.84942  25110799.435    25110798.4744   25110800.4424
        36.500          15.0004
 134248220.584 6 104609050.39342  25546565.930    25546564.6254   25546567.2864
        37.900          14.7004
 138004454.393 6                  26261341.686
        40.800
 113460197.888 7  88410551.63146  21590753.944    21590753.5204   21590754.1064
        46.400          36.7004
 120330561.250 7  93764122.53946  22898125.784    22898125.2614   22898125.7474
        44.100          40.8004
 151765777.386 5                  28880069.638
        35.100
 136257926.356 5 106175035.78443  25929017.584    25929016.9504   25929020.7874
        33.000          19.5004
 109363216.656 8  85218096.18946  20811121.827    20811121.4524   20811121.6654
        48.300          40.1004
 130104568.422 7                  24758073.642
        45.300
 113920852.822 7  88769531.58147  21678403.559    21678402.9164   21678403.7264
        46.900          45.4004
 104641454.074 8  81538815.87548  19912596.932    19912596.5264   19912596.5144
        49.700          51.0004
 132204682.605 7                  25157713.126
        44.300
 136486957.812 5 106353483.41743  25972605.724    25972604.8704   25972609.5864
        35.600          23.8004
 132375066.653 6 103149414.69144  25190136.942    25190136.2404   25190140.6604
        37.500          27.7004
 111629056.267 8  86822668.975 7  20875184.155    20875184.034    20875191.620
        50.700          46.800
 116351476.247 8  90495634.297 7  21796545.657    21796545.891    21796551.424
        48.700          44.900
 102670640.596 8  79854987.685 8  19186458.086    19186458.216    19186463.963
        52.500          48.000
 113668089.691 8  88408545.548 7  21234151.562    21234152.022    21234158.465
        48.700          46.300
 114609529.799 7  89140798.675 6  21440069.079    21440068.842    21440076.679
        46.200          40.200
 25  1  1  7 20 15.0000000  0 30G10G24E03E08S31S35G13E21E13S48S33R02
                                G16G20E15G23G05E31G18E07G29G15E26G30
                                G27R24R18R17R03R01
 131391496.895 6 102382996.98845  25002969.699    25002969.0654   25002973.3714
        39.000          33.0004
 128886579.512 6 100431125.74745  24526302.359    24526301.8944   24526307.5294
        38.000          30.7004
 141706739.156 6                  26965881.295
        40.600
 125711150.635 7                  23922026.502
        47.500
 198975148.257 7                  37863707.359
        45.600
 200951514.706 7                  38239807.099
        44.200
 112764448.656 7  87868426.46045  21458351.155    21458350.5524   21458350.6954
        47.200          34.4004
 149414921.908 6                  28432701.400
        37.500
 123184042.879 8                  23441122.120
        48.300
 412798578.029 5                  78553155.794
        32.800
 202108887.660 7                  38460014.875
        44.800
 102396437.124 8  79641717.938 8  19189042.754    19189042.855    19189048.071
        52.500          48.300
 131974137.002 5 102837001.90642  25113841.871    25113840.8794   25113841.9684
        35.500          14.3004
 134290026.776 6 104641626.65942  25554521.898    25554520.5574   25554522.6744
        37.400          15.4004
 138033774.128 6                  26266920.734
        41.200
 113434402.540 7  88390451.37346  21585845.176    21585844.7434   21585845.3774
        46.800          36.7004
 120371213.586 7  93795799.65446  22905862.029    22905861.5114   22905861.6634
        44.200          40.6004
 151761096.007 5                  28879178.683
        33.900
 109341185.728 8  85200929.23746  20806929.632    20806929.2574   20806929.2954
        48.200          40.1004
 130068453.122 7                  24751200.913
        45.400
 113962498.385 7  88801982.63347  21686328.228    21686327.5764   21686328.6084
        46.800          45.3004
 104642277.429 8  81539457.45048  19912753.724    19912753.3224   19912753.2004
        49.800          50.9004
 132175642.486 7                  25152186.885
        44.400
 136502781.389 5 106365813.49144  25975616.794    25975615.9404   25975620.6784
        35.900          27.6004
 132326843.329 6 103111838.07444  25180960.855    25180960.1534   25180963.9434
        36.800          27.4004
 111671712.357 8  86855845.891 7  20883160.932    20883161.381    20883168.405
        50.900          46.700
 116297283.740 8  90453484.582 7  21786393.510    21786393.814    21786399.397
        49.000          45.100
 102655950.975 8  79843562.420 8  19183712.825    19183713.095    19183718.879
        52.300          48.000
 113620252.139 8  88371338.597 7  21225215.340    21225215.422    21225221.954
        48.700          46.400
 114662450.968 7  89181959.589 6  21449969.267    21449969.551    21449976.158
        46.600          40.100
 25  1  1  7 20 30.0000000  0 30G10G24E03E08S31S35G13E21E13S48S33R02
                                G16G20E15G23G05E31G18E07G29G15E26G30
                                G27R24R18R17R03R01
 131352758.191 6 102352810.99045  24995598.312    24995597.6824   24995601.6914
        39.800          33.1004
 128837126.020 6 100392590.60445  24516891.703    24516891.2304   24516897.0264
        36.800          30.4004
 141743737.533 6                  26972921.710
        41.100
 125714651.108 7                  23922692.421
        47.400
 198975143.662 7                  37863701.318
        45.300
 200951521.624 7                  38239812.774
        43.800
 112793215.549 7  87890842.21145  21463825.566    21463824.9724   21463824.7974
        47.400          34.4004
 149452123.195 6                  28439780.377
        36.200
 123185255.835 8                  23441352.900
        48.200
 412798335.078 5                  78553135.542
        33.200
 202108858.054 7                  38460014.232
        44.900
 102402142.129 8  79646155.174 8  19190111.536    19190112.024    19190117.124
        52.500          48.200
 131990235.307 6 102849546.10242  25116904.898    25116903.9194   25116905.2754
        37.400          16.0004
 134331825.480 6 104674197.03942  25562475.822    25562474.4814   25562476.7604
        36.600          16.0004
 138063132.066 6                  26272507.268
        40.800
 113408662.969 7  88370394.57646  21580946.713    21580946.2714   21580947.3104
        47.000          36.6004
 120411883.651 7  93827490.59446  22913600.999    22913600.4994   22913600.9644
        43.900          40.6004
 151756512.904 5                  28878306.634
        33.900
 109319229.785 8  85183820.70546  20802751.459    20802751.0794   20802751.2124
        48.500          40.1004
 130032403.959 7                  24744340.845
        45.800
 114004245.439 7  88834512.79547  21694272.708    21694272.0564   21694272.8754
        46.700          45.4004
 104643257.371 8  81540221.04248  19912939.940    19912939.5344   19912939.6934
        50.000          50.9004
 132146616.692 7                  25146663.447
        44.700
 136518715.482 5 106378229.59444  25978649.032    25978648.1744   25978653.0874
        34.700          27.5004
 132278684.745 6 103074311.92444  25171796.931    25171796.2124   25171799.4464
        37.100          27.2004
 111714487.412 8  86889115.325 7  20891160.033    20891160.493    20891167.628
        51.500          46.500
 116243131.843 8  90411366.457 7  21776248.526    21776249.187    21776254.685
        48.900          45.100
 102641412.026 8  79832254.355 7  19180995.913    19180996.044    19181001.881
        52.000          47.800
 113572523.748 8  88334216.532 7  21216298.991    21216299.226    21216305.968
        48.900          46.300
 114715429.684 7  89223165.217 6  21459880.617    21459880.183    21459887.639
        46.300          40.100
 25  1  1  7 20 45.0000000  0 30G10G24E03E08S31S35G13E21E13S48S33R02
                                G16G20E15G23G05E31G18E07G29G15E26G30
                                G27R24R18R17R03R01
 131314042.567 6 102322642.96345  24988230.700    24988230.0614   24988233.9104
        40.700          33.3004
 128787668.753 6 100354052.57045  24507480.651    24507480.1644   24507485.2944
        37.800          30.9004
 141780785.286 6                  26979972.147
        40.800
 125718254.930 7                  23923378.180
        47.500
 198975137.821 7                  37863699.641
        45.300
 200951528.139 7                  38239811.464
        44.100
 112822118.498 7  87913363.98345  21469325.223    21469324.6154   21469324.7774
        47.400          34.5004
 149489315.006 6                  28446857.683
        36.700
 123186519.586 8                  23441593.396
        48.300
 412798091.064 5                  78553101.150
        32.900
 202108826.995 7                  38460005.825
        45.200
 102408010.466 8  79650719.436 8  19191211.411    19191211.766    19191216.848
        52.600          48.200
 132006446.180 6 102862177.98742  25119989.563    25119988.6204   25119990.0644
        36.600          15.0004
 134373616.166 6 104706761.23842  25570428.028    25570426.7234   25570429.1384
        38.000          17.0004
 138092527.690 6                  26278101.300
        41.000
 113382978.647 7  88350380.83446  21576059.364    21576058.9224   21576059.7054
        46.800          36.7004
 120452570.679 7  93859194.74446  22921343.718    22921343.2184   22921343.5434
        44.200          40.8004
 151752027.645 5                  28877453.625
        33.900
 109297348.599 8  85166770.42746  20798587.473    20798587.0934   20798587.4124
        48.600          40.2004
 129996420.578 7                  24737493.505
        46.000
 114046092.971 7  88867121.19247  21702236.148    21702235.5004   21702236.2224
        46.800          45.2004
 104644393.324 8  81541106.20148  19913156.310    19913155.9174   19913155.8744
        50.200          51.0004
 132117604.814 7                  25141142.695
        44.600
 136534759.474 5 106390731.34844  25981701.960    25981701.1064   25981706.2264
        34.500          27.0004
 132230590.716 6 103036836.10344  25162644.693    25162643.9474   25162647.2694
        37.100          27.1004
 111757380.790 8  86922476.786 7  20899181.380    20899181.685    20899188.963
        51.000          46.500
 116189020.476 8  90369279.821 7  21766111.483    21766112.287    21766118.460
        48.900          45.000
 102627023.719 8  79821063.433 8  19178307.016    19178307.208    19178313.076
        51.900          48.000
 113524904.257 8  88297179.148 7  21207403.308    21207403.469    21207410.087
        49.400          46.300
 114768465.355 7  89264415.190 6  21469801.067    21469801.332    21469808.578
        45.700          40.200
 25  1  1  7 21  0.0000000  0 30G10G24E03E08S31S35G13E21E13S48S33R02
                                G16G20E15G23G05E31G18E07G29G15E26G30
                                G27R24R18R17R03R01
 131275352.883 6 102292495.15445  24980868.403    24980867.7604   24980871.5994
        40.200          33.5004
 128738210.683 6 100315513.87345  24498068.496    24498068.0094   24498073.7364
        37.300          31.3004
 141817885.242 6                  26987031.857
        41.200
 125721964.762 7                  23924084.167
        47.500
 198975134.793 7                  37863706.411
        45.500
 200951536.767 7                  38239816.445
        43.900
 112851160.189 7  87935993.86545  21474851.473    21474850.8704   21474851.2734
        47.300          34.4004
 149526499.807 6                  28453933.897
        36.800
 123187836.980 8                  23441844.089
        48.200
 412797848.734 5                  78553070.649
        32.600
 202108798.593 7                  38459998.787
        44.800
 102414045.053 8  79655412.995 8  19192342.379    19192342.698    19192347.788
        52.600          48.200
 132022772.126 6 102874899.54142  25123096.086    25123095.1034   25123096.6704
        37.000          15.4004
 134415401.537 5 104739321.29642  25578380.058    25578378.7304   25578380.3944
        34.600          12.7004
 138121963.801 6                  26283703.009
        40.800
 113357352.329 7  88330412.28346  21571183.043    21571182.6054   21571183.0884
        46.700          36.8004
 120493277.220 7  93890914.10546  22929089.635    22929089.1304   22929089.6954
        44.300          40.7004
 151747643.056 5                  28876618.796
        33.100
 109275545.102 8  85149780.68446  20794438.379    20794437.9954   20794438.3414
        48.900          40.2004
 129960505.927 7                  24730659.516
        45.000
 114088043.608 7  88899809.91947  21710218.984    21710218.3414   21710219.2224
        47.300          45.2004
 104645687.845 8  81542114.91848  19913402.578    19913402.1764   19913402.2294
        50.300          51.1004
 132088609.743 7                  25135625.049
        44.300
 136550915.983 5 106403320.73344  25984776.582    25984775.7244   25984780.8334
        33.600          25.5004
 132182564.285 6 102999412.91944  25153505.236    25153504.4634   25153508.1854
        38.400          27.8004
 111800395.076 8  86955932.289 7  20907225.217    20907225.620    20907232.925
        50.600          46.500
 116134952.832 8  90327227.194 7  21755983.473    21755983.677    21755989.506
        48.900          45.100
 102612788.775 8  79809991.796 7  19175647.014    19175647.017    19175652.868
        52.200          47.900
 113477396.989 8  88260229.060 7  21198528.585    21198529.110    21198535.302
        49.000          46.300
 114821559.788 7  89305710.849 6  21479733.779    21479733.762    21479741.321
        45.500          40.400
 25  1  1  7 21 15.0000000  0 30G10G24E03E08S31S35G13E21E13S48S33R02
                                G16G20E15G23G05E31G18E07G29G15E26G30
                                G27R24R18R17R03R01
 131236685.942 6 102262365.07245  24973510.955    24973510.3124   24973513.7054
        39.700          33.6004
 128688748.989 6 100276972.29945  24488656.770    24488656.2884   24488661.5344
        37.200          31.0004
 141855033.753 6                  26994100.900
        40.500
 125725777.385 7                  23924809.891
        47.800
 198975130.736 7                  37863700.620
        45.400
 200951543.993 7                  38239821.028
        44.400
 112880337.105 7  87958729.12345  21480403.917    21480403.3184   21480403.4674
        47.300          34.3004
 149563674.181 6                  28461008.259
        37.100
 123189204.928 8                  23442104.387
        48.300
 412797605.463 5                  78553045.635
        32.600
 202108768.018 7                  38459990.849
        44.900
 102420241.762 8  79660232.671 8  19193503.480    19193503.701    19193509.015
        52.700          48.200
 132039209.551 5 102887707.91142  25126224.356    25126223.3774   25126224.5124
        35.200          14.0004
 134457178.649 6 104771874.84442  25586329.638    25586328.2704   25586330.4124
        36.900          14.2004
 138151437.163 6                  26289311.701
        41.300
 113331780.806 7  88310486.43146  21566316.770    21566316.3374   21566316.9754
        47.200          36.8004
 120534000.138 7  93922646.22746  22936839.534    22936839.0434   22936839.0254
        44.400          40.7004
 151743355.932 5                  28875802.684
        32.200
 109253816.371 8  85132849.19946  20790303.450    20790303.0664   20790303.5174
        48.400          40.1004
 129924657.037 7                  24723837.379
        45.200
 114130093.938 7  88932576.39247  21718220.880    21718220.2374   21718221.2274
        46.800          45.1004
 104647137.921 8  81543244.84748  19913678.471    19913678.0694   19913678.1684
        50.100          51.0004
 132059628.411 7                  25130110.169
        44.300
 136567181.876 5 106415995.38243  25987871.562    25987870.7174   25987876.0454
        32.300          21.7004
 132134602.621 6 102962040.23344  25144378.373    25144377.6044   25144381.4024
        37.100          27.1004
 111843526.761 8  86989479.093 7  20915291.204    20915291.394    20915298.820
        50.800          46.600
 116080926.053 8  90285206.359 7  21745862.529    21745862.535    21745868.673
        49.000          45.400
 102598704.708 8  79799037.517 7  19173014.777    19173015.034    19173020.920
        52.600          47.700
 113429998.416 8  88223363.524 7  21189673.588    21189674.349    21189681.400
        49.200          46.500
 114874709.702 7  89347049.653 6  21489676.766    21489676.388    21489683.813
        45.400          40.000
 25  1  1  7 21 30.0000000  0 29G10G24E03E08S31S35G13E21E13S48S33R02
                                G16G20E15G23G05E31G18E07G29G15E26G27
                                R24R18R17R03R01
 131198039.847 6 102232251.21945  24966156.378    24966155.7444   24966159.7374
        40.200          34.0004
 128639282.272 6 100238426.80645  24479242.828    24479242.3554   24479248.3754
        37.400          30.8004
 141892228.936 6                  27001179.183
        40.600
 125729690.862 7                  23925554.355
        47.600
 198975123.184 7                  37863701.215
        45.300
 200951548.307 7                  38239819.146
        43.900
 112909646.990 7  87981567.98345  21485981.412    21485980.8184   21485980.9184
        47.400          34.4004
 149600836.016 6                  28468079.557
        36.700
 123190621.679 8                  23442374.072
        48.300
 412797359.362 5                  78553019.490
        32.200
 202108736.026 7                  38459986.749
        44.600
 102426598.883 8  79665177.096 8  19194694.725    19194695.241    19194700.323
        52.700          48.100
 132055756.484 6 102900601.63342  25129371.884    25129370.8964   25129373.0184
        37.100          14.4004
 134498945.489 6 104804420.45342  25594277.908    25594276.5454   25594278.2834
        38.100          14.7004
 138180945.984 6                  26294926.917
        41.000
 113306262.234 7  88290601.83946  21561460.394    21561459.9524   21561460.9894
        47.400          36.8004
 120574737.286 7  93954389.44546  22944591.153    22944590.6624   22944591.0804
        45.000          41.0004
 151739164.380 5                  28875005.321
        32.100
 109232160.751 8  85115974.68546  20786182.719    20786182.3304   20786182.5994
        48.800          40.2004
 129888872.129 7                  24717027.723
        45.800
 114172241.602 7  88965418.68847  21726241.441    21726240.8024   21726241.7084
        46.700          44.8004
 104648741.553 8  81544494.43048  19913983.705    19913983.3084   19913983.3394
        50.300          51.2004
 132030659.067 7                  25124597.308
        44.700
 132086704.198 6 102924716.81044  25135264.459    25135263.6954   25135267.1264
        37.400          27.9004
 111886773.742 8  87023115.569 7  20923378.538    20923378.735    20923386.169
        50.700          46.200
 116026938.709 8  90243216.190 7  21735748.636    21735748.767    21735754.770
        48.600          45.200
 102584769.560 8  79788199.065 7  19170410.758    19170410.989    19170416.786
        52.100          47.800
 113382707.195 8  88186581.480 7  21180839.508    21180839.948    21180846.722
        48.900          46.200
 114927912.654 7  89388429.745 6  21499629.168    21499629.071    21499636.666
        45.000          40.300
 25  1  1  7 21 45.0000000  0 28G10G24E03E08S31S35G13E21E13S48S33R02
                                G16E15G23G05E31G18E07G29G15E26G27R24
                                R18R17R03R01
 131159417.164 6 102202155.61645  24958806.918    24958806.2754   24958809.9104
        40.200          34.0004
 128589813.545 6 100199879.74145  24469829.112    24469828.6344   24469834.4554
        37.300          30.7004
 141929472.873 6                  27008266.232
        40.300
 125733707.670 7                  23926318.862
        47.500
 198975115.441 7                  37863697.106
        45.500
 200951552.296 7                  38239818.359
        44.100
 112939092.118 7  88004512.23345  21491584.696    21491584.0974   21491584.1344
        47.600          34.3004
 149637987.692 6                  28475149.367
        36.900
 123192089.880 8                  23442653.313
        48.400
 412798713.285 5                  78552989.977
        33.200
 202108702.731 7                  38459980.524
        44.900
 102433118.918 8  79670248.240 8  19195916.692    19195917.036    19195922.220
        52.600          48.100
 132072415.225 6 102913582.43742  25132543.361    25132542.3464   25132543.1834
        36.500          14.0004
 138210492.823 6                  26300549.433
        41.100
 113280799.120 7  88270760.46346  21556615.099    21556614.6574   21556615.5484
        46.900          36.7004
 120615491.141 7  93986145.66046  22952346.279    22952345.7794   22952346.4024
        44.600          40.9004
 151735070.878 5                  28874226.329
        33.400
 109210581.022 8  85099159.31546  20782076.126    20782075.7374   20782076.1074
        48.600          40.2004
 129853153.955 7                  24710230.699
        45.900
 114214488.940 7  88998338.67247  21734281.127    21734280.4884   21734281.1894
        47.300          45.4004
 104650501.192 8  81545865.58048  19914318.517    19914318.1114   19914318.1924
        50.500          51.1004
 132001704.297 7                  25119087.781
        44.400
 132038871.815 6 102887444.81544  25126161.739    25126160.9794   25126164.7414
        37.100          27.5004
 111930138.553 8  87056843.693 7  20931488.716    20931488.599    20931495.962
        50.800          46.600
 115972993.813 8  90201259.063 7  21725642.574    21725643.150    21725649.131
        48.400          45.200
 102570986.432 8  79777478.848 7  19167835.406    19167835.343    19167841.091
        52.300          47.600
 113335526.246 8  88149885.189 7  21172025.740    21172026.223    21172032.666
        49.000          46.200
 114981170.689 7  89429852.661 6  21509592.813    21509592.463    21509599.374
        45.900          40.300
 25  1  1  7 22  0.0000000  0 28G10G24E03E08S31S35G13E21E13S48S33R02
                                G16E15G23G05E31G18E07G29G15E26G27R24
                                R18R17R03R01
 131120825.713 6 102172084.36145  24951462.790    24951462.1474   24951466.6744
        41.100          34.3004
 128540350.991 6 100161337.52745  24460417.055    24460416.6044   24460421.4894
        37.100          30.8004
 141966773.184 6                  27015364.409
        41.300
 125737835.469 7                  23927104.478
        47.600
 198975114.877 7                  37863698.385
        45.200
 200951563.835 7                  38239818.703
        44.000
 112968679.962 7  88027567.68345  21497214.984    21497214.3764   21497214.4974
        47.400          34.3004
 149675136.578 6                  28482218.508
        37.400
 123193617.359 8                  23442943.910
        48.300
 412798474.347 5                  78552968.415
        32.900
 202108676.405 7                  38459975.288
        44.900
 102439809.431 8  79675451.977 8  19197170.724    19197170.740    19197175.996
        52.500          48.000
 132089193.205 6 102926656.21442  25135736.116    25135735.0664   25135735.5194
        37.200          15.0004
 138240085.416 6                  26306181.036
        40.900
 113255399.205 7  88250968.33546  21551781.766    21551781.3334   21551782.0684
        47.300          36.8004
 120656269.231 7  94017920.76846  22960106.313    22960105.8134   22960106.3764
        44.800          41.0004
 151731083.259 5                  28873467.738
        33.300
 109189085.137 8  85082409.27446  20777985.675    20777985.2954   20777985.5834
        48.600          40.3004
 129817510.407 7                  24703447.994
        46.200
 114256843.407 7  89031342.17947  21742340.685    21742340.0464   21742341.0564
        46.900          45.1004
 104652424.602 8  81547364.34148  19914684.664    19914684.2584   19914684.2124
        50.300          51.2004
 131972772.077 7                  25113581.824
        44.700
 131991113.530 6 102850230.52944  25117073.837    25117073.0684   25117076.6284
        37.200          27.8004
 111973628.851 8  87090669.410 7  20939620.742    20939621.197    20939628.556
        51.000          46.400
 115919099.520 8  90159341.259 7  21715546.910    21715546.776    21715553.147
        48.500          45.100
 102557363.485 8  79766883.213 7  19165289.354    19165289.564    19165295.338
        52.300          47.600
 113288463.412 8  88113280.785 7  21163234.328    21163234.374    21163241.161
        49.200          46.400
 115034491.632 7  89471324.516 6  21519566.748    21519566.614    21519574.745
        45.400          40.100
 25  1  1  7 22 15.0000000  0 28G10G24E03E08S31S35G13E21E13S48S33R02
                                G16E15G23G05E31G18E07G29G15E26G27R24
                                R18R17R03R01
 131082250.503 6 102142025.74545  24944123.025    24944122.3824   24944126.1564
        38.800          33.8004
 128490879.918 6 100122788.67645  24451003.384    24451002.9424   24451007.8114
        37.900          31.1004
 142004114.702 6                  27022469.921
        40.800
 125742059.289 7                  23927908.155
        47.600
 198975106.947 7                  37863698.443
        45.400
 200951567.370 7                  38239825.151
        44.100
 112998395.218 7  88050722.42645  21502869.638    21502869.0264   21502869.1144
        47.600          34.1004
 149712267.586 6                  28489283.988
        36.600
 123195189.307 8                  23443243.242
        48.200
 412798227.863 5                  78552937.780
        32.400
 202108642.954 7                  38459971.013
        45.100
 102446654.743 8  79680776.097 8  19198453.201    19198453.537    19198458.780
        52.800          48.000
 132106075.392 6 102939811.19042  25138947.792    25138946.7514   25138948.0944
        37.300          14.9004
 138269708.799 6                  26311818.127
        40.900
 113230047.548 7  88231213.80546  21546957.441    21546957.0034   21546957.8674
        46.900          36.6004
 120697056.632 7  94049703.13246  22967867.676    22967867.1584   22967867.9364
        43.900          40.7004
 151727186.718 5                  28872725.778
        32.800
 109167658.404 8  85065713.11746  20773908.310    20773907.9304   20773908.2234
        48.500          40.1004
 129781926.732 7                  24696676.712
        46.100
 114299289.495 7  89064417.02647  21750418.172    21750417.5334   21750418.2464
        46.600          44.9004
 104654496.615 8  81548978.89948  19915078.794    19915078.3884   19915078.5154
        50.100          51.0004
 131943847.483 7                  25108077.684
        44.500
 131943414.978 5 102813062.80544  25107996.910    25107996.1504   25107999.4404
        35.900          25.9004
 112017229.247 8  87124580.755 7  20947774.575    20947774.781    20947782.171
        50.900          46.200
 115865241.133 8  90117451.382 7  21705457.568    21705457.861    21705463.744
        48.700          45.300
 102543885.885 8  79756400.620 7  19162770.695    19162770.927    19162776.643
        52.300          47.800
 113241503.753 8  88076756.622 7  21154461.435    21154461.753    21154468.567
        48.200          46.400
 115087859.501 7  89512832.830 6  21529551.044    21529550.871    21529557.468
        45.800          40.600
 25  1  1  7 22 30.0000000  0 28G10G24E03E08S31S35G13E21E13S48S33R02
                                G16E15G23G05E31G18E07G29G15E26G27R24
                                R18R17R03R01
 131043705.134 6 102111990.39245  24936787.465    24936786.8314   24936791.2874
        40.300          33.8004
 128441414.247 6 100084244.01645  24441589.775    24441589.3514   24441594.8224
        37.200          30.6004
 142041510.793 6                  27029586.369
        41.000
 125746392.566 7                  23928732.635
        47.700
 198975105.091 7                  37863696.663
        45.700
 200951576.917 7                  38239825.415
        44.300
 113028251.148 7  88073986.78545  21508551.261    21508550.6624   21508550.4764
        47.000          34.1004
 149749394.001 6                  28496349.590
        37.100
 123196819.359 8                  23443553.328
        48.500
 412797988.536 5                  78552913.204
        32.900
 202108615.488 7                  38459958.788
        44.800
 102453668.555 8  79686231.288 8  19199767.557    19199768.011    19199773.177
        52.700          48.000
 132123074.952 5 102953057.61442  25142182.837    25142181.7644   25142183.2194
        35.300          15.3004
 138299376.534 6                  26317463.795
        41.400
 113204757.680 7  88211507.41946  21542145.178    21542144.7404   21542145.3104
        46.500          36.6004
 120737867.044 7  94081503.41146  22975633.884    22975633.3884   22975633.8304
        44.200          40.7004
 151723394.651 5                  28872004.579
        33.400
 109146314.564 8  85049081.54646  20769846.898    20769846.5184   20769846.6304
        48.400          40.2004
 129746416.617 7                  24689919.427
        46.100
 114341840.580 7  89097573.65047  21758514.990    21758514.3564   21758515.4744
        45.800          44.7004
 104656730.715 8  81550719.75548  19915504.131    19915503.7254   19915503.6594
        49.900          51.0004
 131914944.221 7                  25102577.775
        44.800
 131895789.846 5 102775952.26944  25098934.615    25098933.8464   25098936.9284
        35.900          26.1004
 112060953.292 8  87158588.283 7  20955951.335    20955951.599    20955958.667
        51.200          46.300
 115811432.792 8  90075600.447 7  21695376.674    21695377.152    21695383.491
        49.000          45.200
 102530567.516 8  79746041.892 7  19160281.843    19160282.125    19160287.832
        52.500          47.800
 113194661.553 8  88040323.830 7  21145710.680    21145711.158    21145718.352
        48.300          46.500
 115141287.828 7  89554388.189 6  21539545.381    21539545.010    21539552.609
        45.700          40.000
 25  1  1  7 22 45.0000000  0 28G10G24E03E08S31S35G13E21E13S48S33R02
                                G16E15G23G05E31G18E07G29G15E26G27R24
                                R18R17R03R01
 131005179.954 6 102081970.77145  24929456.381    24929455.7474   24929459.8834
        39.700          33.9004
 128391944.769 6 100045696.37945  24432176.627    24432176.1944   24432180.7644
        37.400          30.8004
 142078951.541 6                  27036711.100
        40.600
 125750825.604 7                  23929576.227
        47.600
 198975099.201 7                  37863696.945
        45.700
 200951582.696 7                  38239823.300
        44.200
 113058237.918 7  88097353.09645  21514257.161    21514256.5534   21514256.7584
        46.800          34.3004
 149786505.859 6                  28503411.355
        37.100
 123198497.981 8                  23443872.862
        48.600
 412797743.652 5                  78552884.536
        32.800
 202108583.638 7                  38459955.139
        44.900
 102460840.994 8  79691809.857 7  19201111.972    19201112.024    19201117.352
        52.500          47.900
 132140181.973 6 102966387.77042  25145438.628    25145437.5824   25145438.9094
        37.000          14.7004
 138329079.027 6                  26323115.945
        41.700
 113179519.950 7  88191841.65646  21537342.361    21537341.9194   21537342.6944
        46.900          36.9004
 120778690.521 7  94113313.88646  22983402.151    22983401.6554   22983402.2954
        44.200          41.0004
 151719697.441 5                  28871300.977
        33.900
 109125044.222 8  85032507.24946  20765798.978    20765798.6034   20765799.0074
        48.800          40.3004
 129710970.612 7                  24683174.142
        46.100
 114384486.586 7  89130804.27547  21766630.388    21766629.7544   21766630.8114
        46.200          44.4004
 104659117.228 8  81552579.37248  19915958.434    19915958.0284   19915957.8024
        50.200          51.2004
 131886052.750 7                  25097079.919
        44.800
 131848228.947 6 102738891.83344  25089883.883    25089883.1104   25089886.4674
        36.800          27.0004
 112104790.781 8  87192684.048 7  20964148.890    20964149.451    20964156.980
        50.500          46.300
 115757665.191 8  90033781.206 7  21685304.864    21685304.862    21685310.933
        48.700          45.400
 102517399.022 8  79735799.719 7  19157821.129    19157821.216    19157826.959
        52.300          47.600
 113147927.184 8  88003974.880 7  21136981.175    21136980.928    21136987.357
        48.900          46.300
 115194766.302 7  89595982.523 6  21549550.000    21549549.974    21549557.373
        45.700          40.400
 25  1  1  7 23  0.0000000  0 28G10G24E03E08S31S35G13E21E13S48S33R02
                                G16E15G23G05E31G18E07G29G15E26G27R24
                                R18R17R03R01
 130966679.222 6 102051970.19645  24922130.407    24922129.7814   24922132.7764
        40.700          33.9004
 128342476.146 6 100007149.43345  24422761.927    24422761.4894   24422767.3594
        37.100          31.1004
 142116440.957 6                  27043845.277
        40.600
 125755362.554 7                  23930439.838
        47.500
 198975093.526 7                  37863693.484
        45.500
 200951589.031 7                  38239826.117
        44.300
 113088359.420 7  88120824.39145  21519989.296    21519988.6934   21519988.6994
        47.200          34.2004
 149823607.305 6                  28510471.705
        36.500
 123200229.485 8                  23444202.140
        48.400
 412797498.173 5                  78552856.266
        32.300
 202108552.968 7                  38459948.879
        44.800
 102468176.053 8  79697514.903 8  19202486.372    19202486.650    19202491.803
        52.600          48.100
 132157400.519 6 102979804.80542  25148715.524    25148714.4424   25148715.5224
        37.100          14.5004
 138358820.473 6                  26328775.546
        41.700
 113154338.581 7  88172219.82346  21532550.523    21532550.0764   21532550.8094
        47.100          36.7004
 120819531.136 7  94145137.69846  22991174.082    22991173.6094   22991174.1094
        44.400          40.9004
 151716099.288 5                  28870616.038
        33.800
 109103851.798 8  85015993.66946  20761766.205    20761765.8254   20761766.2254
        48.700          40.2004
 129675593.110 7                  24676442.074
        45.200
 114427231.411 7  89164111.84247  21774764.436    21774763.8064   21774764.8364
        46.200          44.5004
 104661660.357 8  81554561.03248  19916442.106    19916441.6954   19916441.7664
        50.200          51.2004
 131857177.414 7                  25091584.874
        44.400
 131800736.716 6 102701884.85044  25080846.078    25080845.3184   25080848.8624
        37.500          27.8004
 112148746.096 8  87226871.440 7  20972369.183    20972369.358    20972376.502
        50.400          46.200
 115703942.978 8  89991997.263 7  21675240.538    21675240.411    21675246.876
        48.400          45.400
 102504384.975 8  79725677.669 7  19155389.046    19155389.311    19155395.148
        52.700          47.600
 113101305.007 8  87967713.204 7  21128271.280    21128271.415    21128278.707
        48.800          46.600
 115248298.815 7  89637618.896 6  21559564.686    21559564.111    21559571.531
        45.500          40.600
 25  1  1  7 23 15.0000000  0 28G10G24E03E08S31S35G13E21E13S48S33R02
                                G16E15G23G05E31G18E07G29G15E26G27R24
                                R18R17R03R01
 130928203.296 6 102021988.95045  24914808.159    24914807.5474   24914810.8564
        40.600          33.7004
 128293009.156 6  99968603.76945  24413349.710    24413349.2504   24413354.3524
        38.300          31.2004
 142153979.377 6                  27050988.293
        40.800
 125760003.748 7                  23931322.831
        47.500
 198975089.624 7                  37863693.224
        45.400
 200951596.993 7                  38239825.648
        44.000
 113118615.843 7  88144400.82045  21525746.771    21525746.1684   21525746.3384
        47.900          34.1004
 149860698.342 6                  28517529.847
        36.300
 123202014.381 8                  23444542.071
        48.400
 412797254.538 5                  78552822.376
        32.500
 202108522.721 7                  38459948.235
        44.800
 102475673.544 8  79703346.300 7  19203891.368    19203891.710    19203896.836
        52.500          47.900
 132174730.750 6 102993308.89842  25152012.385    25152011.3124   25152013.2594
        36.500          15.6004
 138388601.295 6                  26334442.582
        41.200
 113129213.935 7  88152642.18746  21527769.266    21527768.8154   21527769.7954
        47.200          36.6004
 120860389.067 7  94176975.00446  22998949.044    22998948.5714   22998949.1974
        44.500          40.9004
 151712600.726 5                  28869950.268
        34.400
 109082737.940 8  84999541.30446  20757748.173    20757747.7934   20757748.3654
        48.600          40.2004
 129640284.719 7                  24669723.047
        45.400
 114470075.357 7  89197496.71647  21782917.581    21782916.9514   21782917.8564
        47.100          45.4004
 104664360.350 8  81556664.92148  19916955.995    19916955.5894   19916955.5554
        50.000          51.1004
 131828318.734 7                  25086093.512
        44.200
 131753314.049 6 102664932.09844  25071822.156    25071821.3924   25071824.2154
        36.500          27.8004
 112192819.415 8  87261150.651 7  20980611.046    20980611.367    20980618.807
        50.900          46.200
 115650266.921 8  89950249.220 7  21665184.801    21665185.217    21665191.914
        48.800          45.400
 102491526.194 8  79715676.389 7  19152985.981    19152986.310    19152992.219
        52.500          47.800
 113054795.797 8  87931539.402 7  21119583.245    21119583.298    21119589.911
        49.500          46.600
 115301885.474 7  89679297.437 6  21569588.990    21569588.889    21569596.381
        45.600          40.300
 25  1  1  7 23 30.0000000  0 28G10G24E03E08S31S35G13E21E13S48S33R02
                                G16E15G23G05E31G18E07G29G15E26G27R24
                                R18R17R03R01
 130889749.625 6 101992025.03945  24907491.044    24907490.4234   24907493.6234
        41.000          34.3004
 128243541.483 6  99930057.54745  24403935.916    24403935.4514   24403940.8984
        38.200          31.2004
 142191563.800 6                  27058140.665
        40.900
 125764746.516 7                  23932225.506
        47.700
 198975083.728 7                  37863693.739
        45.500
 200951602.694 7                  38239824.968
        44.200
 113149004.226 7  88168080.07045  21531529.466    21531528.8404   21531529.1164
        47.000          34.1004
 149897776.274 6                  28524585.644
        36.400
 123203850.172 8                  23444891.350
        48.400
 412797008.786 5                  78552795.072
        32.700
 202108490.690 7                  38459940.164
        45.100
 102483330.854 8  79709301.974 8  19205326.700    19205326.698    19205331.753
        52.700          48.100
 132192169.735 6 103006897.68842  25155331.203    25155330.1714   25155331.6324
        36.900          14.5004
 138418418.889 6                  26340116.856
        41.300
 113104143.411 7  88133106.71846  21522998.920    21522998.4644   21522999.0084
        46.800          36.6004
 120901261.686 7  94208823.76946  23006727.033    23006726.5554   23006727.2174
        44.400          40.9004
 151709199.020 5                  28869302.717
        34.700
 109061700.259 8  84983148.30046  20753745.129    20753744.7544   20753745.0294
        48.200          40.2004
 129605042.974 7                  24663016.706
        46.400
 114513015.294 7  89230956.31047  21791088.637    21791087.9854   21791089.1254
        45.900          44.0004
 104667214.631 8  81558889.03548  19917499.214    19917498.8084   19917498.7194
        50.200          51.1004
 131799474.193 7                  25080604.458
        44.500
 131705958.642 6 102628031.78044  25062810.848    25062810.0974   25062812.6084
        36.600          26.6004
 112237007.890 8  87295519.408 7  20988874.564    20988874.671    20988881.860
        50.400          46.100
 115596634.963 8  89908535.456 7  21655138.249    21655138.156    21655144.459
        48.700          45.500
 102478820.152 8  79705793.895 7  19150611.332    19150611.964    19150617.752
        52.700          47.600
 113008397.278 8  87895451.674 7  21110915.084    21110915.348    21110922.118
        48.900          46.800
 115355522.904 7  89721015.398 6  21579622.979    21579623.304    21579630.170
        46.100          40.300
 25  1  1  7 23 45.0000000  0 28G10G24E03E08S31S35G13E21E13S48S33R02
                                G16E15G23G05E31G18E07G29G15E26G27R24
                                R18R17R03R01
 130851323.320 6 101962082.45345  24900178.822    24900178.1924   24900181.5324
        40.600          34.4004
 128194078.669 6  99891515.08445  24394522.667    24394522.2074   24394528.5134
        36.900          31.2004
 142229199.314 6                  27065302.166
        41.300
 125769595.856 7                  23933148.220
        47.400
 198975080.767 7                  37863692.813
        45.700
 200951611.622 7                  38239832.422
        44.200
 113179529.091 7  88191865.67245  21537338.267    21537337.6504   21537337.8034
        47.400          34.1004
 149934845.840 6                  28531639.709
        36.200
 123205742.068 8                  23445251.392
        48.400
 412796766.510 5                  78552763.324
        32.400
 202108462.957 7                  38459934.869
        45.100
 102491152.913 8  79715385.783 8  19206792.131    19206792.487    19206797.730
        52.400          48.100
 132209722.276 6 103020574.97442  25158670.949    25158669.9484   25158671.6524
        36.700          15.1004
 138448278.374 6                  26345798.868
        41.000
 113079132.106 7  88113617.39946  21518239.238    21518238.7914   21518239.5114
        47.200          36.8004
 120942154.044 7  94240687.93946  23014508.264    23014507.7914   23014508.7624
        44.000          40.8004
 151705899.373 5                  28868674.935
        34.500
 109040744.093 8  84966818.81846  20749757.416    20749757.0454   20749757.2184
        48.400          40.3004
 129569873.159 7                  24656324.410
        45.800
 114556056.210 7  89264494.68947  21799279.409    21799278.7664   21799279.6624
        45.900          44.6004
 104670227.956 8  81561237.07948  19918072.402    19918071.9914   19918072.1424
        50.200          51.2004
 131770649.042 7                  25075119.022
        44.500
 131658675.895 6 102591188.08844  25053812.709    25053811.9904   25053815.0684
        37.200          26.6004
 112281316.406 8  87329981.546 7  20997160.477    20997160.878    20997168.179
        50.700          46.200
 115543052.590 8  89866860.260 7  21645100.058    21645100.540    21645106.503
        49.400          45.500
 102466272.536 8  79696034.627 7  19148266.977    19148267.072    19148272.864
        52.500          47.700
 112962114.586 8  87859454.035 7  21102269.084    21102269.547    21102276.678
        49.000          46.800
 115409215.856 7  89762776.527 6  21589667.341    21589667.083    21589674.382
        45.600          40.100
 25  1  1  7 24  0.0000000  0 28G10G24E03E08S31S35G13E21E13S48S33R02
                                G16E15G23G05E31G18E07G29G15E26G27R24
                                R18R17R03R01
 130812921.390 6 101932158.86745  24892870.492    24892869.8534   24892873.6574
        40.400          34.1004
 128144618.252 6  99852974.54345  24385111.343    24385110.8874   24385116.4404
        38.700          30.8004
 142266882.566 6                  27072473.149
        40.300
 125774548.754 7                  23934090.606
        47.300
 198975078.437 7                  37863693.381
        45.800
 200951621.262 7                  38239835.020
        44.700
 113210187.441 7  88215755.28945  21543172.310    21543171.6844   21543171.8134
        46.500          34.1004
 149971903.856 6                  28538691.271
        36.000
 123207687.145 8                  23445621.486
        48.100
 412796525.293 5                  78552740.465
        33.300
 202108435.038 7                  38459926.498
        45.200
 102499136.377 8  79721595.150 8  19208288.349    19208288.549    19208293.872
        52.200          48.100
 132227385.190 6 103034338.24642  25162032.877    25162031.8674   25162032.6854
        36.500          15.0004
 138478176.758 6                  26351488.318
        40.700
 113054177.018 7  88094171.87846  21513490.264    21513489.8134   21513490.6844
        46.700          36.8004
 120983063.128 7  94272565.12246  23022293.312    23022292.8654   23022293.4774
        44.100          40.9004
 151702698.734 5                  28868066.433
        34.300
 109019866.658 8  84950550.68346  20745784.545    20745784.1794   20745784.3914
        48.400          40.3004
 129534772.401 7                  24649644.624
        45.800
 114599194.450 7  89298108.87047  21807488.013    21807487.3614   21807488.6444
        46.500          44.9004
 104673397.169 8  81563706.59548  19918675.728    19918675.3224   19918675.2254
        50.000          51.1004
 131741840.391 7                  25069637.209
        44.300
 131611463.169 6 102554398.96744  25044828.148    25044827.3974   25044831.2974
        36.700          26.6004
 112325741.776 8  87364534.581 7  21005468.589    21005468.679    21005475.895
        50.700          45.800
 115489517.221 8  89825221.628 7  21635071.394    21635071.433    21635077.566
        49.000          45.600
 102453880.442 8  79686396.330 7  19145950.975    19145951.277    19145957.158
        52.600          47.600
 112915945.195 8  87823544.524 7  21093644.181    21093644.668    21093651.294
        49.200          46.500
 115462961.220 7  89804578.454 6  21599721.956    21599721.776    21599729.166
        45.700          40.500
 25  1  1  7 24 15.0000000  0 28G10G24E03E08S31S35G13E21E13S48S33R02
                                G16E15G23G05E31G18E07G29G15E26G27R24
                                R18R17R03R01
 130774541.712 6 101902252.61245  24885567.692    24885567.0624   24885570.2644
        40.600          34.6004
 128095158.266 6  99814434.30045  24375699.187    24375698.7004   24375703.9574
        37.500          31.0004
 142304611.280 6                  27079652.786
        40.400
 125779602.933 7                  23935052.463
        47.200
 198975074.733 7                  37863691.664
        45.600
 200951629.225 7                  38239834.613
        44.300
 113240976.991 7  88239747.13645  21549031.653    21549031.0274   21549030.9484
        46.300          34.1004
 150008947.962 5                  28545740.554
        35.200
 123209683.388 8                  23446001.267
        48.400
 412796282.723 5                  78552708.989
        32.700
 202108404.367 7                  38459920.560
        45.000
 102507278.943 8  79727928.255 8  19209814.250    19209814.472    19209819.755
        52.300          48.000
 132245156.064 5 103048185.67842  25165414.492    25165413.4684   25165414.2964
        35.000          14.7004
 138508111.903 6                  26357185.011
        41.000
 113029275.968 7  88074768.46746  21508751.862    21508751.4154   21508752.1544
        46.600          36.7004
 121023986.535 7  94304453.46946  23030080.950    23030080.4904   23030080.8974
        44.200          41.0004
 151699594.951 5                  28867475.366
        34.600
 108999066.019 8  84934342.38946  20741826.040    20741825.6654   20741826.1604
        48.300          40.4004
 129499738.774 7                  24642977.798
        46.400
 114642427.813 7  89331797.17047  21815714.999    21815714.3294   21815715.6164
        46.600          44.7004
 104676720.437 8  81566296.15248  19919307.933    19919307.5314   19919307.6334
        49.600          51.3004
 131713046.194 7                  25064157.746
        44.300
 131564318.530 6 102517662.84044  25035856.894    25035856.1484   25035860.1494
        36.900          27.2004
 112370281.683 8  87399176.696 7  21013797.653    21013797.944    21013805.164
        50.500          45.900
 115436027.031 8  89783618.149 7  21625050.808    21625051.143    21625057.147
        48.500          45.200
 102441642.072 8  79676877.592 7  19143664.177    19143664.332    19143670.228
        52.300          47.700
 112869886.663 8  87787721.243 7  21085040.281    21085040.577    21085047.347
        48.900          46.600
 115516756.457 7  89846419.188 6  21609784.723    21609784.989    21609791.864
        46.200          40.200
 25  1  1  7 24 30.0000000  0 28G10G24E03E08S31S35G13E21E13S48S33R02
                                G16E15G23G05E31G18E07G29G15E26G27R24
                                R18R17R03R01
 130736181.943 6 101872361.87045  24878267.974    24878267.3534   24878270.2464
        40.100          34.1004
 128045696.903 6  99775892.99045  24366286.939    24366286.4614   24366292.0004
        38.200          31.4004
 142342382.890 6                  27086840.205
        40.400
 125784756.028 7                  23936033.041
        47.100
 198975066.338 7                  37863691.579
        45.800
 200951633.073 7                  38239831.183
        44.200
 113271895.102 7  88263839.16345  21554915.136    21554914.5154   21554914.5354
        47.000          34.1004
 150045975.576 5                  28552787.022
        35.700
 123211728.592 8                  23446390.628
        48.200
 412796035.745 5                  78552693.741
        32.900
 202108371.082 7                  38459916.857
        45.100
 102515577.991 8  79734383.065 8  19211369.537    19211369.779    19211374.995
        52.500          48.000
 132263032.310 5 103062115.21242  25168816.413    25168815.3944   25168815.7884
        35.600          14.2004
 138538081.520 6                  26362888.089
        40.900
 113004426.650 7  88055405.37246  21504023.414    21504022.9674   21504023.4224
        46.500          36.6004
 121064921.705 7  94336350.97846  23037870.344    23037869.8884   23037870.5884
        44.000          40.8004
 151696585.681 5                  28866902.474
        34.000
 108978340.118 8  84918192.33646  20737882.080    20737881.7054   20737882.1404
        48.100          40.3004
 129464770.016 7                  24636323.803
        46.300
 114685753.587 7  89365557.49447  21823959.443    21823958.7684   21823960.2064
        45.900          44.3004
 104680195.325 8  81569003.85548  19919969.241    19919968.8394   19919968.8794
        50.000          51.1004
 131684264.283 7                  25058680.739
        44.100
 131517240.164 6 102480978.37244  25026898.228    25026897.4684   25026901.3694
        38.200          27.6004
 112414933.290 8  87433905.704 7  21022147.349    21022147.617    21022155.239
        50.200          45.800
 115382580.150 8  89742048.360 7  21615038.149    21615038.389    21615044.965
        48.500          45.400
 102429555.430 8  79667476.855 7  19141405.634    19141405.600    19141411.504
        52.500          47.700
 112823937.345 8  87751982.888 7  21076456.610    21076456.949    21076463.776
        49.300          46.600
 115570598.268 7  89888296.115 6  21619856.768    21619856.728    21619864.542
        45.900          39.900
 25  1  1  7 24 45.0000000  0 29G10G24E03E08S31S35G13E21E13S48S33R02
                                G16E29E15G23G05E31G18E07G29G15E26G27
                                R24R18R17R03R01
 130697847.271 6 101842490.69845  24870973.039    24870972.4364   24870975.7154
        41.000          34.9004
 127996239.599 6  99737354.84545  24356875.898    24356875.4164   24356881.1804
        37.500          31.7004
 142380202.375 6                  27094037.070
        40.500
 125790013.095 7                  23937033.317
        47.100
 198975059.543 7                  37863690.640
        45.700
 200951638.218 7                  38239829.842
        44.100
 113302946.490 7  88288035.04045  21560824.159    21560823.5474   21560823.4444
        47.100          34.1004
 150082991.558 5                  28559830.458
        35.900
 123213827.964 8                  23446790.049
        48.400
 412795789.425 5                  78552655.142
        32.800
 202108338.526 7                  38459909.367
        45.000
 102524038.366 8  79740963.362 8  19212954.978    19212955.255    19212960.440
        52.400          48.100
 132281018.676 6 103076130.48042  25172238.850    25172237.8224   25172238.6274
        37.200          15.6004
 151632302.543 5                  28854667.950
        34.200
 138568090.709 6                  26368598.550
        41.200
 112979634.199 7  88036086.58846  21499305.436    21499304.9944   21499305.5344
        47.000          36.7004
 121105873.909 7  94368261.74946  23045663.429    23045662.9734   23045663.5804
        43.900          40.8004
 151693676.058 5                  28866349.254
        34.100
 108957694.290 8  84902104.67746  20733953.615    20733953.2494   20733953.3774
        48.300          40.3004
 129429871.520 7                  24629682.451
        46.000
 114729176.420 7  89399393.47947  21832223.039    21832222.3644   21832223.3484
        46.300          44.4004
 104683826.671 8  81571833.47848  19920660.457    19920660.0604   19920659.8924
        49.900          51.1004
 131655499.895 7                  25053207.176
        44.500
 131470233.512 6 102444349.79444  25017952.589    25017951.8294   25017956.3854
        37.900          28.3004
 112459701.861 8  87468725.691 7  21030519.892    21030520.050    21030527.387
        50.600          46.000
 115329182.103 8  89700516.526 7  21605035.814    21605035.870    21605041.552
        48.900          45.500
 102417625.902 8  79658198.335 7  19139176.206    19139176.420    19139182.203
        52.300          47.700
 112778102.747 8  87716333.772 7  21067894.226    21067894.458    21067900.986
        49.300          46.700
 115624491.750 7  89930213.283 6  21629939.412    21629939.320    21629946.236
        46.100          40.500
 25  1  1  7 25  0.0000000  0 29G10G24E03E08S31S35G13E21E13S48S33R02
                                G16E29E15G23G05E31G18E07G29G15E26G27
                                R24R18R17R03R01
 130659541.039 6 101812641.68445  24863682.528    24863681.9204   24863686.5014
        40.600          34.9004
 127946790.272 6  99698822.92145  24347465.685    24347465.2124   24347471.4824
        37.900          31.8004
 142418072.827 6                  27101243.666
        40.300
 125795377.415 7                  23938054.249
        47.400
 198975057.287 7                  37863687.912
        45.500
 200951647.648 7                  38239835.172
        44.000
 113334134.207 7  88312337.15345  21566758.990    21566758.3784   21566758.2364
        46.600          34.1004
 150119999.081 6                  28566873.070
        36.400
 123215984.990 8                  23447200.518
        48.400
 412795547.792 5                  78552627.132
        32.600
 202108309.696 7                  38459905.111
        44.900
 102532663.324 8  79747671.659 8  19214571.286    19214571.564    19214576.806
        52.500          48.100
 132299118.646 6 103090234.32942  25175682.415    25175681.3564   25175683.2214
        36.400          15.7004
 151586208.412 5                  28845895.767
        32.700
 138598142.880 6                  26374317.465
        41.300
 112954901.934 7  88016814.70946  21494598.799    21494598.3524   21494599.1384
        46.800          36.9004
 121146846.387 7  94400188.31746  23053460.377    23053459.9354   23053460.3284
        43.900          40.8004
 151690869.515 5                  28865815.129
        34.100
 108937132.132 8  84886082.20746  20730040.446    20730040.0844   20730040.4934
        48.000          40.4004
 129395046.778 7                  24623055.854
        46.500
 114772699.620 7  89433307.74347  21840505.178    21840504.5084   21840505.6204
        45.900          44.7004
 104687617.702 8  81574787.52648  19921381.681    19921381.2844   19921381.3044
        49.700          51.2004
 131626756.474 7                  25047737.286
        44.500
 131423302.213 6 102407779.92544  25009022.786    25009022.0084   25009025.8754
        36.200          27.5004
 112504590.643 8  87503639.170 7  21038914.649    21038914.520    21038921.427
        50.800          45.700
 115275836.816 8  89659025.737 7  21595042.032    21595042.076    21595047.945
        48.700          45.200
 102405857.188 8  79649044.871 7  19136976.931    19136977.128    19136982.894
        52.400          47.600
 112732386.240 8  87680776.500 7  21059354.430    21059354.607    21059361.099
        48.900          46.600
 115678439.791 7  89972172.819 6  21640031.320    21640030.963    21640038.424
        45.800          40.100
 25  1  1  7 25 15.0000000  0 29G10G24E03E08S31S35G13E21E13S48S33R02
                                G16E29E15G23G05E31G18E07G29G15E26G27
                                R24R18R17R03R01
 130621256.746 6 101782809.76945  24856397.937    24856397.3384   24856401.6824
        40.200          34.7004
 127897342.732 6  99660292.43245  24338056.638    24338056.1564   24338061.6504
        37.800          31.6004
 142455987.514 6                  27108458.932
        40.200
 125800842.381 7                  23939094.040
        47.200
 198975052.484 7                  37863685.426
        45.700
 200951655.389 7                  38239837.707
        44.200
 113365451.425 7  88336740.17345  21572718.378    21572717.7704   21572717.6304
        47.000          33.9004
 150156991.334 6                  28573912.600
        36.200
 123218193.201 8                  23447620.765
        48.300
 412795303.785 5                  78552607.251
        33.200
 202108279.658 7                  38459897.880
        45.300
 102541445.813 8  79754502.486 8  19216216.885    19216217.322    19216222.627
        52.500          48.100
 132317325.164 6 103104421.23342  25179148.773    25179147.7184   25179147.9554
        36.200          14.7004
 151540106.130 5                  28837122.621
        31.700
 138628231.489 6                  26380043.238
        40.700
 112930223.306 7  87997584.61646  21489902.909    21489902.4674   21489902.8794
        46.900          36.8004
 121187832.478 7  94432125.51146  23061259.957    23061259.5104   23061259.8044
        44.400          40.6004
 151688159.463 5                  28865299.236
        32.900
 108916647.313 8  84870120.00946  20726142.352    20726141.9954   20726142.3564
        48.600          40.3004
 129360289.419 7                  24616441.666
        46.000
 114816315.854 7  89467294.40047  21848804.988    21848804.3274   21848805.4394
        46.200          44.2004
 104691561.914 8  81577860.93748  19922132.191    19922131.8024   19922131.8484
        50.200          51.1004
 131598027.636 7                  25042270.394
        44.400
 131376440.092 6 102371263.96744  25000104.614    25000103.8234   25000108.3244
        36.100          26.6004
 112549592.565 8  87538640.657 7  21047329.469    21047329.819    21047337.289
        50.400          45.900
 115222538.030 8  89617571.128 7  21585056.772    21585057.560    21585063.134
        48.900          45.500
 102394243.005 8  79640011.616 7  19134806.539    19134806.724    19134812.525
        52.400          47.600
 112686781.118 8  87645305.876 7  21050834.803    21050835.196    21050841.200
        49.200          46.500
 115732435.504 7  90014169.521 6  21650132.114    21650132.291    21650139.144
        45.800          40.400
 25  1  1  7 25 30.0000000  0 29G10G24E03E08S31S35G13E21E13S48S33R02
                                G16E29E15G23G05E31G18E07G29G15E26G27
                                R24R18R17R03R01
 130582994.392 6 101752994.93045  24849117.392    24849116.8024   24849120.1814
        40.400          34.3004
 127847897.259 6  99621763.50445  24328647.278    24328646.7964   24328652.1944
        38.400          32.2004
 142493946.364 6                  27115682.320
        40.700
 125806407.947 7                  23940153.451
        47.400
 198975045.886 7                  37863685.023
        45.700
 200951661.001 7                  38239837.081
        44.200
 113396897.940 7  88361243.94045  21578702.219    21578701.6164   21578701.7034
        47.000          33.8004
 150193968.166 5                  28580948.473
        35.300
 123220452.790 8                  23448050.764
        48.500
 412795057.026 5                  78552573.253
        33.100
 202108247.049 7                  38459895.613
        45.200
 102550385.741 8  79761455.758 8  19217892.292    19217892.808    19217897.988
        52.600          48.100
 132335638.067 6 103118691.07142  25182632.114    25182631.0864   25182632.7804
        37.000          15.5004
 151493996.236 5                  28828348.480
        33.400
 138658356.579 6                  26385775.913
        41.200
 112905598.364 7  87978396.36146  21485216.735    21485216.2884   21485216.9324
        46.800          36.7004
 121228832.074 7  94464073.20646  23069061.646    23069061.2134   23069061.8104
        43.700          40.6004
 151685545.932 5                  28864802.010
        32.000
 108896240.136 8  84854218.31046  20722258.938    20722258.5814   20722259.0114
        48.200          40.3004
 129325599.690 7                  24609840.455
        45.600
 114860025.185 7  89501353.55747  21857122.575    21857121.9054   21857122.9174
        45.800          44.2004
 104695659.099 8  81581053.54648  19922911.787    19922911.3944   19922911.5064
        49.900          51.1004
 131569313.539 7                  25036806.352
        44.400
 131329647.582 6 102334802.23844  24991201.168    24991200.3644   24991204.0184
        37.100          27.1004
 112594707.686 8  87573730.172 7  21055766.924    21055766.863    21055774.101
        51.100          45.800
 115169286.246 8  89576153.085 7  21575080.929    21575081.361    21575087.556
        48.800          45.400
 102382783.734 8  79631098.831 7  19132665.093    19132665.214    19132671.168
        52.400          47.800
 112641288.174 8  87609922.494 7  21042336.146    21042336.890    21042343.128
        49.200          46.700
 115786478.479 7  90056202.918 6  21660241.959    21660242.053    21660249.451
        45.300          39.800
