     2.11           OBSERVATION DATA    M (MIXED)           RINEX VERSION / TYPE
teqc  2019Feb25                         20260317 16:20:09UTCPGM / RUN BY / DATE
Linux 2.4.21-27.ELsmp|Opteron|gcc -static|Linux 64|=+       COMMENT
BIT 2 OF LLI FLAGS DATA COLLECTED UNDER A/S CONDITION       COMMENT
-Unknown-                                                   MARKER NAME
-Unknown-           -Unknown-                               OBSERVER / AGENCY
-Unknown-           -Unknown-           -Unknown-           REC # / TYPE / VERS
-Unknown-           -Unknown-                               ANT # / TYPE
        0.0000        0.0000        0.0000                  APPROX POSITION XYZ
        0.0000        0.0000        0.0000                  ANTENNA: DELTA H/E/N
     1     1                                                WAVELENGTH FACT L1/2
     7    L1    L2    C1    P1    P2    S1    S2            # / TYPES OF OBSERV
 SNR is mapped to RINEX snr flag value [0-9]                COMMENT
  L1 & L2: min(max(int(snr_dBHz/6), 0), 9)                  COMMENT
  2025     1     1    22     0    0.0000000     GPS         TIME OF FIRST OBS
    18                                                      LEAP SECONDS
                                                            END OF HEADER
 25  1  1 22  0  0.0000000  0 36E03E05G17G08S31S35G07G15E33E25S48S33
                                R03G30E11E31R13E12R23E06E10R20R10E26
                                R11G21E24R21E09R02G13G14G02R12G19R22
 146748608.340 6                  27925323.205
        38.200
 130467900.072 6                  24827224.095
        41.600
 108427168.523 8  84488885.91948  20632926.550    20632925.9424   20632927.6424
        48.900          49.5004
 132517312.633 5 103260365.37544  25217167.609    25217166.8494   25217176.9334
        34.800          28.2004
 198973119.321 7                  37863336.952
        44.900
 200890891.984 7                  38228280.432
        43.100
 117920351.404 7  91886011.85846  22439495.371    22439494.7594   22439501.1824
        43.500          38.5004
 129286131.124 6 100742450.79844  24602331.679    24602331.2594   24602333.7674
        38.300          28.6004
 130130294.141 7                  24762903.452
        45.500
 146812691.649 6                  27937516.288
        36.500
 412994205.673 5                  78589984.261
        32.200
 202131052.191 7                  38464244.641
        44.200
 128540497.199 7  99975996.925 6  24012442.361    24012442.637    24012450.636
        43.200          37.700
 108730706.135 8  84725255.77648  20690760.920    20690760.0354   20690765.1164
        49.900          50.8004
 150453022.685 5                  28630252.850
        31.200
 126192598.141 7                  24013601.341
        46.800
 131755391.260 6                  24673552.193    24673552.569
        37.100
 133957635.176 6                  25491222.636
        40.100
 129118967.120 6                  24137419.236    24137417.840
        37.400
 148265837.607 6                  28214101.336
        36.600
 140190447.022 6                  26677308.144
        40.100
 124671195.572 5  96966658.940 7  23314082.419    23314082.613    23314093.706
        35.500          42.000
 123474065.131 6                  23163396.940    23163396.781
        38.900
 146103896.471 6                  27802573.488
        38.200
 105188023.578 8  81813068.304 8  19684454.588    19684454.665    19684461.186
        52.000          48.800
 120487923.211 6  93886855.29944  22928027.209    22928025.8994   22928028.5884
        40.300          26.9004
 128517137.467 8                  24455935.014
        48.000
 105144325.488 8  81779138.150 7  19648666.152    19648666.188    19648673.245
        52.300          47.700
 143694101.557 6                  27344108.053
        40.500
 127188412.155 7  98924406.503 6  23835041.275    23835041.982    23835052.121
        44.000          39.200
 120026182.148 7  93526900.72244  22840225.975    22840225.4344   22840228.2534
        43.300          26.0004
 106828742.428 7  83243337.37146  20328771.310    20328770.8904   20328772.7564
        47.900          40.9004
 115087449.368 7  89678691.87246  21900346.750    21900345.5304   21900346.2254
        47.200          37.4004
 111359890.848 8  86613298.216 7  20846795.705    20846795.870    20846803.722
        50.300          46.600
 119408696.168 7  93045910.05945  22722646.468    22722645.0784   22722648.1784
        44.900          31.9004
 108338976.737 8  84263853.198 8  20295475.054    20295475.734    20295482.668
        52.000          48.100
 25  1  1 22  0 15.0000000  0 36E03E05G17G08S31S35G07G15E33E25S48S33
                                R03G30E11E31R13E12R23E06E10R20R10E26
                                R11G21E24R21E09R02G13G14G02R12G19R22
 146735359.242 6                  27922802.132
        38.200
 130487894.221 6                  24831028.654
        41.900
 108411746.483 8  84476868.76948  20629992.014    20629991.4114   20629992.9344
        48.700          49.2004
 132568348.447 6 103300133.50944  25226880.340    25226879.6074   25226889.0704
        36.000          28.7004
 198973121.244 7                  37863331.439
        44.900
 200890898.658 7                  38228280.875
        42.900
 117968143.585 7  91923252.41346  22448589.463    22448588.8424   22448595.8284
        43.000          38.2004
 129294682.728 6 100749114.37044  24603959.253    24603958.8384   24603961.7554
        36.800          28.2004
 130132394.670 7                  24763302.826
        45.800
 146780723.127 6                  27931433.560
        36.500
 412994590.689 5                  78590000.519
        32.300
 202131061.572 7                  38464242.683
        44.000
 128541178.152 7  99976526.589 6  24012568.975    24012569.693    24012578.305
        44.300          38.200
 108755263.133 8  84744391.07448  20695434.058    20695433.1734   20695438.1764
        49.600          50.6004
 150405499.346 5                  28621208.569
        30.800
 126205050.519 7                  24015970.844
        47.200
 131701250.155 5                  24663414.341    24663413.571
        32.300
 133919189.240 6                  25483906.563
        40.400
 129051237.543 6                  24124755.507    24124757.335
        39.500
 148307496.186 6                  28222029.336
        37.100
 140143421.021 6                  26668359.101
        40.400
 124733493.711 5  97015113.064 6  23325731.859    23325731.042    23325743.530
        35.500          41.600
 123521523.413 6                  23172301.288    23172300.082
        39.600
 146138423.987 6                  27809143.616
        38.100
 105199215.609 8  81821773.216 8  19686549.015    19686549.343    19686555.698
        52.000          48.900
 120528771.603 6  93918685.22644  22935800.733    22935799.4414   22935801.5464
        40.700          26.8004
 128499849.523 8                  24452645.205
        48.300
 105164911.624 8  81795149.580 7  19652512.687    19652513.129    19652520.437
        52.500          47.600
 143735922.948 6                  27352066.809
        40.200
 127226833.426 7  98954289.609 6  23842240.329    23842240.749    23842252.569
        42.400          39.000
 120044561.225 7  93541222.04244  22843723.194    22843722.6624   22843725.7774
        42.900          25.8004
 106816838.109 8  83234061.28146  20326506.102    20326505.6784   20326507.4414
        48.000          40.6004
 115107315.153 7  89694171.70046  21904126.931    21904125.7024   21904126.5614
        47.300          37.2004
 111318276.869 8  86580931.787 7  20839005.770    20839005.937    20839013.570
        51.100          46.900
 119366234.929 7  93012823.48145  22714565.834    22714564.4264   22714568.0864
        44.400          31.6004
 108293378.244 8  84228387.766 8  20286932.711    20286932.874    20286940.362
        50.900          48.000
 25  1  1 22  0 30.0000000  0 36E03E05G17G08S31S35G07G15E33E25S48S33
                                R03G30E11E31R13E12R23E06E10R20R10E26
                                R11G21E24R21E09R02G13G14G02R12G19R22
 146722208.392 6                  27920299.614
        38.100
 130507973.315 6                  24834850.113
        41.800
 108396422.921 8  84464928.35548  20627075.924    20627075.3214   20627076.9494
        48.700          49.3004
 132619366.523 5 103339887.81844  25236588.764    25236588.0184   25236597.5304
        35.900          28.2004
 198973122.137 7                  37863336.304
        45.100
 200890905.465 7                  38228279.748
        42.900
 118016010.480 7  91960551.18146  22457698.949    22457698.3324   22457704.6084
        43.100          38.1004
 129303362.782 6 100755878.02244  24605610.748    24605610.3514   24605613.8774
        38.200          28.4004
 130134607.651 7                  24763724.471
        45.700
 146748747.808 6                  27925348.391
        37.200
 412993373.286 5                  78590015.227
        32.200
 202131070.788 7                  38464247.736
        44.200
 128542032.486 7  99977191.049 6  24012729.529    24012729.035    24012737.678
        42.500          37.700
 108779949.269 8  84763626.99948  20700131.754    20700130.8784   20700135.8124
        49.800          50.5004
 150357953.989 5                  28612161.424
        30.500
 126217534.662 7                  24018346.557
        47.000
 131647077.272 6                  24653269.416    24653268.962
        37.400
 133880805.601 6                  25476602.117
        40.300
 128983524.698 6                  24112098.934    24112098.498
        38.000
 148349122.974 6                  28229949.993
        36.300
 140096415.943 6                  26659414.416
        40.600
 124795842.461 6  97063606.543 6  23337391.719    23337392.757    23337402.839
        36.200          41.800
 123569042.319 6                  23181215.392    23181214.422
        38.800
 146173017.304 6                  27815726.736
        38.000
 105210526.757 8  81830570.774 8  19688665.941    19688665.999    19688672.363
        52.100          48.900
 120569720.845 6  93950593.73044  22943592.801    22943591.5184   22943594.1724
        40.700          26.5004
 128482583.400 8                  24449359.631
        48.200
 105185681.866 8  81811304.214 7  19656394.063    19656394.529    19656401.882
        52.300          47.400
 143777748.737 6                  27360025.988
        40.500
 127265353.575 7  98984249.628 6  23849460.570    23849460.832    23849470.873
        42.900          38.700
 120063066.094 7  93555641.39344  22847244.658    22847244.1444   22847246.9754
        42.900          25.7004
 106804996.949 8  83224834.40546  20324252.665    20324252.2504   20324254.1324
        48.000          40.7004
 115127312.488 7  89709754.03646  21907932.400    21907931.1714   21907931.9754
        47.500          37.1004
 111276709.206 8  86548601.406 7  20831224.069    20831224.236    20831231.972
        50.800          46.900
 119323831.070 7  92979781.61245  22706496.929    22706495.5254   22706498.8694
        44.500          31.8004
 108247923.007 8  84193033.763 8  20278417.789    20278418.131    20278424.970
        51.800          48.200
 25  1  1 22  0 45.0000000  0 36E03E05G17G08S31S35G07G15E33E25S48S33
                                R03G30E11E31R13E12R23E06E10R20R10E26
                                R11G21E24R21E09R02G13G14G02R12G19R22
 146709156.115 6                  27917815.894
        38.300
 130528137.444 6                  24838686.959
        41.700
 108381198.002 8  84453064.80748  20624178.638    20624178.0394   20624179.7404
        49.000          49.4004
 132670367.004 5 103379628.41544  25246293.899    25246293.1574   25246302.5074
        35.000          27.9004
 198973122.671 7                  37863336.796
        45.300
 200890911.993 7                  38228285.928
        43.400
 118063951.909 7  91997908.03946  22466821.823    22466821.2064   22466827.7334
        43.700          38.2004
 129312171.200 6 100762741.68844  24607286.746    24607286.3574   24607290.3644
        37.800          29.0004
 130136933.322 7                  24764166.652
        45.600
 146716765.927 6                  27919262.737
        36.600
 412993755.122 5                  78590031.713
        32.300
 202131078.528 7                  38464248.505
        44.500
 128543060.606 7  99977990.667 6  24012921.610    24012922.263    24012929.157
        44.000          37.700
 108804764.702 8  84782963.67048  20704853.830    20704852.9544   20704858.0604
        49.600          50.6004
 150310387.075 5                  28603109.461
        30.500
 126230050.850 7                  24020728.352
        47.000
 131592872.900 6                  24643118.441    24643117.847
        36.100
 133842484.776 6                  25469309.848
        40.800
 128915829.107 6                  24099443.658    24099443.323
        37.600
 148390717.942 6                  28237865.848
        37.200
 140049432.271 6                  26650473.347
        40.400
 124858241.401 6  97112139.067 6  23349059.941    23349060.316    23349071.779
        36.100          41.800
 123616621.852 6                  23190141.787    23190140.487
        39.200
 146207676.576 6                  27822321.786
        37.600
 105221957.505 8  81839461.340 8  19690804.670    19690805.223    19690811.534
        51.700          48.900
 120610770.719 6  93982580.64744  22951404.331    22951403.0354   22951405.6674
        41.000          26.7004
 128465339.398 8                  24446078.318
        48.100
 105206636.325 8  81827602.119 7  19660309.910    19660310.347    19660317.816
        52.100          47.400
 143819578.902 6                  27367986.111
        40.600
 127303972.164 6  99014286.197 6  23856697.146    23856696.150    23856708.153
        41.000          38.400
 120081696.844 7  93570158.83044  22850790.174    22850789.6694   22850792.2334
        42.900          26.0004
 106793219.330 8  83215657.04246  20322011.466    20322011.0464   20322012.9014
        48.100          40.6004
 115147441.603 7  89725439.05246  21911762.748    21911761.5144   21911762.4074
        47.100          37.2004
 111235188.358 8  86516307.402 7  20823451.235    20823451.563    20823458.660
        51.100          46.500
 119281484.997 7  92946784.76945  22698438.467    22698437.0504   22698440.5264
        44.600          31.8004
 108202611.683 8  84157791.699 8  20269928.815    20269929.207    20269936.704
        50.800          48.300
 25  1  1 22  1  0.0000000  0 36E03E05G17G08S31S35G07G15E33E25S48S33
                                R03G30E11E31R13E12R23E06E10R20R10E26
                                R11G21E24R21E09R02G13G14G02R12G19R22
 146696201.859 6                  27915351.052
        38.500
 130548385.776 6                  24842539.959
        41.600
 108366071.039 8  84441277.59148  20621300.022    20621299.4234   20621301.1734
        48.900          49.7004
 132721349.023 5 103419354.61944  25255995.238    25255994.4834   25256004.0464
        35.300          28.3004
 198973122.982 7                  37863335.043
        45.400
 200890917.352 7                  38228282.512
        43.700
 118111967.027 7  92035322.31246  22475958.560    22475957.9264   22475964.8364
        42.100          38.2004
 129321107.215 6 100769704.79644  24608987.248    24608986.8684   24608990.7704
        36.800          28.5004
 130139370.986 7                  24764630.749
        45.500
 146684776.823 6                  27913175.029
        37.400
 412994136.565 5                  78590044.627
        33.200
 202131086.002 7                  38464248.697
        44.600
 128544261.669 7  99978924.852 6  24013145.789    24013145.379    24013154.796
        43.000          37.900
 108829708.628 8  84802400.47048  20709600.663    20709599.7964   20709604.7824
        49.400          50.6004
 150262798.085 5                  28594053.691
        30.000
 126242598.473 7                  24023116.034
        47.000
 131538636.446 5                  24632961.274    24632961.509
        34.800
 133804226.280 6                  25462029.757
        40.500
 128848150.871 6                  24086792.034    24086792.683
        38.900
 148432280.262 6                  28245774.052
        36.500
 140002469.560 6                  26641536.508
        40.500
 124920689.580 5  97160709.901 6  23360739.509    23360738.566    23360749.533
        35.700          41.200
 123664261.465 6                  23199078.365    23199077.463
        38.900
 146242400.825 6                  27828929.937
        38.300
 105233507.191 8  81848444.428 8  19692966.463    19692966.358    19692972.875
        51.700          49.100
 120651920.086 6  94014645.09444  22959234.766    22959233.4614   22959236.1184
        40.700          26.7004
 128448116.884 8                  24442800.921
        48.300
 105227773.817 8  81844042.380 7  19664260.412    19664260.609    19664267.716
        52.700          47.300
 143861412.553 6                  27375946.919
        40.000
 127342688.191 7  99044398.582 6  23863953.202    23863952.323    23863963.111
        42.300          38.700
 120100452.462 7  93584773.55544  22854358.713    22854358.2174   22854361.2724
        43.100          26.1004
 106781504.677 8  83206528.74446  20319782.194    20319781.7654   20319783.6544
        48.000          40.9004
 115167701.615 7  89741226.07346  21915618.190    21915616.9614   21915617.7554
        47.400          37.4004
 111193713.919 8  86484049.495 7  20815687.248    20815687.552    20815694.948
        51.100          46.700
 119239196.254 7  92913832.60345  22690391.242    22690389.8254   22690393.1224
        44.300          32.0004
 108157443.952 8  84122661.292 8  20261467.202    20261467.779    20261475.281
        51.200          48.300
 25  1  1 22  1 15.0000000  0 36E03E05G17G08S31S35G07G15E33E25S48S33
                                R03G30E11E31R13E12R23E06E10R20R10E26
                                R11G21E24R21E09R02G13G14G02R12G19R22
 146683346.122 6                  27912904.272
        38.800
 130568718.559 6                  24846409.832
        41.700
 108351042.671 8  84429567.20148  20618440.228    20618439.6254   20618441.3564
        48.900          49.5004
 132772312.933 5 103459066.68444  25265694.069    25265693.3274   25265702.4224
        35.400          28.5004
 198973122.238 7                  37863334.055
        45.200
 200890922.847 7                  38228280.718
        43.300
 118160056.060 7  92072794.18546  22485110.080    22485109.4464   22485116.1334
        42.900          38.2004
 129330171.077 6 100776767.52244  24610712.532    24610712.1394   24610715.1714
        36.700          28.2004
 130141921.101 7                  24765115.920
        45.800
 146652780.940 6                  27907085.942
        37.900
 412994516.063 5                  78590055.967
        32.800
 202131092.832 7                  38464253.240
        44.700
 128545635.916 7  99979993.762 6  24013401.973    24013401.760    24013411.199
        42.800          38.400
 108854781.328 8  84821937.61648  20714371.937    20714371.0744   20714375.9584
        49.500          50.7004
 150215187.697 5                  28584993.240
        30.700
 126255178.019 7                  24025509.870
        47.100
 131484368.485 6                  24622799.149    24622798.959
        36.700
 133766030.911 6                  25454761.378
        40.100
 128780490.772 6                  24074142.796    24074143.518
        38.100
 148473810.201 6                  28253677.484
        36.500
 139955528.543 6                  26632603.692
        40.600
 124983186.650 6  97209318.739 7  23372428.058    23372426.462    23372437.223
        36.000          42.200
 123711961.254 6                  23208026.854    23208026.615
        39.900
 146277190.310 6                  27835549.897
        37.600
 105245176.372 8  81857520.435 8  19695149.913    19695150.281    19695156.721
        51.900          49.200
 120693169.172 6  94046787.23844  22967084.229    22967082.9104   22967085.6084
        41.000          26.7004
 128430916.394 8                  24439527.682
        48.100
 105249094.602 8  81860625.210 7  19668244.081    19668244.646    19668251.932
        52.300          47.600
 143903249.876 6                  27383908.451
        40.400
 127381501.548 7  99074586.616 6  23871226.766    23871226.356    23871237.309
        42.200          38.900
 120119333.237 7  93599485.82244  22857952.042    22857951.5554   22857954.4054
        42.600          25.9004
 106769853.595 7  83197449.97846  20317565.023    20317564.5944   20317566.5254
        47.700          40.8004
 115188092.750 7  89757115.27246  21919498.258    21919497.0204   21919498.0554
        47.500          37.4004
 111152286.769 8  86451828.376 7  20807932.690    20807932.091    20807939.576
        51.300          46.800
 119196965.371 7  92880925.51345  22682354.953    22682353.5274   22682356.7134
        44.400          32.0004
 108112420.656 8  84087643.234 8  20253033.082    20253033.230    20253040.495
        51.500          48.300
 25  1  1 22  1 30.0000000  0 36E03E05G17G08S31S35G07G15E33E25S48S33
                                R03G30E11E31R13E12R23E06E10R20R10E26
                                R11G21E24R21E09R02G13G14G02R12G19R22
 146670588.920 6                  27910476.494
        38.800
 130589135.589 7                  24850294.250
        42.200
 108336112.548 8  84417933.36548  20615599.097    20615598.4894   20615600.2444
        48.800          49.5004
 132823258.599 6 103498764.55944  25275388.720    25275388.0144   25275397.1464
        36.100          28.2004
 198973121.073 7                  37863333.536
        45.400
 200890927.005 7                  38228283.768
        43.600
 118208218.802 7  92110323.49646  22494275.002    22494274.3544   22494281.3184
        42.400          38.0004
 129339362.536 6 100783929.67644  24612461.335    24612460.9554   24612464.3534
        37.500          28.3004
 130144583.603 7                  24765622.219
        45.600
 146620778.251 6                  27900996.810
        37.100
 412994894.095 5                  78590072.893
        32.800
 202131098.807 7                  38464249.605
        44.500
 128547183.706 7  99981197.612 6  24013691.537    24013692.290    24013699.399
        44.300          37.200
 108879982.626 8  84841574.96948  20719167.535    20719166.6684   20719171.6124
        49.300          50.7004
 150167556.116 5                  28575929.495
        30.600
 126267789.514 7                  24027909.793
        46.900
 131430069.246 5                  24612631.509    24612630.141
        35.500
 133727898.777 6                  25447504.950
        40.700
 128712849.095 6                  24061499.764    24061499.370
        39.600
 148515307.541 6                  28261574.643
        36.500
 139908609.397 6                  26623675.432
        40.300
 125045732.019 5  97257965.147 6  23384122.302    23384122.617    23384132.886
        35.700          41.600
 123759721.182 6                  23216985.186    23216985.314
        38.600
 146312044.754 6                  27842182.463
        38.000
 105256965.263 8  81866689.563 8  19697356.225    19697356.352    19697362.671
        52.000          49.200
 120734517.778 6  94079006.93644  22974952.436    22974951.1134   22974953.9834
        41.000          26.7004
 128413737.919 8                  24436258.810
        48.100
 105270598.272 8  81877350.281 7  19672263.232    19672263.182    19672270.427
        52.600          47.400
 143945090.577 6                  27391870.750
        39.800
 127420411.658 7  99104849.954 6  23878518.510    23878518.406    23878529.108
        43.300          38.500
 120138338.794 7  93614295.31144  22861568.727    22861568.2494   22861571.2904
        43.100          25.8004
 106758266.155 7  83188420.80446  20315360.181    20315359.7484   20315361.4614
        47.800          40.6004
 115208614.793 7  89773106.47246  21923403.533    21923402.2904   21923403.3064
        47.700          37.3004
 111110907.259 8  86419644.326 7  20800185.385    20800185.608    20800193.375
        51.200          46.500
 119154792.498 7  92848063.63545  22674329.585    22674328.1594   22674331.2824
        44.200          31.8004
 108067542.135 8  84052737.787 8  20244625.806    20244626.343    20244633.612
        51.800          48.500
 25  1  1 22  1 45.0000000  0 37E03E05G17G08S31S35G07G15E33E25S48S33
                                R03G30E11E31R13G06E12R23E06E10R20R10
                                E26R11G21E24R21E09R02G13G14G02R12G19
                                R22
 146657933.759 6                  27908068.679
        39.300
 130609640.027 6                  24854196.256
        41.900
 108321283.895 8  84406378.59748  20612777.118    20612776.5104   20612778.4174
        49.200          49.6004
 132874189.266 5 103538450.72944  25285079.956    25285079.2374   25285088.5434
        35.500          28.0004
 198973123.223 7                  37863331.908
        45.100
 200890934.636 7                  38228285.700
        43.400
 118256458.251 7  92147912.57546  22503454.759    22503454.1294   22503460.8714
        42.700          38.1004
 129348684.982 6 100791193.90144  24614235.818    24614235.4564   24614238.4474
        37.800          28.8004
 130147361.808 7                  24766151.313
        45.600
 146588772.082 6                  27894905.702
        36.800
 412993675.776 5                  78590080.248
        32.300
 202131108.310 7                  38464253.781
        44.600
 128548908.065 7  99982538.864 6  24014013.281    24014013.156    24014022.590
        42.600          38.300
 108905315.738 8  84861315.03648  20723988.459    20723987.5964   20723992.3444
        49.700          50.7004
 150119906.869 5                  28566862.423
        31.100
 126280436.358 7                  24030316.396
        46.800
 131375742.312 6                  24602456.640    24602456.489
        36.500
 134706896.782 5                  25633869.860
        33.100
 133689833.493 6                  25440260.939
        40.800
 128645229.675 6                  24048858.067    24048858.308
        39.900
 148556775.400 6                  28269464.880
        36.800
 139861715.787 6                  26614751.942
        40.000
 125108328.437 5  97306651.278 6  23395827.234    23395828.099    23395839.134
        35.200          41.800
 123807544.611 6                  23225957.108    23225957.343
        38.500
 146346967.351 6                  27848828.147
        38.200
 105268877.346 8  81875954.498 8  19699585.435    19699585.746    19699591.990
        51.800          49.400
 120775968.631 6  94111306.30244  22982840.474    22982839.1514   22982841.7604
        40.700          26.6004
 128396584.870 8                  24432994.513
        48.100
 105292287.773 8  81894219.890 7  19676316.144    19676316.457    19676323.636
        52.700          47.400
 143986937.815 6                  27399834.001
        40.700
 127459421.691 7  99135190.990 6  23885828.487    23885829.137    23885839.697
        43.300          38.800
 120157472.274 7  93629204.48544  22865209.541    22865209.0724   22865212.5414
        43.800          26.0004
 106746745.836 7  83179443.93646  20313167.966    20313167.5334   20313169.2484
        47.800          40.7004
 115229270.861 7  89789202.11246  21927334.508    21927333.2654   21927334.0414
        47.200          37.3004
 111069579.032 8  86387500.172 7  20792448.830    20792449.013    20792456.561
        50.700          46.600
 119112681.031 7  92815249.59945  22666315.981    22666314.5644   22666317.7144
        44.100          32.0004
 108022812.206 8  84017947.896 8  20236246.469    20236246.675    20236253.800
        51.400          48.400
 25  1  1 22  2  0.0000000  0 37E03E05G17G08S31S35G07G15E33E25S48S33
                                R03G30E11E31R13G06E12R23E06E10R20R10
                                E26R11G21E24R21E09R02G13G14G02R12G19
                                R22
 146645377.958 6                  27905679.407
        39.200
 130630228.995 7                  24858114.364
        42.200
 108306554.094 8  84394900.85548  20609973.997    20609973.3854   20609975.4214
        48.900          49.7004
 132925101.998 5 103578122.92044  25294768.814    25294768.0994   25294776.9794
        35.600          28.1004
 198973125.020 7                  37863334.453
        45.300
 200890942.668 7                  38228290.780
        43.500
 118304771.309 6  92185559.01646  22512648.541    22512647.9154   22512654.5624
        41.800          38.1004
 129358135.375 6 100798557.83644  24616033.728    24616033.3624   24616036.9834
        37.400          28.7004
 130150252.978 7                  24766701.365
        45.600
 146556759.774 6                  27888813.925
        37.000
 412994056.748 5                  78590098.300
        32.700
 202131117.806 7                  38464253.692
        44.400
 128550805.993 7  99984015.117 6  24014368.345    24014367.867    24014376.412
        43.400          37.900
 108930777.767 8  84881155.55048  20728833.536    20728832.6784   20728837.6154
        49.600          50.7004
 150072237.474 5                  28557789.833
        31.000
 126293115.873 7                  24032729.379
        47.200
 131321384.683 5                  24592275.436    24592276.826
        35.900
 134649413.593 5 104921695.23943  25622931.123    25622931.1014   25622950.5124
        31.700          20.6004
 133651832.637 6                  25433029.959
        40.700
 128577630.241 6                  24036220.895    24036220.308
        38.700
 148598210.851 6                  28277350.001
        36.300
 139814845.173 6                  26605832.692
        40.000
 125170973.257 5  97355375.020 6  23407542.817    23407543.178    23407553.828
        35.600          41.900
 123855428.761 6                  23234940.256    23234940.744
        39.200
 146381955.139 6                  27855485.785
        37.800
 105280909.969 8  81885313.194 8  19701837.062    19701837.503    19701843.921
        52.000          49.200
 120817518.699 6  94143682.98244  22990746.960    22990745.6194   22990748.4874
        40.700          26.8004
 128379454.566 8                  24429734.902
        48.200
 105314160.323 8  81911231.884 7  19680403.537    19680403.833    19680410.994
        52.700          47.300
 144028788.574 6                  27407797.931
        40.600
 127498527.902 7  99165606.858 6  23893157.133    23893157.693    23893168.306
        43.800          39.000
 120176730.764 7  93644211.06344  22868874.134    22868873.6564   22868877.2954
        43.400          25.9004
 106735290.075 7  83170517.37146  20310988.033    20310987.6044   20310989.3014
        47.500          40.8004
 115250058.063 7  89805399.94446  21931290.094    21931288.8564   21931289.7284
        47.600          37.3004
 111028299.724 8  86355394.071 7  20784721.547    20784721.633    20784729.065
        51.200          46.600
 119070628.389 7  92782481.39445  22658313.666    22658312.2454   22658315.3384
        44.700          32.1004
 107978228.459 8  83983271.721 8  20227894.098    20227894.802    20227901.816
        52.100          48.400
 25  1  1 22  2 15.0000000  0 37E03E05G17G08S31S35G07G15E33E25S48S33
                                R03G30E11E31R13G06E12R23E06E10R20R10
                                E26R11G21E24R21E09R02G13G14G02R12G19
                                R22
 146632922.543 6                  27903309.011
        39.100
 130650903.263 7                  24862048.933
        42.600
 108291923.998 8  84383500.80348  20607190.054    20607189.4424   20607191.3844
        48.700          49.7004
 132975997.768 5 103617781.92544  25304454.535    25304453.8114   25304462.1384
        35.400          27.9004
 198973127.970 7                  37863336.103
        45.200
 200890951.754 7                  38228290.815
        43.300
 118353158.710 7  92223263.38146  22521856.594    22521855.9774   22521862.4744
        42.600          38.1004
 129367714.459 6 100806022.04144  24617857.086    24617856.7244   24617860.1354
        36.600          29.0004
 130153258.035 7                  24767273.248
        45.800
 146524742.297 6                  27882721.001
        37.300
 412994437.941 5                  78590104.784
        32.000
 202131127.990 7                  38464257.766
        44.500
 128552878.314 7  99985626.998 6  24014754.449    24014755.302    24014763.560
        42.300          38.000
 108956369.565 8  84901097.18748  20733703.484    20733702.6214   20733707.6054
        49.300          50.6004
 150024549.065 5                  28548714.968
        30.300
 126305829.093 7                  24035148.276
        47.500
 131266997.932 6                  24582092.666    24582092.035
        37.800
 134591907.708 5 104876885.68443  25611986.957    25611986.8414   25612009.5694
        31.900          21.7004
 133613897.323 6                  25425810.850
        41.000
 128510052.119 6                  24023587.259    24023587.362
        40.100
 148639614.647 6                  28285229.135
        36.900
 139767998.805 6                  26596917.858
        40.600
 125233666.843 6  97404136.686 7  23419266.760    23419267.920    23419278.132
        36.100          42.000
 123903374.052 6                  23243935.925    23243934.688
        39.900
 146417008.865 6                  27862156.597
        37.800
 105293064.296 8  81894766.547 8  19704111.887    19704111.860    19704118.349
        52.100          49.300
 120859168.641 6  94176137.48944  22998672.631    22998671.2944   22998674.1924
        40.300          26.3004
 128362348.055 8                  24426479.420
        48.200
 105336216.278 8  81928386.504 7  19684525.529    19684525.757    19684532.757
        52.900          47.400
 144070643.558 6                  27415762.655
        40.400
 127537731.074 7  99196098.108 6  23900504.267    23900504.685    23900515.312
        43.800          38.600
 120196114.907 7  93659315.55944  22872563.111    22872562.6244   22872565.5664
        43.000          26.0004
 106723899.919 7  83161641.92946  20308820.779    20308820.3594   20308821.8164
        47.300          40.7004
 115270977.152 7  89821700.54746  21935270.713    21935269.4704   21935270.4384
        47.400          37.4004
 110987070.507 8  86323326.923 7  20777002.740    20777003.259    20777010.709
        50.700          46.400
 119028635.682 7  92749759.89945  22650322.164    22650320.7164   22650324.4774
        44.000          32.2004
 107933792.182 8  83948710.247 8  20219569.953    20219569.960    20219577.246
        51.300          48.500
 25  1  1 22  2 30.0000000  0 37E03E05G17G08S31S35G07G15E33E25S48S33
                                R03G30E11E31R13G06E12R23E06E10R20R10
                                E26R11G21E24R21E09R02G13G14G02R12G19
                                R22
 146620563.965 6                  27900956.749
        39.100
 130671659.024 7                  24865998.118
        42.200
 108277389.868 8  84372175.53448  20604424.429    20604423.8084   20604425.6234
        48.600          49.6004
 133026872.737 5 103657424.71944  25314135.936    25314135.1814   25314143.3224
        35.400          27.9004
 198973128.962 7                  37863338.544
        45.200
 200890958.339 7                  38228288.758
        43.200
 118401616.531 7  92261022.62046  22531077.398    22531076.7864   22531083.7514
        43.400          38.1004
 129377418.354 6 100813583.48944  24619704.126    24619703.7604   24619705.8874
        37.100          28.6004
 130156373.309 7                  24767866.233
        45.800
 146492715.906 6                  27876626.721
        37.800
 412994816.238 5                  78590116.321
        32.200
 202131135.465 7                  38464257.989
        44.500
 128555121.255 7  99987371.595 6  24015173.896    24015173.694    24015182.485
        42.700          38.100
 108982087.328 8  84921136.97748  20738597.442    20738596.5794   20738601.5684
        49.300          50.6004
 149976838.291 5                  28539636.376
        30.300
 126318572.402 7                  24037573.561
        47.200
 131212578.148 6                  24571901.260    24571900.532
        36.000
 134534375.587 5 104832055.71143  25601039.620    25601039.4464   25601062.2904
        30.900          20.3004
 133576024.193 6                  25418603.876
        40.600
 128442491.825 6                  24010958.366    24010958.731
        40.500
 148680982.924 6                  28293100.852
        37.000
 139721173.286 6                  26588006.908
        40.800
 125296404.591 6  97452932.703 7  23430999.219    23431000.156    23431010.542
        36.600          42.000
 123951377.062 6                  23252940.637    23252940.844
        39.900
 146452124.711 6                  27868838.809
        38.400
 105305336.755 8  81904311.789 8  19706408.416    19706408.700    19706415.091
        51.900          49.300
 120900914.586 6  94208666.79844  23006617.297    23006615.9744   23006618.0794
        40.200          26.4004
 128345261.713 8                  24423228.411
        48.200
 105358451.715 8  81945680.737 7  19688680.393    19688680.713    19688688.084
        52.700          47.200
 144112498.879 6                  27423727.434
        40.700
 127577026.756 7  99226661.323 6  23907868.199    23907867.829    23907879.690
        42.800          38.900
 120215620.757 7  93674514.89144  22876274.895    22876274.3904   22876277.6034
        44.000          25.9004
 106712571.815 7  83152814.84046  20306664.773    20306664.3674   20306666.1314
        47.800          40.6004
 115292024.229 7  89838100.87946  21939275.705    21939274.4624   21939275.4924
        47.200          37.3004
 110945888.084 8  86291296.170 7  20769293.268    20769293.900    20769301.439
        50.400          46.700
 118986699.310 7  92717082.29145  22642342.479    22642341.0314   22642344.2814
        44.200          32.2004
 107889500.111 8  83914260.901 8  20211272.612    20211273.065    20211280.026
        52.000          48.500
 25  1  1 22  2 45.0000000  0 37E03E05G17G08S31S35G07G15E33E25S48S33
                                R03G30E11E31R13G06E12R23E06E10R20R10
                                E26R11G21E24R21E09R02G13G14G02R12G19
                                R22
 146608305.502 6                  27898624.692
        38.200
 130692499.267 7                  24869964.110
        42.500
 108262954.953 8  84360927.56948  20601677.644    20601677.0234   20601678.7554
        48.600          49.7004
 133077730.020 5 103697053.74244  25323813.258    25323812.4854   25323821.0944
        34.800          27.0004
 198973130.356 7                  37863336.250
        45.300
 200890965.329 7                  38228290.471
        43.300
 118450147.750 7  92298839.05046  22540312.567    22540311.9464   22540319.1724
        42.900          38.2004
 129387250.218 6 100821244.66344  24621575.122    24621574.7564   24621576.3404
        37.600          28.5004
 130159601.976 7                  24768480.161
        45.900
 146460683.929 6                  27870530.807
        37.500
 412995195.495 5                  78590132.303
        32.400
 202131144.167 7                  38464261.459
        44.700
 128557538.094 7  99989251.412 6  24015625.726    24015625.086    24015634.029
        42.300          37.800
 109007934.075 8  84941277.27248  20743516.035    20743515.1724   20743520.0714
        49.400          50.6004
 149929108.512 5                  28530553.394
        30.800
 126331349.068 7                  24040004.883
        47.300
 131158128.817 6                  24561704.486    24561703.677
        36.000
 134476820.800 5 104787208.06643  25590086.874    25590086.7224   25590109.4804
        32.400          21.1004
 133538216.663 6                  25411409.053
        41.000
 128374953.367 6                  23998333.070    23998331.978
        39.700
 148722318.715 6                  28300967.361
        36.900
 139674372.051 6                  26579100.972
        40.500
 125359189.693 5  97501765.534 7  23442739.808    23442739.847    23442751.507
        35.600          42.200
 123999440.512 6                  23261957.479    23261957.706
        40.000
 146487305.677 6                  27875533.886
        37.300
 105317730.658 8  81913951.466 8  19708727.579    19708727.773    19708734.450
        51.800          49.400
 120942759.139 6  94241272.94044  23014579.707    23014578.3624   23014580.7784
        40.800          26.2004
 128328198.791 8                  24419981.160
        48.000
 105380869.535 8  81963116.811 7  19692869.804    19692870.172    19692877.431
        52.700          47.300
 144154357.526 6                  27431693.311
        39.800
 127616417.768 7  99257298.653 6  23915250.355    23915250.308    23915261.753
        43.600          38.700
 120235251.255 7  93689811.34544  22880010.005    22880009.4874   22880013.4024
        42.900          26.1004
 106701309.104 7  83144038.70246  20304521.434    20304521.0194   20304522.8924
        47.800          40.7004
 115313202.403 7  89854603.36446  21943305.945    21943304.7074   21943305.6094
        47.300          37.3004
 110904756.014 8  86259304.560 7  20761593.614    20761594.115    20761601.265
        51.200          46.900
 118944822.652 7  92684451.21445  22634373.239    22634371.7864   22634375.3494
        44.000          32.3004
 107845355.868 8  83879926.531 8  20203002.325    20203002.969    20203010.126
        51.800          48.400
 25  1  1 22  3  0.0000000  0 37E03E05G17G08S31S35G07G15E33E25S48S33
                                R03G30E11E31R13G06E12R23E06E10R20R10
                                E26R11G21E24R21E09R02G13G14G02R12G19
                                R22
 146596147.833 6                  27896311.350
        38.000
 130713424.518 7                  24873945.881
        42.500
 108248619.896 8  84349757.42148  20598949.841    20598949.2154   20598950.8644
        48.800          49.8004
 133128570.081 6 103736669.34044  25333487.810    25333487.0194   25333495.6374
        36.000          27.9004
 198973132.665 7                  37863336.997
        45.200
 200890974.047 7                  38228294.822
        43.400
 118498752.726 7  92336712.96146  22549562.417    22549561.7964   22549568.6124
        42.700          38.3004
 129397210.480 6 100829005.89444  24623469.661    24623469.2954   24623471.4944
        37.500          28.3004
 130162944.727 7                  24769116.421
        45.700
 146428646.990 6                  27864434.733
        37.200
 412995575.549 5                  78590148.002
        32.500
 202131153.980 7                  38464262.264
        44.500
 128560129.592 7  99991267.022 6  24016108.919    24016109.672    24016118.444
        43.300          38.600
 109033910.387 8  84961518.52848  20748459.133    20748458.2754   20748463.2364
        49.100          50.7004
 149881360.686 5                  28521467.635
        30.200
 126344159.792 7                  24042442.577
        47.300
 131103650.793 5                  24551501.268    24551501.777
        34.100
 134419244.346 5 104742343.54143  25579129.731    25579129.5754   25579152.7804
        33.400          23.5004
 133500475.686 6                  25404227.382
        40.700
 128307437.706 6                  23985711.209    23985711.404
        40.600
 148763622.490 6                  28308827.344
        36.900
 139627596.039 6                  26570199.540
        40.500
 125422021.705 6  97550634.865 7  23454491.048    23454491.056    23454502.480
        36.100          42.300
 124047565.431 6                  23270985.777    23270985.840
        40.400
 146522552.186 6                  27882241.122
        38.100
 105330246.883 8  81923686.302 8  19711069.546    19711070.063    19711076.717
        51.700          49.400
 120984702.997 6  94273956.47244  23022560.866    23022559.5034   23022562.3114
        40.700          26.2004
 128311160.049 8                  24416738.903
        48.400
 105403469.997 8  81980694.953 7  19697093.349    19697093.516    19697100.824
        52.300          47.400
 144196219.914 6                  27439659.858
        40.200
 127655904.469 7  99288010.432 6  23922650.205    23922651.187    23922660.119
        44.100          38.200
 120255006.895 7  93705205.31944  22883769.865    22883769.3514   22883772.7174
        43.500          26.1004
 106690112.605 7  83135314.15846  20302390.978    20302390.5634   20302392.2404
        47.900          40.8004
 115334512.085 7  89871208.31046  21947361.141    21947359.9214   21947360.6734
        46.800          37.4004
 110863675.276 8  86227352.885 7  20753903.180    20753903.434    20753910.870
        50.900          46.800
 118903006.491 7  92651867.28045  22626416.183    22626414.7444   22626417.8864
        44.000          32.4004
 107801360.512 8  83845707.986 8  20194760.745    20194761.116    20194768.126
        51.400          48.300
 25  1  1 22  3 15.0000000  0 37E03E05G17G08S31S35G07G15E33E25S48S33
                                R03G30E11E31R13G06E12R23E06E10R20R10
                                E26R11G21E24R21E09R02G13G14G02R12G19
                                R22
 146584088.105 6                  27894016.309
        38.600
 130734431.582 7                  24877943.756
        42.100
 108234381.604 8  84338662.66648  20596240.111    20596239.4814   20596241.3924
        49.100          50.0004
 133179389.870 5 103776269.15444  25343158.433    25343157.6464   25343166.4554
        34.600          28.2004
 198973133.711 7                  37863339.886
        45.300
 200890981.349 7                  38228300.756
        43.800
 118547428.231 7  92374641.82146  22558825.082    22558824.4614   22558831.2564
        43.400          38.5004
 129407295.865 6 100836864.61444  24625388.285    24625387.9194   24625391.2514
        37.700          28.7004
 130166398.485 7                  24769773.544
        45.900
 146396602.086 6                  27858336.785
        38.100
 412994353.596 5                  78590160.572
        32.800
 202131161.803 7                  38464265.238
        44.500
 128562892.696 7  99993416.140 6  24016626.184    24016626.305    24016635.641
        43.300          38.600
 109060013.074 8  84981858.26348  20753426.208    20753425.3504   20753430.4304
        49.500          50.8004
 149833591.925 5                  28512376.674
        31.000
 126357001.642 7                  24044886.375
        47.300
 131049141.139 5                  24541294.427    24541293.416
        34.400
 134361643.197 5 104697459.75044  25568168.418    25568168.2494   25568191.2104
        33.800          24.1004
 133462798.421 6                  25397057.761
        40.900
 128239942.391 6                  23973091.879    23973093.402
        40.300
 148804891.029 5                  28316680.310
        35.900
 139580842.488 6                  26561302.654
        40.400
 125484897.758 5  97599538.434 6  23466247.403    23466248.249    23466259.485
        35.200          41.600
 124095748.625 6                  23280025.376    23280024.568
        39.800
 146557861.024 6                  27888959.938
        38.100
 105342882.442 8  81933513.945 8  19713434.697    19713434.956    19713441.168
        52.300          49.300
 121026742.719 6  94306714.70444  23030561.103    23030559.7444   23030562.5094
        40.200          26.2004
 128294142.534 8                  24413500.580
        48.400
 105426249.814 8  81998412.580 7  19701350.319    19701350.537    19701357.800
        52.600          47.600
 144238082.789 6                  27447626.050
        40.100
 127695482.936 6  99318793.573 6  23930066.889    23930066.189    23930078.309
        41.900          38.500
 120274884.411 7  93720694.25944  22887552.661    22887552.1254   22887555.0804
        42.800          26.3004
 106678979.416 8  83126638.94646  20300272.065    20300271.6414   20300273.6524
        48.000          40.9004
 115355950.200 7  89887913.34046  21951440.654    21951439.4434   21951440.2194
        47.300          37.5004
 110822643.212 8  86195439.045 7  20746221.658    20746222.291    20746229.647
        51.000          46.800
 118861247.849 7  92619328.15845  22618469.390    22618467.9374   22618471.3614
        44.900          32.7004
 107757511.375 8  83811603.162 8  20186546.272    20186546.817    20186554.019
        51.600          48.400
 25  1  1 22  3 30.0000000  0 37E03E05G17G08S31S35G07G15E33E25S48S33
                                R03G30E11E31R13G06E12R23E06E10R20R10
                                E26R11G21E24R21E09R02G13G14G02R12G19
                                R22
 146572126.998 6                  27891740.073
        39.200
 130755520.880 7                  24881956.610
        42.200
 108220240.516 8  84327643.65748  20593549.027    20593548.3844   20593550.4144
        48.900          49.9004
 133230189.850 5 103815853.53344  25352825.703    25352824.9084   25352833.0704
        34.400          27.4004
 198973134.641 7                  37863337.252
        45.200
 200890987.486 7                  38228304.400
        43.700
 118596174.541 7  92412625.86746  22568101.210    22568100.6024   22568107.3014
        42.900          38.5004
 129417506.776 6 100844821.14344  24627332.171    24627331.7964   24627335.0344
        37.700          28.9004
 130169963.843 7                  24770452.098
        45.900
 146364549.880 6                  27852237.021
        37.600
 412994730.223 5                  78590177.833
        32.800
 202131169.131 7                  38464265.730
        44.600
 128565827.285 7  99995698.612 6  24017173.041    24017173.283    24017183.858
        42.500          39.700
 109086242.589 8  85002296.81748  20758417.650    20758416.7924   20758421.7584
        49.500          50.8004
 149785803.051 5                  28503282.607
        31.500
 126369875.262 7                  24047336.160
        47.400
 130994600.681 6                  24531081.352    24531080.856
        37.300
 134304018.398 5 104652557.55943  25557202.473    25557202.2994   25557224.9894
        33.100          23.5004
 133425185.780 6                  25389900.380
        40.700
 128172468.093 6                  23960478.351    23960478.257
        39.000
 148846124.728 5                  28324527.101
        35.400
 139534112.270 6                  26552410.314
        40.800
 125547818.024 5  97648476.341 6  23478016.821    23478015.713    23478026.363
        35.600          41.500
 124143990.197 6                  23289075.308    23289075.302
        40.600
 146593232.640 6                  27895690.097
        38.500
 105355638.080 8  81943434.974 8  19715821.264    19715821.747    19715828.295
        51.700          49.300
 121068878.392 6  94339547.68944  23038579.236    23038577.8824   23038580.7094
        40.800          26.4004
 128277146.914 8                  24410266.204
        48.300
 105449209.314 8  82016269.958 7  19705640.721    19705640.933    19705648.322
        52.700          47.600
 144279946.507 6                  27455592.475
        40.100
 127735153.463 7  99349648.290 6  23937500.846    23937500.579    23937512.632
        42.500          38.600
 120294884.126 7  93736278.42044  22891358.317    22891357.7724   22891361.0884
        43.700          26.3004
 106667910.287 8  83118013.65146  20298166.038    20298165.6054   20298167.2944
        48.200          40.9004
 115377517.057 7  89904718.69646  21955544.737    21955543.5264   21955544.2794
        47.400          37.6004
 110781660.766 8  86163563.800 7  20738549.546    20738550.324    20738557.541
        51.200          46.700
 118819547.332 7  92586834.32045  22610534.003    22610532.5464   22610535.9574
        44.500          32.7004
 107713809.424 8  83777612.779 8  20178359.410    20178359.737    20178366.795
        51.700          48.400
 25  1  1 22  3 45.0000000  0 37E03E05G17G08S31S35G07G15E33E25S48S33
                                R03G30E11E31R13G06E12R23E06E10R20R10
                                E26R11G21E24R21E09R02G13G14G02R12G19
                                R22
 146560261.281 6                  27889482.100
        38.600
 130776689.012 7                  24885984.955
        42.200
 108206193.252 8  84316697.76048  20590876.019    20590875.3764   20590877.3004
        48.500          49.8004
 133280966.647 5 103855419.83344  25362487.590    25362486.7864   25362495.6834
        34.600          27.6004
 198973129.781 7                  37863333.084
        45.200
 200890989.670 7                  38228298.981
        43.600
 118644988.079 7  92450662.29146  22577389.894    22577389.2734   22577396.4944
        43.500          38.5004
 129427839.795 6 100852872.83544  24629298.678    24629298.2944   24629301.2924
        36.300          28.3004
 130173637.559 7                  24771151.452
        46.000
 146332487.061 6                  27846135.951
        38.000
 412995101.108 5                  78590190.004
        32.200
 202131171.560 7                  38464263.078
        44.500
 128568930.428 7  99998112.163 6  24017754.098    24017753.664    24017762.531
        43.200          38.600
 109112595.548 8  85022831.56348  20763432.356    20763431.5114   20763436.5894
        49.400          50.6004
 149737991.105 5                  28494183.712
        30.300
 126382777.447 7                  24049791.319
        47.100
 130940026.097 5                  24520860.067    24520860.811
        35.600
 134246366.976 5 104607634.62343  25546231.871    25546231.6934   25546253.8454
        30.600          22.4004
 133387634.711 6                  25382754.057
        41.000
 128105012.037 6                  23947868.961    23947868.881
        40.900
 148887320.213 5                  28332366.189
        35.700
 139487402.383 6                  26543521.457
        40.700
 125610778.360 5  97697445.435 6  23489787.564    23489788.954    23489800.324
        35.400          41.800
 124192287.218 6                  23298135.236    23298135.207
        39.600
 146628663.559 6                  27902432.606
        38.100
 105368510.627 8  81953446.953 8  19718230.602    19718230.642    19718237.140
        52.000          49.300
 121111106.482 6  94372452.71144  23046614.734    23046613.3664   23046616.3814
        40.900          26.1004
 128260169.991 8                  24407035.715
        48.100
 105472344.751 8  82034264.200 7  19709964.441    19709964.510    19709971.652
        52.900          47.400
 144321807.595 6                  27463558.692
        39.400
 127774912.077 7  99380571.568 6  23944952.270    23944952.654    23944963.365
        43.400          39.000
 120315002.518 7  93751955.05544  22895186.579    22895186.0294   22895189.5614
        43.800          26.2004
 106656902.109 7  83109435.84946  20296071.094    20296070.6704   20296072.5184
        47.600          40.8004
 115399209.322 7  89921621.77146  21959672.673    21959671.4624   21959672.1864
        47.300          37.5004
 110740724.893 8  86131724.804 7  20730886.630    20730886.920    20730894.262
        51.300          46.700
 118777902.002 7  92554383.49345  22602609.277    22602607.8114   22602611.0124
        44.600          32.7004
 107670251.749 8  83743734.641 8  20170199.852    20170199.960    20170207.153
        51.800          48.300
 25  1  1 22  4  0.0000000  0 37E03E05G17G08S31S35G07G15E33E25S48S33
                                R03G30E11E31R13G06E12R23E06E10R20R10
                                E26R11G21E24R21E09R02G13G14G02R12G19
                                R22
 146548500.055 6                  27887243.943
        38.300
 130797944.755 7                  24890030.061
        42.100
 108192248.970 8  84305832.10648  20588222.694    20588222.0604   20588223.7684
        48.800          49.7004
 133331729.138 5 103894975.00544  25372147.299    25372146.5214   25372155.1034
        35.900          27.2004
 198973130.665 7                  37863335.092
        45.500
 200890996.226 7                  38228300.550
        43.600
 118693877.705 7  92488758.00146  22586693.788    22586693.1674   22586699.9734
        43.200          38.3004
 129438303.782 6 100861026.56944  24631289.589    24631289.2094   24631292.6754
        39.200          29.3004
 130177428.566 7                  24771872.596
        45.600
 146300422.685 6                  27840033.882
        37.200
 412995476.400 5                  78590204.680
        32.500
 202131178.889 7                  38464265.738
        44.500
 128572211.298 7 100000663.968 6  24018367.213    24018367.537    24018374.673
        43.600          38.500
 109139080.775 8  85043469.37148  20768472.381    20768471.5324   20768476.6274
        49.400          50.5004
 149690165.312 5                  28485083.585
        31.500
 126395717.252 7                  24052253.800
        47.100
 130885426.968 6                  24510636.596    24510635.677
        36.700
 134188698.332 5 104562698.28043  25535259.000    25535258.8134   25535280.1534
        31.300          20.5004
 133350154.422 6                  25375622.011
        41.100
 128037583.717 6                  23935263.785    23935263.618
        40.300
 148928486.172 5                  28340199.730
        35.900
 139440722.068 6                  26534638.532
        41.000
 125673787.678 5  97746452.602 7  23501571.502    23501572.149    23501583.608
        34.900          42.300
 124240648.236 6                  23307208.489    23307207.852
        39.900
 146664162.525 6                  27909187.692
        37.700
 105381509.287 8  81963557.003 8  19720663.113    19720663.245    19720669.627
        52.100          49.300
 121153435.754 6  94405436.56144  23054669.987    23054668.6424   23054671.2484
        39.800          25.8004
 128243220.800 8                  24403810.251
        48.300
 105495665.008 8  82052402.169 7  19714322.294    19714322.312    19714329.629
        53.000          47.200
 144363674.748 6                  27471525.681
        40.400
 127814767.625 7  99411570.182 6  23952421.300    23952421.762    23952431.556
        43.200          38.000
 120335248.328 7  93767730.98044  22899039.500    22899038.9424   22899042.1064
        42.900          26.1004
 106645963.970 7  83100912.61946  20293989.847    20293989.4364   20293991.0274
        47.800          40.7004
 115421035.686 7  89938629.34246  21963825.905    21963824.6944   21963825.5634
        47.600          37.3004
 110699845.008 8  86099929.334 7  20723233.440    20723234.422    20723241.245
        51.300          46.400
 118736321.042 7  92521982.82145  22594696.343    22594694.8774   22594698.5034
        44.500          32.8004
 107626847.858 8  83709976.127 8  20162068.866    20162068.967    20162076.093
        51.900          48.500
 25  1  1 22  4 15.0000000  0 37E03E05G17G08S31S35G07G15E33E25S48S33
                                R03G30E11E31R13G06E12R23E06E10R20R10
                                E26R11G21E24R21E09R02G13G14G02R12G19
                                R22
 146536842.994 6                  27885025.659
        38.800
 130819287.545 7                  24894091.131
        42.100
 108178407.143 8  84295046.29048  20585588.440    20585587.8014   20585589.7274
        48.700          49.5004
 133382476.851 5 103934518.67544  25381804.386    25381803.6044   25381812.1984
        35.600          27.4004
 198973136.342 7                  37863339.363
        45.200
 200891007.458 7                  38228303.591
        43.400
 118742842.783 7  92526912.50346  22596011.117    22596010.4834   22596017.6894
        43.700          38.1004
 129448898.284 6 100869281.99444  24633305.746    24633305.3444   24633308.7294
        37.600          28.5004
 130181336.443 7                  24772616.256
        46.000
 146268356.386 6                  27833932.210
        38.200
 412995856.176 5                  78590214.513
        31.900
 202131191.331 7                  38464266.601
        44.300
 128575669.215 7 100003353.519 6  24019011.159    24019012.023    24019021.431
        42.800          38.600
 109165697.715 8  85064209.81548  20773537.413    20773536.5644   20773541.7234
        49.400          50.5004
 149642325.389 5                  28475979.145
        31.600
 126408694.342 7                  24054723.259
        47.300
 130830802.783 6                  24500406.994    24500406.759
        37.400
 134131012.393 5 104517748.44543  25524280.444    25524280.2614   25524302.4584
        33.000          23.7004
 133312744.784 6                  25368503.186
        41.200
 127970183.447 6                  23922663.154    23922663.588
        40.100
 148969622.067 5                  28348027.888
        35.900
 139394071.163 6                  26525761.092
        41.000
 125736845.312 5  97795497.357 6  23513365.110    23513365.423    23513375.053
        35.900          41.800
 124289073.124 6                  23316291.824    23316291.667
        40.000
 146699728.951 6                  27915956.081
        38.000
 105394633.892 8  81973765.016 8  19723119.247    19723119.413    19723125.742
        52.300          49.400
 121195865.587 6  94438498.77844  23062744.048    23062742.7034   23062745.4074
        40.400          25.5004
 128226299.016 8                  24400590.576
        48.300
 105519169.154 8  82070683.167 7  19718714.342    19718714.862    19718722.019
        52.600          47.300
 144405547.406 6                  27479493.839
        40.200
 127854719.024 7  99442643.342 6  23959908.553    23959908.729    23959920.031
        44.100          39.300
 120355620.767 7  93783605.58244  22902916.417    22902915.8724   22902918.8374
        43.200          26.2004
 106635095.623 7  83092443.77846  20291921.712    20291921.3064   20291922.8344
        47.800          40.6004
 115442995.427 7  89955740.84946  21968004.368    21968003.1484   21968004.2904
        47.300          37.2004
 110659021.315 8  86068177.571 7  20715591.716    20715592.043    20715599.305
        51.400          46.800
 118694804.087 7  92489632.01845  22586795.674    22586794.2124   22586798.1484
        44.500          32.7004
 107583597.632 8  83676337.095 8  20153966.240    20153966.884    20153973.714
        51.700          48.500
 25  1  1 22  4 30.0000000  0 37E03E05G17G08S31S35G07G15E33E25S48S33
                                R03G30E11E31R13G06E12R23E06E10R20R10
                                E26R11G21E24R21E09R02G13G14G02R12G19
                                R22
 146525278.545 6                  27882824.924
        38.700
 130840705.578 7                  24898167.141
        42.400
 108164656.225 8  84284331.31148  20582971.779    20582971.1454   20582972.9924
        48.200          49.7004
 133433198.026 5 103974041.63644  25391456.324    25391455.5204   25391464.4684
        35.800          27.1004
 198973133.544 7                  37863339.054
        45.300
 200891011.804 7                  38228302.621
        43.600
 118791871.330 7  92565116.46246  22605341.172    22605340.5384   22605347.5964
        43.200          38.3004
 129459611.386 6 100877629.85844  24635344.323    24635343.9394   24635347.2744
        38.200          29.2004
 130185349.547 7                  24773379.922
        45.600
 146236276.478 6                  27827827.553
        37.400
 412994627.903 5                  78590233.661
        32.300
 202131195.337 7                  38464272.491
        44.500
 128579292.143 6 100006171.382 6  24019689.006    24019688.352    24019697.473
        41.800          38.200
 109192434.610 8  85085043.73148  20778625.315    20778624.4614   20778629.6384
        49.100          50.5004
 149594459.981 5                  28466870.084
        30.400
 126421697.142 7                  24057197.543
        47.200
 130776141.958 6                  24490169.951    24490170.397
        37.400
 134073297.668 5 104472776.17143  25513298.448    25513298.2654   25513319.5454
        33.300          23.3004
 133275394.474 6                  25361395.354
        40.800
 127902799.500 6                  23910067.280    23910067.139
        41.000
 149010716.122 5                  28355847.323
        35.900
 139347438.358 6                  26516886.596
        40.700
 125799938.630 5  97844569.904 7  23525162.398    23525162.864    23525173.854
        35.900          42.000
 124337549.706 6                  23325388.354    23325387.565
        40.600
 146735351.035 6                  27922734.775
        37.800
 105407872.583 8  81984061.767 8  19725596.647    19725596.764    19725603.428
        51.800          49.400
 121238384.010 6  94471630.01444  23070834.825    23070833.4714   23070836.3614
        40.200          25.7004
 128209393.079 8                  24397373.185
        48.200
 105542845.344 8  82089097.982 7  19723139.076    19723139.278    19723146.354
        53.000          47.200
 144447413.659 6                  27487460.880
        40.200
 127894754.151 7  99473781.641 6  23967411.471    23967411.226    23967422.729
        43.500          39.200
 120376107.965 7  93799569.59344  22906814.878    22906814.3464   22906817.5374
        43.700          26.3004
 106624285.548 7  83084020.34346  20289864.498    20289864.0924   20289865.7314
        47.800          40.8004
 115465076.935 7  89972947.23946  21972206.744    21972205.5244   21972206.2514
        47.200          37.3004
 110618242.124 8  86036460.453 7  20707957.519    20707957.933    20707965.226
        51.000          46.800
 118653339.659 7  92457322.14545  22578905.447    22578903.9764   22578907.5494
        44.400          33.0004
 107540489.740 8  83642808.790 8  20145891.069    20145891.361    20145898.112
        52.400          48.500
 25  1  1 22  4 45.0000000  0 37E03E05G17G08S31S35G07G15E33E25S48S33
                                R03G30E11E31R13G06E12R23E06E10R20R10
                                E26R11G21E24R21E09R02G13G14G02R12G19
                                R22
 146513819.690 6                  27880644.529
        38.900
 130862211.567 7                  24902259.668
        42.100
 108151008.999 8  84273697.12948  20580375.067    20580374.4374   20580375.9854
        48.200          49.7004
 133483905.446 5 104013553.91444  25401105.365    25401104.5704   25401113.9264
        35.900          28.1004
 198973136.918 7                  37863327.472
        44.800
 200891021.204 7                  38228303.810
        43.500
 118840976.049 7  92603379.77046  22614685.827    22614685.1754   22614692.0354
        43.400          38.3004
 129470455.880 6 100886080.08444  24637407.899    24637407.5064   24637410.5574
        37.000          28.8004
 130189480.708 7                  24774165.986
        45.300
 146204195.920 6                  27821722.910
        37.100
 412995005.569 5                  78590234.394
        31.900
 202131206.114 7                  38464273.533
        44.700
 128583093.363 6 100009127.937 6  24020398.520    24020398.495    24020408.166
        41.800          38.800
 109219304.170 8  85105981.01848  20783738.587    20783737.7334   20783742.7824
        49.300          50.7004
 149546582.172 4                  28457759.636
        29.300
 126434738.606 7                  24059679.294
        47.100
 130721457.816 6                  24479929.625    24479929.809
        37.000
 134015567.461 5 104427791.81943  25502311.521    25502311.3474   25502333.7744
        31.700          23.0004
 133238116.552 6                  25354301.525
        41.100
 127835445.543 6                  23897475.277    23897474.960
        40.100
 149051780.934 5                  28363662.030
        35.800
 139300836.717 6                  26508018.808
        40.600
 125863080.219 5  97893679.989 7  23536970.248    23536971.803    23536982.189
        35.700          42.300
 124386091.247 6                  23334493.290    23334493.260
        40.000
 146771041.449 6                  27929526.740
        37.300
 105421238.854 8  81994457.732 8  19728098.101    19728098.140    19728104.648
        51.900          49.300
 121281003.541 6  94504840.04244  23078945.453    23078944.0904   23078946.6014
        40.300          25.8004
 128192515.936 7                  24394161.610
        47.900
 105566705.887 8  82107656.172 7  19727597.908    19727598.260    19727605.264
        52.400          47.300
 144489286.173 6                  27495428.733
        39.600
 127934885.736 7  99504995.012 6  23974932.494    23974932.272    23974942.241
        43.700          38.400
 120396722.673 7  93815632.97444  22910737.256    22910736.7064   22910740.5554
        43.400          26.3004
 106613546.807 8  83075652.48946  20287820.841    20287820.4354   20287822.2314
        48.100          40.9004
 115487292.719 7  89990258.25746  21976434.205    21976432.9854   21976433.7994
        47.000          37.3004
 110577520.834 8  86004788.348 7  20700334.624    20700334.800    20700342.169
        51.400          46.900
 118611940.872 7  92425063.42445  22571027.617    22571026.1374   22571029.5304
        44.500          33.1004
 107497537.582 8  83609401.611 8  20137844.393    20137844.610    20137851.575
        51.600          48.400
 25  1  1 22  5  0.0000000  0 37E03E05G17G08S31S35G07G15E33E25S48S33
                                R03G30E11E31R13G06E12R23E06E10R20R10
                                E26R11G21E24R21E09R02G13G14G02R12G19
                                R22
 146502454.507 6                  27878481.579
        38.300
 130883793.321 7                  24906366.164
        42.300
 108137453.281 8  84263134.25648  20577795.260    20577794.6304   20577796.3914
        48.500          49.9004
 133534586.978 6 104053046.00644  25410750.224    25410749.4294   25410758.6974
        36.200          28.0004
 198973134.694 7                  37863334.551
        45.100
 200891024.905 7                  38228304.892
        43.600
 118890144.587 7  92641692.80746  22624042.531    22624041.8744   22624048.6684
        43.500          38.4004
 129481419.490 6 100894623.11144  24639494.168    24639493.7754   24639496.9364
        37.100          28.6004
 130193717.954 7                  24774972.432
        45.100
 146172102.661 6                  27815615.414
        37.500
 412995376.570 5                  78590251.105
        32.200
 202131210.137 7                  38464268.882
        44.200
 128587060.331 7 100012213.360 6  24021139.471    24021139.948    24021148.121
        42.300          37.800
 109246294.297 8  85127012.26248  20788874.598    20788873.7444   20788878.8884
        49.800          50.8004
 149498680.259 5                  28448644.404
        30.700
 126447806.804 7                  24062166.104
        46.700
 130666738.299 6                  24469681.686    24469681.561
        36.500
 133957810.035 5 104382786.27543  25491320.871    25491320.6844   25491343.0044
        31.400          22.0004
 133200899.260 6                  25347219.460
        40.900
 127768109.783 6                  23884887.097    23884886.904
        40.600
 149092804.432 5                  28371468.045
        35.200
 139254254.584 6                  26499154.376
        40.600
 125926257.658 5  97942817.910 7  23548785.134    23548785.177    23548796.788
        34.500          42.100
 124434685.288 6                  23343610.240    23343609.789
        39.200
 146806788.009 6                  27936328.747
        37.200
 105434720.412 8  82004943.369 8  19730620.979    19730620.851    19730627.591
        52.200          49.500
 121323711.695 6  94538119.12944  23087072.257    23087070.8894   23087073.7614
        40.500          25.9004
 128175655.650 7                  24390953.099
        47.800
 105590738.542 8  82126348.228 7  19732089.101    19732089.356    19732096.624
        52.700          47.400
 144531152.717 6                  27503396.071
        40.000
 127975100.619 7  99536273.116 6  23982467.838    23982467.953    23982478.893
        43.000          38.400
 120417452.610 7  93831786.13344  22914682.536    22914682.0004   22914685.2374
        43.300          26.1004
 106602867.530 8  83067330.97946  20285788.576    20285788.1524   20285789.9954
        48.500          41.0004
 115509630.626 7  90007664.43446  21980685.136    21980683.9254   21980684.5374
        47.400          37.4004
 110536845.694 8  85973152.132 7  20692720.392    20692720.628    20692727.474
        52.100          46.900
 118570595.709 7  92392846.48845  22563159.893    22563158.4184   22563161.7774
        45.000          33.4004
 107454729.364 8  83576106.362 8  20129824.925    20129825.448    20129832.350
        52.000          48.500
 25  1  1 22  5 15.0000000  0 37E03E05G17G08S31S35G07G15E33E25S48S33
                                R03G30E11E31R13G06E12R23E06E10R20R10
                                E26R11G21E24R21E09R02G13G14G02R12G19
                                R22
 146491191.036 6                  27876338.334
        38.700
 130905458.738 6                  24910489.313
        41.900
 108123997.196 8  84252649.01548  20575234.652    20575234.0184   20575235.7534
        48.200          49.6004
 133585250.532 5 104092524.09144  25420390.931    25420390.1224   25420399.4354
        35.200          27.1004
 198973133.429 7                  37863333.871
        45.100
 200891030.155 7                  38228308.317
        43.500
 118939384.556 7  92680061.50346  22633412.396    22633411.7304   22633418.6274
        43.600          38.1004
 129492510.038 6 100903265.06944  24641604.682    24641604.3074   24641607.7564
        36.500          28.4004
 130198069.253 7                  24775800.421
        45.500
 146140004.808 6                  27809507.808
        37.700
 412995748.450 5                  78590265.763
        33.000
 202131215.365 7                  38464275.961
        44.200
 128591201.102 7 100015433.996 6  24021913.563    24021913.588    24021921.529
        43.200          37.600
 109273412.820 8  85148143.55648  20794034.926    20794034.0684   20794039.4264
        49.100          50.7004
 149450762.411 5                  28439524.868
        30.300
 126460909.819 7                  24064659.526
        47.000
 130611992.062 6                  24459430.542    24459430.094
        36.100
 133900033.761 5 104337766.08643  25480325.558    25480325.3224   25480348.0004
        31.700          22.3004
 133163750.922 6                  25340150.410
        40.700
 127700800.913 6                  23872302.480    23872303.522
        41.200
 149133794.353 5                  28379268.366
        34.900
 139207700.212 6                  26490295.145
        40.800
 125989478.519 5  97991989.661 7  23560607.016    23560607.064    23560619.338
        34.800          42.300
 124483339.768 6                  23352736.998    23352736.742
        40.100
 146842598.490 6                  27943143.205
        36.800
 105448325.624 8  82015525.187 8  19733166.939    19733167.091    19733173.657
        52.200          49.600
 121366516.047 6  94571473.17244  23095217.364    23095215.9874   23095218.9744
        40.700          25.7004
 128158820.312 7                  24387749.542
        47.900
 105614951.080 8  82145180.215 7  19736613.658    19736613.941    19736621.079
        52.100          47.300
 144573021.044 6                  27511363.301
        39.900
 128015406.746 7  99567622.231 6  23990022.597    23990022.724    23990032.599
        44.900          37.600
 120438305.618 7  93848035.20344  22918650.865    22918650.3514   22918653.3194
        43.100          26.0004
 106592255.880 8  83059062.16146  20283769.313    20283768.8844   20283770.7364
        48.000          40.8004
 115532098.575 7  90025171.93946  21984960.521    21984959.3014   21984960.0344
        47.500          37.1004
 110496225.067 8  85941558.326 7  20685115.640    20685115.861    20685122.832
        51.200          46.900
 118529312.308 7  92360677.67245  22555304.015    22555302.5444   22555305.8434
        43.700          33.2004
 107412073.576 8  83542929.710 8  20121833.788    20121834.278    20121841.310
        51.500          48.500
 25  1  1 22  5 30.0000000  0 37E03E05G17G08S31S35G07G15E33E25S48S33
                                R03G30E11E31R13G06E12R23E06E10R20R10
                                E26R11G21E24R21E09R02G13G14G02R12G19
                                R22
 146480028.537 6                  27874214.586
        38.600
 130927206.718 6                  24914628.004
        41.700
 108110639.914 8  84242240.76948  20572692.694    20572692.0644   20572693.9444
        48.600          49.3004
 133635895.152 5 104131987.42144  25430028.476    25430027.6634   25430036.7604
        34.400          25.8004
 198973133.643 7                  37863339.626
        45.300
 200891036.272 7                  38228307.834
        43.400
 118988694.827 7  92718484.98546  22642796.051    22642795.4084   22642802.1214
        43.300          37.8004
 129503726.446 6 100912005.09244  24643738.608    24643738.2244   24643742.1604
        37.400          28.2004
 130202533.724 7                  24776649.806
        45.300
 146107901.530 6                  27803398.123
        38.000
 412996119.994 5                  78590275.157
        32.300
 202131221.256 7                  38464271.364
        44.300
 128595514.905 7 100018789.213 6  24022719.079    24022719.205    24022728.491
        42.900          38.500
 109300658.729 8  85169374.11248  20799219.803    20799218.9494   20799224.2064
        49.000          50.5004
 149402827.991 5                  28430403.340
        31.500
 126474046.824 7                  24067159.323
        46.800
 130557217.978 6                  24449173.871    24449173.439
        37.000
 133842238.070 5 104292730.77044  25469328.568    25469328.3364   25469349.3114
        33.900          25.2004
 133126670.831 6                  25333094.203
        41.100
 127633518.242 6                  23859725.606    23859726.533
        40.300
 149174749.703 5                  28387062.695
        34.500
 139161172.968 6                  26481441.180
        40.900
 126052741.565 5  98041194.195 6  23572439.697    23572438.303    23572450.066
        35.300          41.900
 124532053.786 6                  23361875.106    23361875.021
        38.600
 146878471.832 5                  27949969.915
        35.900
 105462053.691 8  82026202.559 8  19735735.872    19735736.320    19735742.640
        52.000          49.700
 121409415.727 6  94604901.50744  23103381.046    23103379.6604   23103382.6144
        40.200          25.1004
 128142009.137 7                  24384550.299
        47.900
 105639342.382 8  82164151.223 7  19741172.174    19741172.116    19741179.308
        52.300          47.400
 144614890.083 6                  27519331.299
        38.700
 128055802.497 7  99599041.048 6  23997591.107    23997591.875    23997603.132
        43.200          38.600
 120459280.459 7  93864379.19844  22922642.232    22922641.7184   22922644.7434
        43.900          26.0004
 106581711.074 8  83050845.42946  20281762.797    20281762.3644   20281764.1084
        48.100          40.6004
 115554695.524 7  90042779.96746  21989260.139    21989258.9104   21989260.1034
        47.300          36.9004
 110455658.636 8  85910006.650 7  20677521.823    20677521.879    20677529.234
        51.600          47.100
 118488089.836 7  92328556.35145  22547459.390    22547457.9154   22547461.4414
        44.600          33.0004
 107369569.752 8  83509871.207 8  20113871.661    20113872.080    20113878.790
        51.600          48.500
 25  1  1 22  5 45.0000000  0 37E03E05G17G08S31S35G07G15E33E25S48S33
                                R03G30E11E31R13G06E12R23E06E10R20R10
                                E26R11G21E24R21E09R02G13G14G02R12G19
                                R22
 146468968.652 6                  27872109.631
        38.900
 130949038.691 7                  24918782.505
        42.300
 108097382.868 8  84231910.62248  20570169.881    20570169.2554   20570171.1794
        48.100          49.5004
 133686522.325 6 104171437.13844  25439662.991    25439662.1734   25439670.7334
        36.100          27.0004
 198973136.175 7                  37863336.724
        45.600
 200891044.969 7                  38228306.480
        43.500
 119038076.747 7  92756964.30346  22652192.845    22652192.1884   22652199.3344
        43.100          37.9004
 129515070.187 6 100920844.35044  24645898.220    24645897.8234   24645900.4744
        36.700          28.3004
 130207112.915 7                  24777521.345
        45.500
 146075794.366 6                  27797288.517
        38.100
 412994893.320 5                  78590278.198
        32.500
 202131230.537 7                  38464279.100
        44.600
 128600003.188 7 100022280.109 6  24023558.552    24023557.205    24023566.447
        42.600          38.100
 109328033.423 8  85190705.01448  20804429.079    20804428.2254   20804433.4584
        49.500          50.6004
 149354878.906 5                  28421278.219
        31.400
 126487219.454 7                  24069666.077
        46.900
 130502417.810 6                  24438909.543    24438909.943
        36.000
 133784424.817 5 104247681.73844  25458325.569    25458325.3284   25458347.3534
        33.700          24.8004
 133089660.811 6                  25326051.078
        40.800
 127566263.899 6                  23847152.611    23847153.073
        40.700
 149215671.886 5                  28394849.272
        35.900
 139114674.718 6                  26472593.033
        40.600
 126116047.901 5  98090432.427 6  23584277.591    23584278.345    23584288.020
        35.100          41.800
 124580828.942 6                  23371026.423    23371025.146
        38.500
 146914409.393 6                  27956808.744
        37.300
 105475906.342 8  82036976.826 8  19738328.236    19738328.506    19738335.000
        52.100          49.600
 121452411.656 6  94638404.84044  23111563.039    23111561.6674   23111564.3024
        40.500          25.2004
 128125223.768 7                  24381356.390
        47.800
 105663913.609 8  82183262.195 7  19745763.107    19745763.676    19745771.123
        51.900          47.400
 144656761.119 6                  27527299.321
        40.600
 128096289.098 7  99630530.513 6  24005179.725    24005179.087    24005190.161
        43.500          38.500
 120480378.338 7  93880819.06944  22926656.829    22926656.3024   22926659.5444
        44.200          26.0004
 106571234.842 8  83042682.12946  20279769.393    20279768.9604   20279770.5034
        48.100          40.7004
 115577422.823 7  90060489.56346  21993585.182    21993583.9574   21993584.9944
        47.500          37.0004
 110415148.238 8  85878498.569 7  20669938.279    20669938.145    20669945.649
        51.300          46.800
 118446930.147 7  92296483.93545  22539626.915    22539625.4404   22539629.0414
        44.400          33.4004
 107327219.798 8  83476932.409 8  20105938.221    20105938.469    20105945.291
        51.900          48.600
 25  1  1 22  6  0.0000000  0 37E03E05G17G08S31S35G07G15E33E25S48S33
                                R03G30E11E31R13G06E12R23E06E10R20R10
                                E26R11G21E24R21E09R02G13G14G02R12G19
                                R22
 146458003.063 6                  27870022.592
        38.500
 130970946.079 7                  24922951.217
        42.100
 108084217.481 8  84221651.90148  20567664.937    20567664.3204   20567665.8724
        48.500          49.5004
 133737123.478 6 104210866.57244  25449291.274    25449290.4434   25449299.7504
        36.900          27.6004
 198973132.375 7                  37863338.012
        45.100
 200891048.118 7                  38228307.419
        43.000
 119087521.707 7  92795492.73246  22661602.687    22661602.0534   22661608.5984
        43.200          37.9004
 129526532.615 6 100929776.08144  24648079.486    24648079.0894   24648081.8884
        38.300          29.0004
 130211798.385 7                  24778412.996
        45.300
 146043674.952 6                  27791175.972
        37.300
 412995261.882 5                  78590297.135
        32.200
 202131233.181 7                  38464274.753
        44.100
 128604657.180 7 100025899.856 6  24024427.784    24024428.549    24024436.562
        43.800          38.600
 109355528.401 8  85212129.64348  20809661.165    20809660.3164   20809665.6144
        49.300          50.5004
 149306906.867 5                  28412148.855
        31.000
 126500419.397 7                  24072178.048
        46.900
 130447583.492 6                  24428641.570    24428641.680
        36.800
 133726585.887 5 104202612.70543  25447317.837    25447317.6014   25447339.9354
        31.000          21.9004
 133052712.788 6                  25319020.464
        41.300
 127499029.754 6                  23834584.515    23834584.755
        41.200
 149256552.283 6                  28402628.480
        36.100
 139068197.292 6                  26463748.340
        40.700
 126179388.653 5  98139697.404 6  23596120.597    23596121.545    23596133.805
        34.100          41.900
 124629656.537 6                  23380185.933    23380185.417
        39.200
 146950402.638 6                  27963658.043
        38.100
 105489875.232 8  82047841.519 8  19740942.349    19740942.442    19740949.030
        52.000          49.500
 121495495.459 6  94671976.64344  23119761.377    23119760.0144   23119762.9284
        40.400          25.2004
 128108455.869 8                  24378165.380
        48.200
 105688655.682 8  82202506.043 7  19750387.219    19750387.392    19750394.736
        52.500          47.300
 144698625.617 6                  27535265.889
        39.900
 128136857.568 7  99662083.633 6  24012783.023    24012782.598    24012791.982
        43.400          37.800
 120501590.733 7  93897348.17444  22930693.341    22930692.8054   22930696.3154
        43.900          26.3004
 106560818.920 8  83034565.81946  20277787.369    20277786.9364   20277788.4344
        48.000          40.8004
 115600271.820 7  90078293.98946  21997933.370    21997932.1414   21997932.9224
        47.400          37.1004
 110374685.594 8  85847027.629 7  20662363.536    20662363.955    20662370.756
        51.900          46.900
 118405824.916 7  92264453.94945  22531804.898    22531803.4414   22531807.0064
        44.100          33.3004
 107285015.556 8  83444106.955 8  20098031.397    20098031.648    20098038.743
        51.400          48.500
 25  1  1 22  6 15.0000000  0 37E03E05G17G08S31S35G07G15E33E25S48S33
                                R03G30E11E31R13G06E12R23E06E10R20R10
                                E26R11G21E24R21E09R02G13G14G02R12G19
                                R22
 146447144.711 6                  27867956.662
        38.800
 130992941.540 7                  24927136.904
        42.300
 108071156.547 8  84211474.57148  20565179.150    20565178.5384   20565180.4244
        48.200          49.7004
 133787711.426 6 104250285.69944  25458918.182    25458917.3464   25458926.3444
        36.200          27.3004
 198973135.881 7                  37863338.276
        45.500
 200891057.533 7                  38228309.811
        43.400
 119137042.327 7  92834080.12946  22671025.503    22671024.8644   22671032.1814
        42.900          38.0004
 129538126.341 6 100938810.12944  24650285.261    24650284.8724   24650288.1244
        38.700          29.2004
 130216602.972 7                  24779327.149
        45.800
 146011556.165 6                  27785064.686
        38.400
 412995636.698 5                  78590313.587
        32.700
 202131242.903 7                  38464274.637
        44.500
 128609489.900 7 100029658.680 6  24025329.493    24025330.476    24025338.296
        43.300          37.800
 109383156.291 8  85233657.84748  20814918.634    20814917.7854   20814923.0534
        49.200          50.7004
 149258924.891 5                  28403019.394
        30.000
 126513659.524 7                  24074697.418
        47.200
 130392728.014 6                  24418370.158    24418369.741
        37.700
 133668734.439 5 104157533.97343  25436310.050    25436309.7734   25436331.1414
        32.000          23.5004
 133015839.804 6                  25312003.458
        41.100
 127431829.263 7                  23822022.969    23822022.983
        42.000
 149297403.548 5                  28410402.249
        35.700
 139021753.821 6                  26454910.468
        41.000
 126242776.167 5  98188998.773 7  23607974.632    23607976.438    23607987.276
        35.100          42.200
 124678549.361 6                  23389357.631    23389357.144
        38.300
 146986464.174 6                  27970520.279
        37.900
 105503973.456 8  82058806.798 8  19743580.525    19743580.941    19743587.404
        52.300          49.400
 121538679.352 6  94705626.43844  23127979.166    23127977.7944   23127980.5184
        40.700          25.5004
 128091718.368 8                  24374980.378
        48.200
 105713581.633 8  82221892.910 7  19755045.468    19755045.571    19755052.781
        52.500          47.400
 144740496.157 6                  27543232.918
        39.200
 128177520.129 7  99693709.946 6  24020402.096    24020402.301    24020412.955
        43.400          38.400
 120522930.157 7  93913976.26144  22934754.318    22934753.7774   22934757.1884
        44.400          26.1004
 106550476.288 8  83026506.62046  20275819.281    20275818.8574   20275820.3074
        48.000          40.9004
 115623255.215 7  90096203.13746  22002306.873    22002305.6484   22002306.5314
        47.200          37.2004
 110334284.267 8  85815604.367 7  20654800.021    20654800.733    20654807.748
        52.100          46.900
 118364787.047 7  92232476.46745  22523995.320    22523993.8494   22523997.6754
        44.100          33.6004
 107242970.493 8  83411405.278 8  20090155.215    20090155.422    20090162.445
        51.500          48.800
 25  1  1 22  6 30.0000000  0 37E03E05G17G08S31S35G07G15E33E25S48S33
                                R03G30E11E31R13G06E12R23E06E10R20R10
                                E26R11G21E24R21E09R02G13G14G02R12G19
                                R22
 146436384.547 6                  27865909.206
        38.800
 131015015.825 7                  24931337.437
        42.200
 108058190.927 8  84201371.51248  20562711.933    20562711.3214   20562713.1214
        48.400          49.6004
 133838277.027 6 104289687.39444  25468540.033    25468539.1844   25468548.4934
        36.000          26.6004
 198973137.157 7                  37863340.047
        45.500
 200891065.769 7                  38228310.906
        43.700
 119186629.329 7  92872719.24846  22680462.009    22680461.3704   22680468.3114
        43.900          37.8004
 129549842.207 6 100947939.36144  24652514.911    24652514.5404   24652517.2864
        38.300          29.0004
 130221517.593 7                  24780262.250
        45.800
 145979428.951 6                  27778950.498
        37.900
 412996009.453 5                  78590328.531
        32.800
 202131250.384 7                  38464279.448
        44.700
 128614492.148 7 100033549.362 6  24026265.064    24026263.963    24026272.744
        42.700          38.000
 109410907.930 8  85255282.48148  20820199.751    20820198.9024   20820204.0574
        49.000          50.7004
 149210924.300 5                  28393884.496
        30.700
 126526930.862 7                  24077222.935
        47.100
 130337842.431 6                  24408089.769    24408090.116
        36.400
 133610861.808 5 104112438.72644  25425297.684    25425297.3984   25425318.6884
        34.700          25.5004
 132979032.991 6                  25304999.471
        41.500
 127364653.625 6                  23809463.898    23809463.229
        40.200
 149338216.447 6                  28418168.659
        36.100
 138975335.495 6                  26446077.399
        41.300
 126306200.735 5  98238329.022 7  23619837.397    23619836.442    23619848.393
        34.500          42.100
 124727498.380 6                  23398541.321    23398540.734
        39.200
 147022584.681 6                  27977393.281
        38.000
 105518191.937 8  82069865.605 8  19746241.433    19746241.825    19746248.207
        52.000          49.400
 121581953.987 6  94739346.94044  23136213.796    23136212.4334   23136215.3334
        40.400          25.2004
 128075002.228 8                  24371799.496
        48.200
 105738681.715 8  82241415.221 7  19759735.450    19759735.919    19759743.361
        52.200          47.500
 144782363.421 6                  27551200.674
        39.600
 128218267.390 7  99725402.145 6  24028037.601    24028038.379    24028049.140
        43.600          38.200
 120544387.302 7  93930696.08044  22938837.003    22938836.4364   22938840.0834
        42.900          26.0004
 106540198.030 8  83018497.58146  20273863.146    20273862.7224   20273864.4284
        48.100          40.9004
 115646363.742 7  90114209.79946  22006704.314    22006703.0944   22006703.8984
        47.400          37.2004
 110293935.217 8  85784221.798 7  20647246.685    20647246.973    20647254.091
        51.300          47.000
 118323807.639 7  92200544.52745  22516197.435    22516195.9784   22516199.4244
        44.500          33.4004
 107201075.740 8  83378820.537 8  20082306.702    20082307.116    20082314.090
        51.600          48.800
 25  1  1 22  6 45.0000000  0 37E03E05G17G08S31S35G07G15E33E25S48S33
                                R03G30E11E31R13G06E12R23E06E10R20R10
                                E26R11G21E24R21E09R02G13G14G02R12G19
                                R22
 146425727.014 6                  27863881.365
        38.900
 131037173.102 7                  24935553.835
        42.200
 108045324.964 8  84191346.10748  20560263.696    20560263.0704   20560264.7834
        48.600          49.7004
 133888824.463 6 104329074.94844  25478159.039    25478158.1944   25478167.3074
        36.500          26.2004
 198973140.983 7                  37863341.719
        45.300
 200891075.860 7                  38228314.913
        43.600
 119236286.575 7  92911413.10446  22689911.234    22689910.5684   22689917.7794
        43.000          37.7004
 129561684.390 6 100957167.01444  24654768.464    24654768.0984   24654771.0424
        38.200          29.0004
 130226546.530 7                  24781219.266
        46.000
 145947297.671 6                  27772836.533
        38.200
 412996383.567 5                  78590346.542
        32.700
 202131260.490 7                  38464283.263
        44.500
 128619667.981 7 100037574.978 6  24027231.880    24027231.837    24027240.766
        43.000          39.000
 109438787.452 8  85277006.75748  20825505.028    20825504.1794   20825509.4234
        49.500          50.8004
 149162909.624 4                  28384746.852
        29.800
 126540237.812 7                  24079755.169
        47.100
 130282931.259 6                  24397808.495    24397808.738
        36.900
 133552972.591 5 104067330.57344  25414280.644    25414280.3494   25414302.5774
        33.500          24.2004
 132942296.989 6                  25298008.733
        41.000
 127297507.807 7                  23796912.174    23796912.922
        42.300
 149378995.095 5                  28425928.239
        35.600
 138928946.906 6                  26437249.528
        41.000
 126369666.123 5  98287690.919 6  23631705.130    23631704.839    23631716.312
        34.700          41.800
 124776507.563 6                  23407734.894    23407735.544
        40.100
 147058768.310 6                  27984279.013
        37.300
 105532535.241 8  82081021.488 8  19748925.282    19748925.554    19748932.294
        51.900          49.200
 121625323.599 6  94773141.46544  23144467.048    23144465.6894   23144468.3834
        40.200          25.0004
 128058311.944 7                  24368623.536
        47.900
 105763960.002 8  82261076.097 7  19764459.543    19764460.000    19764467.138
        52.900          47.700
 144824231.559 6                  27559168.236
        40.000
 128259102.908 7  99757162.938 6  24035690.171    24035691.029    24035702.300
        42.800          38.600
 120565966.214 7  93947510.78244  22942944.176    22942943.6184   22942946.7414
        43.900          26.1004
 106529988.626 8  83010542.20746  20271920.334    20271919.9054   20271921.5934
        48.400          41.0004
 115669601.595 7  90132317.23346  22011126.353    22011125.1424   22011125.8904
        47.600          37.2004
 110253643.370 8  85752883.689 7  20639704.229    20639704.361    20639711.399
        51.500          46.900
 118282891.090 7  92168661.56845  22508410.988    22508409.5494   22508413.0954
        44.400          33.4004
 107159336.048 8  83346356.368 8  20074487.551    20074488.050    20074494.644
        51.900          48.600
 25  1  1 22  7  0.0000000  0 37E03E05G17G08S31S35G07G15E33E25S48S33
                                R03G30E11E31R13G06E12R23E06E10R20R10
                                E26R11G21E24R21E09R02G13G14G02R12G19
                                R22
 146415167.308 6                  27861871.615
        39.000
 131059408.287 7                  24939785.260
        42.100
 108032553.788 8  84181394.56548  20557833.246    20557832.6254   20557834.4924
        48.600          49.7004
 133939348.794 5 104368444.48744  25487773.299    25487772.4504   25487782.0964
        35.800          27.0004
 198973141.965 7                  37863338.844
        45.100
 200891083.219 7                  38228316.693
        43.300
 119286009.056 7  92950157.79046  22699373.579    22699372.9134   22699379.6744
        43.600          37.7004
 129573647.583 6 100966488.95044  24657044.948    24657044.5914   24657048.0054
        38.200          29.4004
 130231684.856 7                  24782197.133
        45.700
 145915157.440 6                  27766720.011
        38.900
 412995153.534 5                  78590352.150
        32.600
 202131267.658 7                  38464281.631
        44.200
 128625012.634 7 100041731.929 6  24028229.100    24028230.006    24028237.374
        43.300          37.600
 109466789.821 8  85298826.76148  20830833.761    20830832.9164   20830838.1034
        49.500          50.9004
 149114876.011 4                  28375607.276
        29.600
 126553575.499 7                  24082293.373
        46.900
 130227989.554 5                  24387519.619    24387518.238
        35.600
 133495062.223 5 104022205.96243  25403261.171    25403260.8414   25403282.3174
        32.600          23.4004
 132905627.165 6                  25291030.858
        41.200
 127230387.091 6                  23784363.724    23784363.564
        41.600
 149419734.480 5                  28433681.312
        35.800
 138882583.436 6                  26428426.772
        40.600
 126433167.382 5  98337080.774 7  23643580.336    23643580.194    23643591.967
        35.000          42.200
 124825571.805 6                  23416939.960    23416939.664
        39.600
 147095010.017 6                  27991176.192
        36.800
 105546998.466 8  82092270.651 8  19751632.364    19751632.473    19751638.909
        51.500          49.400
 121668782.732 6  94807005.74144  23152737.388    23152736.0294   23152738.2154
        40.200          25.3004
 128041642.598 8                  24365451.200
        48.000
 105789411.121 8  82280871.418 8  19769215.509    19769216.107    19769223.402
        52.700          48.000
 144866095.400 6                  27567134.412
        40.000
 128300021.662 7  99788988.472 6  24043358.114    24043359.048    24043370.471
        42.700          38.500
 120587661.778 7  93964416.37844  22947072.379    22947071.8164   22947075.3194
        44.100          26.3004
 106519843.324 8  83002636.78146  20269989.665    20269989.2454   20269991.0104
        48.300          41.0004
 115692963.594 7  90150521.40246  22015571.857    22015570.6464   22015571.5284
        47.400          37.2004
 110213404.081 8  85721586.476 7  20632171.189    20632171.412    20632178.333
        51.500          47.000
 118242032.709 7  92136823.93945  22500635.742    22500634.2984   22500637.9234
        43.600          33.4004
 107117746.785 8  83314009.208 8  20066696.326    20066696.552    20066703.691
        51.900          48.900
 25  1  1 22  7 15.0000000  0 37E03E05G17G08S31S35G07G15E33E25S48S33
                                R03G30E11E31R13G06E12R23E06E10R20R10
                                E26R11G21E24R21E09R02G13G14G02R12G19
                                R22
 146404707.806 6                  27859881.497
        39.000
 131081723.541 7                  24944031.792
        42.500
 108019879.738 8  84171518.70248  20555421.331    20555420.7104   20555422.6864
        48.300          49.7004
 133989852.262 5 104407797.81644  25497384.601    25497383.8014   25497392.4984
        35.800          25.7004
 198973142.826 7                  37863339.273
        45.400
 200891090.872 7                  38228314.591
        43.200
 119335798.754 7  92988954.85446  22708848.094    22708847.4104   22708854.7254
        43.200          37.8004
 129585734.061 6 100975906.94644  24659344.622    24659344.2654   24659347.8904
        37.700          28.9004
 130236934.893 7                  24783195.951
        45.900
 145883010.629 6                  27760602.692
        38.300
 412995522.475 5                  78590370.264
        32.800
 202131274.081 7                  38464285.695
        44.500
 128630527.777 7 100046021.541 6  24029260.401    24029260.169    24029269.863
        42.600          38.700
 109494917.203 8  85320744.17648  20836186.118    20836185.2644   20836190.5774
        49.300          50.9004
 149066826.238 5                  28366463.793
        31.600
 126566946.370 7                  24084837.695
        46.800
 130173020.112 5                  24377224.485    24377224.093
        35.100
 133437133.414 5 103977066.98844  25392237.739    25392237.3954   25392259.1554
        33.300          24.6004
 132869026.059 6                  25284065.525
        41.200
 127163294.501 6                  23771821.657    23771821.463
        41.500
 149460436.723 5                  28441426.710
        34.700
 138836247.638 6                  26419609.372
        41.500
 126496706.259 5  98386499.924 7  23655462.024    23655462.024    23655473.725
        34.300          42.300
 124874693.840 6                  23426155.255    23426154.627
        40.100
 147131311.907 6                  27998083.609
        37.000
 105561584.118 8  82103615.030 8  19754361.979    19754361.965    19754368.517
        52.300          49.500
 121712333.331 6  94840941.29844  23161024.419    23161023.0564   23161025.6524
        39.500          25.2004
 128024996.621 8                  24362283.650
        48.000
 105815037.151 8  82300802.799 7  19774004.415    19774004.857    19774011.893
        52.300          47.900
 144907957.046 6                  27575100.527
        39.400
 128341025.143 7  99820879.947 6  24051042.758    24051042.606    24051054.816
        42.400          39.300
 120609476.080 7  93981414.50144  22951223.553    22951222.9814   22951226.3754
        44.000          26.3004
 106509764.590 8  82994783.22446  20268071.943    20268071.5284   20268073.1274
        48.100          41.0004
 115716451.958 7  90168824.03246  22020041.725    22020040.5184   22020041.2464
        47.300          37.1004
 110173220.009 8  85690332.222 7  20624648.528    20624649.083    20624656.045
        52.000          46.900
 118201235.085 7  92105033.65645  22492872.375    22492870.9584   22492874.2784
        44.600          33.3004
 107076310.699 8  83281781.187 8  20058934.039    20058934.611    20058941.169
        52.000          48.800
 25  1  1 22  7 30.0000000  0 37E03E05G17G08S31S35G07G15E33E25S48S33
                                R03G30E11E31R13G06E12R23E06E10R20R10
                                E26R11G21E24R21E09R02G13G14G02R12G19
                                R22
 146394349.284 6                  27857909.746
        38.800
 131104119.432 6                  24948293.584
        41.800
 108007303.299 8  84161718.90048  20553028.428    20553027.8164   20553029.4344
        48.500          49.9004
 134040335.496 5 104447135.38444  25506991.021    25506990.2304   25506998.9294
        35.900          26.7004
 198973144.862 7                  37863341.572
        45.400
 200891098.835 7                  38228317.739
        43.600
 119385656.123 7  93027804.65246  22718335.754    22718335.0794   22718342.1804
        42.900          37.6004
 129597944.429 6 100985421.50044  24661668.807    24661668.4634   24661671.0554
        38.800          29.3004
 130242297.306 7                  24784216.559
        46.000
 145850857.960 6                  27754483.821
        38.200
 412995890.241 5                  78590380.093
        32.700
 202131281.680 7                  38464284.108
        44.600
 128636214.447 7 100050444.529 6  24030322.092    24030323.239    24030330.957
        43.600          38.700
 109523170.134 8  85342759.41848  20841562.614    20841561.7654   20841566.9614
        49.000          50.9004
 149018761.117 5                  28357315.898
        32.100
 126580351.191 7                  24087388.678
        47.000
 130118023.720 5                  24366926.043    24366925.732
        35.900
 133379187.100 5 103931914.38944  25381209.980    25381209.6634   25381232.1474
        33.700          25.6004
 132832494.595 6                  25277113.806
        41.400
 127096231.027 6                  23759284.561    23759283.986
        41.300
 149501102.351 5                  28449165.100
        35.200
 138789940.525 6                  26410797.263
        41.500
 126560283.288 5  98435948.726 7  23667350.859    23667352.064    23667363.291
        35.100          42.100
 124923874.058 6                  23435381.622    23435381.400
        40.200
 147167674.471 6                  28005003.598
        38.100
 105576293.048 8  82115055.301 8  19757114.075    19757114.428    19757121.025
        52.000          49.500
 121755976.034 6  94874948.59644  23169329.904    23169328.5674   23169330.5874
        40.400          25.0004
 128008374.810 8                  24359120.772
        48.000
 105840838.496 8  82320870.518 8  19778825.978    19778826.402    19778833.688
        52.400          48.000
 144949817.021 6                  27583066.266
        40.100
 128382113.688 7  99852837.555 6  24058743.206    24058743.326    24058755.544
        42.900          39.300
 120631409.505 7  93998505.43944  22955397.206    22955396.6214   22955400.1974
        44.000          26.4004
 106499753.259 8  82986982.19646  20266166.773    20266166.3624   20266168.0424
        48.400          41.2004
 115740067.070 7  90187225.43446  22024535.369    22024534.1584   22024535.0614
        47.600          37.3004
 110133092.214 8  85659121.724 7  20617137.029    20617137.164    20617143.875
        52.400          47.000
 118160498.921 7  92073291.25545  22485120.453    22485119.0324   22485122.3184
        44.900          33.4004
 107035028.861 8  83249673.149 8  20051200.587    20051200.667    20051207.717
        51.600          49.000
 25  1  1 22  7 45.0000000  0 37E03E05G17G08S31S35G07G15E33E25S48S33
                                R03G30E11E31R13G06E12R23E06E10R20R10
                                E26R11G21E24R21E09R02G13G14G02R12G19
                                R22
 146384092.032 6                  27855957.980
        38.400
 131126595.942 6                  24952570.830
        41.900
 107994824.715 8  84151995.34848  20550653.589    20550652.9774   20550654.8284
        48.500          49.7004
 134090798.638 6 104486457.31244  25516593.693    25516592.8804   25516601.6494
        36.700          27.0004
 198973146.123 7                  37863337.091
        45.500
 200891107.442 7                  38228322.273
        43.800
 119435581.124 7  93066707.15346  22727836.344    22727835.6694   22727842.8494
        42.900          37.5004
 129610278.722 6 100995032.60344  24664015.751    24664015.4254   24664017.8704
        37.900          28.7004
 130247772.291 7                  24785258.317
        45.500
 145818699.632 6                  27748365.253
        38.000
 412996259.489 5                  78590387.686
        32.500
 202131290.069 7                  38464286.706
        44.600
 128642072.721 7 100055000.986 6  24031416.229    24031415.755    24031425.346
        42.500          37.300
 109551548.689 8  85364872.55448  20846963.024    20846962.1844   20846967.2554
        49.200          50.7004
 148970681.117 5                  28348166.543
        30.700
 126593790.208 7                  24089945.963
        46.600
 130063001.047 5                  24356621.155    24356620.810
        35.300
 133321223.818 5 103886748.56644  25370180.507    25370180.2304   25370201.2044
        34.100          24.8004
 132796033.285 6                  25270175.672
        41.000
 127029197.157 7                  23746753.315    23746754.450
        42.400
 149541731.336 5                  28456895.923
        34.900
 138743662.553 6                  26401990.567
        40.800
 126623897.782 5  98485426.693 6  23679247.157    23679247.506    23679258.558
        33.300          41.600
 124973112.390 6                  23444618.030    23444618.055
        38.600
 147204097.671 6                  28011934.660
        37.200
 105591125.520 8  82126591.649 8  19759890.306    19759890.331    19759896.807
        52.100          49.400
 121799710.669 6  94909027.53044  23177652.259    23177650.9314   23177652.9074
        40.300          25.1004
 127991777.479 8                  24355962.351
        48.000
 105866814.917 8  82341074.413 7  19783680.507    19783680.841    19783687.970
        52.800          47.900
 144991675.309 6                  27591031.839
        38.600
 128423286.982 7  99884861.040 6  24066459.159    24066459.799    24066470.587
        43.900          38.200
 120653461.951 7  94015689.13144  22959593.911    22959593.3394   22959596.5014
        44.200          26.2004
 106489809.691 8  82979233.96746  20264274.648    20264274.2374   20264275.8254
        48.400          41.0004
 115763808.846 7  90205725.52246  22029053.227    22029052.0204   22029052.9294
        47.600          37.1004
 110093021.284 8  85627955.461 7  20609634.994    20609635.404    20609642.814
        51.800          46.800
 118119824.537 7  92041597.00545  22477379.863    22477378.4334   22477382.1724
        44.400          33.2004
 106993901.889 8  83217685.548 8  20043495.977    20043496.464    20043503.389
        51.900          49.000
 25  1  1 22  8  0.0000000  0 37E03E05G17G08S31S35G07G15E33E25S48S33
                                R03G30E11E31R13G06E12R23E06E10R20R10
                                E26R11G21E24R21E09R02G13G14G02R12G19
                                R22
 146373935.555 6                  27854025.729
        39.000
 131149152.330 7                  24956862.731
        42.300
 107982443.406 8  84142347.59448  20548297.592    20548296.9804   20548298.7214
        48.500          49.8004
 134141240.928 6 104525763.02544  25526192.589    25526191.8204   25526200.4124
        36.500          26.9004
 198973148.435 7                  37863340.015
        45.600
 200891116.179 7                  38228321.594
        43.800
 119485572.870 7  93105661.65446  22737349.391    22737348.7124   22737356.1054
        43.300          37.4004
 129622736.040 6 101004739.58044  24666386.301    24666385.9664   24666388.6714
        38.900          29.0004
 130253359.216 7                  24786321.690
        45.900
 145786535.143 6                  27742244.019
        38.600
 412996629.075 5                  78590409.588
        33.100
 202131297.781 7                  38464288.056
        44.700
 128648102.152 7 100059690.539 6  24032543.581    24032543.454    24032551.211
        43.100          38.400
 109580052.143 8  85387083.01448  20852386.806    20852385.9704   20852391.2974
        49.000          50.7004
 148922585.893 5                  28339014.339
        31.700
 126607262.929 7                  24092509.656
        46.600
 130007951.488 5                  24346313.520    24346312.352
        35.700
 133263243.282 5 103841569.29944  25359146.170    25359145.8714   25359166.2104
        34.600          24.2004
 132759641.698 6                  25263250.422
        41.400
 126962192.924 6                  23734226.729    23734227.656
        41.800
 149582323.035 5                  28464620.907
        33.700
 138697413.400 6                  26393189.683
        41.200
 126687548.878 5  98534933.084 7  23691151.771    23691151.569    23691162.827
        35.000          42.400
 125022408.080 6                  23453866.785    23453866.336
        40.600
 147240580.888 6                  28018877.099
        36.800
 105606081.094 8  82138223.754 8  19762688.479    19762688.833    19762695.367
        51.700          49.200
 121843536.400 6  94943177.45844  23185991.845    23185990.5084   23185992.7784
        40.700          25.3004
 127975204.055 7                  24352808.296
        47.800
 105892965.558 8  82361413.810 7  19788566.950    19788567.627    19788574.912
        52.500          47.600
 145033531.011 6                  27598997.048
        39.200
 128464543.965 7  99916949.614 6  24074190.057    24074190.448    24074202.769
        42.200          38.500
 120675632.704 7  94032965.00744  22963813.138    22963812.5714   22963815.7684
        44.300          26.3004
 106479933.419 8  82971538.17746  20262395.268    20262394.8574   20262396.4434
        48.400          41.1004
 115787676.564 7  90224323.76046  22033595.073    22033593.8624   22033594.7654
        47.300          37.2004
 110053006.853 8  85596833.127 7  20602144.496    20602144.649    20602151.643
        51.800          47.000
 118079211.490 7  92009950.54845  22469651.582    22469650.1654   22469653.7684
        44.000          33.2004
 106952929.444 8  83185818.143 8  20035820.327    20035820.835    20035827.500
        51.600          48.900
 25  1  1 22  8 15.0000000  0 37E03E05G17G08S31S35G07G15E33E25S48S33
                                R03G30E11E31R13G06E12R23E06E10R20R10
                                E26R11G21E24R21E09R02G13G14G02R12G19
                                R22
 146363879.483 6                  27852111.456
        38.900
 131171788.042 6                  24961170.311
        41.900
 107970158.807 8  84132775.19448  20545960.087    20545959.4754   20545961.0374
        48.600          49.9004
 134191661.901 5 104565052.10644  25535787.675    25535786.9064   25535795.3784
        35.200          26.1004
 198973150.320 7                  37863338.808
        45.600
 200891125.163 7                  38228321.875
        43.600
 119535630.814 7  93144667.74246  22746875.115    22746874.4404   22746881.9004
        42.700          37.4004
 129635315.849 6 101014541.98844  24668780.423    24668780.0794   24668782.6884
        37.900          29.3004
 130259057.645 7                  24787405.951
        46.000
 145754364.096 6                  27736121.621
        37.500
 412996997.616 5                  78590422.032
        33.100
 202131305.632 7                  38464290.449
        44.600
 128654301.430 7 100064512.240 6  24033700.067    24033701.430    24033709.424
        43.200          37.900
 109608679.889 8  85409390.32048  20857834.649    20857833.8134   20857838.9724
        49.200          50.8004
 148874475.282 5                  28329859.480
        31.800
 126620769.013 7                  24095079.808
        46.800
 129952874.655 5                  24335999.386    24335997.553
        35.300
 133205245.466 5 103796376.54144  25348108.595    25348108.2824   25348128.4934
        33.100          24.5004
 132723319.772 6                  25256338.226
        41.300
 126895218.509 6                  23721707.635    23721706.876
        41.900
 149622876.738 5                  28472338.389
        34.900
 138651192.931 6                  26384394.013
        40.400
 126751235.681 5  98584467.210 7  23703061.216    23703061.382    23703072.014
        35.300          42.100
 125071760.638 6                  23463125.401    23463125.144
        39.200
 147277123.390 6                  28025831.146
        37.800
 105621159.483 8  82149951.374 8  19765510.397    19765510.557    19765517.350
        51.700          49.200
 121887452.366 6  94977397.69544  23194348.608    23194347.2764   23194349.6374
        40.000          25.1004
 127958654.246 7                  24349659.029
        47.800
 105919289.494 8  82381887.987 7  19793486.785    19793486.917    19793494.135
        52.800          47.900
 145075383.494 6                  27606960.955
        39.800
 128505883.645 7  99949102.506 6  24081938.461    24081938.325    24081949.989
        42.600          38.500
 120697921.047 7  94050332.50844  22968054.428    22968053.8474   22968057.1694
        43.700          26.5004
 106470124.208 8  82963894.63746  20260528.422    20260528.0024   20260529.8044
        48.600          41.2004
 115811669.889 7  90243019.86946  22038160.856    22038159.6454   22038160.4984
        47.400          37.2004
 110013049.104 8  85565754.878 7  20594664.254    20594664.613    20594671.665
        52.400          46.900
 118038659.512 7  91978351.67845  22461935.053    22461933.6454   22461936.8264
        44.300          33.3004
 106912111.581 8  83154070.974 8  20028173.877    20028174.159    20028181.133
        51.900          49.000
 25  1  1 22  8 30.0000000  0 38E03E05G17G08S31S35G07G15E33E25S48S33
                                R03G30E11E31R13G06E12R23E06E10R20G03
                                R10E26R11G21E24R21E09R02G13G14G02R12
                                G19R22
 146353922.008 6                  27850217.018
        39.800
 131194500.931 7                  24965492.493
        42.100
 107957968.982 8  84123276.64248  20543640.199    20543639.5874   20543641.3884
        48.800          49.9004
 134242059.549 6 104604323.03344  25545377.616    25545376.8564   25545385.8954
        36.100          26.7004
 198973149.992 7                  37863340.945
        45.600
 200891131.587 7                  38228324.151
        44.000
 119585752.769 7  93183723.68646  22756413.167    22756412.4794   22756420.0184
        42.700          37.2004
 129648015.974 6 101024438.14844  24671196.897    24671196.5494   24671199.5784
        38.600          29.5004
 130264865.669 7                  24788511.084
        46.200
 145722184.644 6                  27729998.436
        37.800
 412995762.544 5                  78590438.027
        33.200
 202131310.844 7                  38464291.544
        44.900
 128660669.119 7 100069464.917 6  24034891.916    24034890.783    24034898.737
        42.700          38.300
 109637429.870 8  85431792.87848  20863305.345    20863304.5094   20863309.9354
        49.200          50.6004
 148826347.581 5                  28320700.225
        31.000
 126634306.630 7                  24097655.885
        46.800
 129897769.103 6                  24325679.479    24325679.422
        36.500
 133147228.737 5 103751169.08344  25337069.449    25337069.1634   25337088.6604
        33.500          25.4004
 132687065.820 6                  25249439.617
        41.500
 126828272.116 6                  23709191.882    23709191.520
        41.200
 149663390.445 5                  28480047.094
        35.300
 138604999.483 6                  26375603.878
        41.100
 126814955.643 5  98634027.181 6  23714974.663    23714975.864    23714987.905
        33.400          41.600
 134135879.032 5                  25525208.719
        34.700
 125121168.187 6                  23472393.541    23472393.225
        39.300
 147313723.084 6                  28032795.693
        38.100
 105636358.958 8  82161773.190 8  19768354.873    19768355.054    19768361.740
        51.600          49.200
 121931456.258 6  95011686.43744  23202722.077    23202720.7494   23202723.3094
        40.600          25.2004
 127942126.217 8                  24346513.961
        48.100
 105945784.599 8  82402495.292 7  19798437.614    19798438.040    19798445.335
        52.900          47.800
 145117230.671 6                  27614924.518
        39.300
 128547303.688 7  99981317.932 6  24089699.437    24089699.645    24089711.689
        42.700          38.300
 120720324.762 7  94067789.91444  22972317.455    22972316.8974   22972320.4104
        44.000          26.4004
 106460380.289 8  82956301.97846  20258674.064    20258673.6444   20258675.5704
        48.400          41.2004
 115835786.605 7  90261812.12946  22042750.371    22042749.1604   22042749.7554
        47.000          37.1004
 109973146.353 8  85534719.409 7  20587194.441    20587194.678    20587201.949
        51.700          46.900
 117998166.820 7  91946799.00645  22454228.964    22454227.5514   22454231.1564
        44.300          33.2004
 106871446.671 8  83122442.775 8  20020555.966    20020556.061    20020563.156
        51.900          49.000
 25  1  1 22  8 45.0000000  0 38E03E05G17G08S31S35G07G15E33E25S48S33
                                R03G30E11E31R13G06E12R23E06E10R20G03
                                R10E26R11G21E24R21E09R02G13G14G02R12
                                G19R22
 146344063.539 6                  27848340.701
        38.800
 131217291.241 7                  24969829.789
        42.400
 107945874.206 8  84113852.15948  20541338.568    20541337.9564   20541339.8124
        48.700          50.0004
 134292434.108 5 104643575.98044  25554964.301    25554963.5594   25554971.7894
        35.300          26.2004
 198973148.353 7                  37863341.080
        45.600
 200891136.901 7                  38228327.800
        43.600
 119635938.524 7  93222829.36646  22765963.208    22765962.5024   22765970.1254
        42.200          37.4004
 129660836.523 6 101034428.17044  24673637.071    24673636.7144   24673639.2414
        38.300          29.6004
 130270783.606 7                  24789637.239
        46.300
 145689997.116 6                  27723873.474
        38.900
 412996126.818 5                  78590442.047
        33.000
 202131314.501 7                  38464291.969
        44.500
 128667205.343 7 100074548.651 6  24036111.573    24036111.388    24036119.946
        42.100          38.000
 109666302.298 8  85454290.85248  20868799.740    20868798.9044   20868804.2054
        49.200          50.8004
 148778203.396 5                  28311539.498
        30.700
 126647876.209 7                  24100238.104
        46.800
 129842635.192 6                  24315353.410    24315353.663
        36.400
 133089193.755 5 103705947.41044  25326025.462    25326025.1764   25326045.4344
        33.600          25.2004
 132650880.359 7                  25242553.880
        42.000
 126761354.786 6                  23696682.536    23696682.209
        41.800
 149703864.349 5                  28487749.354
        35.500
 138558833.688 6                  26366818.386
        41.600
 126878708.876 5  98683612.966 7  23726899.742    23726899.370    23726910.306
        35.600          42.400
 134095475.189 5 104490048.92743  25517520.177    25517519.9364   25517537.7444
        32.500          22.2004
 125170631.211 6                  23481674.173    23481673.170
        40.400
 147350380.134 6                  28039771.034
        37.700
 105651679.953 8  82173689.479 8  19771221.961    19771222.214    19771228.860
        51.900          49.200
 121975548.179 6  95046043.78344  23211112.554    23211111.2264   23211113.6884
        40.500          25.5004
 127925620.418 8                  24343372.926
        48.000
 105972450.807 8  82423235.670 7  19803420.855    19803421.239    19803428.489
        52.600          47.700
 145159072.656 6                  27622887.269
        39.300
 128588803.919 7 100013595.694 6  24097477.439    24097477.384    24097488.829
        42.800          37.800
 120742844.004 7  94085337.34044  22976602.579    22976602.0164   22976605.9734
        43.700          26.9004
 106450702.149 8  82948760.57246  20256832.825    20256832.4054   20256833.8604
        48.500          41.3004
 115860026.719 7  90280700.54646  22047363.027    22047361.8344   22047362.5164
        47.000          37.3004
 109933299.278 8  85503727.244 7  20579734.864    20579735.439    20579742.075
        52.100          46.900
 117957733.823 7  91915292.85045  22446535.358    22446533.9454   22446536.9564
        44.400          33.2004
 106830935.428 8  83090934.088 8  20012966.765    20012967.016    20012974.057
        52.100          49.000
 25  1  1 22  9  0.0000000  0 37E03E05G17G08S31S35G07G15E33E25S48S33
                                R03G30E11E31R13G06E12R23E06E10R20R10
                                E26R11G21E24R21E09R02G13G14G02R12G19
                                R22
 146334314.643 6                  27846485.670
        38.900
 131240169.237 6                  24974183.040
        41.900
 107933885.055 8  84104509.98048  20539057.236    20539056.6244   20539058.3374
        48.900          49.9004
 134342796.037 6 104682819.05644  25564547.938    25564547.2194   25564555.6564
        36.700          26.3004
 198973155.410 7                  37863341.487
        45.200
 200891150.306 7                  38228325.229
        43.200
 119686198.483 7  93261992.86346  22775527.816    22775527.1464   22775534.2604
        42.700          37.0004
 129673787.996 6 101044520.19144  24676100.718    24676100.3744   24676104.1254
        39.000          29.7004
 130276821.868 7                  24790786.184
        46.200
 145657812.020 6                  27717748.510
        37.600
 412996498.906 5                  78590453.150
        32.800
 202131326.988 7                  38464294.952
        44.400
 128673920.483 7 100079771.581 6  24037366.471    24037365.728    24037374.872
        42.300          38.500
 109695307.459 8  85476892.25248  20874319.260    20874318.4244   20874323.7034
        49.400          50.7004
 148730053.417 5                  28302376.029
        31.100
 126661488.267 7                  24102828.565
        46.800
 129787483.865 5                  24305025.590    24305025.660
        35.800
 133031151.374 5 103660719.95344  25314979.110    25314978.7934   25315000.3344
        34.500          25.7004
 132614774.174 6                  25235682.800
        41.600
 126694477.317 6                  23684179.922    23684179.508
        41.500
 149744308.670 5                  28495445.460
        34.600
 138512706.262 6                  26358040.657
        41.600
 126942505.853 5  98733232.786 7  23738829.383    23738829.542    23738840.966
        35.500          42.200
 125220159.775 6                  23490965.507    23490964.572
        39.700
 147387104.788 6                  28046759.811
        37.200
 105667133.154 8  82185708.639 8  19774114.065    19774114.088    19774120.721
        51.700          49.200
 122019738.175 6  95080477.54744  23219522.091    23219520.7814   23219522.7624
        40.600          25.0004
 127909147.399 8                  24340238.314
        48.000
 105999298.434 8  82444117.169 7  19808437.710    19808438.440    19808445.565
        52.700          47.900
 145200919.702 6                  27630850.452
        39.700
 128630394.543 7 100045943.806 6  24105271.449    24105272.857    24105282.558
        43.600          37.300
 120765488.750 7  94102982.55944  22980912.287    22980911.7374   22980915.2444
        44.400          26.8004
 106441100.423 8  82941278.71746  20255005.450    20255005.0354   20255006.7114
        48.500          41.2004
 115884400.485 7  90299693.10346  22052001.042    22051999.8534   22052000.6484
        47.700          37.1004
 109893518.968 8  85472787.034 7  20572287.880    20572288.270    20572295.281
        51.800          46.800
 117917371.119 7  91883841.46045  22438854.053    22438852.6324   22438856.1034
        44.200          32.9004
 106790588.802 8  83059553.431 8  20005408.172    20005408.731    20005415.409
        51.800          48.900
 25  1  1 22  9 15.0000000  0 38E03E05G17G08S31S35G07G15E33E25S48S33
                                R03G30E11E31R13G06E12R23E06E10R20R10
                                E26R11G21G03E24R21E09R02G13G14G02R12
                                G19R22
 146324659.024 6                  27844648.299
        38.700
 131263118.341 7                  24978550.002
        42.200
 107921985.086 8  84095237.29648  20536792.852    20536792.2444   20536793.8184
        48.900          49.7004
 134393128.754 6 104722039.35244  25574125.617    25574124.8894   25574133.3934
        36.100          25.0004
 198973153.966 7                  37863340.588
        45.400
 200891156.713 7                  38228324.992
        43.000
 119736516.012 7  93301201.22246  22785102.985    22785102.3154   22785109.4174
        42.100          36.7004
 129686853.647 6 101054701.19044  24678587.677    24678587.3294   24678590.7144
        38.300          29.6004
 130282964.037 7                  24791955.068
        46.000
 145625613.005 6                  27711621.584
        38.300
 412996861.348 5                  78590466.592
        32.500
 202131332.134 7                  38464297.840
        44.600
 128680797.962 7 100085120.731 6  24038650.864    24038650.979    24038658.898
        43.700          38.400
 109724428.808 8  85499584.18848  20879861.048    20879860.2084   20879865.3004
        49.400          50.4004
 148681881.482 5                  28293208.897
        31.900
 126675126.478 7                  24105423.609
        46.600
 129732298.796 6                  24294692.799    24294692.214
        36.400
 132973085.448 5 103615474.11844  25303929.201    25303928.8804   25303950.0604
        34.200          24.7004
 132578731.120 6                  25228824.307
        41.500
 126627623.659 6                  23671682.195    23671681.877
        41.900
 149784706.901 5                  28503133.008
        33.700
 138466601.094 6                  26349267.136
        41.600
 127006328.910 5  98782872.908 7  23750763.424    23750764.254    23750775.749
        35.300          42.100
 125269737.199 6                  23500265.894    23500264.822
        39.600
 147423880.505 6                  28053757.663
        36.400
 105682701.982 8  82197817.739 8  19777027.375    19777027.596    19777034.171
        51.800          49.300
 122064009.496 6  95114974.68144  23227946.546    23227945.2684   23227947.1554
        41.000          25.1004
 134014667.950 5                  25502142.395
        35.900
 127892690.812 7                  24337106.585
        47.900
 106026310.150 8  82465126.290 7  19813485.755    19813486.195    19813493.454
        52.800          47.900
 145242755.251 6                  27638811.620
        39.300
 128672058.040 6 100078348.585 6  24113078.432    24113079.510    24113091.688
        41.600          38.500
 120788242.362 7  94120712.59844  22985241.770    22985241.2254   22985245.0134
        44.000          26.3004
 106431558.855 8  82933843.73946  20253189.923    20253189.5214   20253191.0404
        48.400          41.0004
 115908891.483 7  90318777.00746  22056661.912    22056660.7324   22056661.1034
        47.100          36.9004
 109853789.047 8  85441886.025 7  20564850.458    20564850.817    20564857.993
        51.700          47.000
 117877062.500 7  91852432.22445  22431183.487    22431182.0614   22431185.4014
        44.300          32.8004
 106750390.525 8  83028288.156 8  19997878.045    19997878.040    19997885.192
        52.100          49.100
 25  1  1 22  9 30.0000000  0 38E03E05G17G08S31S35G07G15E33E25S48S33
                                R03G30E11E31R13G06E12R23E06E10R20R10
                                E26R11G21G03E24R21E09R02G13G14G02R12
                                G19R22
 146315103.329 6                  27842830.273
        39.500
 131286145.009 6                  24982932.240
        41.700
 107910180.696 8  84086039.08348  20534546.289    20534545.6774   20534547.4984
        48.500          49.8004
 134443438.914 5 104761242.03644  25583698.781    25583698.0444   25583707.0794
        35.800          26.0004
 198973152.865 7                  37863342.148
        45.200
 200891161.676 7                  38228327.554
        43.100
 119786897.451 7  93340459.37446  22794690.224    22794689.5584   22794696.8624
        42.600          36.9004
 129700039.907 6 101064976.17645  24681097.377    24681097.0334   24681099.7954
        38.500          30.0004
 130289216.759 7                  24793144.911
        45.900
 145593406.765 6                  27705492.493
        38.000
 412997223.655 5                  78590478.652
        32.600
 202131335.768 7                  38464292.680
        44.300
 128687844.091 7 100090601.071 6  24039966.352    24039966.352    24039975.648
        42.300          38.900
 109753672.800 8  85522371.68648  20885425.890    20885425.0454   20885430.2344
        49.300          50.5004
 148633694.511 5                  28284039.679
        31.100
 126688797.576 7                  24108025.284
        46.600
 129677086.653 6                  24284353.194    24284353.371
        37.200
 132915002.999 5 103570215.40944  25292876.754    25292876.4154   25292896.6524
        34.300          25.6004
 132542758.076 6                  25221978.353
        41.400
 126560800.994 7                  23659190.475    23659191.209
        42.500
 149825065.450 5                  28510812.825
        34.100
 138420525.101 6                  26340498.618
        41.300
 127070184.596 5  98832538.377 7  23762703.331    23762704.984    23762717.847
        33.300          42.500
 125319370.346 6                  23509577.588    23509576.699
        40.200
 147460713.738 6                  28060766.777
        37.400
 105698393.554 8  82210022.261 8  19779963.797    19779964.080    19779970.690
        52.100          49.400
 122108368.658 6  95149540.26344  23236387.492    23236386.2144   23236388.2204
        40.900          25.5004
 133974248.648 5                  25494450.742
        33.700
 127876257.376 7                  24333979.535
        47.900
 106053492.708 8  82486268.286 7  19818565.454    19818565.811    19818573.074
        52.700          47.700
 145284585.677 6                  27646771.647
        38.600
 128713800.925 6 100110815.100 6  24120901.490    24120901.795    24120914.559
        41.700          38.800
 120811111.367 7  94138532.56444  22989594.266    22989593.7394   22989596.6984
        44.000          26.5004
 106422084.230 8  82926460.92446  20251386.930    20251386.5284   20251388.0644
        48.500          41.2004
 115933506.048 7  90337957.20146  22061345.209    22061344.0254   22061345.0164
        47.200          37.0004
 109814116.520 8  85411029.648 7  20557423.221    20557423.733    20557430.807
        51.600          47.000
 117836814.726 7  91821070.39445  22423524.723    22423523.2934   22423526.3884
        44.200          33.0004
 106710347.726 8  82997143.816 8  19990376.568    19990376.942    19990383.549
        52.100          49.000
 25  1  1 22  9 45.0000000  0 38E03E05G17G08S31S35G07G15E33E25S48S33
                                R03G30E11E31R13G06E12R23E06E10R20R10
                                E26R11G21G03E24R21E09R02G13G14G02R12
                                G19R22
 146305653.617 6                  27841031.853
        39.900
 131309255.038 6                  24987329.756
        41.500
 107898477.857 8  84076920.00948  20532319.305    20532318.6884   20532320.5094
        49.000          49.8004
 134493732.292 5 104800431.65344  25593269.357    25593268.6154   25593277.6794
        35.800          26.0004
 198973156.118 7                  37863343.646
        45.200
 200891171.827 7                  38228332.281
        43.200
 119837348.306 7  93379771.62946  22804290.523    22804289.8574   22804297.7304
        42.600          36.8004
 129713352.612 6 101075349.68244  24683630.451    24683630.1074   24683633.0054
        39.500          29.6004
 130295585.880 7                  24794357.202
        45.800
 145561199.242 6                  27699363.121
        37.600
 412995990.523 5                  78590492.402
        32.300
 202131344.082 7                  38464298.551
        44.200
 128695065.116 7 100096217.431 6  24041316.782    24041317.135    24041324.566
        44.000          38.500
 109783045.242 8  85545259.27948  20891015.183    20891014.3384   20891019.6334
        49.400          50.4004
 148585498.589 5                  28274867.795
        31.400
 126702507.536 7                  24110634.081
        46.700
 129621853.869 6                  24274008.965    24274009.569
        37.200
 132856910.342 5 103524948.70744  25281821.932    25281821.6244   25281841.3034
        34.200          26.0004
 132506861.294 6                  25215147.691
        41.800
 126494015.848 7                  23646706.043    23646705.209
        42.000
 149865390.134 5                  28518486.996
        32.500
 138374484.506 6                  26331737.588
        41.700
 127134078.448 5  98882233.609 7  23774652.295    23774653.549    23774665.898
        34.300          42.300
 125369065.214 6                  23518899.107    23518899.410
        40.600
 147497610.141 6                  28067787.902
        37.100
 105714213.786 8  82222326.872 8  19782924.799    19782924.629    19782931.280
        52.400          49.300
 122152821.285 6  95184178.68944  23244846.384    23244845.1064   23244847.3624
        41.000          25.1004
 133933830.038 6 104364083.73444  25486758.327    25486758.2474   25486775.6324
        36.900          25.4004
 127859853.110 7                  24330857.911
        47.900
 106080851.786 8  82507547.577 7  19823678.559    19823678.619    19823685.816
        53.000          47.700
 145326416.645 6                  27654731.598
        39.000
 128755628.544 7 100143347.483 6  24128740.863    24128740.433    24128752.746
        42.400          38.500
 120834101.420 7  94156446.85144  22993969.185    22993968.6584   22993971.6624
        44.100          26.6004
 106412682.596 8  82919134.98646  20249597.593    20249597.1874   20249598.9544
        48.600          41.2004
 115958249.896 7  90357238.13246  22066054.209    22066053.0254   22066053.6084
        47.500          37.0004
 109774508.011 8  85380223.051 7  20550008.719    20550009.144    20550016.329
        51.700          47.200
 117796633.832 7  91789760.68545  22415878.160    22415876.7164   22415880.2984
        44.800          32.9004
 106670466.734 8  82966125.329 8  19982905.349    19982905.460    19982912.345
        51.400          49.000
 25  1  1 22 10  0.0000000  0 38E03E05G17G08S31S35G07G15E33E25S48S33
                                R03G30E11E31R13G06E12R23E06E10R20R10
                                E26R11G21G03E24R21E09R02G13G14G02R12
                                G19R22
 146296305.749 6                  27839253.263
        40.000
 131332444.033 6                  24991742.500
        41.800
 107886872.213 8  84067876.67248  20530110.976    20530110.3594   20530112.0064
        48.600          50.0004
 134544004.683 5 104839604.89844  25602837.238    25602836.4874   25602844.3854
        34.800          24.8004
 198973159.681 7                  37863341.084
        45.100
 200891182.773 7                  38228334.333
        43.100
 119887864.284 7  93419134.61646  22813903.615    22813902.9454   22813910.8384
        42.000          37.0004
 129726787.314 6 101085818.24044  24686186.278    24686185.9214   24686189.4454
        38.600          29.3004
 130302067.263 7                  24795590.397
        46.100
 145528986.285 6                  27693234.323
        37.700
 412996357.730 5                  78590508.017
        32.200
 202131353.795 7                  38464301.565
        44.300
 128702456.647 6 100101966.452 6  24042697.506    24042696.157    24042706.419
        41.400          39.300
 109812541.779 8  85568243.57348  20896628.085    20896627.2314   20896632.6374
        49.000          50.4004
 148537289.856 5                  28265693.931
        32.400
 126716252.292 7                  24113249.567
        46.600
 129566596.402 6                  24263660.477    24263661.671
        37.100
 132798803.561 5 103479671.03044  25270764.900    25270764.6144   25270783.5754
        34.100          25.1004
 132471036.757 7                  25208330.428
        42.200
 126427264.391 7                  23634227.653    23634226.954
        42.100
 149905676.582 5                  28526153.357
        34.600
 138328475.346 7                  26322982.153
        42.100
 127198006.214 5  98931955.173 7  23786609.372    23786609.652    23786621.161
        35.300          42.300
 125418816.928 6                  23528232.314    23528232.018
        40.100
 147534565.463 6                  28074820.731
        37.700
 105730158.645 8  82234728.417 8  19785908.258    19785908.521    19785915.149
        52.100          49.600
 122197362.779 6  95218886.35144  23253322.340    23253321.0354   23253323.5694
        41.500          25.6004
 133893408.085 6 104332586.24744  25479066.750    25479066.4734   25479083.8204
        36.100          28.4004
 127843473.963 8                  24327740.933
        48.100
 106108382.482 8  82528960.341 7  19828823.002    19828823.221    19828830.588
        52.800          47.900
 145368243.828 6                  27662691.358
        38.900
 128797536.427 7 100175942.310 6  24136593.879    24136594.664    24136606.878
        43.500          38.900
 120857208.071 7  94174451.98244  22998365.636    22998365.1184   22998368.5194
        43.500          26.7004
 106403349.929 8  82911862.78246  20247821.762    20247821.3564   20247822.9874
        48.500          41.4004
 115983118.675 7  90376616.41146  22070786.573    22070785.3844   22070786.0064
        47.200          37.1004
 109734959.663 8  85349463.227 7  20542605.744    20542605.845    20542612.476
        52.300          46.900
 117756515.789 7  91758499.97545  22408243.740    22408242.2744   22408246.0224
        44.500          33.0004
 106630743.644 8  82935229.660 8  19975463.734    19975464.202    19975471.059
        52.000          49.100
 25  1  1 22 10 15.0000000  0 38E03E05G17G08S31S35G07G15E33E25S48S33
                                R03G30E11E31R13G06E12R23E06E10R20R10
                                E26R11G21G03E24R21E09R02G13G14G02R12
                                G19R22
 146287058.650 6                  27837492.840
        39.000
 131355710.691 7                  24996170.264
        42.200
 107875362.727 8  84058908.26148  20527920.648    20527920.0314   20527921.8014
        48.800          50.0004
 134594254.876 6 104878760.87144  25612398.183    25612397.4104   25612406.3864
        36.200          26.8004
 198973164.152 7                  37863344.232
        45.200
 200891193.932 7                  38228336.676
        43.300
 119938444.091 7  93458547.34846  22823528.747    22823528.0864   22823535.6214
        42.500          36.8004
 129740342.654 6 101096380.80444  24688766.754    24688766.4064   24688768.4134
        39.400          29.7004
 130308659.653 7                  24796844.698
        46.100
 145496766.795 6                  27687102.963
        38.100
 412996724.876 5                  78590519.778
        32.600
 202131363.694 7                  38464305.898
        44.700
 128710016.909 7 100107846.651 6  24044108.681    24044108.363    24044117.283
        43.200          38.100
 109842161.085 8  85591323.53048  20902264.812    20902263.9544   20902269.0144
        49.300          50.4004
 148489067.431 5                  28256516.536
        32.100
 126730030.720 7                  24115871.494
        46.700
 129511312.916 6                  24253307.764    24253309.310
        37.500
 132740681.925 5 103434381.73044  25259703.296    25259702.9924   25259723.2454
        33.100          24.8004
 132435283.517 7                  25201526.614
        42.000
 126360545.831 6                  23621754.925    23621754.749
        41.600
 149945923.458 5                  28533811.852
        34.300
 138282496.753 7                  26314232.327
        42.000
 127261965.829 5  98981701.530 7  23798571.877    23798571.086    23798582.062
        35.200          42.700
 125468624.566 6                  23537576.332    23537576.698
        40.300
 147571578.333 6                  28081863.652
        37.500
 105746226.956 8  82247225.963 8  19788915.159    19788915.611    19788922.078
        52.100          49.500
 122241991.700 6  95253662.14344  23261815.490    23261814.1674   23261816.3384
        41.100          25.7004
 133852982.001 6 104301085.56944  25471373.629    25471373.3614   25471391.4134
        36.100          26.7004
 127827118.827 8                  24324628.815
        48.000
 106136083.347 8  82550505.460 7  19833999.776    19834000.014    19834007.184
        52.800          47.800
 145410065.790 6                  27670649.981
        38.800
 128839522.579 6 100208598.011 6  24144462.580    24144462.359    24144473.790
        41.800          38.100
 120880429.740 7  94192546.74844  23002784.948    23002784.4394   23002787.3324
        44.000          26.7004
 106394085.254 8  82904643.56146  20246058.793    20246058.3874   20246060.0184
        48.500          41.4004
 116008110.980 7  90396090.94446  22075542.543    22075541.3634   22075541.8944
        47.600          37.1004
 109695470.421 8  85318749.390 7  20535212.957    20535213.045    20535219.851
        52.000          46.900
 117716459.424 7  91727287.30045  22400621.782    22400620.3114   22400623.2524
        43.900          33.0004
 106591177.686 8  82904456.189 8  19968051.455    19968051.830    19968058.920
        52.000          49.200
 25  1  1 22 10 30.0000000  0 38E03E05G17G08S31S35G07G15E33E25S48S33
                                R03G30E11E31R13G06E12R23E06E10R20R10
                                E26R11G21G03E24R21E09R02G13G14G02R12
                                G19R22
 146277910.187 6                  27835752.088
        39.100
 131379052.641 7                  25000611.571
        42.000
 107863947.117 8  84050013.00448  20525748.382    20525747.7704   20525749.4564
        49.200          49.9004
 134644480.610 5 104917897.80444  25621955.920    25621955.1564   25621964.3684
        35.800          25.6004
 198973165.152 7                  37863344.894
        45.200
 200891202.866 7                  38228336.314
        43.400
 119989085.116 7  93498007.78246  22833165.262    22833164.5924   22833172.1734
        42.400          36.6004
 129754016.242 6 101107035.52244  24691368.544    24691368.1964   24691370.7854
        38.800          29.9004
 130315360.826 7                  24798120.025
        46.300
 145464538.565 6                  27680970.123
        38.300
 412997090.228 5                  78590531.167
        32.400
 202131370.321 7                  38464305.339
        44.700
 128717743.827 7 100113856.486 6  24045551.319    24045552.218    24045561.586
        42.500          38.700
 109871900.765 8  85614497.27848  20907923.811    20907922.9444   20907928.2874
        49.200          50.2004
 148440829.235 5                  28247338.679
        31.500
 126743840.709 7                  24118499.626
        46.600
 129456001.964 6                  24242950.342    24242950.559
        37.000
 132682543.384 5 103389079.28144  25248640.616    25248640.3084   25248659.8204
        33.100          24.6004
 132399599.692 6                  25194736.485
        41.900
 126293858.426 6                  23609287.819    23609286.640
        40.500
 149986128.450 5                  28541462.905
        34.400
 138236546.798 6                  26305488.519
        41.900
 127325954.777 5  99031470.734 6  23810536.451    23810535.740    23810547.346
        34.900          41.800
 125518485.730 6                  23546930.160    23546930.546
        40.000
 147608646.313 6                  28088917.103
        37.100
 105762416.735 8  82259817.999 8  19791945.131    19791945.068    19791951.786
        52.000          49.500
 122286705.344 6  95288503.93844  23270323.919    23270322.6004   23270324.9154
        41.300          25.6004
 133812550.075 5 104269580.29544  25463679.975    25463679.6624   25463697.5264
        34.800          24.8004
 127810785.630 8                  24321520.623
        48.100
 106163951.978 8  82572181.063 8  19839207.672    19839207.823    19839215.180
        53.000          48.000
 145451880.121 6                  27678606.808
        39.200
 128881584.608 6 100241312.757 6  24152344.532    24152345.029    24152357.914
        41.800          38.300
 120903764.062 7  94210729.29144  23007224.943    23007224.4204   23007228.0564
        44.100          26.7004
 106384886.508 8  82897475.71046  20244308.227    20244307.8164   20244309.5174
        48.400          41.3004
 116033224.453 7  90415659.88946  22080321.314    22080320.1254   22080320.8204
        47.700          37.0004
 109656038.573 8  85288080.205 7  20527830.695    20527831.215    20527838.593
        51.900          47.000
 117676462.820 7  91696121.19845  22393010.644    22393009.1824   22393012.1434
        44.300          33.0004
 106551766.917 8  82873803.426 8  19960668.792    19960668.877    19960675.708
        52.100          49.200
 25  1  1 22 10 45.0000000  0 38E03E05G17G08S31S35G07G15E33E25S48S33
                                R03G30E11E31R13G06E12R23E06E10R20R10
                                E26R11G21G03E24R21E09R02G13G14G02R12
                                G19R22
 146268863.964 6                  27834030.782
        39.000
 131402473.209 7                  25005068.488
        42.000
 107852628.767 8  84041193.53148  20523594.368    20523593.7564   20523595.6144
        48.600          50.0004
 134694685.444 5 104957018.51644  25631509.720    25631508.9564   25631517.9854
        35.300          24.8004
 198973168.164 7                  37863342.376
        45.400
 200891212.477 7                  38228338.671
        43.800
 120039790.725 7  93537518.53946  22842814.379    22842813.7314   22842821.4074
        42.100          36.8004
 129767811.436 6 101117784.98545  24693993.464    24693993.1074   24693996.0534
        38.800          30.1004
 130322174.328 7                  24799416.616
        46.300
 145432305.265 6                  27674836.044
        38.700
 412997454.100 5                  78590543.714
        33.300
 202131378.682 7                  38464302.750
        44.700
 128725640.818 7 100119998.634 6  24047027.044    24047028.001    24047035.987
        43.400          38.300
 109901764.251 8  85637767.49648  20913606.675    20913605.8084   20913611.1244
        49.200          50.2004
 148392579.132 5                  28238157.097
        32.300
 126757685.900 7                  24121134.212
        46.700
 129400666.884 6                  24232588.491    24232588.455
        37.200
 132624391.994 5 103343766.77244  25237574.637    25237574.3204   25237593.4984
        34.800          25.9004
 132363989.087 7                  25187959.700
        42.100
 126227206.118 6                  23596827.059    23596827.117
        41.600
 150026294.884 5                  28549106.365
        34.200
 138190629.287 7                  26296750.762
        42.400
 127389976.139 5  99081265.167 6  23822508.841    23822507.020    23822519.651
        33.100          41.900
 125568404.100 6                  23556295.120    23556294.544
        39.700
 147645772.813 6                  28095982.622
        38.000
 105778731.536 8  82272507.285 8  19794998.291    19794998.386    19795004.951
        51.800          49.600
 122331507.175 6  95323414.46644  23278849.389    23278848.0844   23278850.2514
        40.600          25.5004
 133772116.310 5 104238073.56543  25455985.727    25455985.4014   25456002.3824
        34.900          23.5004
 127794477.962 7                  24318417.409
        47.800
 106191991.426 8  82593989.540 7  19844447.397    19844447.764    19844454.839
        52.800          47.900
 145493690.150 6                  27686563.335
        38.300
 128923725.278 7 100274088.626 6  24160241.998    24160241.946    24160254.705
        42.000          38.100
 120927214.358 7  94229002.20444  23011687.797    23011687.2704   23011690.8294
        43.900          26.9004
 106375757.390 8  82890362.11746  20242571.050    20242570.6444   20242572.3234
        48.600          41.3004
 116058462.376 7  90435325.81346  22085124.165    22085122.9814   22085123.4464
        47.000          37.1004
 109616668.105 8  85257458.749 7  20520460.661    20520460.952    20520468.044
        51.700          47.000
 117636529.660 7  91665004.53845  22385411.656    22385410.1944   22385413.0194
        43.900          33.1004
 106512515.317 8  82843274.477 8  19953315.188    19953315.647    19953322.447
        51.600          49.000
 25  1  1 22 11  0.0000000  0 38E03E05G17G08S31S35G07G15E33E25S48S33
                                R03G30E11E31R13G06E12R23E06E10R20R10
                                E26R11G21G03E24R21E09R02G13G14G02R12
                                G19R22
 146259914.344 6                  27832327.896
        39.100
 131425966.519 6                  25009538.881
        41.500
 107841402.048 8  84032445.45848  20521458.161    20521457.5404   20521459.2074
        49.100          49.7004
 134744863.494 5 104996118.36044  25641058.410    25641057.6464   25641066.1514
        35.000          24.7004
 198973166.172 7                  37863346.124
        45.400
 200891217.698 7                  38228343.308
        43.600
 120090554.702 7  93577074.77946  22852474.626    22852474.0004   22852481.7664
        42.000          36.5004
 129781722.260 6 101128624.55645  24696640.614    24696640.2794   24696643.5084
        39.200          30.1004
 130329094.402 7                  24800733.384
        46.100
 145400061.113 6                  27668699.723
        38.000
 412996213.195 5                  78590553.449
        32.400
 202131381.717 7                  38464308.103
        44.900
 128733702.267 7 100126268.632 6  24048534.135    24048534.433    24048542.562
        43.700          38.400
 109931745.645 8  85661129.60148  20919312.109    20919311.2464   20919316.3824
        49.100          49.9004
 148344311.612 5                  28228971.454
        32.400
 126771560.631 7                  24123774.497
        46.300
 129345302.315 6                  24222219.956    24222220.171
        37.100
 132566222.333 5 103298440.01544  25226504.416    25226504.1214   25226524.1394
        34.100          26.1004
 132328446.218 6                  25181196.068
        41.700
 126160583.667 6                  23584373.217    23584373.013
        41.200
 150066416.884 5                  28556740.721
        34.100
 138144738.822 7                  26288017.545
        42.000
 127454023.998 5  99131080.183 7  23834487.406    23834485.482    23834497.419
        34.200          42.200
 125618373.805 6                  23565669.252    23565669.475
        40.100
 147682951.898 6                  28103057.260
        37.300
 105795165.785 8  82285289.447 8  19798073.908    19798073.852    19798080.507
        52.200          49.600
 122376391.058 6  95358388.93944  23287390.609    23287389.3084   23287391.5644
        41.300          25.4004
 133731675.340 6 104206561.28444  25448289.956    25448289.6524   25448306.5634
        36.400          26.4004
 127778190.198 7                  24315317.929
        47.900
 106220195.612 8  82615926.130 8  19849718.151    19849718.322    19849725.635
        52.700          48.000
 145535489.990 6                  27694517.647
        39.200
 128965938.500 6 100306920.975 6  24168152.353    24168152.747    24168166.580
        40.600          38.800
 120950774.608 7  94247360.80644  23016170.991    23016170.4644   23016174.0244
        43.500          26.4004
 106366692.322 8  82883298.43246  20240846.039    20240845.6244   20240847.3004
        48.500          41.3004
 116083818.870 7  90455084.13646  22089949.097    22089947.9084   22089948.6224
        47.600          36.9004
 109577353.366 8  85226880.657 7  20513100.949    20513101.324    20513108.210
        52.100          47.100
 117596654.302 7  91633932.93745  22377823.504    22377822.0474   22377824.8904
        43.900          32.9004
 106473417.454 8  82812865.097 8  19945990.749    19945991.170    19945998.112
        51.500          49.000
 25  1  1 22 11 15.0000000  0 38E03E05G17G08S31S35G07G15E33E25S48S33
                                R03G30E11E31R13G06E12R23E06E10R20R10
                                E26R11G21G03E24R21E09R02G13G14G02R12
                                G19R22
 146251069.005 6                  27830644.911
        38.400
 131449539.997 6                  25014025.198
        41.400
 107830274.540 8  84023774.68848  20519340.481    20519339.8474   20519341.7014
        48.800          49.7004
 134795022.285 6 105035203.22144  25650602.764    25650601.9954   25650610.8974
        36.600          26.4004
 198973166.961 7                  37863342.104
        45.200
 200891226.061 7                  38228344.408
        43.300
 120141384.519 6  93616682.32946  22862147.355    22862146.7344   22862154.5214
        41.900          36.6004
 129795756.064 6 101139559.96245  24699310.802    24699310.4584   24699314.2474
        39.100          30.3004
 130336128.606 7                  24802071.925
        46.200
 145367813.770 6                  27662563.779
        38.300
 412996575.202 5                  78590559.647
        32.300
 202131387.697 7                  38464304.695
        44.400
 128741935.498 7 100132672.260 6  24050071.258    24050071.101    24050080.040
        43.000          37.900
 109961852.350 8  85684589.34648  20925041.115    20925040.2524   20925045.5104
        49.000          49.9004
 148296034.548 5                  28219784.362
        32.400
 126785472.556 7                  24126422.067
        46.300
 129289916.170 6                  24211849.126    24211849.056
        38.300
 132508042.276 5 103253105.14344  25215433.739    25215433.4314   25215453.0194
        34.200          26.2004
 132292978.853 6                  25174446.915
        41.700
 126093999.333 6                  23571925.219    23571925.013
        40.900
 150106501.894 5                  28564368.724
        33.800
 138098883.214 6                  26279291.704
        41.900
 127518105.010 5  99180920.936 7  23846468.232    23846468.862    23846481.234
        34.800          42.000
 125668401.921 6                  23575055.139    23575054.641
        40.200
 147720190.903 6                  28110143.792
        36.300
 105811727.328 8  82298170.626 8  19801172.724    19801173.250    19801179.913
        52.200          49.700
 122421364.220 6  95393432.95444  23295949.104    23295947.8084   23295949.9594
        41.200          25.6004
 133691235.240 5 104175049.69144  25440594.089    25440593.7904   25440610.7444
        35.900          24.2004
 127761930.011 7                  24312223.743
        47.900
 106248571.756 8  82637996.467 7  19855020.779    19855021.081    19855028.259
        52.700          47.900
 145577286.924 6                  27702471.505
        38.200
 129008231.383 7 100339815.182 6  24176079.320    24176079.780    24176091.949
        42.900          38.000
 120974452.019 7  94265810.69244  23020676.879    23020676.3704   23020679.5914
        43.800          26.6004
 106357699.028 8  82876290.67646  20239134.944    20239134.5334   20239135.9434
        48.500          41.1004
 116109301.341 7  90474940.61746  22094797.800    22094796.5934   22094797.8064
        47.400          36.9004
 109538102.722 8  85196352.380 7  20505753.416    20505753.531    20505760.480
        51.700          46.900
 117556844.564 7  91602912.44945  22370248.005    22370246.5524   22370249.3224
        44.000          33.1004
 106434481.294 8  82782581.482 8  19938696.963    19938697.305    19938703.948
        51.400          49.100
 25  1  1 22 11 30.0000000  0 38E03E05G17G08S31S35G07G15E33E25S48S33
                                R03G30E11E31R13G06E12R23E06E10R20R10
                                E26R11G21G03E24R21E09R02G13G14G02R12
                                G19R22
 146242323.583 6                  27828980.845
        39.100
 131473189.054 7                  25018525.414
        42.300
 107819241.614 8  84015177.62248  20517241.260    20517240.6304   20517242.1854
        48.800          49.7004
 134845157.196 5 105074269.46744  25660143.133    25660142.3554   25660151.0814
        34.700          24.9004
 198973167.394 7                  37863345.354
        45.200
 200891233.450 7                  38228344.274
        43.600
 120192275.473 7  93656337.51246  22871831.943    22871831.3264   22871838.7184
        42.100          36.5004
 129809908.283 6 101150587.62745  24702004.287    24702003.9574   24702007.7474
        39.400          30.6004
 130343272.474 7                  24803431.472
        46.300
 145335558.839 6                  27656425.224
        38.600
 412996934.527 5                  78590579.581
        32.500
 202131392.930 7                  38464307.168
        44.500
 128750335.524 7 100139205.629 6  24051641.105    24051641.607    24051650.478
        43.300          39.000
 109992079.779 8  85708143.16248  20930793.392    20930792.5294   20930797.6454
        49.000          49.8004
 148247743.654 5                  28210594.512
        32.400
 126799417.325 7                  24129075.396
        46.500
 129234504.103 6                  24201470.494    24201470.966
        37.200
 132449847.756 5 103207759.00544  25204358.430    25204358.0734   25204378.8894
        34.600          25.6004
 132257582.863 7                  25167711.162
        42.600
 126027448.852 6                  23559484.038    23559484.700
        41.300
 150146545.265 5                  28571989.114
        34.200
 138053058.325 7                  26270571.362
        42.400
 127582214.519 5  99230783.921 7  23858455.336    23858457.515    23858470.164
        34.200          42.700
 125718484.145 6                  23584449.442    23584449.051
        39.500
 147757485.130 6                  28117240.902
        37.400
 105828411.708 8  82311147.357 8  19804295.112    19804295.466    19804302.054
        52.300          49.700
 122466421.760 6  95428542.72844  23304522.533    23304521.2374   23304523.7504
        41.100          25.6004
 133650791.941 6 104143535.56644  25432897.699    25432897.4134   25432914.5724
        36.200          24.5004
 127745693.076 8                  24309133.803
        48.200
 106277115.115 8  82660196.855 8  19860354.947    19860355.293    19860362.194
        53.100          48.000
 145619076.327 6                  27710424.247
        39.400
 129050598.768 7 100372767.440 6  24184018.566    24184019.088    24184030.430
        42.400          37.100
 120998241.934 7  94284348.24744  23025204.082    23025203.5774   23025206.8544
        43.900          26.6004
 106348773.250 8  82869335.53246  20237436.287    20237435.8724   20237437.4064
        48.600          41.1004
 116134905.201 7  90494891.68646  22099670.631    22099669.4244   22099670.0864
        47.600          36.9004
 109498911.890 8  85165870.649 7  20498416.328    20498416.618    20498423.701
        51.500          46.900
 117517095.949 7  91571939.58545  22362683.796    22362682.3524   22362685.3674
        44.200          33.2004
 106395702.749 8  82752420.435 8  19931432.609    19931432.738    19931439.408
        51.900          49.200
 25  1  1 22 11 45.0000000  0 38E03E05G17G08S31S35G07G15E33E25S48S33
                                R03G30E11E31R13G06E12R23E06E10R20R10
                                E26R11G21G03E24R21E09R02G13G14G02R12
                                G19R22
 146233684.508 6                  27827336.881
        39.100
 131496919.893 6                  25023041.452
        41.700
 107808309.639 8  84006659.21648  20515160.910    20515160.2804   20515161.8884
        48.800          50.1004
 134895274.620 5 105113322.08444  25669680.165    25669679.3784   25669688.3274
        34.500          24.0004
 198973172.005 7                  37863345.645
        45.300
 200891245.090 7                  38228346.214
        43.500
 120243233.685 7  93696045.09646  22881529.013    22881528.3924   22881535.8664
        43.000          37.2004
 129824185.174 6 101161712.43845  24704721.266    24704720.9184   24704724.3884
        39.600          30.7004
 130350532.353 7                  24804812.647
        46.200
 145303302.754 6                  27650287.359
        37.500
 412997300.026 5                  78590584.352
        32.200
 202131402.669 7                  38464309.811
        44.600
 128758909.439 7 100145874.260 6  24053242.170    24053242.586    24053251.444
        44.200          38.300
 110022434.155 8  85731795.89648  20936569.446    20936568.5834   20936573.9124
        48.800          50.2004
 148199445.669 5                  28201404.101
        32.300
 126813401.429 7                  24131736.351
        46.300
 129179072.859 6                  24191090.187    24191089.969
        36.900
 132391645.552 5 103162406.85244  25193282.860    25193282.4584   25193302.5824
        34.800          26.1004
 132222264.884 7                  25160990.385
        42.100
 125960939.263 6                  23547050.779    23547050.262
        41.600
 150186553.277 5                  28579602.136
        33.800
 138007270.807 7                  26261858.562
        42.200
 127646358.786 5  99280673.933 6  23870453.330    23870452.906    23870463.999
        34.900          41.200
 125768627.040 6                  23593855.849    23593855.605
        38.400
 147794840.919 6                  28124349.266
        36.700
 105845225.559 8  82324224.768 8  19807441.673    19807441.874    19807448.641
        52.000          49.500
 122511570.072 6  95463723.23344  23313114.079    23313112.7834   23313115.3834
        40.600          25.9004
 133610352.209 6 104112024.23944  25425201.889    25425201.6034   25425219.2454
        37.100          27.8004
 127729485.856 7                  24306049.649
        47.900
 106305831.745 8  82682532.014 7  19865720.955    19865721.486    19865728.638
        53.000          47.900
 145660864.403 6                  27718375.729
        38.400
 129093046.844 6 100405782.374 6  24191973.262    24191973.407    24191986.743
        41.500          37.900
 121022150.600 7  94302978.32644  23029753.682    23029753.1774   23029756.6364
        43.600          27.1004
 106339921.535 8  82862438.09846  20235751.639    20235751.2194   20235752.9604
        48.500          41.6004
 116160636.579 7  90514942.11946  22104567.111    22104565.9004   22104566.6694
        47.300          37.3004
 109459787.799 8  85135440.810 7  20491092.316    20491092.749    20491099.648
        51.500          46.900
 117477415.031 7  91541019.47445  22355133.028    22355131.5844   22355134.3304
        44.400          33.7004
 106357088.612 8  82722387.271 8  19924198.378    19924198.937    19924205.687
        51.800          49.100
 25  1  1 22 12  0.0000000  0 38E03E05G17G08S31S35G07G15E33E25S48S33
                                R03G30E11E31R13G06E12R23E06E10R20R10
                                E26R11G21G03E24R21E09R02G13G14G02R12
                                G19R22
 146225142.488 6                  27825711.248
        38.900
 131520722.921 6                  25027570.794
        41.300
 107797469.242 8  83998212.17148  20513097.969    20513097.3434   20513099.0074
        48.700          50.1004
 134945365.258 5 105152353.80043  25679212.414    25679211.6194   25679220.3384
        33.500          22.9004
 198973172.545 7                  37863344.621
        45.200
 200891253.313 7                  38228348.285
        43.200
 120294249.534 7  93735797.60046  22891236.808    22891236.1744   22891244.0544
        42.400          37.1004
 129838577.049 6 101172926.85744  24707459.660    24707459.2984   24707462.3804
        38.800          29.6004
 130357898.814 7                  24806214.609
        45.700
 145271036.150 6                  27644147.553
        37.700
 412997658.626 5                  78590599.301
        32.200
 202131408.437 7                  38464310.227
        44.500
 128767647.065 7 100152670.180 6  24054874.384    24054874.237    24054883.238
        42.400          37.900
 110052905.894 8  85755540.08348  20942368.177    20942367.3104   20942372.4894
        49.000          50.2004
 148151131.417 5                  28192210.021
        32.900
 126827415.540 7                  24134403.279
        46.000
 129123613.059 6                  24180704.177    24180704.138
        37.400
 132333426.534 5 103117041.54244  25182206.078    25182205.6724   25182223.4794
        33.200          26.3004
 132187015.772 6                  25154282.827
        41.800
 125894461.536 6                  23534622.700    23534623.252
        40.700
 150226516.370 5                  28587207.086
        33.700
 137961511.545 6                  26253150.575
        41.600
 127710527.980 5  99330583.310 7  23882452.342    23882452.899    23882464.613
        34.300          42.200
 125818820.449 6                  23603273.167    23603272.275
        39.700
 147832248.626 6                  28131467.496
        36.700
 105862159.482 8  82337395.574 8  19810610.913    19810610.788    19810617.483
        51.700          49.500
 122556799.369 6  95498966.83444  23321721.414    23321720.1184   23321722.4604
        40.800          26.0004
 133569907.030 5 104080508.67544  25417505.148    25417504.8624   25417522.6254
        35.500          25.7004
 127713299.060 7                  24302969.658
        47.400
 106334711.615 8  82704994.119 7  19871118.110    19871118.497    19871125.855
        52.900          47.800
 145702641.639 6                  27726326.185
        38.500
 129135565.428 7 100438852.171 6  24199941.503    24199942.563    24199954.115
        42.300          37.600
 121046168.191 7  94321693.28344  23034324.134    23034323.6294   23034327.0724
        43.900          26.9004
 106331134.633 8  82855591.16146  20234079.589    20234079.1694   20234080.8774
        48.800          41.6004
 116186485.866 7  90535084.43546  22109485.884    22109484.6684   22109485.5934
        47.500          37.3004
 109420721.244 8  85105055.713 7  20483778.772    20483779.218    20483786.363
        51.900          47.000
 117437792.549 7  91510144.89845  22347592.892    22347591.4354   22347594.2714
        44.300          33.6004
 106318629.672 8  82692474.828 8  19916994.298    19916994.388    19917000.861
        52.200          49.000
 25  1  1 22 12 15.0000000  0 38E03E05G17G08S31S35G07G15E33E25S48S33
                                R03G30E11E31R13G06E12R23E06E10R20R10
                                E26R11G21G03E24R21E09R02G13G14G02R12
                                G19R22
 146216702.234 6                  27824104.323
        38.400
 131544602.657 6                  25032114.878
        41.500
 107786725.010 8  83989840.06048  20511053.374    20511052.7404   20511054.4254
        49.200          49.9004
 134995433.716 5 105191368.29543  25688739.500    25688738.7224   25688748.0424
        34.500          23.2004
 198973174.083 7                  37863343.172
        45.200
 200891261.810 7                  38228355.609
        43.600
 120345327.657 7  93775598.62646  22900956.900    22900956.2924   22900963.8724
        42.900          36.8004
 129853088.407 6 101184234.37144  24710221.889    24710221.5324   24710224.0504
        38.400          29.7004
 130365376.507 7                  24807637.720
        45.900
 145238763.769 6                  27638005.535
        37.600
 412998018.178 5                  78590604.018
        32.400
 202131414.207 7                  38464313.750
        44.500
 128776553.025 7 100159597.048 6  24056538.952    24056538.942    24056545.917
        44.200          38.300
 110083499.563 8  85779379.28248  20948189.876    20948189.0134   20948194.2874
        49.000          49.9004
 148102805.803 5                  28183014.146
        32.800
 126841464.426 7                  24137076.805
        45.900
 129068129.851 6                  24170314.782    24170314.537
        38.000
 132275195.793 5 103071667.12044  25171124.110    25171123.7134   25171142.3694
        34.900          26.3004
 132151840.417 7                  25147588.879
        42.100
 125828020.697 6                  23522201.936    23522201.827
        40.800
 150266439.062 5                  28594804.132
        33.900
 137915785.505 7                  26244448.932
        42.200
 127774726.009 5  99380515.182 7  23894458.821    23894457.721    23894470.544
        34.200          42.400
 125869069.458 6                  23612699.590    23612699.027
        39.300
 147869712.759 6                  28138596.348
        36.400
 105879218.284 8  82350663.526 8  19813802.980    19813803.160    19813809.819
        51.900          49.700
 122602113.662 6  95534276.67444  23330344.001    23330342.7094   23330345.2554
        41.100          26.0004
 133529461.551 5 104048992.85944  25409808.327    25409808.0464   25409825.5814
        35.600          24.4004
 127697137.455 7                  24299894.097
        47.500
 106363759.324 8  82727586.803 7  19876546.108    19876546.734    19876553.904
        52.500          47.700
 145744412.428 6                  27734274.380
        38.200
 129178158.979 6 100471980.275 6  24207923.804    24207923.805    24207937.200
        41.200          38.000
 121070299.175 7  94340496.59944  23038915.799    23038915.2854   23038918.8654
        44.200          26.7004
 106322417.389 8  82848798.51046  20232420.677    20232420.2444   20232422.0394
        48.200          41.4004
 116212457.484 7  90555322.06946  22114427.979    22114426.7634   22114427.7154
        47.400          37.1004
 109381717.396 8  85074719.421 7  20476477.533    20476477.787    20476484.771
        51.900          47.100
 117398233.369 7  91479319.65845  22340064.683    22340063.2264   22340066.3934
        44.800          33.6004
 106280331.070 8  82662687.095 8  19909819.392    19909819.594    19909826.085
        51.900          48.800
 25  1  1 22 12 30.0000000  0 38E03E05G17G08S31S35G07G15E33E25S48S33
                                R03G30E11E31R13G06E12R23E06E10R20R10
                                E26R11G21G03E24R21E09R02G13G14G02R12
                                G19R22
 146208361.802 6                  27822517.775
        38.100
 131568556.843 6                  25036672.916
        41.500
 107776074.740 8  83981541.16448  20509026.472    20509025.8334   20509027.7204
        49.000          49.9004
 135045477.806 6 105230363.79244  25698262.635    25698261.8534   25698271.0914
        36.100          26.0004
 198973173.653 7                  37863346.477
        45.100
 200891268.080 7                  38228349.367
        43.200
 120396465.289 7  93815446.02446  22910687.852    22910687.2314   22910695.2764
        43.300          37.0004
 129867717.049 6 101195633.26745  24713004.496    24713004.1344   24713008.2654
        38.700          30.4004
 130372963.341 7                  24809081.169
        45.500
 145206483.571 6                  27631863.301
        37.000
 412996775.998 5                  78590625.397
        32.500
 202131419.032 7                  38464315.941
        44.400
 128785624.835 7 100166652.846 6  24058232.934    24058233.481    24058241.708
        43.100          38.100
 110114212.883 8  85803311.71648  20954034.552    20954033.6854   20954038.8724
        48.700          49.8004
 148054467.082 5                  28173815.408
        32.300
 126855546.092 7                  24139756.534
        45.600
 129012620.942 6                  24159918.714    24159918.739
        36.900
 132216951.621 5 103026282.20744  25160039.750    25160039.3354   25160058.6524
        34.700          26.4004
 132116737.035 6                  25140908.925
        41.600
 125761615.162 6                  23509787.858    23509787.328
        40.200
 150306319.139 5                  28602393.232
        34.000
 137870090.872 6                  26235753.439
        41.600
 127838950.436 5  99430467.543 6  23906469.316    23906469.237    23906480.383
        34.700          41.700
 125919371.502 6                  23622137.075    23622136.373
        40.100
 147907231.150 6                  28145735.856
        36.300
 105896400.002 8  82364027.062 8  19817018.626    19817018.601    19817025.162
        52.200          49.600
 122647510.933 7  95569651.16844  23338982.975    23338981.6974   23338984.1084
        42.000          25.8004
 133489014.172 5 104017475.58144  25402111.536    25402111.2464   25402128.6894
        34.400          24.2004
 127680999.063 7                  24296823.008
        47.000
 106392972.317 8  82750308.011 7  19882005.632    19882005.655    19882013.111
        52.900          47.700
 145786174.486 6                  27742221.931
        37.700
 129220824.789 7 100505164.571 6  24215920.499    24215919.934    24215932.649
        42.700          38.600
 121094541.172 7  94359386.41344  23043529.239    23043528.7124   23043532.0554
        43.600          26.7004
 106313767.869 8  82842058.62946  20230775.153    20230774.7384   20230776.0844
        48.700          41.4004
 116238549.223 7  90575653.30546  22119393.247    22119392.0274   22119392.7544
        47.100          37.1004
 109342774.465 8  85044430.483 7  20469187.219    20469187.370    20469194.520
        52.000          47.100
 117358735.528 7  91448542.20345  22332548.505    22332547.0524   22332550.0024
        43.900          33.6004
 106242191.013 8  82633022.661 8  19902674.061    19902674.705    19902681.250
        51.900          49.100
 25  1  1 22 12 45.0000000  0 38E03E05G17G08S31S35G07G15E33E25S48S33
                                R03G30E11E31R13G06E12R23E06E10R20R10
                                E26R11G21G03E24R21E09R02G13G14G02R12
                                G19R22
 146200129.148 6                  27820951.290
        38.500
 131592593.267 6                  25041247.332
        41.100
 107765526.255 8  83973321.57848  20507019.212    20507018.5694   20507020.4004
        48.700          49.9004
 135095505.371 5 105269346.40743  25707782.928    25707782.1464   25707791.0284
        33.900          23.7004
 198973179.420 7                  37863343.897
        45.000
 200891282.024 7                  38228357.130
        43.300
 120447670.179 7  93855345.82946  22920431.960    22920431.3394   22920439.2914
        43.000          37.1004
 129882470.544 6 101207129.46845  24715812.286    24715811.9294   24715815.7074
        38.900          30.3004
 130380667.177 7                  24810547.316
        45.700
 145174203.520 6                  27625720.675
        38.100
 412997139.382 5                  78590634.551
        32.100
 202131429.863 7                  38464315.727
        44.400
 128794870.812 7 100173844.168 6  24059960.848    24059961.195    24059968.988
        44.300          38.200
 110145053.624 8  85827343.43548  20959903.317    20959902.4504   20959907.7114
        49.100          49.9004
 148006123.363 5                  28164615.653
        32.800
 126869668.542 7                  24142443.536
        45.500
 128957095.045 6                  24149521.435    24149521.336
        37.800
 132158702.259 6 102980893.24344  25148955.439    25148955.0194   25148974.1844
        36.000          27.2004
 132081713.745 7                  25134243.940
        42.000
 125695253.339 6                  23497382.458    23497381.750
        41.200
 150346164.276 5                  28609975.330
        34.300
 137824435.869 6                  26227065.580
        41.900
 127903209.422 5  99480446.791 6  23918486.070    23918486.258    23918497.051
        35.100          41.800
 125969734.767 6                  23631583.942    23631583.570
        38.800
 147944811.423 6                  28152886.974
        36.300
 105913712.820 8  82377492.571 8  19820258.047    19820258.224    19820265.143
        52.000          49.400
 122692998.648 6  95605096.14444  23347638.640    23347637.3624   23347640.1504
        41.400          26.2004
 133448573.145 5 103985963.30243  25394415.938    25394415.6664   25394432.7944
        34.900          23.9004
 127664891.901 7                  24293758.128
        47.400
 106422358.275 8  82773163.748 7  19887497.042    19887497.269    19887504.742
        52.600          47.700
 145827935.480 6                  27750169.021
        37.200
 129263570.349 7 100538410.882 6  24223930.823    24223931.007    24223943.601
        42.200          38.400
 121118901.872 7  94378368.73644  23048165.236    23048164.7184   23048167.8804
        43.900          26.7004
 106305194.163 8  82835377.82346  20229143.560    20229143.1364   20229144.5454
        48.600          41.5004
 116264768.752 7  90596084.12046  22124382.871    22124381.6604   22124382.2134
        47.300          37.1004
 109303900.956 8  85014195.546 7  20461909.902    20461910.314    20461917.294
        51.600          47.000
 117319307.108 7  91417818.87045  22325045.460    22325044.0164   22325046.9244
        45.000          34.0004
 106204217.908 8  82603488.081 8  19895560.758    19895560.810    19895567.525
        52.000          49.000
 25  1  1 22 13  0.0000000  0 38E03E05G17G08S31S35G07G15E33E25S48S33
                                R03G30E11E31R13G06E12R23E06E10R20R10
                                E26R11G21G03E24R21E09R02G13G14G02R12
                                G19R22
 146191993.392 6                  27819402.890
        38.300
 131616700.770 6                  25045834.889
        41.000
 107755068.760 8  83965172.89748  20505029.401    20505028.7584   20505030.4034
        48.700          50.2004
 135145505.408 6 105308307.54444  25717296.900    25717296.1134   25717305.4064
        36.000          26.2004
 198973180.699 7                  37863345.082
        45.100
 200891290.753 7                  38228356.047
        43.500
 120498931.194 7  93895289.37046  22930186.682    22930186.0394   22930194.1894
        42.200          37.4004
 129897337.775 6 101218714.28845  24718641.586    24718641.2384   24718644.7324
        38.000          30.1004
 130388477.049 7                  24812033.518
        45.600
 145141912.715 6                  27619575.677
        38.300
 412997495.776 5                  78590650.152
        32.200
 202131435.626 7                  38464315.579
        44.500
 128804279.573 7 100181162.123 6  24061718.548    24061718.713    24061727.409
        43.200          39.200
 110176010.629 8  85851465.75448  20965794.227    20965793.3564   20965798.6534
        49.200          50.1004
 147957763.932 5                  28155413.169
        32.800
 126883820.887 7                  24145137.081
        45.600
 128901541.209 6                  24139118.555    24139117.708
        38.400
 132100437.074 5 102935491.92144  25137867.182    25137866.7804   25137886.3894
        34.200          26.4004
 132046759.884 6                  25127592.718
        41.700
 125628924.671 6                  23484981.925    23484981.802
        41.500
 150385963.443 5                  28617549.299
        33.700
 137778809.798 6                  26218383.130
        41.400
 127967490.755 5  99530443.500 7  23930506.124    23930506.435    23930517.917
        34.400          42.000
 126020148.103 6                  23641041.487    23641040.712
        38.300
 147982442.401 6                  28160048.175
        36.900
 105931145.633 8  82391051.413 8  19823520.460    19823520.836    19823527.514
        52.200          49.600
 122738565.553 6  95640602.82944  23356310.189    23356308.9024   23356310.9804
        41.400          26.3004
 133408128.008 6 103954447.79744  25386719.862    25386719.5814   25386735.9114
        37.600          27.6004
 127648805.105 7                  24290696.657
        47.400
 106451905.639 8  82796145.030 7  19893018.788    19893019.101    19893026.118
        52.800          47.600
 145869684.235 6                  27758113.661
        38.100
 129306383.973 6 100571710.169 6  24231954.160    24231954.573    24231966.541
        41.800          38.300
 121143370.048 7  94397434.79244  23052821.100    23052820.5824   23052824.2074
        44.100          27.0004
 106296685.459 8  82828747.67546  20227524.070    20227523.6464   20227525.3894
        48.500          41.8004
 116291104.931 7  90616605.83546  22129394.627    22129393.4164   22129393.7934
        47.200          37.5004
 109265086.051 8  84984006.208 7  20454643.344    20454643.878    20454651.140
        51.500          47.000
 117279937.119 7  91387141.04445  22317553.638    22317552.1904   22317555.0114
        44.500          34.2004
 106166400.935 8  82574074.948 8  19888475.931    19888476.280    19888483.039
        51.700          49.000
 25  1  1 22 13 15.0000000  0 38E03E05G17G08S31S35G07G15E33E25S48S33
                                R03G30E11E31R13G06E12R23E06E10R20R10
                                E26R11G21G03E24R21E09R02G13G14G02R12
                                G19R22
 146183958.585 6                  27817874.219
        38.800
 131640883.168 6                  25050436.786
        40.600
 107744706.068 8  83957098.08948  20503057.582    20503056.9434   20503058.4264
        48.800          50.1004
 135195481.786 5 105347250.29443  25726807.425    25726806.6384   25726815.5014
        33.700          22.7004
 198973181.801 7                  37863344.590
        45.200
 200891298.877 7                  38228354.930
        43.300
 120550251.985 7  93935279.48246  22939952.849    22939952.2154   22939960.3114
        42.700          37.3004
 129912322.682 6 101230390.79945  24721493.533    24721493.1804   24721496.6624
        39.500          31.2004
 130396396.925 7                  24813540.585
        46.200
 145109615.194 6                  27613429.652
        37.800
 412997851.648 5                  78590658.071
        32.800
 202131441.109 7                  38464314.336
        44.200
 128813854.937 7 100188609.633 6  24063506.869    24063506.651    24063514.954
        43.600          38.300
 110207087.755 8  85875681.66948  20971707.912    20971707.0324   20971712.4504
        48.500          49.9004
 147909393.121 5                  28146208.203
        33.500
 126898007.214 7                  24147836.451
        46.000
 128845963.337 6                  24128710.379    24128710.253
        38.400
 132042160.455 5 102890081.66944  25126778.227    25126777.8384   25126796.3404
        34.800          26.9004
 132011879.738 7                  25120955.056
        42.300
 125562633.619 6                  23472589.527    23472588.508
        40.900
 150425720.430 5                  28625115.186
        34.500
 137733216.929 7                  26209707.039
        42.600
 128031798.242 5  99580460.465 7  23942532.856    23942531.760    23942543.755
        34.800          42.100
 126070615.499 6                  23650509.881    23650509.257
        40.000
 148020127.972 6                  28167219.339
        37.100
 105948702.696 8  82404706.880 8  19826806.290    19826806.200    19826813.182
        52.100          49.600
 122784215.396 6  95676174.14144  23364997.222    23364995.9214   23364998.0954
        41.300          26.4004
 133367683.088 6 103922932.52544  25379022.942    25379022.6744   25379040.1594
        36.300          27.4004
 127632742.749 8                  24287640.031
        48.000
 106481618.134 8  82819254.746 7  19898570.899    19898571.407    19898578.590
        52.500          47.200
 145911424.568 6                  27766057.020
        38.600
 129349269.459 7 100605065.304 6  24239991.063    24239991.939    24240003.594
        43.400          38.000
 121167949.507 7  94416587.56744  23057498.482    23057497.9414   23057501.7264
        43.400          26.8004
 106288245.920 8  82822171.41746  20225918.171    20225917.7474   20225919.4064
        48.300          41.7004
 116317561.517 7  90637221.36546  22134428.737    22134427.5214   22134428.2994
        47.200          37.4004
 109226334.195 8  84953865.896 7  20447389.551    20447389.457    20447396.674
        51.800          47.300
 117240629.898 7  91356512.11945  22310073.666    22310072.2224   22310075.0734
        44.300          34.3004
 106128744.452 8  82544786.638 8  19881421.809    19881422.081    19881428.688
        51.800          49.000
 25  1  1 22 13 30.0000000  0 38E03E05G17G08S31S35G07G15E33E25S48S33
                                R03G30E11E31R13G06E12R23E06E10R20R10
                                E26R11G21G03E24R21E09R02G13G14G02R12
                                G19R22
 146176023.130 6                  27816363.474
        38.500
 131665138.623 6                  25055052.715
        41.200
 107734436.544 8  83949095.87748  20501103.131    20501102.4924   20501104.1804
        48.900          50.0004
 135245432.755 6 105386173.23544  25736312.806    25736312.0284   25736320.4184
        37.300          28.1004
 198973180.110 7                  37863347.233
        45.200
 200891305.088 7                  38228357.215
        43.500
 120601630.678 7  93975314.71646  22949730.061    22949729.4404   22949737.4204
        43.100          37.2004
 129927423.206 6 101242157.40445  24724366.714    24724366.3614   24724370.4804
        39.400          30.6004
 130404425.053 7                  24815067.965
        46.100
 145077309.291 6                  27607282.135
        36.900
 412998206.005 5                  78590674.715
        33.100
 202131444.778 7                  38464315.879
        44.600
 128823595.248 7 100196185.440 6  24065327.238    24065327.911    24065335.262
        45.200          39.000
 110238283.149 8  85899989.74548  20977644.316    20977643.4364   20977648.7804
        48.300          49.8004
 147861009.422 5                  28137001.325
        33.100
 126912225.943 7                  24150542.262
        45.600
 128790360.296 6                  24118297.533    24118296.988
        36.500
 131983871.051 5 102844661.47544  25115685.942    25115685.5804   25115704.4814
        35.400          27.4004
 131977071.795 7                  25114331.437
        42.100
 125496378.849 6                  23460203.206    23460202.717
        40.400
 150465433.437 5                  28632672.044
        33.700
 137687655.841 6                  26201036.677
        41.700
 128096129.906 5  99630496.256 7  23954563.806    23954562.821    23954574.298
        35.300          42.100
 126121135.070 6                  23659987.910    23659986.816
        39.700
 148057866.225 5                  28174401.309
        35.900
 105966382.472 8  82418457.792 8  19830115.083    19830115.022    19830121.775
        52.300          49.500
 122829946.164 6  95711808.49944  23373699.397    23373698.1194   23373700.4494
        40.900          26.1004
 133327237.092 6 103891416.38244  25371325.953    25371325.6854   25371343.6344
        36.300          26.5004
 127616703.301 7                  24284587.832
        47.500
 106511493.695 8  82842491.291 7  19904154.132    19904154.322    19904161.460
        52.500          47.300
 145953154.628 6                  27773997.797
        38.000
 129392224.237 7 100638474.362 6  24248040.991    24248041.119    24248053.172
        42.400          37.200
 121192638.150 7  94435825.42944  23062196.787    23062196.2424   23062199.9034
        43.400          26.8004
 106279874.013 8  82815647.85546  20224325.114    20224324.6904   20224326.3194
        48.300          41.7004
 116344136.491 7  90657929.15246  22139485.440    22139484.2244   22139485.3374
        47.100          37.2004
 109187644.133 8  84923773.631 7  20440146.321    20440146.498    20440153.961
        51.700          47.300
 117201383.787 7  91325930.80645  22302605.414    22302603.9704   22302606.7524
        44.400          34.3004
 106091247.154 8  82515622.101 8  19874396.948    19874397.327    19874404.042
        51.600          48.900
 25  1  1 22 13 45.0000000  0 37E03E05G17S31S35G07G15E33E25S48S33R03
                                G30E11E31R13G06E12R23E06E10R20R10E26
                                R11G21G03E24R21E09R02G13G14G02R12G19
                                R22
 146168192.176 6                  27814873.724
        38.900
 131689472.016 6                  25059683.094
        41.100
 107724265.112 8  83941170.10248  20499167.528    20499166.8854   20499168.5894
        48.800          50.0004
 198973181.688 7                  37863347.921
        45.200
 200891314.567 7                  38228358.958
        43.400
 120653072.078 6  94015398.83246  22959519.146    22959518.5074   22959526.4284
        41.800          36.9004
 129942644.266 6 101254017.93245  24727263.482    24727263.1344   24727266.5534
        39.100          30.5004
 130412566.487 7                  24816617.387
        46.100
 145045000.178 6                  27601133.657
        38.000
 412996962.494 5                  78590687.235
        32.700
 202131450.695 7                  38464320.154
        44.500
 128833505.131 7 100203893.178 6  24067177.074    24067177.773    24067185.061
        44.300          37.300
 110269601.672 8  85924393.76848  20983604.289    20983603.4094   20983608.5314
        49.000          49.7004
 147812618.225 5                  28127792.766
        32.100
 126926482.164 7                  24153254.988
        46.000
 128734737.508 6                  24107881.665    24107880.165
        37.500
 131925574.322 5 102799235.57044  25104592.061    25104591.6774   25104611.6014
        35.100          27.3004
 131942341.420 7                  25107722.416
        42.300
 125430165.940 6                  23447824.913    23447824.721
        40.200
 150505107.389 5                  28640221.676
        32.600
 137642131.911 7                  26192373.988
        42.200
 128160490.258 5  99680554.369 6  23966598.223    23966599.137    23966609.769
        35.300          41.800
 126171711.638 6                  23669475.035    23669474.486
        39.500
 148095662.083 6                  28181593.378
        36.700
 105984190.076 8  82432308.156 8  19833447.006    19833447.365    19833453.979
        51.700          49.400
 122875762.652 6  95747509.67344  23382417.867    23382416.5894   23382419.0494
        40.600          26.1004
 133286795.508 5 103859903.71544  25363629.930    25363629.6584   25363647.0594
        35.900          27.3004
 127600691.836 7                  24281540.862
        47.800
 106541537.097 8  82865858.381 7  19909768.168    19909768.641    19909776.043
        52.500          47.300
 145994879.206 6                  27781937.367
        38.100
 129435253.258 7 100671941.152 6  24256103.730    24256104.081    24256117.565
        42.200          38.300
 121217440.687 7  94455152.03744  23066916.671    23066916.1174   23066919.4824
        43.800          26.7004
 106271574.963 8  82809181.06246  20222746.015    20222745.5954   20222747.0404
        48.500          41.7004
 116370834.998 7  90678733.19446  22144566.238    22144565.0224   22144565.9284
        47.200          37.1004
 109149021.203 8  84893733.589 7  20432916.295    20432916.416    20432923.325
        52.100          47.400
 117162203.912 7  91295401.10345  22295149.599    22295148.1604   22295150.9974
        44.900          34.3004
 106053914.484 8  82486585.642 8  19867403.801    19867403.871    19867410.393
        52.200          49.400
 25  1  1 22 14  0.0000000  0 37E03E05G17S31S35G07G15E33E25S48S33R03
                                G30E11E31R13G06E12R23E06E10R20R10E26
                                R11G21G03E24R21E09R02G13G14G02R12G19
                                R22
 146160459.830 6                  27813402.221
        38.600
 131713877.235 6                  25064327.354
        41.400
 107714185.839 8  83933316.13948  20497249.606    20497248.9764   20497250.5534
        48.600          49.9004
 198973180.568 7                  37863345.784
        45.300
 200891320.702 7                  38228361.901
        43.500
 120704570.035 7  94055526.99146  22969318.988    22969318.3624   22969326.1504
        42.300          36.8004
 129957979.813 6 101265967.68145  24730181.436    24730181.0974   24730184.3274
        40.000          30.5004
 130420815.247 7                  24818187.181
        46.200
 145012681.889 6                  27594983.664
        37.800
 412997315.721 5                  78590692.472
        32.600
 202131453.817 7                  38464321.365
        44.800
 128843578.583 7 100211728.055 6  24069059.107    24069059.136    24069067.399
        43.500          36.900
 110301037.243 8  85948888.99348  20989586.224    20989585.3444   20989590.5564
        48.800          49.5004
 147764213.731 5                  28118582.141
        33.200
 126940770.083 7                  24155973.954
        45.800
 128679088.955 6                  24097460.210    24097458.972
        37.300
 131867264.659 5 102753799.55744  25093496.890    25093496.4974   25093515.3414
        34.300          26.5004
 131907682.904 7                  25101126.746
        42.200
 125363989.291 6                  23435453.719    23435453.691
        41.600
 150544736.153 5                  28647762.611
        33.700
 137596639.461 7                  26183717.042
        42.100
 128224872.941 5  99730629.869 6  23978637.847    23978637.974    23978649.250
        34.900          41.800
 126222339.191 6                  23678972.598    23678972.932
        39.400
 148133509.368 6                  28188794.861
        37.000
 106002119.688 8  82446253.393 8  19836802.456    19836802.472    19836809.302
        51.600          49.200
 122921658.437 6  95783272.62444  23391151.827    23391150.5584   23391152.7094
        41.200          26.2004
 133246352.815 6 103828390.16744  25355934.227    25355933.9684   25355950.9904
        36.500          25.8004
 127584702.595 7                  24278498.487
        47.900
 106571741.873 8  82889350.969 7  19915412.697    19915413.170    19915420.089
        52.400          47.000
 146036592.250 6                  27789875.416
        37.100
 129478349.763 7 100705460.418 6  24264180.664    24264180.283    24264194.317
        42.000          37.800
 121242351.012 7  94474562.63144  23071656.751    23071656.1974   23071659.8444
        43.600          26.7004
 106263343.005 8  82802766.55346  20221179.538    20221179.1184   20221180.5504
        48.600          41.6004
 116397650.860 7  90699628.68246  22149669.230    22149668.0104   22149668.8144
        47.500          37.1004
 109110459.940 8  84863741.518 7  20425696.929    20425697.402    20425704.614
        51.300          47.500
 117123084.517 7  91264918.52845  22287705.278    22287703.8344   22287706.7564
        44.700          34.3004
 106016740.751 8  82457672.801 8  19860439.012    19860439.699    19860446.471
        51.700          49.200
 25  1  1 22 14 15.0000000  0 37E03E05G17S31S35G07G15E33E25S48S33R03
                                G30E11E31R13G06E12R23E06E10R20R10E26
                                R11G21G03E24R21E09R02G13G14G02R12G19
                                R22
 146152832.449 6                  27811950.902
        39.300
 131738360.445 6                  25068986.227
        41.100
 107704204.911 8  83925538.80948  20495350.349    20495349.7194   20495351.2144
        49.000          49.9004
 198973182.522 7                  37863346.714
        45.300
 200891330.368 7                  38228362.563
        43.600
 120756130.541 7  94095703.89246  22979130.414    22979129.7934   22979138.2354
        42.800          37.1004
 129973435.770 6 101278011.24245  24733122.823    24733122.4934   24733125.9174
        39.100          30.6004
 130429177.595 7                  24819778.431
        46.200
 144980360.821 6                  27588833.233
        37.700
 412997670.591 5                  78590707.080
        32.800
 202131460.014 7                  38464319.550
        44.500
 128853822.076 7 100219695.242 6  24070972.721    24070973.161    24070981.580
        44.000          38.000
 110332595.981 8  85973480.19448  20995591.470    20995590.5814   20995595.9994
        48.600          49.4004
 147715802.609 5                  28109369.688
        34.100
 126955096.052 7                  24158700.055
        46.200
 128623421.344 6                  24087036.270    24087035.549
        37.900
 131808948.738 5 102708358.67844  25082398.780    25082398.4004   25082417.6244
        35.900          27.1004
 131873102.762 7                  25094546.523
        42.500
 125297855.836 6                  23423089.866    23423089.797
        40.200
 150584325.907 5                  28655296.690
        34.200
 137551185.083 7                  26175067.448
        42.200
 128289283.751 5  99780727.247 7  23990684.310    23990683.363    23990695.095
        35.300          42.200
 126273024.040 6                  23688481.957    23688481.202
        39.300
 148171414.223 6                  28196007.916
        36.900
 106020177.739 8  82460298.536 8  19840182.018    19840182.049    19840188.619
        51.900          49.100
 122967639.425 6  95819101.95244  23399901.458    23399900.1984   23399902.5394
        41.100          25.9004
 133205915.811 6 103796881.09544  25348239.226    25348238.9674   25348255.6764
        36.000          24.8004
 127568741.915 8                  24275461.240
        48.100
 106602114.020 8  82912973.753 7  19921088.737    19921089.028    19921095.992
        52.600          47.000
 146078299.714 6                  27797812.390
        38.600
 129521519.768 7 100739036.861 6  24272271.332    24272271.330    24272284.551
        42.100          37.900
 121267375.114 7  94494061.88644  23076418.989    23076418.4394   23076421.9884
        43.900          26.6004
 106255184.592 8  82796409.35446  20219626.721    20219626.3014   20219628.0524
        48.600          41.5004
 116424590.043 7  90720620.26246  22154795.632    22154794.4124   22154795.1804
        47.200          37.0004
 109071967.124 8  84833802.689 7  20418491.329    20418491.548    20418498.818
        51.800          47.400
 117084032.010 7  91234488.07645  22280274.003    22280272.5684   22280275.2414
        44.800          34.4004
 105979732.678 8  82428888.792 8  19853507.318    19853507.056    19853513.381
        52.400          49.200
 25  1  1 22 14 30.0000000  0 37E03E05G17S31S35G07G15E33E25S48S33R03
                                G30E11E31R13G06E12R23E06E10R20R10E26
                                R11G21G03E24R21E09R02G13G14G02R12G19
                                R22
 146145309.513 6                  27810519.388
        38.800
 131762920.756 6                  25073659.793
        40.800
 107694321.741 8  83917837.65648  20493469.603    20493468.9694   20493470.4814
        48.800          49.7004
 198973187.438 7                  37863347.953
        45.400
 200891343.195 7                  38228366.046
        43.500
 120807752.640 7  94135928.79746  22988954.051    22988953.4344   22988961.5094
        42.400          36.6004
 129989011.331 6 101290147.98945  24736086.693    24736086.3634   24736089.5524
        39.000          30.1004
 130437652.850 7                  24821391.381
        46.100
 144948036.361 6                  27582682.320
        37.900
 412998027.775 5                  78590712.835
        32.600
 202131469.559 7                  38464319.630
        44.500
 128864234.635 7 100227793.919 6  24072918.838    24072917.874    24072925.971
        44.100          37.500
 110364277.082 8  85998166.73948  21001620.265    21001619.3854   21001624.7934
        48.800          49.2004
 147667384.453 5                  28100155.705
        34.200
 126969459.523 7                  24161433.335
        46.000
 128567734.282 6                  24076606.354    24076605.941
        37.200
 131750626.267 6 102662912.67944  25071300.692    25071300.3124   25071318.7574
        36.200          27.6004
 131838600.620 7                  25087981.105
        42.300
 125231765.199 6                  23410735.489    23410734.937
        41.000
 150623875.910 5                  28662822.856
        34.300
 137505768.405 7                  26166424.237
        42.300
 128353722.083 5  99830846.043 6  24002733.507    24002733.514    24002744.857
        34.400          41.800
 126323765.261 6                  23697999.454    23697999.284
        38.500
 148209375.832 6                  28203231.671
        36.900
 106038363.720 8  82474443.184 8  19843585.203    19843585.199    19843592.006
        51.700          49.200
 123013704.870 6  95854997.09944  23408667.581    23408666.3124   23408668.4084
        41.800          25.8004
 133165484.229 6 103765376.21344  25340544.536    25340544.2774   25340561.2434
        36.500          25.7004
 127552809.319 8                  24272429.088
        48.000
 106632652.527 8  82936725.927 7  19926795.225    19926795.636    19926802.971
        52.500          47.000
 146120000.823 6                  27805747.616
        38.200
 129564762.398 6 100772669.770 6  24280374.095    24280374.335    24280388.231
        41.900          37.900
 121292512.121 7  94513649.11644  23081201.887    23081201.3334   23081205.3144
        44.100          26.3004
 106247099.231 8  82790109.07546  20218088.116    20218087.6924   20218089.4614
        48.400          41.4004
 116451651.684 7  90741707.25946  22159945.010    22159943.7944   22159944.8224
        47.000          36.9004
 109033542.417 8  84803916.824 7  20411298.352    20411298.777    20411305.520
        52.000          47.400
 117045045.975 7  91204109.42745  22272854.634    22272853.1904   22272856.4394
        44.700          34.4004
 105942889.928 8  82400233.369 8  19846604.738    19846604.955    19846611.674
        52.000          49.200
 25  1  1 22 14 45.0000000  0 37E03E05G17S31S35G07G15E33E25S48S33R03
                                G30E11E31R13G06E12R23E06E10R20R10E26
                                R11G21G03E24R21E09R02G13G14G02R12G19
                                R22
 146137882.402 6                  27809105.907
        39.300
 131787549.407 6                  25078346.813
        41.600
 107684527.585 8  83910205.85948  20491605.672    20491605.0424   20491606.6914
        48.400          49.9004
 198973186.262 7                  37863346.620
        45.300
 200891349.441 7                  38228367.074
        43.600
 120859427.460 6  94176194.77446  22998787.415    22998786.8034   22998795.0104
        41.700          36.6004
 130004697.772 6 101302371.17745  24739071.597    24739071.2714   24739074.5924
        39.200          30.3004
 130446232.357 7                  24823023.987
        46.400
 144915699.906 6                  27576528.471
        38.200
 412998379.763 5                  78590721.881
        32.300
 202131472.830 7                  38464321.486
        44.400
 128874807.350 7 100236017.154 6  24074892.571    24074893.643    24074902.572
        43.800          38.500
 110396071.711 8  86022941.75048  21007670.669    21007669.7844   21007675.1844
        48.500          49.3004
 147618950.866 5                  28090938.945
        33.500
 126983851.929 7                  24164172.081
        46.100
 128512019.325 6                  24066172.508    24066172.769
        37.500
 131692288.960 5 102617455.13444  25060198.798    25060198.4144   25060217.5344
        35.900          27.3004
 131804168.153 7                  25081428.705
        42.700
 125165709.269 6                  23398386.062    23398385.630
        41.400
 150663377.240 5                  28670339.577
        33.500
 137460381.061 7                  26157787.680
        42.200
 128418178.837 5  99880979.186 6  24014786.915    24014786.638    24014798.352
        34.500          41.400
 126374554.399 6                  23707527.470    23707527.761
        39.700
 148247385.354 6                  28210464.828
        37.900
 106056668.896 8  82488680.520 8  19847010.891    19847010.865    19847017.605
        51.800          49.300
 123059845.862 6  95890951.12044  23417447.502    23417446.2154   23417449.0344
        40.900          26.1004
 133125049.829 5 103733869.16544  25332850.063    25332849.8134   25332866.4134
        35.600          25.2004
 127536896.226 8                  24269401.186
        48.300
 106663348.299 8  82960600.416 7  19932531.853    19932532.044    19932539.026
        52.300          46.900
 146161686.705 6                  27813680.142
        38.600
 129608068.138 7 100806351.784 6  24288489.572    24288490.505    24288503.792
        42.700          37.300
 121317753.039 7  94533317.31644  23086005.140    23086004.5774   23086008.5794
        43.900          26.4004
 106239078.439 8  82783859.11146  20216561.961    20216561.5414   20216563.1484
        48.300          41.6004
 116478827.010 7  90762882.83846  22165116.459    22165115.2394   22165116.0524
        47.000          37.0004
 108995177.463 8  84774077.429 7  20404116.274    20404116.497    20404123.969
        51.500          47.600
 117006117.780 7  91173775.83845  22265447.323    22265445.8794   22265448.6294
        44.500          34.5004
 105906204.079 8  82371699.977 8  19839732.215    19839732.522    19839739.134
        52.300          49.300
 25  1  1 22 15  0.0000000  0 37E03E05G17S31S35G07G15E33E25S48S33R03
                                G30E11E31R13G06E12R23E06E10R20R10E26
                                R11G21G03E24R21E09R02G13G14G02R12G19
                                R22
 146130561.158 6                  27807712.720
        38.200
 131812256.175 6                  25083048.039
        40.900
 107674832.365 8  83902651.16048  20489760.868    20489760.2474   20489761.7394
        48.900          49.9004
 198973189.484 7                  37863350.318
        45.100
 200891360.711 7                  38228368.398
        43.200
 120911164.680 7  94216509.38146  23008633.101    23008632.4804   23008640.3384
        42.200          36.7004
 130020504.731 6 101314688.26045  24742080.199    24742079.8694   24742082.4834
        38.700          30.1004
 130454926.019 7                  24824678.057
        46.200
 144883361.516 6                  27570374.873
        37.800
 412998735.741 5                  78590746.440
        32.500
 202131479.943 7                  38464321.079
        44.200
 128885550.211 7 100244372.749 6  24076899.712    24076899.612    24076908.783
        43.800          38.300
 110427989.677 8  86047812.86448  21013744.315    21013743.4354   21013748.9714
        48.000          49.2004
 147570511.990 5                  28081721.366
        33.200
 126998283.340 7                  24166918.464
        46.100
 128456286.728 6                  24055736.215    24055735.796
        37.800
 131633947.113 6 102571994.07144  25049097.273    25049096.8804   25049115.6444
        36.800          27.9004
 131769815.499 7                  25074891.463
        42.500
 125099698.340 6                  23386044.451    23386045.468
        41.400
 150702839.767 5                  28677849.345
        34.000
 137415033.325 7                  26149158.177
        42.500
 128482663.265 5  99931133.840 6  24026844.853    24026845.679    24026856.946
        34.600          41.600
 126425401.114 6                  23717066.665    23717065.960
        38.900
 148285452.566 6                  28217708.780
        38.100
 106075103.559 8  82503018.562 8  19850460.623    19850460.610    19850467.368
        51.900          49.300
 123106071.973 6  95926971.46344  23426244.519    23426243.2504   23426245.3554
        41.000          25.9004
 133084622.993 5 103702367.98344  25325157.303    25325157.0404   25325172.9594
        35.900          25.7004
 127521012.692 8                  24266378.371
        48.200
 106694210.991 8  82984604.731 7  19938298.686    19938299.118    19938306.377
        51.700          47.000
 146203367.150 6                  27821612.184
        38.400
 129651446.345 7 100840090.135 6  24296619.690    24296619.740    24296632.428
        42.200          36.400
 121343107.639 7  94553074.09344  23090830.071    23090829.5044   23090833.4874
        43.200          26.1004
 106231132.343 8  82777667.35246  20215049.824    20215049.4044   20215051.0604
        48.200          41.6004
 116506125.685 7  90784154.53446  22170311.506    22170310.2904   22170310.7854
        47.100          37.0004
 108956882.857 8  84744292.742 7  20396947.248    20396947.382    20396954.648
        51.800          47.900
 116967257.428 7  91143495.12045  22258052.403    22258050.9734   22258053.7414
        44.700          34.5004
 105869685.572 8  82343296.741 8  19832890.863    19832891.360    19832897.744
        52.100          49.200
 25  1  1 22 15 15.0000000  0 37E03E05G17S31S35G07G15E33E25S48S33R03
                                G30E11E31R13G06E12R23E06E10R20R10E26
                                R11G21G03E24R21E09R02G13G14G02R12G19
                                R22
 146123340.746 6                  27806339.188
        38.400
 131837035.808 6                  25087763.549
        40.900
 107665230.881 8  83895169.50048  20487933.567    20487932.9414   20487934.6214
        48.900          50.1004
 198973191.835 7                  37863349.477
        45.000
 200891370.858 7                  38228371.390
        43.100
 120962959.064 7  94256868.52446  23018488.845    23018488.2334   23018496.6524
        42.900          37.1004
 130036426.837 6 101327095.05245  24745109.520    24745109.1764   24745112.8124
        39.900          30.8004
 130463728.741 7                  24826353.251
        46.100
 144851016.126 6                  27564220.252
        37.400
 412997491.192 5                  78590753.639
        32.700
 202131486.951 7                  38464318.884
        43.800
 128896457.543 7 100252856.212 6  24078937.888    24078937.711    24078945.759
        43.600          38.000
 110460025.710 8  86072775.98848  21019840.772    21019839.9054   21019845.2334
        48.300          49.5004
 147522063.108 5                  28072501.577
        33.300
 127012748.743 7                  24169671.135
        45.800
 128400531.631 6                  24045294.483    24045294.463
        38.300
 131575596.034 6 102526525.77444  25037993.380    25037992.9784   25038011.7564
        36.400          28.3004
 131735537.812 7                  25068368.633
        42.400
 125033727.898 6                  23373712.857    23373711.910
        40.800
 150742258.277 5                  28685350.237
        32.700
 137369720.342 7                  26140534.928
        42.100
 128547169.712 5  99981305.589 7  24038908.906    24038909.213    24038920.136
        35.100          42.300
 126476300.125 6                  23726614.436    23726615.463
        39.100
 148323572.194 6                  28224962.671
        36.800
 106093662.676 8  82517453.406 8  19853933.684    19853933.826    19853940.455
        52.100          49.200
 123152377.808 6  95963053.93244  23435056.172    23435054.8984   23435057.0804
        41.100          26.5004
 133044199.043 6 103670869.05844  25317464.612    25317464.3534   25317480.3244
        36.900          27.4004
 127505153.756 7                  24263360.661
        47.800
 106725235.034 8  83008734.533 7  19944096.905    19944097.028    19944103.872
        52.800          46.800
 146245036.859 6                  27829541.865
        37.400
 129694891.712 6 100873880.749 6  24304761.151    24304761.103    24304774.734
        41.800          36.600
 121368570.510 7  94572915.24544  23095675.493    23095674.9354   23095678.8834
        43.800          26.5004
 106223256.024 8  82771529.95846  20213551.253    20213550.8384   20213552.2444
        48.400          41.9004
 116533542.403 7  90805518.20746  22175528.387    22175527.1624   22175528.1144
        47.000          37.2004
 108918653.704 8  84714558.955 7  20389790.709    20389791.131    20389798.143
        51.800          47.800
 116928459.782 7  91113263.25945  22250669.277    22250667.8474   22250670.6764
        45.200          34.9004
 105833329.600 8  82315019.912 8  19826080.029    19826080.645    19826087.172
        52.100          49.300
 25  1  1 22 15 30.0000000  0 37E03E05G17S31S35G07G15E33E25S48S33R03
                                G30E11E31R13G06E12R23E06E10R20R10E26
                                R11G21G03E24R21E09R02G13G14G02R12G19
                                R22
 146116221.387 6                  27804983.898
        38.500
 131861888.246 6                  25092492.686
        40.600
 107655723.293 8  83887761.00848  20486124.502    20486123.8814   20486125.3764
        48.700          50.2004
 198973193.610 7                  37863350.559
        45.200
 200891379.948 7                  38228375.266
        43.200
 121014810.384 6  94297272.04346  23028355.791    23028355.1654   23028363.6864
        41.900          36.8004
 130052464.055 6 101339591.55445  24748161.221    24748160.8644   24748164.6234
        39.300          30.8004
 130472640.606 7                  24828049.006
        46.000
 144818663.922 6                  27558063.128
        38.300
 412997846.258 5                  78590764.451
        32.300
 202131492.897 7                  38464322.528
        43.900
 128907529.804 7 100261467.995 6  24081006.821    24081007.308    24081014.989
        45.100          38.000
 110492179.788 8  86097831.08848  21025959.523    21025958.6564   21025964.0004
        48.300          49.6004
 147473604.540 5                  28063280.684
        34.100
 127027248.357 7                  24172430.100
        45.800
 128344754.221 6                  24034851.661    24034849.656
        38.300
 131517236.190 5 102481050.67244  25026888.049    25026887.6434   25026906.0034
        33.700          26.9004
 131701335.539 7                  25061860.098
        42.400
 124967798.536 6                  23361386.970    23361386.589
        41.200
 150781632.745 5                  28692843.095
        32.600
 137324442.542 6                  26131918.874
        41.900
 128611698.291 5 100031494.543 7  24050976.144    24050976.101    24050987.744
        34.600          42.200
 126527251.327 6                  23736174.716    23736173.230
        39.000
 148361744.217 6                  28232226.957
        36.600
 106112346.444 8  82531985.232 8  19857430.047    19857430.251    19857436.825
        52.100          49.200
 123198763.178 6  95999198.38144  23443882.983    23443881.7184   23443884.0194
        40.900          26.3004
 133003778.516 6 103639372.79044  25309771.995    25309771.7504   25309788.4944
        36.500          27.2004
 127489319.648 7                  24260347.615
        47.800
 106756420.274 8  83032989.733 7  19949924.226    19949924.554    19949931.724
        52.200          46.900
 146286695.728 6                  27837469.160
        38.200
 129738403.715 7 100907723.167 6  24312916.177    24312915.983    24312929.158
        42.200          36.600
 121394141.501 7  94592840.65344  23100541.626    23100541.0634   23100544.7694
        43.800          26.5004
 106215449.787 8  82765447.18146  20212065.725    20212065.3144   20212066.7484
        48.600          41.9004
 116561077.165 7  90826973.86546  22180768.174    22180766.9404   22180767.8134
        46.800          37.3004
 108880490.587 8  84684876.573 7  20382646.168    20382646.726    20382653.921
        51.400          47.600
 116889725.823 7  91083081.02445  22243298.715    22243297.2944   22243299.7344
        44.700          34.9004
 105797136.567 8  82286869.851 8  19819300.239    19819300.557    19819306.909
        51.500          49.100
 25  1  1 22 15 45.0000000  0 37E03E05G17S31S35G07G15E33E25S48S33R03
                                G30E11E31R13G06E12R23E06E10R20R10E26
                                R11G21G03E24R21E09R02G13G14G02R12G19
                                R22
 146109207.061 6                  27803648.828
        38.100
 131886817.245 6                  25097236.450
        40.500
 107646313.375 8  83880428.61748  20484333.843    20484333.2224   20484334.7104
        48.800          50.2004
 198973198.164 7                  37863350.242
        45.300
 200891392.764 7                  38228374.945
        43.400
 121066722.343 6  94337722.79946  23038234.576    23038233.9684   23038242.4794
        41.900          36.9004
 130068620.235 6 101352180.74145  24751236.045    24751235.6924   24751239.1904
        40.100          31.3004
 130481665.481 7                  24829766.586
        46.000
 144786308.877 6                  27551906.182
        38.000
 412998201.890 5                  78590764.214
        32.400
 202131501.586 7                  38464325.453
        44.300
 128918770.607 7 100270210.820 6  24083105.129    24083105.925    24083115.145
        44.100          38.600
 110524455.623 8  86122981.06448  21032101.306    21032100.4354   21032105.9084
        48.200          49.3004
 147425140.527 5                  28054058.105
        34.100
 127041786.229 7                  24175196.629
        46.000
 128288958.952 6                  24024401.159    24024399.957
        36.800
 131458871.920 6 102435572.12844  25015782.185    25015781.8014   25015799.6684
        36.100          28.4004
 131667212.809 7                  25055366.661
        42.400
 124901914.656 6                  23349069.529    23349068.945
        39.500
 150820967.002 5                  28700327.879
        33.200
 137279204.124 7                  26123310.389
        42.600
 128676252.526 5 100081703.490 6  24063049.107    24063047.881    24063058.249
        34.500          40.600
 126578258.936 6                  23745743.291    23745742.324
        38.300
 148399972.322 6                  28239500.662
        36.700
 106131158.955 8  82546617.153 8  19860950.089    19860950.585    19860957.441
        51.700          49.400
 123245231.717 6  96035407.63144  23452725.824    23452724.5554   23452726.6884
        41.900          26.2004
 132963365.754 6 103607882.54344  25302082.122    25302081.8864   25302098.0414
        36.800          26.7004
 127473514.400 8                  24257339.979
        48.000
 106787770.228 8  83057373.011 7  19955782.822    19955783.140    19955790.050
        52.500          46.600
 146328347.572 6                  27845395.588
        38.600
 129781985.829 7 100941620.109 6  24321084.322    24321084.175    24321097.149
        43.200          37.300
 121419824.338 7  94612853.21044  23105428.664    23105428.0974   23105431.8374
        44.300          26.3004
 106207717.712 8  82759422.19146  20210594.142    20210593.7314   20210595.4064
        48.400          41.9004
 116588733.635 7  90848524.36346  22186031.153    22186029.9194   22186030.5824
        47.000          37.2004
 108842397.768 8  84655248.798 7  20375515.907    20375515.803    20375522.541
        51.900          47.500
 116851059.350 7  91052951.37845  22235940.567    22235939.1464   22235941.6394
        45.400          35.1004
 105761110.828 8  82258849.866 8  19812551.425    19812551.640    19812558.037
        52.200          49.300
 25  1  1 22 16  0.0000000  0 37E03E05G17S31S35G07G15E33E25S48S33R03
                                G30E11E31R13G06E12R23E06E10R20R10E26
                                R11G21G03E24R21E09R02G13G14G02R12G19
                                R22
 146102290.003 6                  27802333.016
        38.500
 131911814.784 6                  25101993.949
        41.300
 107636993.354 8  83873166.28048  20482560.195    20482559.5784   20482561.1574
        49.300          50.2004
 198973198.570 7                  37863349.647
        45.200
 200891400.933 7                  38228376.326
        43.500
 121118686.843 7  94378214.50046  23048123.745    23048123.1464   23048131.0664
        42.200          36.8004
 130084887.147 6 101364856.21445  24754331.252    24754330.8904   24754335.0024
        39.400          31.0004
 130490795.551 7                  24831504.025
        46.300
 144753943.210 6                  27545747.719
        38.200
 412998552.482 5                  78590772.572
        32.500
 202131505.695 7                  38464327.451
        44.500
 128930171.580 7 100279078.225 6  24085235.563    24085236.604    24085244.058
        45.000          38.400
 110556845.224 8  86148219.68848  21038265.033    21038264.1754   21038269.4724
        48.600          49.3004
 147376663.452 5                  28044831.796
        34.000
 127056354.572 7                  24177968.919
        46.100
 128233137.960 6                  24013946.408    24013947.325
        38.100
 131400495.745 6 102390084.32844  25004672.246    25004671.8664   25004691.0044
        37.700          28.8004
 131633162.045 7                  25048887.114
        42.900
 124836068.741 6                  23336760.947    23336761.059
        41.900
 150860253.022 5                  28707803.948
        34.000
 137233997.566 7                  26114707.209
        42.400
 128740823.979 5 100131925.812 6  24075123.528    24075123.435    24075134.635
        34.900          41.800
 126629314.931 6                  23755320.262    23755319.868
        38.900
 148438248.508 6                  28246784.684
        37.500
 106150092.378 8  82561343.127 8  19864494.143    19864493.930    19864500.594
        52.600          49.300
 123291775.185 6  96071675.26344  23461582.474    23461581.1824   23461583.6134
        41.700          26.1004
 132922953.367 6 103576392.58344  25294391.940    25294391.6904   25294407.3644
        36.300          26.6004
 127457730.281 8                  24254336.175
        48.200
 106819276.649 8  83081878.012 7  19961670.784    19961670.894    19961678.068
        52.200          46.900
 146369984.255 6                  27853318.360
        38.100
 129825629.586 7 100975565.014 6  24329262.708    24329262.634    24329275.930
        42.700          37.100
 121445610.834 7  94632946.52844  23110335.384    23110334.7854   23110339.2324
        43.800          26.3004
 106200052.141 8  82753449.02146  20209135.522    20209135.1164   20209136.6914
        48.300          41.9004
 116616503.797 7  90870163.45246  22191315.716    22191314.4824   22191315.0974
        47.100          37.1004
 108804367.903 8  84625670.029 7  20368396.073    20368396.193    20368403.575
        51.700          47.600
 116812452.517 7  91022868.19845  22228593.331    22228591.9144   22228594.8714
        45.200          35.0004
 105725244.695 8  82230954.020 8  19805832.556    19805832.705    19805839.156
        52.200          49.300
 25  1  1 22 16 15.0000000  0 37E03E05G17S31S35G07G15E33E25S48S33R03
                                G30E11E31R13G06E12R23E06E10R20R10E26
                                R11G21G03E24R21E09R02G13G14G02R12G19
                                R22
 146095475.374 6                  27801036.362
        38.800
 131936885.807 6                  25106764.621
        40.800
 107627768.207 8  83865977.86748  20480804.687    20480804.0704   20480805.6254
        49.200          50.1004
 198973199.622 7                  37863351.695
        45.400
 200891409.901 7                  38228375.638
        43.500
 121170708.540 7  94418750.77146  23058023.093    23058022.5034   23058030.6484
        42.200          36.7004
 130101269.688 6 101377621.79745  24757449.222    24757448.8654   24757452.2194
        39.400          30.4004
 130500035.760 7                  24833262.240
        46.200
 144721572.029 6                  27539586.908
        38.900
 412998903.739 5                  78590793.754
        32.600
 202131510.608 7                  38464328.283
        44.600
 128941737.825 7 100288074.241 6  24087396.025    24087396.219    24087405.273
        44.500          38.400
 110589353.502 8  86173550.79148  21044450.963    21044450.1054   21044455.6354
        48.500          49.2004
 147328178.678 5                  28035606.301
        34.000
 127070958.558 7                  24180747.687
        46.000
 128177296.651 6                  24003490.804    24003489.345
        36.700
 131342113.026 6 102344591.41444  24993561.904    24993561.5204   24993580.8294
        37.300          28.2004
 131599188.571 7                  25042422.095
        42.900
 124770266.258 6                  23324459.621    23324459.527
        41.100
 150899495.680 5                  28715271.128
        33.400
 137188828.178 7                  26106112.086
        42.400
 128805417.489 5 100182165.342 7  24087201.407    24087202.213    24087213.950
        34.500          42.100
 126680423.714 6                  23764908.490    23764909.116
        39.900
 148476577.588 6                  28254078.490
        37.800
 106169151.949 8  82576167.234 8  19868060.532    19868060.550    19868067.151
        52.100          49.200
 123338398.416 6  96108005.06244  23470454.311    23470453.0284   23470455.7414
        41.900          26.1004
 132882546.872 6 103544907.21244  25286702.111    25286701.8664   25286718.3294
        36.900          26.6004
 127441972.442 8                  24251337.640
        48.300
 106850944.285 8  83106508.391 7  19967588.561    19967588.805    19967595.814
        52.400          46.800
 146411610.712 6                  27861240.080
        38.200
 129869339.592 7 101009561.421 6  24337454.135    24337454.074    24337467.393
        43.600          36.700
 121471505.621 7  94653124.22844  23115263.626    23115263.0504   23115266.8044
        43.200          26.2004
 106192458.290 8  82747531.74046  20207690.492    20207690.0904   20207691.6464
        48.500          41.9004
 116644392.541 7  90891894.95046  22196622.657    22196621.4234   22196622.1664
        46.900          36.9004
 108766406.413 8  84596144.450 7  20361289.451    20361289.948    20361297.174
        51.700          47.600
 116773910.422 7  90992835.46445  22221259.120    22221257.6994   22221260.5734
        44.600          34.9004
 105689543.606 8  82203186.553 8  19799144.744    19799144.696    19799151.307
        52.600          49.500
 25  1  1 22 16 30.0000000  0 37E03E05G17S31S35G07G15E33E25S48S33R03
                                G30E11E31R13G06E12R23E06E10R20R10E26
                                R11G21G03E24R21E09R02G13G14G02R12G19
                                R22
 146088762.379 6                  27799758.526
        38.800
 131962029.327 6                  25111549.104
        40.400
 107618637.088 8  83858862.72548  20479067.085    20479066.4644   20479067.9974
        49.200          50.0004
 198973199.985 7                  37863346.633
        45.300
 200891418.457 7                  38228382.511
        43.700
 121222786.580 7  94459330.94446  23067933.010    23067932.4114   23067941.0964
        42.400          36.5004
 130117767.002 6 101390476.80645  24760588.445    24760588.0924   24760591.5574
        39.100          30.1004
 130509385.353 7                  24835041.304
        46.300
 144689194.637 6                  27533425.389
        38.000
 412997653.789 5                  78590813.201
        32.900
 202131515.659 7                  38464330.787
        44.400
 128953468.717 7 100297198.235 6  24089587.554    24089588.119    24089596.565
        45.000          38.400
 110621979.480 8  86198973.60448  21050659.513    21050658.6644   21050664.1794
        48.600          49.1004
 147279685.562 5                  28026378.035
        34.100
 127085597.490 7                  24183533.746
        46.200
 128121434.625 6                  23993029.575    23993028.891
        37.200
 131283723.440 6 102299093.16644  24982450.523    24982450.1574   24982469.9914
        36.500          28.9004
 131565291.865 7                  25035971.885
        42.900
 124704507.003 6                  23312166.025    23312165.986
        41.100
 150938694.093 5                  28722730.862
        33.400
 137143695.494 7                  26097523.208
        42.500
 128870031.342 5 100232420.622 6  24099285.378    24099284.404    24099296.516
        34.600          41.900
 126731584.881 6                  23774506.600    23774506.282
        39.100
 148514958.724 6                  28261381.813
        38.200
 106188336.987 8  82591088.904 8  19871651.341    19871650.918    19871657.453
        52.300          49.200
 123385100.261 6  96144396.11944  23479341.605    23479340.3184   23479342.8904
        41.000          26.1004
 132842145.928 6 103513426.15944  25279013.404    25279013.1684   25279030.4874
        36.500          27.3004
 127426240.253 8                  24248343.881
        48.200
 106882771.938 8  83131263.215 7  19973535.961    19973536.394    19973543.559
        52.300          46.900
 146453225.935 6                  27869159.598
        38.600
 129913114.886 7 101043608.590 6  24345657.845    24345658.089    24345671.045
        43.700          36.800
 121497507.814 7  94673385.63644  23120211.872    23120211.3004   23120214.9004
        42.600          25.8004
 106184935.554 8  82741669.87146  20206258.755    20206258.3534   20206260.1194
        48.700          41.8004
 116672398.883 7  90913718.07046  22201951.998    22201950.7694   22201951.6164
        47.200          36.9004
 108728512.895 8  84566671.712 7  20354195.724    20354195.961    20354203.187
        51.900          47.500
 116735432.641 7  90962852.84845  22213937.311    22213935.8944   22213938.4614
        45.700          34.8004
 105654007.198 8  82175547.177 8  19792486.964    19792487.398    19792493.822
        52.000          49.400
 25  1  1 22 16 45.0000000  0 37E03E05G17S31S35G07G15E33E25S48S33R03
                                G30E11E31R13G06E12R23E06E10R20R10E26
                                R11G21G03E24R21E09R02G13G14G02R12G19
                                R22
 146082150.667 6                  27798500.151
        38.800
 131987244.626 6                  25116347.318
        40.700
 107609599.386 8  83851820.37448  20477347.106    20477346.4804   20477348.1674
        49.100          50.0004
 198973200.354 7                  37863351.315
        45.200
 200891426.625 7                  38228382.001
        43.500
 121274920.095 6  94499954.35046  23077853.398    23077852.7954   23077861.7304
        41.800          36.4004
 130134378.340 6 101403420.67345  24763749.560    24763749.1984   24763752.5344
        38.300          30.1004
 130518843.732 7                  24836841.365
        46.100
 144656810.520 6                  27527263.666
        37.600
 412998002.839 5                  78590810.929
        32.400
 202131519.328 7                  38464329.946
        44.300
 128965363.062 7 100306449.413 6  24091810.112    24091810.126    24091818.430
        44.900          38.400
 110654722.459 8  86224487.59048  21056890.007    21056889.1584   21056894.9604
        48.300          49.0004
 147231183.967 5                  28017147.892
        34.200
 127100270.962 7                  24186326.081
        45.800
 128065551.455 6                  23982564.847    23982563.828
        37.400
 131225326.776 5 102253589.43244  24971338.995    24971338.6204   24971357.6344
        35.700          28.2004
 131531471.616 7                  25029535.793
        42.500
 124638790.814 6                  23299880.321    23299880.127
        41.100
 150977847.601 5                  28730181.629
        34.300
 137098599.241 7                  26088941.530
        42.300
 128934665.137 5 100282691.425 6  24111371.998    24111372.438    24111383.012
        35.100          41.000
 126782797.954 6                  23784114.529    23784114.417
        40.200
 148553391.141 6                  28268695.028
        37.700
 106207647.001 8  82606107.784 8  19875264.459    19875264.633    19875271.092
        52.200          49.300
 123431879.870 6  96180847.76144  23488243.077    23488241.8084   23488244.5634
        41.400          26.0004
 132801750.426 6 103481949.35444  25271326.843    25271326.6334   25271343.5494
        36.700          27.3004
 127410533.259 8                  24245354.934
        48.100
 106914758.792 8  83156141.878 7  19979514.096    19979514.350    19979520.916
        53.200          47.000
 146494829.143 6                  27877076.369
        38.300
 129956954.052 7 101077705.477 6  24353873.990    24353873.993    24353886.314
        43.300          36.000
 121523616.610 7  94693730.10744  23125180.119    23125179.5524   23125183.1684
        43.300          25.8004
 106177483.567 8  82735863.12446  20204840.668    20204840.2574   20204842.0424
        48.700          41.7004
 116700522.040 7  90935632.21246  22207303.693    22207302.4684   22207303.2944
        46.700          36.7004
 108690687.263 8  84537251.778 7  20347114.932    20347115.128    20347122.336
        51.900          47.500
 116697018.719 7  90932919.98645  22206627.298    22206625.8684   22206628.4634
        45.100          34.7004
 105618635.181 8  82148035.641 8  19785860.699    19785861.021    19785867.373
        51.900          49.200
 25  1  1 22 17  0.0000000  0 37E03E05G17S31S35G07G15E33E25S48S33R03
                                G30E11E31R13G06E12R23E06E10R20R10E26
                                R11G21G03E24R21E09R02G13G14G02R12G19
                                R22
 146075643.784 6                  27797261.772
        38.100
 132012535.120 6                  25121160.046
        41.000
 107600658.702 8  83844853.62048  20475645.953    20475645.3324   20475646.8084
        49.200          50.0004
 198973203.476 7                  37863347.863
        45.300
 200891437.950 7                  38228386.754
        43.500
 121327112.358 7  94540623.52246  23087786.235    23087785.6324   23087793.6964
        42.400          36.4004
 130151106.935 6 101416455.91045  24766932.733    24766932.3764   24766936.1104
        38.700          30.3004
 130528414.426 7                  24838662.689
        46.000
 144624423.342 6                  27521100.548
        38.600
 412998354.237 5                  78590825.060
        32.500
 202131526.831 7                  38464330.966
        44.400
 128977424.757 7 100315830.721 6  24094062.523    24094063.346    24094071.542
        44.700          38.500
 110687585.811 8  86250095.37248  21063144.007    21063143.1534   21063148.6584
        48.400          48.9004
 147182677.616 5                  28007918.095
        33.500
 127114982.573 7                  24189125.525
        45.800
 128009651.303 6                  23972095.307    23972095.245
        37.600
 131166926.920 6 102208083.21744  24960225.731    24960225.3564   24960243.2144
        36.600          27.7004
 131497731.659 7                  25023115.484
        42.500
 124573121.713 6                  23287603.204    23287604.137
        40.800
 151016959.664 5                  28737623.835
        34.100
 137053543.250 7                  26080367.696
        42.500
 128999322.115 5 100332980.323 6  24123462.992    24123463.039    24123474.436
        34.400          41.500
 126834066.302 6                  23793731.423    23793731.151
        39.000
 148591878.276 6                  28276019.298
        37.900
 106227085.764 8  82621226.803 8  19878902.104    19878902.236    19878908.748
        52.200          49.100
 123478740.553 6  96217362.57744  23497160.584    23497159.3104   23497161.9044
        41.200          26.1004
 132761364.309 6 103450479.82944  25263641.989    25263641.7704   25263657.7964
        37.700          27.8004
 127394855.136 8                  24242371.448
        48.000
 106946907.792 8  83181146.667 7  19985521.450    19985521.604    19985529.041
        52.500          47.100
 146536423.749 6                  27884991.821
        37.700
 130000860.199 7 101111854.412 6  24362100.876    24362101.501    24362114.319
        43.000          36.300
 121549835.211 7  94714160.13644  23130168.929    23130168.3664   23130172.3094
        42.900          25.5004
 106170106.040 8  82730114.40246  20203436.901    20203436.4904   20203438.1404
        48.400          41.7004
 116728765.327 7  90957639.97246  22212678.268    22212677.0524   22212677.7684
        46.700          36.7004
 108652933.415 8  84507887.697 7  20340047.256    20340047.505    20340054.763
        51.900          47.800
 116658672.052 7  90903039.53445  22199330.031    22199328.5964   22199331.2674
        45.300          34.7004
 105583431.466 8  82120655.012 8  19779265.934    19779266.210    19779272.741
        52.200          49.200
 25  1  1 22 17 15.0000000  0 37E03E05G17S31S35G07G15E33E25S48S33R03
                                G30E11E31R13G06E12R23E06E10R20R10E26
                                R11G21G03E24R21E09R02G13G14G02R12G19
                                R22
 146069241.841 6                  27796043.611
        38.700
 132037900.627 6                  25125986.906
        41.500
 107591814.883 8  83837962.34648  20473963.016    20473962.3994   20473963.8774
        49.100          50.0004
 198973209.500 7                  37863350.819
        45.400
 200891452.287 7                  38228385.515
        43.500
 121379363.119 6  94581338.28646  23097729.167    23097728.5684   23097736.8764
        41.200          36.4004
 130167952.600 6 101429582.35645  24770138.338    24770137.9814   24770141.6064
        38.900          30.3004
 130538097.406 7                  24840504.843
        46.500
 144592033.146 6                  27514936.028
        38.800
 412998709.139 5                  78590840.889
        32.700
 202131536.015 7                  38464333.457
        44.600
 128989653.164 7 100325341.721 6  24096346.607    24096347.236    24096355.606
        44.000          37.500
 110720569.384 8  86275796.83648  21069420.352    21069419.4984   21069425.2434
        48.400          48.8004
 147134166.821 5                  27998686.465
        33.500
 127129732.467 7                  24191932.269
        46.300
 127953733.945 6                  23961623.930    23961624.172
        38.300
 131108524.323 6 102162574.86444  24949111.454    24949111.0744   24949129.1674
        36.500          28.0004
 131464072.273 7                  25016710.317
        43.000
 124507500.262 6                  23275336.856    23275337.323
        41.900
 151056030.065 5                  28745059.376
        33.000
 137008527.846 7                  26071801.450
        42.500
 129064001.925 5 100383286.952 6  24135558.176    24135558.613    24135569.620
        34.300          41.500
 126885389.521 6                  23803359.776    23803358.890
        38.700
 148630419.896 6                  28283352.886
        37.700
 106246653.452 8  82636446.089 8  19882564.099    19882564.378    19882570.497
        52.700          48.900
 123525681.964 6  96253940.29644  23506093.518    23506092.2404   23506094.5914
        40.800          25.8004
 132720988.057 6 103419017.99144  25255957.866    25255957.6384   25255974.2654
        36.200          27.8004
 127379206.016 8                  24239393.738
        48.400
 106979218.826 8  83206277.458 7  19991559.606    19991559.877    19991566.935
        52.800          47.000
 146578009.584 6                  27892905.692
        38.900
 130044833.256 7 101146055.345 6  24370342.661    24370342.317    24370354.992
        42.500          36.300
 121576163.374 7  94734675.52844  23135179.293    23135178.7264   23135182.6784
        42.800          25.7004
 106162803.162 8  82724423.84646  20202047.291    20202046.8804   20202048.4324
        48.300          41.8004
 116757128.453 7  90979741.10746  22218075.737    22218074.5214   22218075.0794
        46.600          36.6004
 108615251.870 8  84478579.836 7  20332992.619    20332993.087    20333000.568
        51.100          47.700
 116620393.197 7  90873211.91245  22192045.500    22192044.0614   22192046.9004
        44.700          34.7004
 105548396.427 8  82093405.585 8  19772702.615    19772702.905    19772709.199
        51.900          49.100
 25  1  1 22 17 30.0000000  0 37E03E05G17S31S35G07G15E33E25S48S33R03
                                G30E11E31R13G06E12R23E06E10R20R10E26
                                R11G21G03E24R21E09R02G13G14G02R12G19
                                R22
 146062941.862 6                  27794845.491
        38.600
 132063338.017 6                  25130827.550
        40.200
 107583064.993 8  83831144.26948  20472297.903    20472297.2864   20472298.8154
        49.400          50.0004
 198973215.732 7                  37863356.748
        45.500
 200891466.511 7                  38228391.092
        43.800
 121431669.172 7  94622096.13446  23107682.417    23107681.8454   23107690.4674
        42.700          36.3004
 130184912.170 6 101442797.57345  24773365.790    24773365.4424   24773369.0224
        39.300          30.5004
 130547889.657 7                  24842368.554
        46.200
 144559636.992 6                  27508771.513
        39.100
 412999064.563 5                  78590859.988
        32.600
 202131546.498 7                  38464334.203
        44.600
 129002045.086 7 100334979.878 6  24098662.154    24098661.972    24098671.598
        43.600          38.700
 110753669.982 8  86301589.48648  21075719.266    21075718.4034   21075724.1004
        49.100          48.8004
 147085648.742 5                  27989453.484
        33.800
 127144517.729 7                  24194745.976
        46.000
 127897796.755 6                  23951148.479    23951148.564
        37.900
 131050116.322 6 102117062.35144  24937996.047    24937995.6764   24938015.5174
        37.500          29.0004
 131430490.629 7                  25010319.785
        43.200
 124441923.729 6                  23263077.030    23263076.066
        39.600
 151095055.739 5                  28752485.517
        32.000
 136963550.275 7                  26063242.317
        42.700
 129128700.914 5 100433608.492 6  24147657.890    24147657.688    24147668.896
        35.300          41.200
 126936764.848 6                  23812997.338    23812996.775
        38.600
 148669012.827 6                  28290697.286
        38.100
 106266347.013 8  82651763.285 8  19886249.235    19886249.684    19886255.981
        52.500          49.000
 123572700.942 6  96290578.45844  23515040.722    23515039.4444   23515041.8974
        41.400          25.8004
 132680619.025 6 103387561.76244  25248276.897    25248276.6744   25248291.8794
        37.400          26.8004
 127363582.986 8                  24236420.593
        48.500
 107011688.375 8  83231531.553 7  19997627.212    19997627.681    19997634.623
        52.700          47.300
 146619583.483 6                  27900816.666
        38.500
 130088869.163 7 101180305.166 6  24378594.096    24378594.974    24378609.267
        43.400          36.900
 121602597.796 7  94755273.72244  23140209.761    23140209.1894   23140213.3114
        42.500          25.6004
 106155572.104 8  82718789.25946  20200671.370    20200670.9734   20200672.4514
        48.400          41.7004
 116785608.388 7  91001933.26346  22223495.270    22223494.0544   22223494.5964
        47.100          36.5004
 108577639.953 8  84449326.143 7  20325951.723    20325952.428    20325959.685
        51.300          47.800
 116582179.049 7  90843434.71945  22184773.869    22184772.4434   22184774.8794
        44.900          34.7004
 105513527.370 8  82066285.243 8  19766170.418    19766170.831    19766177.232
        52.300          49.400
 25  1  1 22 17 45.0000000  0 37E03E05G17S31S35G07G15E33E25S48S33R03
                                G30E11E31R13G06E12R23E06E10R20R10E26
                                R11G21G03E24R21E09R02G13G14G02R12G19
                                R22
 146056736.215 6                  27793663.858
        38.900
 132088839.305 6                  25135680.634
        40.200
 107574401.253 8  83824393.32548  20470649.116    20470648.4994   20470650.1504
        49.000          50.0004
 198973214.433 7                  37863353.202
        45.000
 200891473.319 7                  38228387.644
        43.200
 121484022.697 7  94662890.97146  23117645.032    23117644.4564   23117653.1124
        42.300          36.2004
 130201977.548 6 101456095.23445  24776613.281    24776612.9284   24776616.9544
        38.400          30.5004
 130557783.342 7                  24844251.074
        46.200
 144527227.171 6                  27502603.972
        38.400
 412997809.730 5                  78590860.855
        32.900
 202131548.921 7                  38464335.997
        44.400
 129014592.992 7 100344739.316 6  24101006.833    24101007.168    24101015.305
        45.100          37.300
 110786879.693 8  86327467.15648  21082038.812    21082037.9364   21082043.7054
        48.500          48.9004
 147037116.064 5                  27980218.078
        34.700
 127159330.685 7                  24197564.621
        46.100
 127841832.431 6                  23940670.334    23940668.615
        38.500
 130991695.554 5 102071539.88844  24926877.918    24926877.5704   24926898.2714
        35.600          28.2004
 131396979.315 7                  25003942.748
        42.900
 124376384.927 6                  23250825.044    23250824.769
        40.100
 151134028.746 5                  28759902.044
        31.800
 136918603.116 7                  26054688.765
        42.500
 129193410.685 5 100483938.438 6  24159759.700    24159757.983    24159768.673
        33.600          40.200
 126988184.214 6                  23822643.940    23822644.452
        39.100
 148707649.112 6                  28298049.760
        38.000
 106286158.700 8  82667172.353 8  19889956.703    19889956.950    19889963.627
        52.100          49.100
 123619789.336 6  96327270.72044  23524001.358    23524000.0804   23524002.5144
        41.700          26.0004
 132640249.976 5 103356105.51644  25240593.677    25240593.4764   25240609.7294
        35.700          26.0004
 127347978.405 8                  24233451.032
        48.400
 107044308.140 8  83256902.479 7  20003722.918    20003723.482    20003730.513
        52.900          47.200
 146661137.447 6                  27908724.254
        37.800
 130132959.974 7 101214597.733 6  24386857.844    24386857.665    24386870.577
        42.500          36.100
 121629130.415 7  94775948.44344  23145258.910    23145258.3384   23145262.2294
        42.900          25.2004
 106148405.268 8  82713204.71046  20199307.585    20199307.2014   20199308.6514
        48.300          41.8004
 116814197.118 7  91024210.19446  22228935.639    22228934.4144   22228934.8574
        47.000          36.6004
 108540090.233 8  84420120.816 7  20318923.085    20318922.724    20318930.120
        51.500          47.600
 116544021.876 7  90813701.91345  22177512.733    22177511.3164   22177513.7914
        44.700          34.6004
 105478816.668 8  82039288.043 8  19759667.866    19759668.336    19759674.523
        52.300          49.400
 25  1  1 22 18  0.0000000  0 37E03E05G17S31S35G07G15E33E25S48S33R03
                                G30E11E31R13G06E12R23E06E10R20R10E26
                                R11G21G03E24R21E09R02G13G14G02R12G19
                                R22
 146050634.402 6                  27792503.158
        39.100
 132114413.841 6                  25140547.488
        40.700
 107565832.886 8  83817716.69548  20469018.501    20469017.8804   20469019.6004
        49.500          50.0004
 198973214.972 7                  37863356.037
        45.400
 200891481.775 7                  38228393.779
        43.800
 121536432.714 7  94703729.83046  23127618.710    23127618.1254   23127626.3784
        42.300          36.2004
 130219158.226 6 101469482.73845  24779882.633    24779882.2854   24779886.1354
        38.100          30.2004
 130567787.938 7                  24846155.214
        46.200
 144494813.262 6                  27496436.111
        37.800
 412998158.104 5                  78590877.105
        32.900
 202131552.757 7                  38464338.326
        44.300
 129027305.798 7 100354627.075 6  24103380.939    24103381.045    24103389.885
        44.200          38.600
 110820207.807 8  86353437.09548  21088381.116    21088380.2404   21088385.8264
        48.400          48.7004
 146988578.375 5                  27970981.135
        34.100
 127174180.926 7                  24200390.666
        46.100
 127785850.317 6                  23930184.498    23930184.042
        37.000
 130933271.824 6 102026015.12244  24915761.764    24915761.4254   24915779.9134
        36.100          28.4004
 131363548.011 7                  24997581.016
        43.000
 124310893.856 6                  23238582.334    23238582.222
        40.800
 151172958.567 5                  28767310.120
        34.100
 136873696.124 7                  26046143.894
        42.200
 129258140.932 5 100534284.328 6  24171863.293    24171863.130    24171874.111
        33.900          40.900
 127039657.076 6                  23832301.896    23832301.185
        40.400
 148746338.083 6                  28305411.872
        37.200
 106306098.311 8  82682680.934 8  19893688.323    19893688.461    19893694.861
        52.000          48.900
 123666956.220 6  96364024.14444  23532977.118    23532975.8354   23532978.0354
        41.300          25.7004
 132599890.866 6 103324656.99644  25232913.674    25232913.4554   25232929.3474
        37.100          26.5004
 127332401.881 8                  24230487.153
        48.300
 107077087.441 8  83282397.486 7  20009848.393    20009849.037    20009855.996
        52.700          47.400
 146702680.775 6                  27916630.438
        38.400
 130177114.742 7 101248940.006 6  24395132.705    24395133.122    24395146.571
        43.400          36.400
 121655770.663 7  94796707.03644  23150328.732    23150328.1564   23150331.6144
        42.400          25.1004
 106141312.324 8  82707677.74446  20197957.745    20197957.3614   20197958.8914
        48.600          41.8004
 116842903.924 7  91046579.13246  22234397.980    22234396.7464   22234397.6114
        46.800          36.4004
 108502612.641 8  84390971.588 7  20311907.036    20311907.106    20311914.279
        51.500          47.600
 116505931.508 7  90784021.17145  22170264.549    22170263.1454   22170265.3314
        45.000          34.6004
 105444274.288 8  82012421.783 8  19753196.345    19753197.209    19753203.669
        52.000          49.500
 25  1  1 22 18 15.0000000  0 37E03E05G17S31S35G07G15E33E25S48S33R03
                                G30E11E31R13G06E12R23E06E10R20R10E26
                                R11G21G03E24R21E09R02G13G14G02R12G19
                                R22
 146044635.038 6                  27791361.294
        39.000
 132140059.971 6                  25145427.698
        40.200
 107557358.415 8  83811113.23148  20467405.881    20467405.2604   20467406.9324
        49.300          50.1004
 198973215.748 7                  37863352.997
        45.500
 200891491.480 7                  38228394.664
        43.900
 121588897.346 6  94744611.24446  23137602.684    23137602.0814   23137610.4734
        41.600          36.2004
 130236452.426 6 101482958.69344  24783174.135    24783173.7914   24783176.6904
        39.100          29.9004
 130577901.913 7                  24848079.589
        46.000
 144462393.840 6                  27490266.790
        38.100
 412998503.975 5                  78590889.608
        32.900
 202131557.376 7                  38464338.237
        44.700
 129040182.314 7 100364642.146 6  24105786.927    24105787.654    24105795.068
        45.900          38.000
 110853652.673 8  86379498.00348  21094745.716    21094744.8454   21094750.1654
        48.200          48.7004
 146940034.524 5                  27961743.343
        33.900
 127189067.051 7                  24203223.475
        46.100
 127729849.580 6                  23919697.193    23919697.183
        38.900
 130874844.075 6 101980487.24744  24904643.242    24904642.9214   24904661.1384
        36.800          28.7004
 131330195.470 7                  24991234.054
        43.000
 124245449.430 6                  23226348.648    23226347.760
        40.300
 151211843.312 5                  28774709.814
        34.500
 136828828.073 7                  26037604.925
        42.700
 129322889.286 5 100584644.200 6  24183972.392    24183971.479    24183983.131
        35.000          41.900
 127091181.684 6                  23841966.230    23841966.356
        39.900
 148785078.129 6                  28312783.441
        36.200
 106326164.363 8  82698287.828 8  19897443.015    19897443.497    19897449.986
        51.800          48.800
 123714199.939 6  96400837.43644  23541967.243    23541965.9564   23541968.1924
        40.700          25.7004
 132559540.624 5 103293215.38644  25225235.271    25225235.0574   25225250.9274
        35.400          26.2004
 127316852.063 8                  24227528.106
        48.200
 107110024.361 8  83308015.081 7  20016003.485    20016003.953    20016011.198
        52.300          47.200
 146744211.777 6                  27924533.288
        37.400
 130221331.446 7 101283330.466 6  24403419.371    24403419.410    24403433.060
        42.600          36.400
 121682516.571 7  94817547.94444  23155418.119    23155417.5344   23155421.1034
        42.100          25.1004
 106134291.935 8  82702207.30846  20196621.633    20196621.2534   20196622.9404
        48.300          41.8004
 116871727.099 7  91069038.75246  22239883.176    22239881.9514   22239882.5124
        46.600          36.4004
 108465206.130 8  84361877.642 7  20304903.977    20304904.411    20304911.762
        51.500          47.700
 116467906.525 7  90754391.36845  22163028.199    22163026.7734   22163029.3034
        45.100          34.7004
 105409899.039 8  81985685.506 8  19746757.104    19746757.349    19746764.059
        51.800          49.600
 25  1  1 22 18 30.0000000  0 37E03E05G17S31S35G07G15E33E25S48S33R03
                                G30E11E31R13G06E12R23E06E10R20R10E26
                                R11G21G03E24R21E09R02G13G14G02R12G19
                                R22
 146038740.037 6                  27790239.516
        38.500
 132165779.371 6                  25150321.851
        40.200
 107548979.701 8  83804584.38048  20465811.578    20465810.9574   20465812.4674
        49.300          50.0004
 198973219.399 7                  37863353.126
        45.500
 200891503.056 7                  38228394.034
        43.700
 121641418.204 6  94785536.47146  23147597.191    23147596.5884   23147604.8854
        41.500          36.1004
 130253861.625 6 101496524.26444  24786485.725    24786485.3954   24786489.3894
        38.900          29.8004
 130588127.087 7                  24850025.421
        45.700
 144429970.779 6                  27484096.386
        37.900
 412998850.892 5                  78590891.714
        32.500
 202131564.497 7                  38464338.027
        44.200
 129053223.941 7 100374785.633 6  24108223.596    24108223.575    24108231.024
        45.000          37.100
 110887215.942 8  86405651.17148  21101132.592    21101131.7164   21101137.0694
        48.300          48.7004
 146891486.619 5                  27952504.622
        33.900
 127203991.026 7                  24206063.162
        45.800
 127673832.102 6                  23909207.689    23909207.311
        37.500
 130816414.492 6 101934957.95644  24893523.698    24893523.3594   24893541.9124
        37.000          28.4004
 131296923.853 7                  24984902.386
        42.500
 124180053.943 6                  23214122.870    23214123.023
        41.800
 151250684.879 5                  28782100.902
        33.100
 136784001.122 6                  26029075.101
        41.800
 129387657.799 5 100635019.863 6  24196083.224    24196082.793    24196093.939
        34.100          40.400
 127142759.867 6                  23851641.901    23851642.639
        39.700
 148823870.888 6                  28320165.563
        37.000
 106346358.899 8  82713994.658 8  19901222.580    19901222.617    19901229.232
        52.200          48.800
 123761521.994 6  96437711.76944  23550972.497    23550971.2284   23550973.2404
        41.300          25.8004
 132519201.505 5 103261782.41544  25217559.175    25217558.9654   25217574.9264
        35.800          26.3004
 127301330.884 7                  24224574.314
        47.900
 107143120.287 8  83333756.348 7  20022188.602    20022188.811    20022195.949
        52.600          47.500
 146785732.156 6                  27932434.921
        37.700
 130265611.464 7 101317770.217 6  24411717.889    24411717.423    24411731.407
        43.400          36.900
 121709369.688 7  94838472.40544  23160528.389    23160527.7994   23160530.9514
        42.100          24.9004
 106127346.149 8  82696795.00646  20195300.122    20195299.7424   20195301.2094
        48.600          41.8004
 116900668.400 7  91091590.41646  22245390.259    22245389.0344   22245389.7534
        47.000          36.3004
 108427872.965 8  84332840.740 7  20297915.589    20297915.663    20297922.867
        52.000          47.400
 116429948.788 7  90724813.96645  22155804.944    22155803.5144   22155806.1744
        44.900          34.6004
 105375693.089 8  81959080.918 8  19740349.417    19740349.715    19740355.897
        52.200          49.500
 25  1  1 22 18 45.0000000  0 37E03E05G17S31S35G07G15E33E25S48S33R03
                                G30E11E31R13G06E12R23E06E10R20R10E26
                                R11G21G03E24R21E09R02G13G14G02R12G19
                                R22
 146032946.018 6                  27789136.751
        38.000
 132191568.442 6                  25155229.477
        40.200
 107540693.305 8  83798127.46748  20464234.594    20464233.9824   20464235.5814
        49.300          50.2004
 198973221.729 7                  37863354.745
        45.300
 200891513.717 7                  38228396.373
        43.700
 121693991.756 6  94826502.76446  23157601.126    23157600.5184   23157609.3364
        41.300          36.2004
 130271382.247 6 101510176.64844  24789820.957    24789820.6274   24789823.5964
        38.600          29.7004
 130598459.996 7                  24851991.731
        45.500
 144397540.759 6                  27477926.294
        37.700
 412999196.724 5                  78590907.011
        32.900
 202131570.508 7                  38464339.820
        44.500
 129066427.156 7 100385054.807 6  24110689.364    24110690.417    24110698.595
        45.400          37.800
 110920894.002 8  86431893.78748  21107541.352    21107540.4894   21107545.8394
        48.000          48.7004
 146842931.424 5                  27943265.076
        34.000
 127218949.509 7                  24208909.781
        45.500
 127617795.082 6                  23898712.204    23898712.887
        38.300
 130757979.980 6 101889424.81744  24882403.688    24882403.3494   24882422.0784
        36.600          28.6004
 131263729.977 7                  24978586.042
        42.900
 124114704.381 6                  23201906.432    23201906.698
        41.500
 151289479.670 5                  28789483.807
        33.400
 136739212.115 7                  26020551.847
        42.200
 129452442.193 5 100685407.936 6  24208197.920    24208199.084    24208209.470
        34.500          40.800
 127194388.092 6                  23861327.463    23861327.006
        39.100
 148862712.770 6                  28327557.113
        37.600
 106366678.396 8  82729798.695 8  19905024.739    19905025.200    19905031.730
        52.000          48.600
 123808918.541 6  96474644.16344  23559991.756    23559990.4874   23559992.3914
        41.200          25.8004
 132478870.557 6 103230355.80144  25209884.669    25209884.4644   25209899.9144
        37.000          27.6004
 127285835.042 7                  24221625.739
        47.800
 107176371.424 8  83359618.343 7  20028402.159    20028402.550    20028409.832
        52.700          47.500
 146827238.245 6                  27940332.900
        38.000
 130309950.832 7 101352256.049 6  24420026.965    24420027.007    24420040.380
        42.900          36.100
 121736326.358 6  94859477.54344  23165658.033    23165657.4394   23165660.7564
        41.800          25.0004
 106120471.694 8  82691438.28447  20193991.788    20193991.4084   20193993.0504
        48.700          42.0004
 116929724.003 7  91114231.14946  22250919.536    22250918.3114   22250918.8344
        46.500          36.5004
 108390610.160 8  84303858.578 7  20290939.728    20290939.641    20290947.171
        51.400          47.600
 116392055.049 7  90695286.42945  22148593.772    22148592.3424   22148595.1694
        45.100          34.8004
 105341653.250 8  81932605.523 8  19733972.379    19733972.877    19733979.269
        52.200          49.300
 25  1  1 22 19  0.0000000  0 37E03E05G17S31S35G07G15E33E25S48S33R03
                                G30E11E31R13G06E12R23E06E10R20R10E26
                                R11G21G03E24R21E09R02G13G14G02R12G19
                                R22
 146027255.308 6                  27788053.842
        38.000
 132217429.255 6                  25160150.431
        40.300
 107532501.416 8  83791744.19548  20462675.919    20462675.3074   20462676.6844
        49.300          50.2004
 198973225.373 7                  37863357.294
        45.600
 200891525.729 7                  38228402.584
        43.600
 121746619.928 7  94867511.60946  23167615.974    23167615.3404   23167624.4564
        42.000          36.2004
 130289016.437 6 101523917.53444  24793176.085    24793175.7504   24793179.5804
        38.300          29.8004
 130608902.867 7                  24853979.088
        45.600
 144365106.078 6                  27471753.045
        38.200
 412999543.602 5                  78590914.246
        32.800
 202131577.311 7                  38464345.758
        44.900
 129079793.768 7 100395451.045 6  24113186.089    24113186.804    24113195.272
        45.100          37.300
 110954688.983 8  86458227.50948  21113972.117    21113971.2544   21113976.8194
        48.200          48.5004
 146794371.555 5                  27934024.294
        33.800
 127233944.867 7                  24211763.256
        45.700
 127561740.725 6                  23888217.060    23888215.512
        36.800
 130699543.195 6 101843889.91544  24871284.371    24871284.0454   24871301.5374
        36.300          28.4004
 131230616.356 7                  24972284.568
        42.700
 124049403.522 6                  23189698.324    23189697.813
        41.100
 151328229.804 5                  28796857.856
        34.000
 136694463.611 7                  26012036.397
        42.300
 129517244.423 5 100735809.886 6  24220316.215    24220316.819    24220326.802
        34.900          40.700
 127246068.652 6                  23871024.027    23871022.405
        39.200
 148901605.948 6                  28334958.512
        37.700
 106387125.380 8  82745701.876 8  19908851.794    19908851.787    19908858.008
        52.500          48.500
 123856391.566 6  96511636.13844  23569025.217    23569023.9434   23569026.1504
        40.800          25.4004
 132438550.442 6 103198937.63344  25202211.358    25202211.1354   25202226.9584
        36.300          27.3004
 127270366.919 8                  24218681.866
        48.100
 107209779.606 8  83385602.480 7  20034645.590    20034645.575    20034652.776
        52.500          47.300
 146868732.182 6                  27948229.545
        37.800
 130354351.287 7 101386789.409 5  24428347.675    24428347.673    24428360.817
        43.100          35.500
 121763388.501 7  94880564.88144  23170807.266    23170806.6674   23170810.8854
        43.200          25.0004
 106113671.025 8  82686139.05447  20192697.716    20192697.3274   20192698.9354
        48.800          42.0004
 116958896.012 7  91136962.58746  22256470.648    22256469.4144   22256470.1214
        47.200          36.3004
 108353420.328 8  84274933.162 7  20283977.778    20283977.969    20283985.011
        51.900          47.300
 116354227.840 7  90665810.73745  22141395.843    22141394.4134   22141396.7374
        45.400          34.7004
 105307782.173 8  81906261.397 8  19727627.136    19727627.649    19727633.737
        52.200          49.500
 25  1  1 22 19 15.0000000  0 37E03E05G17S31S35G07G15E33E25S48S33R03
                                G30E11E31R13G06E12R23E06E10R20R10E26
                                R11G21G03E24R21E09R02G13G14G02R12G19
                                R22
 146021666.607 6                  27786990.027
        38.400
 132243360.317 6                  25165084.865
        40.500
 107524402.600 8  83785433.44348  20461134.735    20461134.1234   20461135.4994
        49.100          50.2004
 198973229.078 7                  37863357.245
        45.400
 200891537.648 7                  38228401.859
        43.400
 121799301.074 7  94908561.73146  23177641.120    23177640.4864   23177649.4224
        42.200          36.2004
 130306762.549 6 101537745.63044  24796553.221    24796552.8864   24796556.7334
        38.800          29.4004
 130619454.273 7                  24855986.620
        46.200
 144332665.465 6                  27465580.563
        38.400
 412998290.766 5                  78590926.740
        33.200
 202131584.247 7                  38464347.225
        44.800
 129093322.505 7 100405973.418 6  24115713.322    24115714.017    24115721.833
        45.000          36.800
 110988599.311 8  86484651.11248  21120425.120    21120424.2574   21120429.7734
        48.000          48.5004
 146745805.869 5                  27924782.301
        34.200
 127248975.841 7                  24214623.596
        45.900
 127505668.064 6                  23877714.250    23877714.407
        37.500
 130641103.173 6 101798352.47844  24860163.403    24860163.0904   24860180.1834
        36.200          28.5004
 131197581.843 7                  24965998.353
        42.900
 123984150.385 7                  23177500.480    23177500.350
        42.300
 151366933.828 5                  28804222.650
        32.200
 136649754.528 7                  26003528.685
        42.900
 129582062.761 5 100786224.351 6  24232438.274    24232437.313    24232448.481
        34.500          40.300
 127297800.124 6                  23880728.022    23880728.106
        39.700
 148940548.853 6                  28342368.806
        37.500
 106407698.602 8  82761703.256 8  19912700.894    19912701.469    19912708.169
        52.000          48.600
 123903939.457 6  96548686.46144  23578073.632    23578072.3494   23578074.2684
        41.300          25.7004
 132398240.269 6 103167527.21344  25194539.881    25194539.6674   25194556.1534
        37.300          27.7004
 127254925.254 8                  24215743.687
        48.200
 107243343.288 8  83411707.568 7  20040917.908    20040917.925    20040925.081
        52.800          47.400
 146910212.339 6                  27956122.617
        37.900
 130398811.058 7 101421368.920 6  24436679.146    24436679.692    24436693.923
        43.100          36.400
 121790554.580 7  94901733.20744  23175976.704    23175976.1104   23175980.3494
        42.700          24.7004
 106106942.922 8  82680896.37146  20191417.368    20191416.9794   20191418.6344
        48.300          41.9004
 116988182.962 7  91159783.58946  22262043.784    22262042.5554   22262043.1984
        46.800          36.3004
 108316302.493 8  84246063.765 7  20277029.162    20277029.340    20277036.566
        51.100          47.300
 116316465.897 7  90636385.90445  22134209.778    22134208.3254   22134210.8804
        45.300          34.7004
 105274078.774 8  81880047.684 8  19721313.390    19721313.803    19721320.061
        51.700          49.400
 25  1  1 22 19 30.0000000  0 37E03E05G17S31S35G07G15E33E25S48S33R03
                                G30E11E31R13G06E12R23E06E10R20R10E26
                                R11G21G03E24R21E09R02G13G14G02R12G19
                                R22
 146016178.384 6                  27785945.924
        38.500
 132269359.807 6                  25170032.775
        40.300
 107516395.212 8  83779193.93748  20459611.122    20459610.5104   20459611.7354
        49.100          50.2004
 198973231.041 7                  37863352.827
        45.200
 200891547.875 7                  38228401.112
        43.200
 121852033.340 6  94949651.69946  23187675.510    23187674.8934   23187684.0204
        41.300          36.0004
 130324618.763 6 101551659.52544  24799951.156    24799950.8124   24799954.6884
        38.900          29.7004
 130630112.586 7                  24858014.881
        45.800
 144300217.360 6                  27459405.509
        38.600
 412998635.643 5                  78590934.185
        33.100
 202131589.620 7                  38464343.858
        44.400
 129107011.469 7 100416620.412 6  24118271.189    24118271.405    24118279.538
        45.200          37.200
 111022623.187 8  86511163.19348  21126899.553    21126898.6954   21126904.2894
        48.000          48.4004
 146697233.064 5                  27915539.106
        35.000
 127264040.901 7                  24217490.409
        45.600
 127449575.668 6                  23867211.519    23867210.664
        38.600
 130582658.642 6 101752811.54544  24849040.782    24849040.4744   24849058.9804
        36.400          28.4004
 131164625.030 7                  24959727.193
        43.000
 123918944.064 7                  23165309.176    23165309.964
        42.500
 151405590.059 5                  28811578.762
        30.900
 136605083.561 7                  25995027.329
        42.300
 129646895.161 5 100836649.755 6  24244561.406    24244561.379    24244572.257
        34.400          41.400
 127349580.508 6                  23890441.917    23890441.079
        38.800
 148979539.628 6                  28349788.148
        36.200
 106428396.416 8  82777801.529 8  19916574.684    19916574.838    19916581.462
        52.100          48.700
 123951560.238 6  96585793.56744  23587135.415    23587134.1374   23587136.4234
        40.500          25.4004
 132357938.872 6 103136123.59444  25186871.278    25186871.0684   25186887.4014
        36.300          27.6004
 127239508.563 8                  24212810.042
        48.100
 107277060.166 8  83437931.802 7  20047218.002    20047218.696    20047226.017
        52.500          47.700
 146951676.920 6                  27964013.520
        38.000
 130443328.060 7 101455992.960 6  24445022.620    24445022.819    24445036.710
        43.900          36.500
 121817822.708 7  94922981.04144  23181165.888    23181165.2944   23181169.3234
        42.600          24.7004
 106100285.991 8  82675709.15047  20190150.709    20190150.3254   20190151.8594
        48.600          42.0004
 117017582.920 7  91182692.65446  22267638.722    22267637.4934   22267637.7574
        46.400          36.2004
 108279255.419 8  84217249.387 7  20270093.962    20270093.733    20270101.182
        51.200          47.600
 116278767.696 7  90607010.74245  22127035.936    22127034.4654   22127037.0074
        45.000          34.7004
 105240541.715 8  81853963.354 8  19715030.703    19715030.981    19715037.646
        51.700          49.600
 25  1  1 22 19 45.0000000  0 37E03E05G17S31S35G07G15E33E25S48S33R03
                                G30E11E31R13G06E12R23E06E10R20R10E26
                                R11G21G03E24R21E09R02G13G14G02R12G19
                                R22
 146010792.456 6                  27784921.161
        38.500
 132295429.328 6                  25174993.527
        39.700
 107508480.994 8  83773027.03548  20458105.048    20458104.4364   20458105.6894
        49.100          50.0004
 198973233.243 7                  37863355.666
        45.100
 200891559.082 7                  38228403.992
        43.500
 121904818.320 6  94990782.73845  23197720.197    23197719.5804   23197728.7834
        41.600          35.8004
 130342586.613 6 101565660.41244  24803370.432    24803370.1064   24803373.6504
        38.100          29.5004
 130640879.526 7                  24860063.818
        45.900
 144267763.591 6                  27453229.066
        37.700
 412998980.533 5                  78590953.087
        32.600
 202131594.839 7                  38464347.565
        44.600
 129120862.116 7 100427393.111 6  24120858.191    24120859.326    24120866.202
        46.100          36.900
 111056762.209 8  86537764.99748  21133396.237    21133395.3834   21133400.7074
        48.000          48.1004
 146648655.070 5                  27906294.490
        34.000
 127279141.919 7                  24220364.175
        45.900
 127393465.592 6                  23856704.203    23856703.469
        38.100
 130524211.773 6 101707268.79244  24837918.127    24837917.8234   24837936.7764
        36.100          29.0004
 131131748.013 7                  24953470.209
        42.900
 123853786.666 6                  23153129.838    23153129.229
        41.500
 151444200.032 5                  28818926.291
        32.200
 136560452.728 7                  25986534.643
        42.700
 129711742.687 5 100887086.938 6  24256687.606    24256688.147    24256698.891
        34.900          41.300
 127401411.295 6                  23900164.841    23900164.810
        39.800
 149018579.821 6                  28357217.328
        37.700
 106449220.710 8  82793998.172 8  19920471.517    19920471.870    19920478.405
        51.800          48.800
 123999255.439 6  96622958.66544  23596211.781    23596210.5124   23596212.4754
        40.900          25.1004
 132317648.355 6 103104728.44444  25179204.642    25179204.4414   25179220.2724
        36.900          28.1004
 127224118.730 8                  24209881.350
        48.300
 107310931.836 8  83464276.424 7  20053548.151    20053548.291    20053555.577
        52.100          47.500
 146993127.556 6                  27971900.963
        37.400
 130487903.451 7 101490662.396 5  24453376.227    24453376.226    24453390.237
        42.600          35.100
 121845194.361 6  94944309.55144  23186374.722    23186374.1194   23186378.3614
        41.800          24.6004
 106093702.125 8  82670578.86446  20188897.705    20188897.3124   20188898.9914
        48.500          41.8004
 117047097.437 7  91205690.99446  22273254.837    22273253.5994   22273254.1824
        46.600          36.0004
 108242281.365 8  84188491.808 7  20263172.391    20263172.032    20263179.603
        51.600          47.500
 116241135.135 7  90577686.72745  22119874.279    22119872.8044   22119875.8024
        44.800          34.5004
 105207173.091 8  81828010.018 8  19708779.408    19708779.773    19708786.242
        51.600          49.400
 25  1  1 22 20  0.0000000  0 37E03E05G17S31S35G07G15E33E25S48S33R03
                                G30E11E31R13G06E12R23E06E10R20R10E26
                                R11G21G03E24R21E09R02G13G14G02R12G19
                                R22
 146005503.327 6                  27783914.159
        38.600
 132321563.176 6                  25179966.849
        40.400
 107500654.356 8  83766928.37448  20456615.674    20456615.0624   20456616.2894
        49.300          49.9004
 198973230.812 7                  37863356.475
        45.500
 200891564.461 7                  38228404.650
        43.400
 121957650.211 6  95031950.32545  23207774.025    23207773.3954   23207782.8774
        41.600          35.9004
 130360660.390 6 101579743.83044  24806809.932    24806809.6024   24806813.0434
        36.900          28.8004
 130651749.487 7                  24862132.013
        46.100
 144235298.652 6                  27447051.675
        37.400
 412999321.309 5                  78590958.305
        32.600
 202131595.263 7                  38464345.628
        44.500
 129134868.745 7 100438287.184 6  24123475.526    24123475.627    24123483.832
        45.600          36.900
 111091010.628 7  86564452.05447  21139913.325    21139912.4674   21139917.9674
        47.900          47.9004
 146600066.790 5                  27897049.270
        34.100
 127294273.438 7                  24223243.441
        46.300
 127337332.496 6                  23846189.837    23846190.693
        37.500
 130465757.341 6 101661720.14544  24826794.876    24826794.5864   24826812.7924
        36.000          28.7004
 131098945.486 7                  24947228.304
        42.900
 123788672.742 7                  23140957.285    23140957.633
        43.500
 151482758.144 5                  28826263.883
        32.500
 136515856.790 7                  25978047.953
        42.700
 129776599.905 5 100937531.666 6  24268817.048    24268816.913    24268827.139
        34.900          40.400
 127453287.092 6                  23909896.751    23909896.648
        38.600
 149057663.764 6                  28364654.363
        37.400
 106470165.998 8  82810288.941 8  19924390.992    19924391.431    19924398.099
        52.100          48.800
 124047019.180 6  96660177.15944  23605300.270    23605298.9874   23605301.7994
        40.400          25.1004
 132277363.747 6 103073337.89344  25171538.173    25171537.9814   25171554.1544
        36.800          26.7004
 127208750.332 8                  24206956.792
        48.500
 107344952.213 8  83490736.717 7  20059905.935    20059906.022    20059913.173
        53.100          47.600
 147034558.470 6                  27979785.781
        37.600
 130532531.206 7 101525372.527 5  24461739.258    24461738.915    24461753.124
        43.000          35.600
 121872663.531 7  94965714.04444  23191602.266    23191601.6634   23191605.6344
        42.200          24.3004
 106087185.960 8  82665501.33346  20187657.565    20187657.1684   20187659.0054
        48.400          41.6004
 117076720.761 7  91228774.11845  22278891.837    22278890.6034   22278891.3244
        46.700          35.9004
 108205375.151 8  84159787.002 7  20256262.782    20256263.197    20256270.785
        51.400          47.700
 116203562.868 7  90548409.70245  22112724.983    22112723.5214   22112725.8744
        44.600          34.3004
 105173967.577 8  81802183.537 8  19702559.146    19702559.617    19702565.808
        51.800          49.400
 25  1  1 22 20 15.0000000  0 37E03E05G17S31S35G07G15E33E25S48S33R03
                                G30E11E31R13G06E12R23E06E10R20R10E26
                                R11G21G03E24R21E09R02G13G14G02R12G19
                                R22
 146000321.371 6                  27782928.405
        38.400
 132347771.490 6                  25184954.309
        40.000
 107492925.486 8  83760905.89048  20455144.901    20455144.2934   20455145.5284
        49.000          50.3004
 198973232.414 7                  37863353.797
        45.200
 200891575.349 7                  38228408.441
        43.600
 122010539.075 6  95073162.30245  23217838.888    23217838.2624   23217847.2834
        40.500          35.7004
 130378850.148 6 101593917.61444  24810271.229    24810270.8944   24810274.7284
        38.500          29.9004
 130662732.775 7                  24864222.398
        46.000
 144202832.964 6                  27440874.063
        38.700
 412999665.555 5                  78590967.539
        32.300
 202131600.572 7                  38464345.190
        44.400
 129149041.618 7 100449310.516 6  24126121.858    24126122.010    24126130.858
        44.200          37.400
 111125378.616 8  86591232.27448  21146453.372    21146452.5144   21146458.0244
        48.000          48.4004
 146551478.681 5                  27887803.239
        34.700
 127309445.894 7                  24226130.832
        46.100
 127281187.134 6                  23835678.132    23835677.470
        38.700
 130407306.066 6 101616173.96544  24815672.294    24815671.9814   24815689.7524
        36.800          29.2004
 131066227.999 7                  24941002.628
        42.900
 123723613.453 7                  23128794.070    23128795.262
        42.400
 151521274.683 5                  28833593.389
        33.000
 136471306.350 7                  25969570.307
        42.500
 129841477.261 5 100987992.053 6  24280948.500    24280949.306    24280959.290
        35.300          41.200
 127505217.998 6                  23919639.515    23919638.829
        39.100
 149096801.596 6                  28372102.188
        38.100
 106491242.837 8  82826682.018 8  19928335.240    19928335.657    19928342.451
        51.900          48.800
 124094861.581 6  96697456.96544  23614404.865    23614403.5964   23614405.7414
        40.400          25.4004
 132237095.771 6 103041960.30744  25163875.517    25163875.3254   25163890.8354
        37.300          27.3004
 127193413.801 8                  24204038.540
        48.500
 107379131.234 8  83517320.390 7  20066292.955    20066293.006    20066300.439
        52.600          47.700
 147075979.811 6                  27987667.682
        37.800
 130577221.150 7 101560131.026 5  24470113.708    24470113.826    24470128.638
        42.200          35.900
 121900240.331 6  94987202.41644  23196850.028    23196849.4344   23196853.1284
        41.500          24.6004
 106080748.005 8  82660484.73847  20186432.734    20186432.3454   20186433.9064
        48.500          42.0004
 117106462.905 7  91251949.82546  22284551.651    22284550.4224   22284551.0304
        46.200          36.3004
 108168547.513 8  84131143.288 7  20249368.785    20249369.001    20249376.209
        51.600          47.100
 116166061.302 7  90519187.77445  22105588.695    22105587.2384   22105589.4954
        44.500          34.8004
 105140935.876 8  81776492.254 8  19696371.000    19696371.316    19696377.794
        51.900          49.300
 25  1  1 22 20 30.0000000  0 37E03E05G17S31S35G07G15E33E25S48S33R03
                                G30E11E31R13G06E12R23E06E10R20R10E26
                                R11G21G03E24R21E09R02G13G14G02R12G19
                                R22
 145995240.584 6                  27781961.448
        37.900
 132374047.973 6                  25189954.512
        40.100
 107485288.105 8  83754954.69748  20453691.413    20453690.8054   20453692.1524
        49.200          50.2004
 198973234.047 7                  37863357.674
        45.200
 200891584.877 7                  38228411.209
        43.400
 122063478.423 6  95114413.63045  23227913.203    23227912.5914   23227920.9734
        41.000          35.6004
 130397149.494 6 101608176.81044  24813753.171    24813752.8584   24813757.0714
        38.000          29.5004
 130673823.177 7                  24866332.706
        45.900
 144170360.438 6                  27434694.097
        38.400
 412998407.947 5                  78590975.029
        32.300
 202131605.146 7                  38464347.220
        44.400
 129163374.383 7 100460458.215 6  24128799.897    24128800.637    24128808.582
        45.300          37.100
 111159859.806 7  86618100.70448  21153014.948    21153014.0854   21153019.6474
        47.900          48.1004
 146502884.872 5                  27878555.408
        35.200
 127324653.235 7                  24229024.586
        46.100
 127225023.364 6                  23825159.398    23825159.096
        37.900
 130348852.126 6 101570625.66844  24804548.776    24804548.4464   24804565.7194
        37.200          28.6004
 131033589.660 7                  24934791.565
        42.600
 123658603.195 7                  23116641.741    23116641.356
        42.700
 151559743.183 5                  28840913.121
        31.200
 136426795.567 7                  25961100.133
        42.900
 129906367.132 5 101038462.163 6  24293085.600    24293084.038    24293094.214
        35.000          41.000
 127557198.063 6                  23929390.177    23929390.624
        39.400
 149135987.050 6                  28379558.842
        37.800
 106512445.116 8  82843172.653 8  19932302.946    19932303.095    19932310.027
        51.500          48.800
 124142776.089 6  96734792.95544  23623522.589    23623521.3204   23623523.7374
        40.500          25.1004
 132196838.794 6 103010591.27044  25156214.985    25156214.7844   25156229.8274
        36.300          27.3004
 127178103.103 8                  24201124.965
        48.200
 107413462.571 8  83544022.562 7  20072708.317    20072708.559    20072716.014
        52.100          47.600
 147117385.201 6                  27995546.741
        38.200
 130621967.023 7 101594933.061 5  24478500.001    24478500.332    24478514.751
        43.500          35.700
 121927918.322 6  95008769.62144  23202116.815    23202116.2254   23202120.1894
        41.800          24.4004
 106074382.269 8  82655524.41646  20185221.187    20185220.7944   20185222.5484
        48.500          41.9004
 117136317.599 7  91275213.23946  22290232.961    22290231.7324   22290232.2134
        46.100          36.1004
 108131792.827 8  84102556.333 7  20242488.173    20242488.435    20242495.893
        51.200          47.500
 116128624.453 7  90490016.27245  22098464.325    22098462.8724   22098465.4764
        44.500          34.7004
 105108072.147 8  81750931.613 8  19690214.564    19690214.938    19690221.282
        52.000          49.600
 25  1  1 22 20 45.0000000  0 37E03E05G17S31S35G07G15E33E25S48S33R03
                                G30E11E31R13G06E12R23E06E10R20R10E26
                                R11G21G03E24R21E09R02G13G14G02R12G19
                                R22
 145990265.679 6                  27781014.886
        37.100
 132400397.149 6                  25194968.709
        39.500
 107477746.993 8  83749078.52348  20452256.465    20452255.8534   20452257.1064
        49.200          50.3004
 198973239.127 7                  37863356.788
        44.900
 200891598.678 7                  38228416.821
        43.300
 122116472.793 6  95155707.82245  23237997.534    23237996.9004   23238005.9484
        41.500          35.7004
 130415562.931 6 101622524.91444  24817257.973    24817257.6694   24817261.1284
        38.600          29.6004
 130685025.394 7                  24868464.469
        45.800
 144137885.911 6                  27428514.697
        37.300
 412998753.226 5                  78590993.488
        32.500
 202131612.911 7                  38464351.196
        44.400
 129177871.464 7 100471733.736 6  24131509.022    24131508.862    24131515.962
        45.300          36.100
 111194458.743 7  86645060.88848  21159598.941    21159598.0744   21159603.6244
        47.600          48.0004
 146454290.389 5                  27869308.081
        34.400
 127339900.275 7                  24231926.125
        45.700
 127168846.632 6                  23814640.037    23814639.054
        38.000
 130290400.712 6 101525079.32344  24793424.868    24793424.5114   24793442.1824
        37.300          28.7004
 131001035.444 7                  24928596.539
        42.800
 123593646.960 7                  23104498.046    23104498.567
        43.100
 151598168.265 5                  28848226.059
        33.000
 136382329.415 7                  25952638.349
        42.400
 129971274.663 5 101088946.009 6  24305221.507    24305220.254    24305231.678
        34.800          41.300
 127609231.998 6                  23939152.175    23939151.568
        39.500
 149175224.637 6                  28387025.114
        37.200
 106533777.778 8  82859764.705 8  19936295.516    19936295.378    19936302.131
        51.800          48.600
 124190767.138 6  96772188.58544  23632655.077    23632653.7994   23632656.1504
        40.400          25.3004
 132156597.911 6 102979234.82944  25148557.475    25148557.2744   25148572.6794
        37.700          28.0004
 127162823.117 8                  24198217.379
        48.100
 107447950.290 8  83570846.349 7  20079153.388    20079153.544    20079161.036
        52.500          47.700
 147158779.252 6                  28003424.439
        37.300
 130666772.817 7 101629781.685 5  24486897.075    24486897.377    24486911.626
        42.500          35.200
 121955701.970 6  95030419.15844  23207403.677    23207403.0834   23207407.3424
        41.500          24.6004
 106068093.686 8  82650624.21247  20184024.795    20184024.3984   20184025.8664
        48.400          42.0004
 117166289.438 7  91298567.93646  22295936.469    22295935.2584   22295935.6874
        46.000          36.2004
 108095116.119 8  84074030.015 7  20235622.246    20235622.433    20235629.820
        51.600          47.400
 116091257.136 7  90460898.96045  22091353.402    22091351.9724   22091354.6354
        44.500          34.8004
 105075381.435 8  81725505.519 8  19684090.382    19684090.841    19684097.131
        51.900          49.300
 25  1  1 22 21  0.0000000  0 37E03E05G17S31S35G07G15E33E25S48S33R03
                                G30E11E31R13G06E12R23E06E10R20R10E26
                                R11G21G03E24R21E09R02G13G14G02R12G19
                                R22
 145985386.840 6                  27780087.023
        36.800
 132426808.989 6                  25199994.273
        40.200
 107470292.343 8  83743269.71848  20450837.983    20450837.3664   20450838.5194
        49.300          50.4004
 198973237.916 7                  37863353.225
        45.300
 200891606.268 7                  38228416.347
        43.700
 122169512.003 6  95197036.96645  23248090.631    23248089.9974   23248098.9914
        40.500          35.7004
 130434080.424 6 101636954.09444  24820780.626    24820780.3314   24820784.5394
        39.100          29.3004
 130696329.477 7                  24870615.352
        45.900
 144105399.515 6                  27422332.817
        38.000
 412999091.328 5                  78590998.921
        33.000
 202131614.758 7                  38464351.665
        44.500
 129192522.789 7 100483129.215 6  24134244.574    24134245.208    24134253.968
        44.800          37.400
 111229165.410 8  86672105.01348  21166203.447    21166202.5844   21166208.0724
        48.000          48.0004
 146405685.687 5                  27860059.071
        33.800
 127355177.248 7                  24234833.265
        45.800
 127112646.815 6                  23804115.588    23804114.625
        37.600
 130231942.265 6 101479527.51944  24782300.513    24782300.1334   24782318.3814
        36.800          29.6004
 130968555.740 7                  24922415.840
        42.500
 123528735.286 7                  23092364.813    23092363.728
        42.300
 151636539.998 5                  28855528.036
        33.600
 136337898.331 7                  25944183.302
        42.800
 130036189.354 5 101139435.423 6  24317359.916    24317360.477    24317370.823
        34.600          41.300
 127661309.473 6                  23948922.311    23948921.674
        38.900
 149214504.259 6                  28394500.075
        38.000
 106555230.813 8  82876450.364 8  19940310.249    19940310.170    19940316.696
        51.900          48.700
 124238824.611 6  96809635.96244  23641800.047    23641798.7694   23641800.8914
        40.400          25.1004
 132116363.761 6 102947883.61344  25140900.718    25140900.5134   25140916.2064
        36.300          27.0004
 127147564.049 8                  24195313.452
        48.200
 107482584.475 8  83597784.039 7  20085625.420    20085625.619    20085633.173
        52.700          47.700
 147200151.885 6                  28011297.654
        36.900
 130711628.029 6 101664668.730 5  24495303.340    24495303.415    24495317.279
        41.800          35.500
 121983581.158 7  95052143.14544  23212709.035    23212708.4274   23212712.6184
        42.300          24.5004
 106061872.519 8  82645776.54347  20182840.880    20182840.4834   20182842.0174
        48.600          42.2004
 117196368.236 7  91322005.98046  22301660.092    22301658.8854   22301659.4364
        46.200          36.3004
 108058507.919 8  84045556.972 7  20228769.165    20228769.399    20228776.446
        51.400          47.500
 116053949.640 7  90431828.25945  22084254.333    22084252.8984   22084255.2774
        44.200          34.8004
 105042854.048 8  81700206.462 8  19677996.906    19677997.276    19678003.682
        51.700          49.500
