     2.11           OBSERVATION DATA    M (MIXED)           RINEX VERSION / TYPE
teqc  2019Feb25                         20260317 16:20:09UTCPGM / RUN BY / DATE
Linux 2.4.21-27.ELsmp|Opteron|gcc -static|Linux 64|=+       COMMENT
BIT 2 OF LLI FLAGS DATA COLLECTED UNDER A/S CONDITION       COMMENT
-Unknown-                                                   MARKER NAME
-Unknown-           -Unknown-                               OBSERVER / AGENCY
-Unknown-           -Unknown-           -Unknown-           REC # / TYPE / VERS
-Unknown-           -Unknown-                               ANT # / TYPE
        0.0000        0.0000        0.0000                  APPROX POSITION XYZ
        0.0000        0.0000        0.0000                  ANTENNA: DELTA H/E/N
     1     1                                                WAVELENGTH FACT L1/2
     7    L1    L2    C1    P1    P2    S1    S2            # / TYPES OF OBSERV
 SNR is mapped to RINEX snr flag value [0-9]                COMMENT
  L1 & L2: min(max(int(snr_dBHz/6), 0), 9)                  COMMENT
  2025     1     1     8     0    0.0000000     GPS         TIME OF FIRST OBS
    18                                                      LEAP SECONDS
                                                            END OF HEADER
 25  1  1  8  0  0.0000000  0 31G10G24E03E08R04S31S35G13E13S48S33R02
                                G16E29E15G23G05R19G18E07G29G15R11E33
                                E26G27R24R18R17R03R01
 125533252.133 7  97818130.71446  23888182.855    23888182.2884   23888186.5154
        42.800          39.1004
 121246651.237 6  94477939.87746  23072468.420    23072467.9874   23072472.7624
        41.100          37.8004
 148080639.048 6                  28178798.762
        37.200
 127511658.341 7                  24264651.813
        47.300
 127772999.291 7  99379045.041 6  23860709.183    23860709.725    23860717.336
        42.100          39.600
 198974639.539 7                  37863613.240
        45.200
 200952802.281 7                  38240051.393
        43.600
 118849819.678 7  92610272.79044  22616359.558    22616359.0004   22616359.3414
        43.100          27.3004
 124086609.780 7                  23612875.307
        47.300
 412776497.362 5                  78548803.130
        33.200
 202103975.152 7                  38459081.098
        44.600
 105178898.928 8  81805855.034 8  19710474.817    19710474.713    19710480.121
        53.000          48.600
 135771160.260 5 105795721.39342  25836390.787    25836389.6384   25836391.0584
        35.600          13.3004
 145150216.739 6                  27621167.954
        38.200
 143181564.729 6                  27246517.663
        39.200
 110034782.425 8  85741396.91846  20938918.912    20938918.5284   20938918.6634
        48.200          38.3004
 126996774.203 6  98958568.19945  24166668.369    24166667.8824   24166669.9384
        39.200          32.4004
 128214688.974 5  99722556.204 5  23968376.639    23968377.072    23968385.831
        30.700          35.700
 106941486.118 8  83331033.22647  20350281.875    20350281.4864   20350281.7894
        50.200          44.0004
 125269800.313 7                  23838045.643
        47.600
 121645103.112 7  94788423.15646  23148283.775    23148283.1724   23148284.2814
        42.900          38.6004
 106681888.469 8  83128764.67348  20300878.644    20300878.2114   20300878.4964
        48.900          49.1004
 131743751.378 7 102467388.132 6  24654047.382    24654047.927    24654053.066
        43.800          39.500
 148619358.683 6                  28281322.357
        38.100
 127824145.679 7                  24324123.878
        47.200
 125706337.777 6  97953004.80045  23921118.806    23921118.0374   23921121.0754
        39.500          34.5004
 119812916.404 7  93187888.153 6  22405611.305    22405610.686    22405619.829
        46.000          41.900
 108488658.096 8  84380109.572 8  20323573.966    20323574.387    20323580.351
        51.100          48.100
 102412044.916 8  79653856.398 7  19138133.990    19138134.151    19138140.256
        51.700          47.400
 107538322.037 8  83640951.430 8  20089056.907    20089057.506    20089063.310
        51.400          48.100
 123542334.149 7  96088532.051 6  23111138.281    23111137.563    23111145.359
        43.100          36.100
 25  1  1  8  0 15.0000000  0 32G10G24E03E08R04S31S35G13E13S48S33R02
                                G16E29E15G23G05R19G18E07G29G15R11E33
                                E26G32G27R24R18R17R03R01
 125498309.254 7  97790902.51646  23881533.407    23881532.8404   23881537.2254
        42.200          38.9004
 121201775.459 6  94442971.75646  23063929.070    23063928.6374   23063933.0584
        41.700          37.6004
 148122977.405 6                  28186854.729
        36.900
 127530386.957 7                  24268215.839
        47.300
 127717057.978 7  99335535.125 6  23850262.871    23850263.438    23850270.155
        42.600          38.600
 198974636.465 7                  37863606.327
        45.200
 200952807.825 7                  38240052.126
        43.900
 118896274.986 7  92646471.72944  22625199.580    22625199.0084   22625199.3234
        43.000          26.9004
 124097183.001 7                  23614887.548
        47.200
 412776260.449 5                  78548774.860
        32.400
 202103943.595 7                  38459075.325
        45.000
 105206953.865 8  81827675.538 8  19715731.801    19715732.282    19715737.663
        52.700          48.500
 135801598.732 5 105819439.71942  25842183.296    25842182.1794   25842183.4554
        34.300          12.7004
 145104932.707 6                  27612549.940
        38.300
 143216927.063 6                  27253246.764
        39.200
 110017745.783 7  85728121.61946  20935677.155    20935676.7754   20935676.7774
        47.800          38.1004
 127039124.138 6  98991568.07345  24174727.194    24174726.7034   24174728.9784
        39.700          32.4004
 128151980.966 5  99673783.379 5  23956655.532    23956656.363    23956663.253
        32.500          35.400
 106934237.753 8  83325385.15247  20348902.551    20348902.1674   20348902.4684
        50.400          43.9004
 125246100.619 8                  23833535.781
        48.000
 121698536.944 7  94830059.87446  23158451.437    23158450.8344   23158452.6304
        43.800          38.2004
 106705938.318 8  83147504.81048  20305455.455    20305455.0084   20305455.0454
        49.000          49.0004
 131717165.707 7 102446710.319 6  24649072.301    24649072.419    24649079.043
        42.600          40.300
 148580639.274 6                  28273954.961
        37.500
 127799020.894 7                  24319342.654
        47.100
 136191448.162 6 106123217.77044  25916370.782    25916370.5724   25916373.6104
        36.400          24.5004
 125672648.169 6  97926753.14445  23914708.142    23914707.3964   23914710.3874
        39.500          34.3004
 119871489.936 7  93233445.274 6  22416565.034    22416565.326    22416572.921
        46.100          41.800
 108446572.083 8  84347376.016 8  20315690.057    20315690.206    20315696.366
        50.800          48.200
 102424478.670 8  79663527.081 7  19140457.480    19140457.749    19140463.702
        51.900          47.100
 107510293.663 8  83619151.583 8  20083821.355    20083821.616    20083827.469
        51.600          48.200
 123599525.357 7  96133013.845 5  23121837.153    23121836.944    23121844.110
        43.400          35.600
 25  1  1  8  0 30.0000000  0 32G10G24E03E08R04S31S35G13E13S48S33R02
                                G16E29E15G23G05R19G18E07G29G15R11E33
                                E26G32G27R24R18R17R03R01
 125463390.074 7  97763692.78646  23874889.092    23874888.5344   23874892.1084
        42.400          38.8004
 121156962.437 6  94408052.53446  23055400.674    23055400.2094   23055405.2944
        41.800          37.7004
 148165333.564 6                  28194914.899
        37.000
 127549200.736 7                  24271795.817
        47.300
 127661167.073 7  99292064.382 6  23839825.976    23839826.184    23839832.292
        42.400          38.300
 198974633.700 7                  37863609.207
        45.100
 200952813.936 7                  38240058.785
        43.900
 118942813.740 7  92682735.68244  22634055.646    22634055.0794   22634055.2694
        43.600          27.3004
 124107822.131 7                  23616911.991
        47.200
 412776025.125 5                  78548743.335
        31.900
 202103912.478 7                  38459070.393
        44.800
 105235121.693 8  81849583.830 8  19721010.715    19721011.059    19721016.467
        52.800          48.800
 135832101.580 5 105843208.21841  25847987.744    25847986.6184   25847987.9704
        32.500          10.1004
 145059666.756 6                  27603936.688
        38.300
 143252325.492 6                  27259983.274
        38.800
 110000763.079 8  85714888.37146  20932445.347    20932444.9674   20932445.0824
        48.300          38.3004
 127081479.790 6  99024572.40845  24182786.746    24182786.2324   24182788.7604
        39.200          32.4004
 128089273.827 5  99625011.193 5  23944934.292    23944932.909    23944939.956
        31.300          35.200
 106927098.449 8  83319822.06047  20347544.009    20347543.6254   20347543.9004
        50.500          44.0004
 125222487.874 8                  23829042.243
        48.100
 121752015.111 7  94871731.13746  23168628.018    23168627.4154   23168629.1274
        43.600          38.6004
 106730116.603 8  83166345.03348  20310056.415    20310055.9684   20310056.0274
        49.100          49.1004
 131690712.979 6 102426135.914 5  24644122.760    24644122.687    24644127.942
        40.300          34.300
 148541905.873 6                  28266583.664
        37.600
 127773932.309 7                  24314568.627
        47.400
 136138217.658 6 106081739.47845  25906241.097    25906240.8344   25906244.0664
        38.800          30.0004
 125639074.240 6  97900591.62045  23908319.017    23908318.2984   23908321.3774
        40.300          34.6004
 119930139.434 7  93279061.471 6  22427532.072    22427532.615    22427540.421
        46.400          41.400
 108404599.360 8  84314730.547 8  20307827.020    20307827.117    20307832.955
        51.300          48.100
 102437093.284 8  79673338.429 7  19142814.619    19142814.974    19142821.021
        51.200          47.400
 107482398.568 8  83597455.387 8  20078610.695    20078610.736    20078616.500
        51.500          48.000
 123656716.247 7  96177495.513 6  23132536.064    23132536.079    23132544.282
        43.700          36.500
 25  1  1  8  0 45.0000000  0 31G10G24E03E08R04S31S35G13E13S48S33R02
                                G16E29E15G23G05R19G18E07G29G15R11E33
                                E26G27R24R18R17R03R01
 125428501.405 7  97736506.82646  23868250.091    23868249.5464   23868252.8934
        42.900          39.0004
 121112219.477 6  94373187.90446  23046886.907    23046886.4294   23046890.8334
        41.700          37.8004
 148207714.089 6                  28202979.628
        36.800
 127568106.356 7                  24275393.803
        47.500
 127605333.838 7  99248638.520 6  23829399.334    23829399.925    23829406.763
        42.800          39.100
 198974638.496 7                  37863612.185
        45.400
 200952826.905 7                  38240057.389
        43.800
 118989442.623 7  92719069.87044  22642929.036    22642928.4644   22642928.3854
        43.300          27.1004
 124118534.068 7                  23618950.551
        47.300
 412775796.650 5                  78548718.075
        32.100
 202103887.106 7                  38459063.994
        44.600
 105263409.230 8  81871585.252 8  19726311.796    19726312.127    19726317.401
        53.000          48.700
 135862675.251 5 105867031.83741  25853805.487    25853804.3074   25853806.0744
        33.300           8.6004
 145014425.865 6                  27595327.508
        38.100
 143287766.823 6                  27266727.087
        39.000
 109983841.103 8  85701702.43746  20929225.035    20929224.6604   20929224.9374
        48.600          38.4004
 127123847.605 6  99057586.21145  24190849.974    24190849.4784   24190851.2344
        39.300          32.3004
 128026574.153 5  99576244.806 5  23933213.554    23933212.429    23933219.024
        31.200          35.600
 106920075.248 8  83314349.43947  20346207.535    20346207.1464   20346207.4534
        50.500          44.1004
 125198968.982 8                  23824566.978
        48.100
 121805543.905 7  94913441.85346  23178814.435    23178813.8324   23178815.1074
        44.100          38.3004
 106754429.657 8  83185290.27048  20314683.116    20314682.6694   20314682.6404
        49.400          49.2004
 131664400.604 7 102405670.700 6  24639198.171    24639197.901    24639204.355
        43.200          39.500
 148503165.401 6                  28259211.712
        37.100
 127748886.900 7                  24309802.768
        47.500
 125605623.123 6  97874525.79445  23901953.571    23901952.8524   23901955.9964
        39.500          34.9004
 119988871.513 7  93324741.926 6  22438515.601    22438515.747    22438524.322
        46.100          41.900
 108362747.429 8  84282179.052 8  20299986.686    20299986.918    20299993.177
        51.000          48.100
 102449895.755 8  79683295.904 7  19145207.219    19145207.547    19145213.339
        51.800          47.500
 107454643.553 8  83575868.178 8  20073425.303    20073425.626    20073431.497
        51.800          48.100
 123713913.284 7  96221982.026 6  23143235.165    23143235.487    23143242.541
        43.700          36.100
 25  1  1  8  1  0.0000000  0 31G10G24E03E08R04S31S35G13E13S48S33R02
                                G16E29E15G23G05R19G18E07G29G15R11E33
                                E26G27R24R18R17R03R01
 125393630.498 7  97709334.71146  23861614.178    23861613.6204   23861617.3234
        43.400          38.9004
 121067534.239 6  94338368.25046  23038383.865    23038383.3874   23038387.6584
        41.500          38.0004
 148250106.054 6                  28211046.728
        36.700
 127587090.854 7                  24279006.187
        47.400
 127549545.657 7  99205247.699 6  23818980.515    23818981.791    23818987.448
        43.200          38.000
 198974637.812 7                  37863608.720
        45.200
 200952834.831 7                  38240059.129
        43.500
 119036148.555 7  92755464.09744  22651816.986    22651816.4234   22651816.4914
        42.900          27.2004
 124129306.112 7                  23621000.294
        47.400
 412775563.314 5                  78548687.874
        32.200
 202103857.915 7                  38459057.331
        44.500
 105291802.945 8  81893669.258 8  19731632.534    19731632.848    19731638.373
        52.700          48.700
 135893306.648 5 105890900.42042  25859634.416    25859633.2724   25859635.0534
        35.100          12.6004
 144969197.462 6                  27586720.858
        39.000
 143323238.299 6                  27273477.142
        39.200
 109966967.068 8  85688553.86046  20926013.905    20926013.5304   20926013.8694
        48.600          38.4004
 127166214.874 6  99090599.62145  24198911.491    24198911.0314   24198913.5164
        39.100          32.5004
 127963869.751 5  99527474.800 5  23921489.466    23921489.855    23921496.021
        31.300          34.400
 106913155.531 8  83308957.45047  20344890.802    20344890.4184   20344890.6584
        50.400          44.2004
 125175531.214 8                  23820106.816
        48.000
 121859110.578 7  94955182.09946  23189007.404    23189006.7964   23189008.4844
        43.600          38.4004
 106778864.786 8  83204330.62648  20319332.837    20319332.3904   20319332.4844
        49.100          49.3004
 131638215.892 7 102385304.838 6  24634298.816    24634298.532    24634304.212
        42.500          39.600
 148464405.164 6                  28251835.864
        37.200
 127723872.070 7                  24305042.299
        47.300
 125572282.304 6  97848545.91745  23895609.067    23895608.3744   23895611.5554
        39.400          35.0004
 120047673.177 7  93370476.495 6  22449512.421    22449512.165    22449520.565
        46.900          41.700
 108321003.580 8  84249711.614 8  20292166.550    20292167.124    20292172.931
        50.900          48.200
 102462873.277 8  79693389.528 7  19147632.393    19147632.638    19147638.577
        51.500          47.200
 107427015.911 8  83554380.023 8  20068264.078    20068264.676    20068270.596
        51.600          48.300
 123771103.229 7  96266463.040 6  23153934.113    23153934.202    23153942.338
        43.700          36.000
 25  1  1  8  1 15.0000000  0 31G10G24E03E08R04S31S35G13E13S48S33R02
                                G16E29E15G23G05R19G18E07G29G15R11E33
                                E26G27R24R18R17R03R01
 125358782.951 7  97682180.80446  23854982.586    23854982.0054   23854985.8354
        43.100          38.9004
 121022912.793 6  94303598.32246  23029892.319    23029891.8594   23029896.5974
        41.100          38.0004
 148292514.909 6                  28219116.779
        36.700
 127606159.718 7                  24282634.982
        47.300
 127493808.283 7  99161896.396 6  23808572.658    23808572.364    23808579.165
        42.500          38.400
 198974636.465 7                  37863611.488
        45.300
 200952841.868 7                  38240061.034
        43.900
 119082936.528 7  92791922.23944  22660720.429    22660719.8664   22660719.7954
        43.500          27.3004
 124140143.965 7                  23623062.727
        47.400
 412775329.440 5                  78548661.974
        32.500
 202103828.234 7                  38459051.920
        44.700
 105320308.310 8  81915840.085 8  19736974.931    19736974.895    19736980.325
        52.900          48.600
 135924000.978 6 105914818.11542  25865475.227    25865474.1324   25865475.9894
        36.000          13.0004
 144923987.270 6                  27578117.873
        39.000
 143358745.469 6                  27280234.059
        38.800
 109950146.577 8  85675446.99246  20922813.351    20922812.9714   20922812.9884
        48.400          38.5004
 127208587.327 6  99123617.06045  24206974.849    24206974.4024   24206976.7684
        38.900          32.4004
 127901166.721 5  99478705.832 5  23909769.521    23909768.414    23909775.635
        31.100          35.200
 106906345.122 8  83303650.63547  20343594.824    20343594.4404   20343594.6754
        50.400          44.2004
 125152180.315 8                  23815663.495
        48.100
 121912720.222 7  94996955.82146  23199209.267    23199208.6554   23199210.1914
        43.300          38.3004
 106803427.216 8  83223470.18048  20324007.083    20324006.6454   20324006.5464
        49.300          49.3004
 131612164.865 7 102365042.848 6  24629422.653    24629423.690    24629429.307
        42.500          37.500
 148425630.868 6                  28244457.936
        38.200
 127698893.584 7                  24300289.312
        47.400
 125539057.694 6  97822656.59045  23889286.808    23889286.1294   23889289.0214
        40.300          34.8004
 120106549.407 7  93416269.056 6  22460522.869    22460522.838    22460530.509
        47.300          41.300
 108279374.288 8  84217333.277 8  20284368.421    20284368.328    20284374.390
        51.000          48.100
 102476031.474 8  79703623.663 7  19150091.341    19150091.578    19150097.594
        51.000          47.300
 107399521.355 8  83532995.377 8  20063128.144    20063128.374    20063134.383
        51.800          48.400
 123828291.522 7  96310942.757 6  23164632.483    23164631.977    23164640.171
        43.700          36.300
 25  1  1  8  1 30.0000000  0 32G10G24E03E08R04S31S35G13E13S48S33R02
                                G16E29E15G23G05R19G18E07G29G15R11E33
                                E26G27R24G32R18R17R03R01
 125323955.027 7  97655042.17546  23848355.145    23848354.5604   23848358.5064
        43.300          39.1004
 120978351.841 7  94268875.54746  23021412.877    23021412.4354   23021416.6794
        42.000          38.0004
 148334936.766 6                  28227189.571
        37.100
 127625309.014 7                  24286278.992
        47.400
 127438118.342 7  99118581.972 6  23798172.859    23798173.310    23798180.738
        43.200          38.900
 198974632.286 7                  37863609.068
        45.300
 200952845.409 7                  38240062.192
        43.600
 119129802.447 7  92828441.13644  22669638.206    22669637.6164   22669637.9244
        43.700          27.1004
 124151043.944 7                  23625136.878
        47.400
 412775091.440 5                  78548638.002
        32.200
 202103794.637 7                  38459045.535
        44.400
 105348920.905 8  81938094.328 8  19742336.751    19742336.960    19742342.230
        53.000          48.600
 135954754.214 5 105938781.78841  25871327.946    25871326.8204   25871328.1634
        33.400           9.1004
 144878791.744 6                  27569516.845
        38.900
 143394284.545 6                  27286996.952
        39.400
 109933375.852 8  85662378.89846  20919621.908    20919621.5284   20919621.6004
        48.200          38.5004
 127250961.258 6  99156635.65645  24215038.925    24215038.4874   24215040.2174
        40.000          32.3004
 127838461.302 5  99429934.957 5  23898048.255    23898046.118    23898053.916
        32.100          35.400
 106899640.442 8  83298426.21047  20342319.050    20342318.6664   20342318.8364
        50.400          44.1004
 125128912.617 8                  23811235.653
        48.200
 121966368.453 7  95038759.60846  23209418.464    23209417.8564   23209419.2724
        43.500          38.0004
 106828112.783 8  83242705.68548  20328704.481    20328704.0304   20328704.0394
        49.300          49.3004
 131586243.946 6 102344882.049 6  24624571.769    24624573.021    24624578.590
        39.800          37.000
 148386838.846 6                  28237075.522
        37.300
 127673947.851 7                  24295542.231
        47.400
 125505945.782 6  97796855.08345  23882985.621    23882984.9244   23882988.1244
        40.800          35.1004
 120165496.268 7  93462116.589 6  22471545.322    22471545.204    22471553.752
        46.000          41.500
 135925392.514 6 105915897.73444  25865740.176    25865739.9934   25865744.2054
        37.200          25.0004
 108237855.990 8  84185041.266 8  20276590.527    20276590.754    20276596.601
        51.400          48.200
 102489366.452 8  79713995.286 7  19152583.535    19152583.578    19152589.545
        52.100          47.500
 107372156.251 8  83511711.419 8  20058016.328    20058016.402    20058022.245
        52.100          48.200
 123885473.901 7  96355417.983 5  23175330.625    23175330.294    23175337.460
        44.100          35.800
 25  1  1  8  1 45.0000000  0 32G10G24E03E08R04S31S35G13E13S48S33R02
                                G16E29E15G23G05R19G18E07G29G15R11E33
                                E26G27R24G32R18R17R03R01
 125289155.742 7  97627925.86046  23841733.153    23841732.5724   23841736.5654
        42.300          38.8004
 120933860.825 6  94234207.28046  23012945.990    23012945.5524   23012950.3374
        41.600          37.9004
 148377380.452 6                  28235266.357
        37.200
 127644547.648 7                  24289939.739
        47.400
 127382485.020 7  99075311.583 6  23787783.758    23787785.347    23787790.659
        43.600          37.600
 198974633.100 7                  37863610.365
        45.500
 200952854.807 7                  38240068.068
        43.900
 119176755.066 7  92865027.58044  22678573.022    22678572.4144   22678572.8384
        43.900          27.2004
 124162015.181 7                  23627224.642
        47.300
 412774858.628 5                  78548608.516
        32.400
 202103767.174 7                  38459036.739
        44.400
 105377649.841 8  81960439.041 8  19747720.818    19747720.807    19747726.081
        53.000          48.600
 135985575.117 5 105962798.06241  25877192.200    25877191.1994   25877193.1564
        31.000           7.9004
 144833620.129 6                  27560921.248
        38.700
 143429864.559 6                  27293767.423
        39.200
 109916663.963 8  85649356.62346  20916441.816    20916441.4364   20916441.3994
        48.200          38.5004
 127293345.709 6  99189662.45345  24223103.759    24223103.3174   24223106.1164
        38.500          32.4004
 127775763.298 5  99381169.980 5  23886324.861    23886326.697    23886332.134
        31.500          34.500
 106893050.737 8  83293291.36947  20341064.993    20341064.6044   20341064.8324
        50.700          44.1004
 125105737.219 7                  23806825.612
        47.700
 122020064.283 7  95080600.50646  23219636.063    23219635.4554   23219637.0774
        43.500          38.1004
 106852930.294 8  83262043.99948  20333427.209    20333426.7764   20333426.6584
        49.400          49.2004
 131560463.275 7 102324830.349 6  24619747.247    24619748.199    24619754.044
        43.100          38.700
 148348038.285 6                  28229692.261
        38.000
 127649044.101 7                  24290803.151
        47.600
 125472955.917 6  97771148.68845  23876707.725    23876707.0284   23876710.4404
        40.600          35.6004
 120224522.510 7  93508025.830 6  22482583.654    22482583.494    22482592.225
        46.100          41.300
 135872206.700 6 105874454.30244  25855619.756    25855619.3814   25855622.7414
        38.700          27.4004
 108196458.438 8  84152843.172 8  20268834.929    20268835.414    20268841.565
        50.800          48.100
 102502887.733 8  79724511.832 7  19155109.844    19155110.282    19155116.436
        51.700          47.200
 107344929.464 8  83490535.045 8  20052930.184    20052930.248    20052936.262
        51.700          48.300
 123942659.416 7  96399895.605 6  23186026.692    23186027.587    23186035.320
        44.200          36.400
 25  1  1  8  2  0.0000000  0 32G10G24E03E08R04S31S35G13E13S48S33R02
                                G16E29E15G23G05R19G18E07G29G15R11E33
                                E26G27R24G32R18R17R03R01
 125254375.783 7  97600824.61846  23835114.808    23835114.2274   23835118.2644
        42.400          38.8004
 120889430.868 7  94199586.59146  23004491.438    23004490.9964   23004495.5494
        42.000          38.0004
 148419836.526 6                  28243345.818
        37.200
 127663866.136 7                  24293616.144
        47.100
 127326899.086 7  99032078.066 6  23777402.826    23777404.788    23777410.986
        43.300          38.600
 198974629.585 7                  37863608.210
        45.000
 200952859.882 7                  38240064.772
        44.000
 119223784.750 7  92901674.08344  22687522.565    22687521.9624   22687522.3614
        43.800          27.4004
 124173048.428 7                  23629324.239
        47.400
 412774622.534 5                  78548590.491
        32.600
 202103735.233 7                  38459033.229
        44.800
 105406484.969 8  81982866.369 8  19753123.861    19753124.169    19753129.711
        52.400          48.700
 136016454.044 4 105986859.49041  25883068.706    25883067.7814   25883069.1144
        28.500           7.3004
 144788463.221 6                  27552328.590
        38.500
 143465476.118 6                  27300544.432
        38.900
 109900001.616 8  85636372.95646  20913271.213    20913270.8384   20913270.7644
        48.100          38.4004
 127335731.107 6  99222689.98545  24231170.159    24231169.7264   24231171.8414
        38.800          32.4004
 127713063.771 5  99332403.680 5  23874605.753    23874604.334    23874610.531
        32.200          34.800
 106886566.868 8  83288239.00547  20339831.001    20339830.6124   20339830.9824
        50.100          44.1004
 125082644.932 8                  23802431.242
        48.100
 122073797.668 7  95122470.66646  23229861.426    23229860.8094   23229862.4134
        44.000          38.2004
 106877870.181 8  83281477.67448  20338173.145    20338172.7124   20338172.5574
        49.600          49.3004
 131534813.206 7 102304880.224 6  24614947.759    24614948.073    24614954.303
        42.100          39.300
 148309219.839 6                  28222305.136
        37.700
 127624173.153 7                  24286070.314
        47.400
 125440079.019 6  97745530.31345  23870451.468    23870450.7664   23870454.3994
        39.800          35.3004
 120283618.274 7  93553989.147 6  22493634.887    22493634.809    22493644.001
        45.500          41.900
 135819025.877 6 105833014.72543  25845499.295    25845498.9114   25845502.5244
        36.000          22.0004
 108155172.624 8  84120731.981 8  20261100.850    20261101.318    20261107.138
        51.100          48.100
 102516585.705 8  79735165.809 7  19157669.680    19157670.098    19157676.257
        51.700          47.200
 107317832.239 8  83469459.419 8  20047868.025    20047868.193    20047874.278
        52.300          48.200
 123999838.147 7  96444367.943 5  23196722.921    23196722.890    23196731.853
        42.200          35.700
 25  1  1  8  2 15.0000000  0 31G10G24E03E08R04S31S35G13E13S48S33R02
                                E29E15G23G05R19G18E07G29G15R11E33E26
                                G27R24G32R18R17R03R01
 125219619.459 7  97573741.78546  23828500.793    23828500.1994   23828504.2254
        42.600          38.9004
 120845066.682 7  94165017.13646  22996048.901    22996048.4364   22996053.2824
        42.000          38.1004
 148462309.036 6                  28251427.289
        37.500
 127683268.636 7                  24297308.335
        46.800
 127271365.337 7  98988885.123 6  23767033.256    23767033.722    23767039.192
        42.600          37.800
 198974627.456 7                  37863606.542
        45.300
 200952865.339 7                  38240065.264
        44.100
 119270895.330 7  92938383.62044  22696487.491    22696486.8884   22696487.3564
        43.500          27.1004
 124184148.064 7                  23631436.286
        47.000
 412774386.510 5                  78548558.764
        32.700
 202103703.545 7                  38459026.182
        44.800
 105435430.487 8  82005379.545 8  19758548.688    19758548.707    19758554.084
        52.600          48.600
 144743325.528 6                  27543739.062
        38.300
 143501123.524 6                  27307327.970
        38.700
 109883393.129 8  85623431.27246  20910110.666    20910110.2954   20910110.3244
        48.100          38.5004
 127378121.499 6  99255721.40545  24239236.697    24239236.2644   24239238.3714
        39.600          32.5004
 127650367.298 5  99283639.796 5  23862885.823    23862884.095    23862890.533
        32.900          34.900
 106880193.344 8  83283272.62647  20338618.428    20338618.0484   20338618.1264
        50.200          44.1004
 125059640.170 8                  23798053.568
        48.200
 122127572.968 7  95164373.48346  23240094.581    23240093.9474   23240095.4034
        43.600          37.8004
 106902936.577 8  83301009.92848  20342943.033    20342942.6004   20342942.5664
        49.600          49.2004
 131509298.842 7 102285035.678 6  24610174.144    24610173.909    24610179.455
        42.200          38.100
 148270388.028 6                  28214915.951
        36.600
 127599339.490 7                  24281344.751
        47.100
 125407319.732 6  97720003.58945  23864217.419    23864216.7044   23864220.4074
        40.000          35.1004
 120342787.721 7  93600009.762 6  22504700.023    22504700.872    22504708.669
        46.600          41.500
 135765854.548 6 105791582.57044  25835380.982    25835380.5854   25835383.9984
        38.300          27.5004
 108114003.432 8  84088711.496 8  20253388.563    20253388.726    20253394.939
        50.700          48.100
 102530464.661 8  79745960.549 7  19160263.731    19160263.715    19160269.825
        51.400          47.300
 107290868.276 8  83448487.460 8  20042830.383    20042831.152    20042836.995
        51.800          48.200
 124057014.474 7  96488838.451 6  23207420.556    23207420.281    23207427.241
        43.400          36.100
 25  1  1  8  2 30.0000000  0 31G10G24E03E08R04S31S35G13E13S48S33R02
                                E29E15G23G05R19G18E07G29G15R11E33E26
                                G27R24G32R18R17R03R01
 125184889.923 7  97546679.83146  23821891.670    23821891.0714   23821895.0464
        42.800          38.6004
 120800771.851 6  94130501.71646  22987619.850    22987619.3904   22987624.2204
        41.300          38.0004
 148504801.023 6                  28259513.621
        37.700
 127702758.130 7                  24301016.958
        47.100
 127215887.079 7  98945735.342 6  23756671.862    23756672.874    23756679.524
        42.700          38.200
 198974628.325 7                  37863605.040
        45.200
 200952875.141 7                  38240068.890
        44.100
 119318089.721 7  92975158.46444  22705468.581    22705467.9824   22705468.1774
        43.100          27.4004
 124195317.315 7                  23633561.913
        47.300
 412774154.249 5                  78548540.140
        32.300
 202103676.120 7                  38459024.223
        45.200
 105464489.102 8  82027980.699 8  19763994.054    19763994.406    19763999.698
        52.600          48.600
 144698210.396 6                  27535153.819
        38.500
 143536809.890 6                  27314118.726
        38.700
 109866841.646 8  85610534.01246  20906960.932    20906960.5794   20906960.7284
        48.100          38.5004
 127420520.258 6  99288759.34845  24247304.732    24247304.2994   24247306.6984
        39.300          32.4004
 127587677.565 5  99234881.184 5  23851164.854    23851165.542    23851171.260
        32.300          35.400
 106873933.478 8  83278394.81047  20337427.122    20337426.7474   20337426.8944
        50.200          44.1004
 125036726.113 7                  23793692.920
        47.600
 122181392.932 7  95206311.10646  23250336.200    23250335.5704   23250336.8644
        42.500          38.1004
 106928132.246 8  83320642.91548  20347737.638    20347737.2054   20347737.1484
        49.200          49.3004
 131483923.778 6 102265299.558 6  24605423.998    24605424.223    24605431.044
        41.200          38.300
 148231546.108 6                  28207524.289
        38.100
 127574546.443 7                  24276626.728
        47.300
 125374681.435 6  97694571.14245  23858006.766    23858006.0694   23858009.2924
        40.300          35.5004
 120402033.725 7  93646089.958 6  22515778.926    22515779.380    22515787.749
        45.700          41.300
 135712695.803 6 105750160.20144  25825264.719    25825264.3084   25825267.9004
        38.100          26.8004
 108072954.622 8  84056784.659 8  20245698.977    20245699.100    20245704.907
        51.300          48.000
 102544528.123 8  79756898.803 7  19162891.808    19162891.902    19162897.882
        51.800          47.300
 107264041.379 8  83427622.128 8  20037819.212    20037819.514    20037825.415
        52.000          48.400
 124114191.181 7  96533309.283 6  23218116.093    23218115.213    23218123.456
        43.200          36.400
 25  1  1  8  2 45.0000000  0 31G10G24E03E08R04S31S35G13E13S48S33R02
                                E29E15G23G05R19G18E07G29G15R11E33E26
                                G27R24G32R18R17R03R01
 125150182.177 7  97519634.84346  23815287.130    23815286.5224   23815290.1644
        42.600          38.4004
 120756541.852 6  94096036.81846  22979203.407    22979202.9514   22979207.4014
        41.000          37.8004
 148547307.286 6                  28267602.538
        37.800
 127722329.454 7                  24304741.150
        47.100
 127160459.618 7  98902625.065 6  23746321.816    23746322.472    23746328.751
        43.000          38.900
 198974627.108 7                  37863607.450
        45.300
 200952882.425 7                  38240069.619
        43.700
 119365362.455 7  93011994.36144  22714464.476    22714463.8864   22714463.8474
        43.500          27.4004
 124206551.250 7                  23635699.721
        47.200
 412773921.516 5                  78548500.065
        32.500
 202103646.066 7                  38459019.935
        45.000
 105493655.483 8  82050665.652 8  19769459.659    19769460.213    19769465.286
        52.700          48.600
 144653112.964 6                  27526571.971
        38.900
 143572530.187 6                  27320916.141
        39.100
 109850342.174 7  85597677.29746  20903820.979    20903820.6264   20903820.9924
        47.800          38.3004
 127462921.990 6  99321799.61345  24255373.880    24255373.4384   24255375.6164
        39.000          32.3004
 127524989.428 5  99186123.773 5  23839445.242    23839446.179    23839452.023
        32.700          34.600
 106867782.453 8  83273601.80347  20336256.550    20336256.1754   20336256.4204
        50.300          43.9004
 125013897.886 7                  23789348.931
        47.900
 122235251.894 7  95248279.11046  23260585.201    23260584.5714   23260586.0684
        43.400          37.9004
 106953451.850 8  83340372.47648  20352555.956    20352555.5184   20352555.3074
        49.200          49.1004
 131458682.999 6 102245667.825 6  24600700.916    24600701.577    24600707.584
        41.500          39.200
 148192689.100 6                  28200130.351
        37.700
 127549789.154 7                  24271915.580
        47.400
 125342159.412 6  97669229.29345  23851817.897    23851817.2094   23851820.5674
        39.900          35.6004
 120461350.929 7  93692225.494 6  22526872.274    22526872.474    22526881.085
        46.800          41.600
 135659545.050 5 105708744.06744  25815151.059    25815150.6444   25815153.8194
        35.900          24.7004
 108032021.408 8  84024947.711 8  20238030.613    20238030.938    20238037.022
        51.500          48.200
 102558770.654 8  79767976.316 7  19165553.191    19165553.466    19165559.415
        51.800          47.500
 107237345.784 8  83406858.876 8  20032832.466    20032832.778    20032838.479
        52.100          48.500
 124171362.753 7  96577776.100 6  23228811.057    23228810.480    23228818.790
        42.700          36.300
 25  1  1  8  3  0.0000000  0 31G10G24E03E08R04S31S35G13E13S48S33R02
                                E29E15G23G05R19G18E07G29G15R11E33E26
                                G27R24G32R18R17R03R01
 125115498.196 7  97492608.38346  23808687.073    23808686.4564   23808690.0894
        42.200          38.5004
 120712379.116 6  94061624.32946  22970799.680    22970799.2384   22970803.5054
        41.600          37.9004
 148589829.692 6                  28275694.388
        36.900
 127741984.487 7                  24308481.611
        47.000
 127105085.178 7  98859556.007 6  23735981.367    23735982.024    23735987.534
        43.500          38.100
 198974627.515 7                  37863603.045
        45.400
 200952890.534 7                  38240070.898
        44.100
 119412715.281 7  93048892.66444  22723475.112    22723474.5044   22723474.8154
        43.900          27.5004
 124217851.984 7                  23637850.154
        47.400
 412773688.162 5                  78548480.542
        33.000
 202103617.930 7                  38459010.612
        44.800
 105522931.070 8  82073435.553 8  19774945.822    19774946.357    19774951.582
        52.900          48.700
 144608035.417 6                  27517993.852
        38.600
 143608286.436 6                  27327720.173
        38.200
 109833896.703 8  85584862.67246  20900691.696    20900691.3484   20900691.5224
        48.400          38.5004
 127505329.061 6  99354844.02745  24263444.344    24263443.9114   24263445.3344
        38.800          32.5004
 127462306.009 5  99137369.968 5  23827728.631    23827729.164    23827733.479
        32.400          34.300
 106861742.482 8  83268895.33447  20335107.277    20335106.9024   20335107.0524
        50.400          44.0004
 124991157.477 8                  23785021.772
        48.100
 122289151.700 7  95290278.94146  23270841.820    23270841.1904   23270842.8574
        43.800          37.6004
 106978897.255 8  83360200.06448  20357397.912    20357397.4744   20357397.4174
        49.500          49.2004
 131433579.168 7 102226142.608 6  24596003.514    24596004.218    24596009.805
        42.800          38.900
 148153819.158 6                  28192733.546
        37.200
 127525069.819 7                  24267211.680
        47.500
 125309755.902 6  97643979.79445  23845651.909    23845651.2034   23845654.2664
        40.200          35.7004
 120520740.937 7  93738417.677 6  22537978.886    22537978.307    22537986.283
        45.300          41.500
 135606404.553 6 105667335.90144  25805038.456    25805038.0414   25805041.6654
        37.600          25.3004
 107991206.447 8  83993202.764 8  20230384.620    20230384.857    20230390.735
        51.300          48.100
 102573194.532 8  79779194.887 7  19168248.492    19168248.893    19168254.909
        51.500          47.500
 107210783.963 8  83386199.677 8  20027870.335    20027870.699    20027876.668
        52.400          48.300
 124228531.073 7  96622240.364 5  23239506.646    23239505.581    23239512.716
        44.000          35.600
 25  1  1  8  3 15.0000000  0 31G10G24E03E08R04S31S35G13E13S48S33R02
                                E29E15G23G05R19G18E07G29G15R11E33E26
                                G27R24G32R18R17R03R01
 125080837.628 7  97465600.17346  23802091.636    23802091.0244   23802094.6124
        42.800          38.8004
 120668283.713 6  94027264.30446  22962408.303    22962407.8834   22962412.3944
        41.300          38.2004
 148632367.572 6                  28283789.034
        36.600
 127761722.692 7                  24312237.568
        46.900
 127049763.546 7  98816528.037 6  23725650.249    23725651.100    23725657.424
        43.700          38.600
 198974627.705 7                  37863609.990
        45.500
 200952898.502 7                  38240075.692
        44.200
 119460147.466 7  93085852.79644  22732501.160    22732500.5484   22732500.8574
        44.100          27.8004
 124229219.214 7                  23640013.086
        47.400
 412773455.679 5                  78548457.674
        33.000
 202103589.292 7                  38459008.474
        44.800
 105552315.412 8  82096290.023 8  19780452.700    19780452.955    19780458.327
        52.900          48.600
 144562977.602 6                  27509419.551
        38.800
 143644078.180 6                  27334531.628
        39.200
 109817504.876 8  85572089.82846  20897572.237    20897571.8804   20897572.2434
        48.400          38.7004
 127547741.204 6  99387892.39545  24271514.377    24271513.9354   24271516.0994
        39.800          32.9004
 127399626.930 5  99088619.604 5  23816011.761    23816011.510    23816017.868
        32.300          35.200
 106855813.353 8  83264275.22847  20333979.198    20333978.8324   20333978.7734
        50.400          44.2004
 124968504.680 8                  23780710.980
        48.300
 122343091.702 7  95332310.10246  23281106.023    23281105.4024   23281107.1814
        42.800          37.8004
 107004467.865 8  83380125.21148  20362263.872    20362263.4344   20362263.3614
        49.300          49.3004
 131408612.171 6 102206723.713 6  24591331.500    24591331.364    24591337.572
        41.300          38.600
 148114935.990 6                  28185334.159
        37.900
 127500388.233 7                  24262514.775
        47.500
 125277470.852 6  97618822.59846  23839507.845    23839507.1304   23839510.6774
        40.300          36.0004
 120580203.173 7  93784666.003 6  22549098.564    22549098.182    22549106.587
        45.600          41.200
 135553274.130 6 105625935.60644  25794928.376    25794927.9524   25794931.3624
        36.700          26.8004
 107950509.832 8  83961549.817 8  20222760.828    20222760.920    20222767.053
        51.300          48.100
 102587799.291 8  79790554.127 7  19170978.054    19170978.099    19170984.199
        51.400          47.300
 107184355.864 8  83365644.482 8  20022933.710    20022933.719    20022939.447
        52.000          48.500
 124285695.432 7  96666701.455 5  23250199.215    23250199.310    23250207.428
        42.700          35.700
 25  1  1  8  3 30.0000000  0 31G10G24E03E08R04S31S35G13E13S48S33R02
                                E29E15G23G05R19G18E07G29G15R11E33E26
                                G27R24G32R18R17R03R01
 125046195.808 7  97438606.56446  23795498.921    23795498.2954   23795502.4964
        42.100          38.6004
 120624251.362 7  93992953.40246  22954028.989    22954028.5564   22954033.1774
        42.100          38.3004
 148674916.109 6                  28291885.877
        37.000
 127781539.172 7                  24316008.601
        46.600
 126994490.197 7  98773537.668 6  23715328.094    23715329.402    23715336.351
        42.700          38.600
 198974623.078 7                  37863607.056
        45.500
 200952902.422 7                  38240072.736
        44.200
 119507653.900 7  93122870.80144  22741541.313    22741540.7054   22741541.1584
        44.200          27.8004
 124240648.280 7                  23642188.148
        47.000
 412773219.716 5                  78548421.521
        32.700
 202103556.322 7                  38458996.960
        44.900
 105581803.114 8  82119224.914 8  19785978.518    19785978.888    19785984.399
        52.600          48.800
 144517934.896 6                  27500848.420
        38.000
 143679900.592 6                  27341348.000
        38.300
 109801161.944 7  85559355.08746  20894462.376    20894462.0104   20894462.2844
        47.900          38.6004
 127590153.510 6  99420940.89345  24279585.410    24279584.9724   24279586.7874
        39.400          32.7004
 127336947.904 5  99039869.311 5  23804293.801    23804294.437    23804299.981
        33.200          34.800
 106849990.528 8  83259737.95847  20332870.998    20332870.6324   20332870.7274
        50.500          44.2004
 124945934.833 7                  23776415.991
        47.600
 122397066.444 7  95374368.32446  23291377.690    23291377.0644   23291378.3284
        42.600          37.6004
 107030158.716 8  83400144.05248  20367152.752    20367152.3194   20367152.1774
        49.400          49.3004
 131383777.555 6 102187407.850 6  24586683.935    24586684.338    24586690.796
        40.900          39.000
 148076034.947 6                  28177931.804
        37.700
 127475739.825 7                  24257824.376
        47.000
 125245299.792 6  97593754.23545  23833386.705    23833385.9904   23833388.7984
        41.200          35.8004
 120639732.377 7  93830966.439 6  22560231.036    22560230.881    22560238.991
        46.000          41.000
 135500149.197 6 105584539.58244  25784818.795    25784818.3754   25784822.0474
        36.200          26.5004
 107909927.258 8  83929985.607 8  20215158.563    20215158.531    20215164.449
        51.800          48.100
 102602580.095 8  79802050.305 7  19173740.124    19173740.287    19173746.348
        51.300          47.300
 107158056.247 8  83345189.250 8  20018020.382    20018020.765    20018026.596
        52.200          48.500
 124342850.590 7  96711155.407 6  23260892.151    23260891.264    23260899.462
        42.500          36.200
 25  1  1  8  3 45.0000000  0 31G10G24E03E08R04S31S35G13E13S48S33R02
                                E29E15G23G05R19G18E07G29G15R11E33E26
                                G27R24G32R18R17R03R01
 125011579.991 7  97411633.23246  23788911.912    23788911.3044   23788915.2514
        43.100          38.6004
 120580289.756 6  93958697.62146  22945663.718    22945663.2944   22945667.5814
        41.800          38.2004
 148717482.404 6                  28299985.680
        36.900
 127801441.055 7                  24319795.636
        46.700
 126939272.772 7  98730590.708 6  23705017.786    23705018.940    23705023.019
        44.600          37.400
 198974622.058 7                  37863606.488
        45.400
 200952909.344 7                  38240072.123
        43.900
 119555241.352 7  93159951.91944  22750596.794    22750596.1824   22750596.7754
        44.100          27.6004
 124252146.574 7                  23644376.098
        47.200
 412774586.631 5                  78548404.458
        32.400
 202103526.250 7                  38458993.892
        44.800
 105611401.355 8  82142245.752 8  19791525.188    19791525.708    19791530.937
        52.900          48.600
 144472914.818 6                  27492281.904
        38.300
 143715761.010 6                  27348172.289
        38.000
 109784875.189 8  85546664.12146  20891363.266    20891362.9044   20891363.0294
        48.200          38.7004
 127632573.252 6  99453995.18945  24287657.266    24287656.8284   24287659.1484
        39.800          32.8004
 127274276.692 5  98991125.096 6  23792580.276    23792578.066    23792584.880
        32.400          36.000
 106844281.512 8  83255289.37247  20331784.500    20331784.1344   20331784.3194
        50.600          44.1004
 124923455.328 8                  23772138.279
        48.300
 122451083.244 7  95416459.31546  23301656.670    23301656.0494   23301657.6354
        43.700          37.7004
 107055976.797 8  83420262.03248  20372065.832    20372065.3994   20372065.2114
        49.600          49.1004
 131359083.372 6 102168201.304 6  24582062.837    24582062.334    24582068.462
        41.500          39.000
 148037123.493 6                  28170527.350
        38.400
 127451132.085 7                  24253141.754
        47.300
 125213250.301 6  97568780.59546  23827287.287    23827286.5904   23827289.9974
        40.600          36.1004
 120699335.478 7  93877324.353 6  22571376.458    22571376.883    22571385.619
        45.900          41.600
 135447037.328 6 105543153.73044  25774711.440    25774711.0164   25774715.1294
        38.500          28.6004
 107869466.575 8  83898516.175 8  20207578.417    20207578.907    20207584.781
        51.400          48.100
 102617544.668 8  79813689.399 7  19176536.736    19176536.862    19176542.757
        51.700          47.500
 107131892.862 8  83324839.950 8  20013132.940    20013133.179    20013138.942
        52.200          48.600
 124400003.973 7  96755607.935 6  23271583.160    23271583.146    23271591.331
        42.500          36.400
 25  1  1  8  4  0.0000000  0 31G10G24E03E08R04S31S35G13E13S48S33R02
                                E29E15G23G05R19G18E07G29G15R11E33E26
                                G27R24G32R18R17R03R01
 124976988.361 7  97384678.72946  23782329.299    23782328.6964   23782332.7364
        42.700          38.5004
 120536397.661 6  93924496.00346  22937311.324    22937310.8954   22937315.3724
        41.800          38.6004
 148760064.576 6                  28308089.223
        37.600
 127821426.463 7                  24323598.730
        47.000
 126884109.469 7  98687685.910 6  23694716.228    23694716.505    23694722.757
        44.300          38.400
 198974621.603 7                  37863607.311
        45.500
 200952916.899 7                  38240077.856
        44.300
 119602907.952 7  93197094.72444  22759667.763    22759667.1644   22759667.2114
        44.200          27.8004
 124263712.414 7                  23646577.078
        47.300
 412774355.026 5                  78548363.574
        32.400
 202103497.495 7                  38458986.662
        44.900
 105641107.918 8  82165350.856 8  19797092.500    19797092.694    19797098.116
        52.800          48.600
 144427915.789 6                  27483718.640
        37.800
 143751657.650 6                  27355002.955
        38.600
 109768642.896 7  85534015.56946  20888274.155    20888273.7894   20888274.1174
        47.900          38.6004
 127674998.580 6  99487053.83045  24295730.927    24295730.5034   24295732.6944
        39.300          33.0004
 127211611.644 5  98942385.716 5  23780863.988    23780863.090    23780870.221
        33.100          35.700
 106838684.721 8  83250928.23547  20330719.439    20330719.0734   20330719.3184
        50.400          44.1004
 124901064.482 8                  23767877.535
        48.200
 122505139.972 7  95458581.42646  23311943.235    23311942.6054   23311944.2324
        42.500          37.5004
 107081920.185 8  83440477.65148  20377002.508    20377002.0704   20377002.0714
        49.500          49.1004
 131334527.986 7 102149102.594 6  24577467.487    24577467.939    24577474.589
        42.200          40.200
 147998199.878 6                  28163120.051
        38.000
 127426563.425 7                  24248466.347
        47.500
 125181320.874 6  97543900.51145  23821211.149    23821210.4744   23821213.8134
        39.900          35.9004
 120759010.674 7  93923738.365 6  22582536.831    22582536.837    22582544.518
        46.000          41.000
 135393936.925 6 105501776.80844  25764607.513    25764607.0804   25764610.9614
        36.700          26.0004
 107829126.496 8  83867140.564 8  20200021.947    20200021.793    20200027.927
        51.600          48.100
 102632691.032 8  79825469.900 7  19179366.867    19179367.198    19179373.250
        51.900          47.500
 107105864.034 8  83304595.340 8  20008270.614    20008270.795    20008276.741
        52.100          48.500
 124457153.790 7  96800057.826 6  23282274.827    23282274.800    23282282.252
        43.000          36.400
 25  1  1  8  4 15.0000000  0 31G10G24E03E08R04S31S35G13E13S48S33R02
                                E29E15G23G05R19G18E07G29G15R11E33E26
                                G27R24G32R18R17R03R01
 124942419.695 7  97357742.12646  23775751.216    23775750.6044   23775754.2514
        42.800          38.2004
 120492574.214 7  93890347.88646  22928971.667    22928971.2524   22928976.1004
        42.200          38.5004
 148802661.102 6                  28316194.912
        37.500
 127841493.928 7                  24327417.285
        46.700
 126828999.654 7  98644822.707 6  23684423.620    23684424.368    23684431.402
        42.300          38.400
 198974620.991 7                  37863607.991
        45.600
 200952924.665 7                  38240076.747
        44.100
 119650652.117 7  93234297.96644  22768753.044    22768752.4454   22768752.5964
        43.500          27.9004
 124275344.562 7                  23648790.593
        47.300
 412774123.311 5                  78548343.469
        32.200
 202103467.556 7                  38458984.591
        44.800
 105670921.213 8  82188538.969 8  19802679.572    19802679.745    19802685.002
        52.800          48.500
 144382936.678 6                  27475159.270
        38.600
 143787589.187 6                  27361840.354
        38.300
 109752463.824 8  85521408.51846  20885195.319    20885194.9574   20885195.3244
        48.000          38.6004
 127717427.818 6  99520115.50845  24303805.062    24303804.6294   24303806.8434
        40.100          33.1004
 127148952.553 5  98893650.893 5  23769150.421    23769149.916    23769156.100
        32.600          35.300
 106833199.044 8  83246653.67547  20329675.789    20329675.4234   20329675.4404
        50.500          44.1004
 124878761.099 8                  23763633.439
        48.000
 122559234.899 7  95500733.29446  23322237.343    23322236.7224   23322238.1584
        43.600          37.7004
 107107987.237 8  83460789.63348  20381962.957    20381962.5194   20381962.4864
        49.300          49.1004
 131310110.422 7 102130111.072 6  24572897.906    24572897.851    24572904.940
        42.000          40.400
 147959263.007 6                  28155710.566
        38.000
 127402032.707 7                  24243798.230
        47.500
 125149510.542 6  97519113.23446  23815158.549    23815157.8744   23815160.5374
        39.800          36.0004
 120818756.285 7  93970207.153 6  22593708.955    22593709.177    22593717.108
        46.100          41.100
 135340847.033 6 105460408.07844  25754504.289    25754503.8384   25754508.3454
        37.700          27.6004
 107788906.196 8  83835858.113 7  20192486.616    20192486.971    20192492.970
        51.300          47.800
 102648017.866 8  79837390.755 7  19182231.212    19182231.353    19182237.449
        51.600          47.200
 107079968.304 8  83284454.237 8  20003433.027    20003433.130    20003438.974
        52.200          48.500
 124514298.065 7  96844503.416 5  23292963.717    23292964.258    23292972.318
        42.500          35.800
 25  1  1  8  4 30.0000000  0 31G10G24E03E08R04S31S35G13E13S48S33R02
                                E29E15G23G05R19G18E07G29G15R11E33E26
                                G27R24G32R18R17R03R01
 124907872.911 7  97330822.56946  23769177.242    23769176.6304   23769180.2144
        42.500          38.5004
 120448818.751 6  93856252.74646  22920645.471    22920645.0334   22920649.5814
        41.900          38.7004
 148845270.706 6                  28324302.823
        37.000
 127861642.197 7                  24331251.725
        46.500
 126773942.225 7  98602000.249 6  23674142.537    23674143.383    23674150.172
        43.900          38.700
 198974619.651 7                  37863606.873
        45.600
 200952930.140 7                  38240077.136
        44.000
 119698472.383 7  93271560.49844  22777853.017    22777852.4274   22777852.6524
        44.100          28.0004
 124287042.034 7                  23651016.487
        46.700
 412773889.877 5                  78548321.581
        32.500
 202103437.763 7                  38458978.425
        44.700
 105700839.574 8  82211808.801 8  19808286.315    19808286.507    19808291.441
        52.900          48.400
 144337976.593 6                  27466603.580
        38.100
 143823554.472 6                  27368684.115
        38.200
 109736336.787 8  85508842.00546  20882126.455    20882126.0934   20882126.4774
        48.000          38.9004
 127759860.245 6  99553179.66745  24311879.694    24311879.2564   24311881.5074
        39.300          33.4004
 127086298.047 5  98844919.706 5  23757439.020    23757438.111    23757443.060
        32.100          34.800
 106827823.575 8  83242464.99547  20328652.700    20328652.3344   20328652.4984
        50.400          44.2004
 124856544.166 7                  23759405.512
        47.300
 122613366.523 7  95542913.75446  23332538.013    23332537.3794   23332539.0414
        43.500          38.0004
 107134176.542 8  83481196.88248  20386946.683    20386946.2454   20386946.1504
        49.400          49.1004
 131285830.160 7 102111226.389 6  24568355.109    24568355.000    24568360.859
        42.000          40.400
 147920311.830 6                  28148298.351
        37.500
 127377539.020 7                  24239137.450
        47.000
 125117818.428 6  97494418.07746  23809127.785    23809127.1194   23809129.7854
        40.200          36.4004
 120878570.763 7  94016729.482 6  22604894.326    22604894.570    22604902.899
        45.700          41.500
 135287766.607 6 105419046.72544  25744404.034    25744403.5744   25744407.1654
        37.300          28.0004
 107748805.064 8  83804668.345 8  20184974.538    20184974.860    20184980.639
        51.600          48.000
 102663524.079 8  79849451.121 7  19185129.100    19185129.152    19185135.320
        51.800          47.300
 107054204.764 8  83264415.950 8  19998620.285    19998620.425    19998626.095
        52.200          48.500
 124571435.531 7  96888943.602 6  23303652.793    23303652.572    23303660.216
        42.700          36.000
 25  1  1  8  4 45.0000000  0 31G10G24E03E08R04S31S35G13E13S48S33R02
                                E29E15G23G05R19G18E07G29G15R11E33E26
                                G27R24G32R18R17R03R01
 124873351.404 7  97303922.71446  23762608.384    23762607.7764   23762611.0074
        42.700          38.5004
 120405135.138 7  93822213.60146  22912332.971    22912332.5474   22912337.0234
        42.300          38.8004
 148887896.743 6                  28332414.835
        37.400
 127881874.565 7                  24335101.663
        46.300
 126718940.893 7  98559221.402 6  23663872.273    23663872.768    23663878.967
        43.300          38.700
 198974620.235 7                  37863606.994
        45.500
 200952938.694 7                  38240078.960
        44.300
 119746371.682 7  93308884.61444  22786967.845    22786967.2514   22786967.7334
        44.300          27.8004
 124298808.324 7                  23653255.478
        47.000
 412773659.260 5                  78548299.665
        32.900
 202103409.166 7                  38458971.400
        45.000
 105730866.434 8  82235163.013 8  19813913.112    19813913.490    19813918.670
        53.000          48.300
 144293039.074 6                  27458051.742
        38.200
 143859556.905 6                  27375535.039
        38.400
 109720265.306 8  85496318.78646  20879068.154    20879067.7974   20879068.1954
        48.300          38.8004
 127802299.265 6  99586248.96145  24319955.833    24319955.3824   24319957.2134
        40.600          33.2004
 127023652.137 5  98796195.165 6  23745726.959    23745725.598    23745733.204
        34.100          36.500
 106822561.958 8  83238365.03247  20327651.413    20327651.0474   20327651.2354
        50.500          44.2004
 124834417.218 7                  23755194.907
        47.700
 122667537.669 7  95585125.00546  23342846.236    23342845.6024   23342847.8534
        42.900          37.5004
 107160491.279 8  83501701.87048  20391954.266    20391953.8284   20391953.6794
        49.100          49.1004
 131261690.758 6 102092451.283 6  24563836.482    24563836.716    24563843.349
        40.600          39.100
 147881349.908 6                  28140884.526
        38.100
 127353085.991 7                  24234484.106
        47.200
 125086248.237 6  97469817.91746  23803120.262    23803119.6054   23803122.2274
        39.600          36.2004
 120938457.227 7  94063307.800 6  22616093.609    22616092.666    22616102.140
        44.200          41.300
 135234699.454 5 105377695.71944  25734305.730    25734305.2924   25734308.5194
        35.700          25.5004
 107708827.082 8  83773574.354 7  20177485.408    20177485.643    20177491.624
        51.400          47.900
 102679213.296 8  79861653.833 7  19188060.611    19188061.016    19188067.287
        52.000          47.400
 107028576.805 8  83244483.109 8  19993832.503    19993832.695    19993838.619
        52.100          48.600
 124628569.498 7  96933381.181 6  23314341.283    23314340.801    23314348.615
        43.200          36.000
 25  1  1  8  5  0.0000000  0 31G10G24E03E08R04S31S35G13E13S48S33R02
                                E29E15G23G05R19G18E07G29G15R11E33E26
                                G27R24G32R18R17R03R01
 124838853.904 7  97277041.55846  23756043.398    23756042.7864   23756046.2094
        42.900          38.4004
 120361522.465 7  93788229.71446  22904033.637    22904033.2314   22904037.6204
        42.100          38.9004
 148930537.631 6                  28340528.929
        37.500
 127902189.551 7                  24338967.632
        46.300
 126663994.558 7  98516485.321 6  23653611.581    23653611.683    23653618.006
        42.500          38.300
 198974621.162 7                  37863606.721
        45.800
 200952947.685 7                  38240081.049
        44.300
 119794348.446 7  93346269.09444  22796097.477    22796096.8694   22796097.4804
        44.100          28.0004
 124310642.219 7                  23655507.503
        46.900
 412773429.721 5                  78548257.623
        32.700
 202103381.853 7                  38458964.585
        44.900
 105760999.745 8  82258600.041 8  19819560.292    19819560.478    19819565.685
        53.100          48.300
 144248123.051 6                  27449504.834
        37.700
 143895595.108 6                  27382393.023
        38.600
 109704248.013 8  85483837.79446  20876020.099    20876019.7334   20876020.1994
        48.200          38.8004
 127844743.666 6  99619322.46245  24328032.492    24328032.0364   24328034.0774
        40.600          33.3004
 126961013.959 5  98747476.689 5  23734016.195    23734016.208    23734022.288
        31.400          35.200
 106817413.051 8  83234352.90047  20326671.614    20326671.2484   20326671.4224
        50.600          44.2004
 124812379.010 7                  23751001.333
        47.700
 122721746.900 7  95627365.92746  23353162.284    23353161.6504   23353163.5334
        42.700          37.5004
 107186929.637 8  83522303.18248  20396985.291    20396984.8624   20396984.7104
        49.200          49.0004
 131237691.337 6 102073784.985 6  24559346.127    24559345.343    24559352.530
        40.200          39.400
 147842375.990 6                  28133467.316
        37.800
 127328672.448 7                  24229838.311
        47.100
 125054798.951 6  97445311.98046  23797135.199    23797134.5474   23797137.7394
        39.700          36.1004
 120998414.034 7  94109940.860 6  22627305.738    22627305.537    22627314.541
        45.400          41.200
 135181644.497 6 105336354.18744  25724209.612    25724209.1924   25724212.2404
        39.500          28.7004
 107668971.372 8  83742575.480 8  20170019.273    20170019.209    20170025.222
        51.300          48.100
 102695084.025 8  79873997.746 7  19191026.835    19191026.936    19191033.082
        51.700          47.400
 107003082.943 8  83224654.577 8  19989070.189    19989070.292    19989076.135
        52.900          48.700
 124685698.275 7  96977814.728 6  23325028.276    23325028.081    23325036.602
        42.700          36.500
 25  1  1  8  5 15.0000000  0 31G10G24E03E08R04S31S35G13E13S48S33R02
                                E29E15G23G05R19G18E07G29G15R11E33E26
                                G27R24G32R18R17R03R01
 124804375.223 7  97250175.07746  23749482.044    23749481.4414   23749485.2934
        42.800          38.5004
 120317976.067 7  93754297.47046  22895747.052    22895746.6504   22895750.7824
        42.400          38.9004
 148973188.080 6                  28348645.382
        37.900
 127922581.816 7                  24342847.945
        46.400
 126609098.331 7  98473788.255 6  23643359.426    23643359.983    23643366.789
        43.900          39.100
 198974618.530 7                  37863606.390
        45.400
 200952952.332 7                  38240082.739
        44.200
 119842397.100 7  93383709.60044  22805241.298    22805240.6864   22805240.6704
        44.100          27.9004
 124322538.615 7                  23657771.273
        47.100
 412773195.048 5                  78548233.798
        32.200
 202103350.163 7                  38458959.581
        44.900
 105791234.064 8  82282115.621 8  19825226.113    19825226.176    19825231.410
        52.900          48.400
 144203223.526 6                  27440960.418
        37.600
 143931663.991 6                  27389257.126
        38.300
 109688279.776 7  85471395.01946  20872981.552    20872981.1864   20872981.5084
        47.800          38.9004
 127887188.073 6  99652395.95345  24336109.876    24336109.4204   24336111.3874
        38.900          33.0004
 126898378.464 5  98698760.229 6  23722306.930    23722308.279    23722313.922
        34.000          36.400
 106812371.849 8  83230424.69147  20325712.197    20325711.8354   20325712.0894
        50.200          44.2004
 124790424.419 7                  23746823.362
        47.700
 122775988.803 7  95669632.31946  23363484.275    23363483.6234   23363485.5314
        42.500          37.6004
 107213486.376 8  83542996.74248  20402038.911    20402038.4824   20402038.2884
        48.900          48.9004
 131213827.295 7 102055223.937 6  24554879.860    24554880.303    24554886.407
        42.400          39.600
 147803385.131 6                  28126047.677
        37.200
 127304293.409 7                  24225199.223
        47.200
 125023465.656 6  97420896.41646  23791172.992    23791172.3664   23791175.1704
        39.800          36.0004
 121058435.556 7  94156624.196 6  22638530.231    22638530.499    22638539.307
        44.700          41.300
 135128596.603 6 105295018.18244  25714114.856    25714114.4364   25714117.4444
        37.000          27.6004
 107629233.196 8  83711668.007 8  20162574.752    20162575.040    20162580.927
        51.600          48.100
 102711131.039 8  79886478.747 7  19194025.710    19194025.673    19194031.698
        51.800          47.600
 106977718.157 8  83204926.423 8  19984331.873    19984332.013    19984337.776
        52.300          48.700
 124742816.317 6  97022239.842 6  23335713.289    23335712.813    23335721.464
        41.900          36.000
 25  1  1  8  5 30.0000000  0 31G10G24E03E08R04S31S35G13E13S48S33R02
                                E29E15G23G05R19G18E07G29G15R11E33E26
                                G27R24G32R18R17R03R01
 124769922.614 7  97223328.91146  23742926.160    23742925.5614   23742929.2104
        42.600          38.5004
 120274503.571 7  93720422.81846  22887474.562    22887474.1694   22887478.4014
        42.700          39.1004
 149015855.159 6                  28356764.630
        37.500
 127943058.436 7                  24346744.691
        46.400
 126554259.502 7  98431135.798 6  23633119.379    23633120.235    23633125.432
        44.100          37.900
 198974618.504 7                  37863602.048
        45.500
 200952960.551 7                  38240084.622
        44.000
 119890524.500 7  93421211.46844  22814399.503    22814398.8914   22814398.9774
        43.200          27.6004
 124334504.796 7                  23660048.588
        47.200
 412772962.536 5                  78548208.185
        32.300
 202103320.579 7                  38458956.223
        45.100
 105821576.160 8  82305715.009 8  19830912.225    19830912.448    19830917.530
        52.900          48.400
 144158347.884 6                  27432421.331
        38.600
 143967770.712 6                  27396127.725
        37.600
 109672367.803 7  85458996.08146  20869953.770    20869953.3954   20869953.5804
        47.500          38.8004
 127929639.540 6  99685474.97245  24344188.014    24344187.5494   24344189.3924
        39.900          33.2004
 126835753.446 5  98650051.948 6  23710600.167    23710599.993    23710606.999
        32.300          36.000
 106807445.760 8  83226586.17647  20324774.988    20324774.6264   20324774.6804
        50.200          44.1004
 124768560.775 7                  23742662.803
        47.800
 122830270.129 7  95711929.44446  23373813.487    23373812.8444   23373814.7244
        42.300          37.8004
 107240168.709 8  83563788.16548  20407116.367    20407115.9384   20407115.7754
        48.500          48.8004
 131190106.253 6 102036774.248 6  24550440.747    24550440.934    24550447.531
        41.800          40.000
 147764384.507 6                  28118626.313
        38.100
 127279956.273 7                  24220567.940
        47.300
 124992255.846 6  97396577.07846  23785233.932    23785233.3114   23785236.1044
        40.500          36.2004
 121118528.907 7  94203363.396 6  22649767.241    22649767.168    22649777.192
        45.100          41.300
 135075563.301 6 105253693.53344  25704022.841    25704022.4304   25704025.6584
        37.500          27.4004
 107589620.334 8  83680858.006 8  20155153.884    20155154.069    20155160.457
        51.600          48.000
 102727361.736 8  79899102.601 7  19197058.507    19197058.735    19197064.804
        51.700          47.300
 106952489.922 8  83185304.483 8  19979618.765    19979619.017    19979624.695
        52.000          48.400
 124799930.807 7  97066662.238 6  23346398.473    23346398.073    23346405.793
        42.900          36.600
 25  1  1  8  5 45.0000000  0 31G10G24E03E08R04S31S35G13E13S48S33R02
                                E29E15G23G05R19G18E07G29G15R11E33E26
                                G27R24G32R18R17R03R01
 124735489.080 7  97196497.61246  23736373.479    23736372.8764   23736376.4854
        42.800          38.0004
 120231098.425 7  93686600.63046  22879213.969    22879213.5494   22879218.8494
        42.200          39.1004
 149058531.721 6                  28364885.216
        37.200
 127963612.275 7                  24350655.847
        46.300
 126499471.474 7  98388522.858 6  23622888.036    23622888.268    23622895.124
        43.400          38.800
 198974614.132 7                  37863603.260
        45.200
 200952963.752 7                  38240082.135
        44.000
 119938723.402 7  93458769.05144  22823571.483    22823570.8754   22823571.0714
        43.900          27.8004
 124346533.891 7                  23662337.558
        47.100
 412772727.156 5                  78548186.122
        33.100
 202103287.875 7                  38458951.537
        44.900
 105852019.022 8  82329392.794 8  19836616.989    19836617.384    19836622.649
        52.900          48.200
 144113489.299 6                  27423884.438
        38.100
 144003908.248 6                  27403004.742
        38.200
 109656505.150 7  85446635.57346  20866935.005    20866934.6254   20866935.0114
        47.600          38.7004
 127972091.364 6  99718554.26345  24352266.175    24352265.7194   24352267.8074
        39.900          33.4004
 126773132.612 5  98601346.880 6  23698893.265    23698892.802    23698900.922
        31.900          36.600
 106802628.012 8  83222832.08847  20323858.187    20323857.8164   20323857.8904
        50.300          44.1004
 124746781.215 7                  23738518.439
        47.800
 122884583.257 7  95754251.32846  23384149.262    23384148.5964   23384150.6704
        42.300          37.5004
 107266969.140 8  83584671.61448  20412216.238    20412215.8054   20412215.7274
        49.200          48.6004
 131166521.347 6 102018430.337 6  24546027.051    24546026.995    24546034.513
        40.800          39.900
 147725367.351 6                  28111201.472
        37.900
 127255654.230 7                  24215943.566
        47.300
 124961162.820 6  97372348.73246  23779317.010    23779316.3764   23779319.3474
        40.500          36.1004
 121178686.689 7  94250152.745 6  22661017.793    22661018.347    22661026.958
        44.900          41.700
 135022537.877 6 105212375.02844  25693932.713    25693932.3024   25693935.2454
        37.700          27.0004
 107550126.169 8  83650140.336 7  20147755.010    20147755.703    20147761.501
        51.400          47.900
 102743769.093 8  79911863.872 7  19200124.650    19200124.877    19200131.023
        51.500          47.500
 106927390.994 8  83165783.105 8  19974930.299    19974930.391    19974936.328
        52.300          48.500
 124857034.479 7  97111076.200 6  23357079.945    23357079.670    23357088.253
        42.300          36.400
 25  1  1  8  6  0.0000000  0 31G10G24E03E08R04S31S35G13E13S48S33R02
                                E29E15G23G05R19G18E07G29G15R11E33E26
                                G27R24G32R18R17R03R01
 124701084.451 7  97169688.82646  23729826.264    23729825.6524   23729829.3324
        42.300          38.3004
 120187770.911 7  93652838.91546  22870969.471    22870969.0604   22870973.8664
        42.800          39.3004
 149101227.405 6                  28373010.227
        38.000
 127984253.018 7                  24354583.709
        46.600
 126444744.510 7  98345957.448 6  23612667.503    23612667.834    23612674.341
        42.700          38.800
 198974616.206 7                  37863601.565
        45.300
 200952973.138 7                  38240080.521
        43.800
 119987003.104 7  93496389.59244  22832758.667    22832758.0414   22832758.2254
        44.100          28.0004
 124358635.804 7                  23664640.304
        47.200
 412772498.979 5                  78548156.059
        32.400
 202103261.288 7                  38458945.420
        45.100
 105882571.844 8  82353156.089 8  19842342.689    19842343.024    19842348.164
        53.100          48.200
 144068657.822 6                  27415354.025
        37.800
 144040086.451 6                  27409889.438
        38.300
 109640701.636 7  85434321.15046  20863927.804    20863927.4334   20863927.7384
        47.400          38.9004
 128014553.088 6  99751641.26745  24360346.463    24360346.0254   24360348.0784
        40.500          33.7004
 126710526.087 5  98552653.011 5  23687190.856    23687190.606    23687196.307
        33.100          35.200
 106797928.581 8  83219170.18147  20322963.870    20322963.5044   20322963.6194
        50.500          44.3004
 124725095.553 8                  23734391.619
        48.200
 122938938.021 7  95796605.68046  23394491.759    23394491.0714   23394493.7114
        42.700          37.6004
 107293897.234 8  83605654.54148  20417340.311    20417339.8824   20417339.9344
        48.900          48.8004
 131143083.282 6 102000200.817 6  24541640.324    24541641.206    24541647.498
        40.200          38.900
 147686343.495 6                  28103776.010
        38.500
 127231397.277 7                  24211327.547
        47.600
 124930196.626 6  97348219.22446  23773423.826    23773423.1604   23773426.5404
        40.600          36.4004
 121238918.525 7  94296999.702 6  22672281.012    22672280.397    22672290.282
        44.100          41.300
 134969530.461 6 105171070.54344  25683845.292    25683844.8814   25683848.3514
        37.400          27.4004
 107510761.198 8  83619523.137 8  20140380.620    20140381.152    20140387.093
        51.200          48.200
 102760362.844 8  79924770.098 7  19203225.445    19203225.805    19203231.977
        51.800          47.700
 106902431.277 8  83146369.998 8  19970267.324    19970267.589    19970273.540
        52.100          48.500
 124914136.823 7  97155489.186 5  23367762.520    23367762.180    23367769.681
        43.100          35.100
 25  1  1  8  6 15.0000000  0 31G10G24E03E08R04S31S35G13E13S48S33R02
                                E29E15G23G05R19G18E07G29G15R11E33E26
                                G27R24G32R18R17R03R01
 124666701.230 7  97142896.71846  23723283.442    23723282.8214   23723286.3024
        42.900          38.5004
 120144513.982 7  93619132.20046  22862738.129    22862737.7144   22862742.3334
        42.200          39.3004
 149143934.522 6                  28381137.470
        37.800
 128004972.983 7                  24358526.615
        46.500
 126390070.956 7  98303433.596 6  23602458.237    23602457.497    23602465.059
        42.300          38.600
 198974616.407 7                  37863603.483
        45.100
 200952981.123 7                  38240084.116
        43.900
 120035355.891 7  93534067.08144  22841959.839    22841959.2094   22841959.5104
        43.900          28.0004
 124370803.083 7                  23666955.879
        47.300
 412772268.771 5                  78548136.232
        32.100
 202103231.903 7                  38458943.036
        44.900
 105913226.735 8  82376998.789 8  19848087.628    19848087.687    19848092.674
        53.200          48.200
 144023846.104 6                  27406826.235
        38.300
 144076297.662 6                  27416779.801
        37.600
 109624949.780 8  85422046.97846  20860930.336    20860929.9654   20860930.2754
        48.100          38.9004
 128057017.288 6  99784730.20245  24368426.932    24368426.4764   24368428.9534
        40.300          33.5004
 126647926.622 5  98503964.622 6  23675489.001    23675488.209    23675493.972
        33.300          36.400
 106793340.167 8  83215594.78647  20322090.758    20322090.3874   20322090.4994
        50.700          44.2004
 124703496.450 8                  23730281.534
        48.200
 122993326.503 7  95838986.29346  23404841.760    23404841.0584   23404843.5814
        43.300          37.8004
 107320945.283 8  83626730.94048  20422487.390    20422486.9574   20422487.0004
        49.200          48.7004
 131119784.199 6 101982079.244 6  24537280.894    24537281.078    24537288.006
        40.600          40.100
 147647305.619 6                  28096346.517
        37.600
 127207178.108 7                  24206718.906
        47.600
 124899350.054 6  97324182.92045  23767554.568    23767553.9164   23767556.3994
        39.500          35.9004
 121299216.429 7  94343897.997 7  22683557.549    22683557.838    22683566.883
        45.300          42.000
 134916533.735 6 105129774.38944  25673760.221    25673759.8104   25673762.9874
        38.500          27.5004
 107471518.379 8  83589000.943 8  20133029.286    20133029.496    20133035.625
        51.600          48.100
 102777135.378 8  79937815.393 7  19206359.959    19206360.202    19206366.289
        51.500          47.500
 106877603.455 8  83127059.482 8  19965629.447    19965629.537    19965635.309
        52.200          48.500
 124971230.006 6  97199894.989 6  23378442.784    23378441.989    23378450.992
        41.800          36.300
 25  1  1  8  6 30.0000000  0 31G10G24E03E08R04S31S35G13E13S48S33R02
                                E29E15G23G05R19G18E07G29G15R11E33E26
                                G27R24G32R18R17R03R01
 124632341.294 7  97116122.75746  23716745.251    23716744.6434   23716747.8554
        43.000          38.4004
 120101329.988 7  93585482.32846  22854520.933    22854520.5274   22854524.6674
        42.300          39.2004
 149186654.814 6                  28389266.722
        38.100
 128025773.916 7                  24362484.556
        46.200
 126335453.096 7  98260952.989 6  23592259.689    23592260.131    23592264.925
        44.900          38.700
 198974616.325 7                  37863605.625
        45.300
 200952988.262 7                  38240085.435
        44.000
 120083783.374 7  93571802.77844  22851175.314    22851174.6934   22851174.9924
        44.100          28.0004
 124383037.713 7                  23669283.998
        47.000
 412772038.150 5                  78548107.672
        32.200
 202103203.583 7                  38458932.488
        44.800
 105943985.285 8  82400922.105 8  19853851.681    19853851.876    19853856.980
        53.300          48.200
 143979056.177 6                  27398303.278
        38.400
 144112543.703 6                  27423677.547
        37.700
 109609251.457 7  85409814.52646  20857942.950    20857942.5794   20857943.0164
        47.700          38.9004
 128099485.855 6  99817822.53345  24376508.685    24376508.2294   24376510.6374
        39.300          33.5004
 126585336.622 5  98455283.571 5  23663786.144    23663786.988    23663793.757
        31.600          35.900
 106788864.832 8  83212107.50547  20321238.900    20321238.5294   20321238.9064
        50.400          44.2004
 124681985.834 8                  23726188.243
        48.000
 123047750.445 7  95881394.52746  23415198.704    23415198.0074   23415200.4004
        42.400          37.3004
 107348114.840 8  83647902.01848  20427657.792    20427657.3504   20427657.1934
        49.100          48.6004
 131096626.774 6 101964067.880 6  24532947.590    24532947.973    24532954.078
        39.900          39.500
 147608255.704 6                  28088915.990
        38.100
 127182998.788 7                  24202117.635
        47.500
 124868625.253 6  97300241.51546  23761707.955    23761707.2894   23761709.6864
        40.600          36.3004
 121359581.945 7  94390848.899 6  22694845.023    22694846.297    22694855.462
        44.900          40.900
 134863549.686 6 105088488.10844  25663677.781    25663677.3704   25663680.9854
        38.300          29.1004
 107432400.010 8  83558575.561 7  20125701.286    20125701.450    20125707.168
        51.400          47.900
 102794088.780 8  79951001.376 7  19209528.122    19209528.422    19209534.470
        51.600          47.500
 106852909.424 8  83107853.020 8  19961016.747    19961016.642    19961022.236
        52.100          48.400
 125028315.767 6  97244294.990 5  23389122.288    23389121.256    23389130.054
        41.400          35.800
 25  1  1  8  6 45.0000000  0 31G10G24E03E08R04S31S35G13E13S48S33R02
                                E29E15G23G05R19G18E07G29G15R11E33E26
                                G27R24G32R18R17R03R01
 124598004.496 7  97089366.82546  23710211.320    23710210.7214   23710214.0234
        42.700          38.6004
 120058219.185 7  93551889.49546  22846317.019    22846316.5954   22846320.9034
        43.100          39.5004
 149229387.925 6                  28397398.704
        37.100
 128046655.452 7                  24366458.543
        46.100
 126280891.000 7  98218515.766 6  23582069.693    23582070.725    23582076.154
        44.500          39.200
 198974617.463 7                  37863604.422
        45.500
 200952996.513 7                  38240087.488
        44.200
 120132284.871 7  93609596.14344  22860404.808    22860404.1874   22860404.6224
        44.000          28.1004
 124395339.556 7                  23671624.854
        46.900
 412771806.692 5                  78548086.896
        32.600
 202103175.309 7                  38458924.041
        44.900
 105974846.947 8  82424925.601 8  19859635.099    19859635.249    19859640.461
        52.700          48.200
 143934288.084 6                  27389783.863
        37.800
 144148824.447 6                  27430581.096
        38.200
 109593606.491 7  85397623.64846  20854965.753    20854965.3784   20854965.8684
        47.700          39.1004
 128141958.559 6  99850918.09545  24384591.082    24384590.6224   24384593.2204
        40.000          33.7004
 126522756.216 5  98406609.988 6  23652087.723    23652087.251    23652095.679
        31.400          36.500
 106784502.557 8  83208708.32747  20320409.104    20320408.7334   20320408.8034
        50.600          44.3004
 124660563.576 7                  23722111.797
        47.500
 123102209.197 7  95923829.90046  23425562.063    23425561.3704   23425563.4134
        43.300          38.0004
 107375405.410 8  83669167.39148  20432850.937    20432850.4954   20432850.4144
        49.000          48.7004
 131073611.030 6 101946166.653 6  24528641.019    24528641.537    24528647.240
        41.800          40.200
 147569193.690 6                  28081482.553
        37.600
 127158859.267 7                  24197523.975
        47.300
 124838022.317 6  97276395.05946  23755883.987    23755883.3214   23755886.3594
        39.900          36.4004
 121420014.766 7  94437852.200 6  22706146.366    22706146.660    22706156.451
        43.900          41.400
 134810578.462 6 105047211.84944  25653597.762    25653597.3424   25653601.1704
        37.000          28.1004
 107393406.337 8  83528247.131 8  20118396.785    20118396.626    20118402.589
        51.900          48.000
 102811222.916 8  79964327.905 7  19212730.139    19212730.328    19212736.487
        51.900          47.400
 106828348.795 8  83088750.302 8  19956428.347    19956428.538    19956434.373
        52.100          48.500
 125085393.780 7  97288689.040 6  23399799.058    23399798.664    23399807.658
        42.000          37.400
 25  1  1  8  7  0.0000000  0 31G10G24E03E08R04S31S35G13E13S48S33R02
                                E29E15G23G05R19G18E07G29G15R11E33E26
                                G27R24G32R18R17R03R01
 124563687.471 7  97062626.31646  23703680.991    23703680.4064   23703683.6834
        42.900          38.4004
 120015178.676 7  93518351.45346  22838126.480    22838126.0564   22838130.7244
        42.500          39.5004
 149272130.289 6                  28405532.306
        37.400
 128067614.098 7                  24370446.732
        46.100
 126226381.395 7  98176119.446 6  23571890.179    23571890.580    23571897.874
        43.200          39.300
 198974614.492 7                  37863609.681
        45.400
 200953001.410 7                  38240091.606
        43.900
 120180856.717 7  93647444.33944  22869647.879    22869647.2674   22869647.4574
        44.500          28.1004
 124407705.401 7                  23673978.104
        47.000
 412771572.367 5                  78548053.113
        32.300
 202103143.500 7                  38458923.366
        44.700
 106005807.968 8  82449006.391 8  19865437.331    19865437.551    19865442.561
        53.100          48.200
 143889538.613 6                  27381268.798
        38.600
 144185136.567 6                  27437491.111
        37.600
 109578011.575 8  85385471.77146  20851998.371    20851998.0144   20851998.2404
        48.000          38.9004
 128184432.272 6  99884014.45145  24392673.397    24392672.9284   24392675.8664
        39.600          33.5004
 126460182.127 5  98357941.269 6  23640390.570    23640390.926    23640397.146
        34.000          36.000
 106780250.198 8  83205394.80047  20319599.758    20319599.3874   20319599.6054
        50.600          44.2004
 124639226.498 8                  23718051.442
        48.300
 123156698.629 7  95966289.18846  23435930.597    23435929.9134   23435932.2744
        42.600          37.4004
 107402813.528 8  83690524.36348  20438066.563    20438066.1214   20438066.0034
        49.000          48.5004
 131050733.966 6 101928373.368 6  24524359.428    24524359.659    24524365.925
        41.100          40.300
 147530116.229 6                  28074046.663
        37.200
 127134756.397 7                  24192937.398
        47.300
 124807538.118 6  97252641.13046  23750083.395    23750082.7204   23750085.4264
        40.600          36.1004
 121480511.117 7  94484904.892 6  22717460.841    22717460.813    22717469.696
        45.300          41.600
 134757616.969 6 105005943.16644  25643519.540    25643519.1384   25643522.7144
        38.100          28.5004
 107354534.493 8  83498013.478 8  20111114.110    20111114.669    20111120.458
        51.700          48.000
 102828534.151 8  79977792.187 7  19215965.140    19215965.283    19215971.518
        51.600          47.200
 106803918.370 8  83069748.881 8  19951864.397    19951864.563    19951870.309
        51.700          48.600
 125142460.147 7  97333073.929 6  23410475.905    23410475.405    23410482.521
        42.100          36.100
 25  1  1  8  7 15.0000000  0 31G10G24E03E08R04S31S35G13E13S48S33R02
                                E29E15G23G05R19G18E07G29G15R11E33E26
                                G27R24G32R18R17R03R01
 124529396.697 7  97035906.23646  23697155.560    23697154.9664   23697158.2274
        43.500          38.5004
 119972215.350 7  93484873.55746  22829950.667    22829950.2524   22829955.2794
        42.500          39.6004
 149314888.181 6                  28413669.069
        37.600
 128088656.160 7                  24374450.874
        46.300
 126171931.059 7  98133769.153 6  23561721.425    23561722.111    23561728.823
        43.900          39.000
 198974614.872 7                  37863601.900
        45.100
 200953009.264 7                  38240091.132
        43.900
 120229505.144 7  93685352.19744  22878905.287    22878904.6754   22878904.7044
        44.100          28.0004
 124420141.725 7                  23676344.651
        46.900
 412771341.841 5                  78548034.297
        32.200
 202103114.751 7                  38458914.713
        44.600
 106036874.617 8  82473169.335 8  19871258.904    19871259.290    19871264.591
        52.800          48.200
 143844814.440 6                  27372757.532
        38.200
 144221486.373 6                  27444408.687
        37.400
 109562473.133 7  85373363.89246  20849041.363    20849041.0064   20849041.3934
        47.900          39.0004
 128226913.317 6  99917116.51745  24400757.657    24400757.2014   24400759.5714
        40.300          33.3004
 126397621.630 5  98309283.095 5  23628694.356    23628695.813    23628702.797
        33.500          35.600
 106776114.388 8  83202172.09047  20318812.820    20318812.4494   20318812.6124
        50.800          44.3004
 124617981.046 7                  23714008.444
        47.700
 123211225.131 7  96008777.34746  23446307.156    23446306.4724   23446308.2534
        43.500          37.6004
 107430345.276 8  83711977.67048  20443305.643    20443305.2054   20443305.1044
        49.100          48.5004
 131028002.521 6 101910693.212 6  24520106.256    24520105.934    24520112.182
        41.400          41.300
 147491030.030 6                  28066608.723
        38.100
 127110696.810 7                  24188358.984
        47.300
 124777179.431 6  97228984.99646  23744305.883    23744305.1954   23744308.4524
        40.500          36.2004
 121541076.936 7  94532011.582 7  22728787.211    22728786.834    22728796.361
        44.600          42.100
 134704671.827 6 104964687.20844  25633444.166    25633443.7694   25633447.5134
        37.800          28.1004
 107315791.551 8  83467880.085 7  20103856.671    20103856.908    20103862.446
        52.000          47.900
 102846029.062 8  79991399.331 7  19219234.359    19219234.701    19219240.833
        51.700          47.500
 106779624.836 8  83050853.922 8  19947326.185    19947326.278    19947332.193
        51.900          48.500
 125199521.168 7  97377454.681 5  23421149.536    23421149.306    23421156.781
        42.300          35.500
 25  1  1  8  7 30.0000000  0 31G10G24E03E08R04S31S35G13E13S48S33R02
                                E29E15G23G05R19G18E07G29G15R11E33E26
                                G27R24G32R18R17R03R01
 124495126.136 7  97009201.92546  23690633.635    23690633.0504   23690636.8714
        43.200          38.6004
 119929323.596 7  93451451.42946  22821788.895    22821788.5024   22821793.1544
        42.400          39.5004
 149357655.496 6                  28421807.239
        37.700
 128109775.455 7                  24378469.520
        46.200
 126117534.218 7  98091460.499 6  23551563.707    23551563.832    23551569.453
        43.300          38.500
 198974612.966 7                  37863604.968
        45.400
 200953014.664 7                  38240091.767
        43.900
 120278223.680 7  93723314.68344  22888176.006    22888175.3984   22888175.6034
        44.200          28.0004
 124432642.616 7                  23678723.426
        46.800
 412771109.774 5                  78547996.140
        32.500
 202103083.379 7                  38458911.225
        44.700
 106068040.184 8  82497409.215 8  19877099.671    19877099.717    19877104.982
        53.000          48.200
 143800109.662 6                  27364250.734
        38.700
 144257867.786 6                  27451331.581
        36.600
 109546985.164 7  85361295.35046  20846093.997    20846093.6354   20846094.1514
        47.900          38.9004
 128269395.421 6  99950219.40445  24408842.149    24408841.6844   24408843.6124
        38.800          33.3004
 126335068.942 5  98260631.076 6  23617002.058    23617001.702    23617009.464
        32.300          37.000
 106772089.248 8  83199035.60947  20318046.895    20318046.5244   20318046.6414
        50.500          44.2004
 124596821.293 7                  23709981.874
        47.600
 123265782.514 7  96051289.57146  23456688.859    23456688.1664   23456690.3824
        42.300          37.2004
 107457994.223 8  83733522.30048  20448567.029    20448566.5914   20448566.5274
        49.100          48.4004
 131005410.824 6 101893121.792 6  24515878.410    24515878.189    24515885.148
        41.800          40.300
 147451929.105 6                  28059168.033
        38.300
 127086674.670 7                  24183787.854
        47.300
 124746940.413 6  97205422.12646  23738551.936    23738551.2214   23738554.3904
        40.000          36.5004
 121601705.905 7  94579167.368 6  22740124.868    22740124.315    22740133.780
        44.800          41.600
 134651737.275 6 104923439.49644  25623370.643    25623370.2324   25623374.5844
        37.400          29.3004
 107277171.870 8  83437842.558 8  20096621.944    20096621.997    20096627.978
        52.000          48.100
 102863701.598 8  80005144.616 7  19222536.866    19222537.307    19222543.444
        52.100          47.500
 106755461.855 8  83032060.528 8  19942812.146    19942812.488    19942818.269
        52.000          48.800
 125256570.353 6  97421826.062 6  23431820.637    23431821.656    23431829.300
        41.700          36.100
 25  1  1  8  7 45.0000000  0 31G10G24E03E08R04S31S35G13E13S48S33R02
                                E29E15G23G05R19G18E07G29G15R11E33E26
                                G27R24G32R18R17R03R01
 124460878.627 7  96982515.56846  23684116.857    23684116.2764   23684119.7224
        42.600          38.5004
 119886506.698 7  93418087.63446  22813641.279    22813640.8864   22813645.2234
        42.300          39.5004
 149400434.867 6                  28429947.967
        38.100
 128130974.622 7                  24382503.744
        46.200
 126063193.876 7  98049195.774 6  23541415.755    23541416.906    23541423.529
        44.900          39.900
 198974610.563 7                  37863605.075
        45.200
 200953019.678 7                  38240093.010
        43.700
 120327014.814 7  93761333.73644  22897460.851    22897460.2484   22897460.3064
        44.600          27.9004
 124445210.951 7                  23681115.301
        47.200
 412770876.099 5                  78547969.396
        32.600
 202103051.715 7                  38458904.795
        44.800
 106099307.218 8  82521728.018 8  19882958.821    19882958.965    19882964.337
        52.900          48.100
 143755427.302 6                  27355747.977
        38.500
 144294283.648 6                  27458261.404
        38.100
 109531550.506 7  85349268.35146  20843156.615    20843156.2444   20843157.0874
        47.800          39.0004
 128311881.330 6  99983325.26145  24416927.276    24416926.8204   24416928.2524
        39.500          33.1004
 126272527.383 5  98211987.596 6  23605307.487    23605310.162    23605317.222
        33.500          36.800
 106768177.805 8  83195987.72547  20317302.378    20317302.0034   20317302.3354
        50.600          44.3004
 124575750.126 7                  23705972.120
        47.900
 123320373.007 7  96093827.60246  23467077.017    23467076.3204   23467078.6674
        42.500          37.0004
 107485762.877 8  83755160.20648  20453851.107    20453850.6604   20453850.7284
        49.300          48.4004
 130982962.186 6 101875661.622 6  24511677.128    24511677.046    24511684.005
        40.600          40.100
 147412816.377 6                  28051725.188
        38.400
 127062692.951 7                  24179224.147
        47.600
 124716824.221 6  97181954.95246  23732820.579    23732819.8694   23732823.6714
        40.900          36.4004
 121662400.539 7  94626374.219 6  22751474.335    22751474.487    22751484.189
        44.300          41.500
 134598816.329 6 104882202.41544  25613300.894    25613300.4974   25613304.0744
        38.600          29.4004
 107238678.776 8  83407903.497 8  20089410.713    20089410.924    20089416.973
        51.500          48.000
 102881554.597 8  80019030.278 7  19225873.469    19225873.545    19225879.650
        51.800          47.600
 106731432.336 8  83013370.908 8  19938323.496    19938323.547    19938329.324
        52.300          48.600
 125313610.898 6  97466190.839 6  23442492.823    23442492.133    23442500.425
        41.600          36.500
 25  1  1  8  8  0.0000000  0 31G10G24E03E08R04S31S35G13E13S48S33R02
                                E29E15G23G05R19G18E07G29G15R11E33E26
                                G27R24G32R18R17R03R01
 124426656.846 7  96955849.25746  23677605.278    23677604.7024   23677607.2784
        42.700          38.3004
 119843767.762 7  93384784.59546  22805508.189    22805507.7834   22805512.0754
        42.500          39.5004
 149443228.776 6                  28438091.347
        37.400
 128152256.169 7                  24386553.720
        46.400
 126008913.077 7  98006977.373 6  23531280.114    23531279.908    23531286.227
        43.800          38.800
 198974611.078 7                  37863600.425
        45.500
 200953027.276 7                  38240098.882
        44.200
 120375880.908 7  93799411.21044  22906759.334    22906758.7134   22906759.2824
        43.700          27.4004
 124457849.476 7                  23683520.232
        47.200
 412770644.215 5                  78547941.162
        32.000
 202103022.939 7                  38458898.727
        44.900
 106130678.241 8  82546127.683 8  19888837.880    19888837.892    19888843.269
        53.000          48.100
 143710770.187 6                  27347249.753
        38.400
 144330736.491 6                  27465198.003
        38.100
 109516171.834 7  85337284.98046  20840230.399    20840230.0284   20840230.5894
        47.600          38.8004
 128354373.869 6 100016436.28245  24425012.332    24425011.8594   24425014.5014
        39.900          33.2004
 126210000.134 5  98163355.389 6  23593621.995    23593621.609    23593628.910
        32.800          36.500
 106764382.901 8  83193030.65547  20316580.406    20316580.0354   20316580.2004
        50.300          44.2004
 124554770.311 7                  23701980.002
        47.800
 123374998.954 7  96136393.25446  23477472.051    23477471.3414   23477473.6834
        42.900          36.9004
 107513653.775 8  83776893.37048  20459158.727    20459158.2764   20459158.1954
        48.900          48.3004
 130960659.783 7 101858315.242 6  24507503.976    24507504.508    24507510.756
        42.600          40.700
 147373694.683 6                  28044280.369
        38.300
 127038754.502 7                  24174668.805
        47.500
 124686833.739 6  97158585.72946  23727114.374    23727113.6724   23727116.4004
        39.200          36.1004
 121723163.294 7  94673634.048 6  22762837.572    22762837.962    22762847.235
        44.400          41.700
 134545911.925 6 104840978.20144  25603232.934    25603232.5234   25603236.3194
        37.400          27.9004
 107200315.487 8  83378065.368 8  20082223.864    20082224.459    20082229.859
        51.800          48.000
 102899590.719 8  80033058.355 7  19229244.016    19229244.075    19229250.136
        52.000          47.500
 106707539.277 8  82994787.415 8  19933859.735    19933860.188    19933865.831
        52.200          48.600
 125370645.087 6  97510550.732 5  23453161.619    23453161.840    23453169.600
        41.800          35.500
 25  1  1  8  8 15.0000000  0 31G10G24E03E08R04S31S35G13E13S48S33R02
                                E29E15G23G05R19G18E07G29G15R11E33E26
                                G27R24G32R18R17R03R01
 124392453.754 7  96929197.51346  23671096.157    23671095.6124   23671098.5004
        43.400          38.3004
 119801100.220 7  93351537.18146  22797388.588    22797388.1734   22797392.6864
        43.000          39.4004
 149486030.118 6                  28446235.959
        37.600
 128173612.960 7                  24390617.577
        46.200
 125954684.851 7  97964799.893 6  23521153.197    23521153.047    23521159.334
        44.200          38.700
 198974607.494 7                  37863602.920
        45.300
 200953030.837 7                  38240097.831
        43.900
 120424814.555 7  93837541.32144  22916071.596    22916070.9884   22916071.1324
        44.300          27.5004
 124470551.246 7                  23685937.316
        47.000
 412772008.421 5                  78547922.797
        32.900
 202102990.997 7                  38458891.756
        44.700
 106162145.632 8  82570602.344 8  19894735.063    19894735.023    19894740.118
        53.200          48.100
 143666131.517 6                  27338755.317
        38.100
 144367219.274 6                  27472140.766
        38.200
 109500842.140 8  85325339.76746  20837313.246    20837312.8664   20837313.4054
        48.300          38.7004
 128396866.099 6 100049547.06145  24433099.273    24433098.8174   24433100.3934
        39.600          32.9004
 126147480.542 5  98114729.159 6  23581934.598    23581934.536    23581941.636
        33.000          37.200
 106760697.682 8  83190159.05047  20315879.115    20315878.7444   20315878.9154
        50.800          44.2004
 124533874.912 7                  23698003.612
        47.800
 123429653.048 7  96178980.84846  23487872.567    23487871.8704   23487873.6404
        42.000          36.9004
 107541659.878 8  83798716.30048  20464488.101    20464487.6544   20464487.5604
        49.300          48.2004
 130938496.612 7 101841077.074 6  24503355.725    24503356.283    24503363.801
        42.200          41.200
 147334557.091 6                  28036832.757
        38.000
 127014852.503 7                  24170120.282
        47.500
 124656962.243 6  97135309.22345  23721429.810    23721429.1174   23721431.9714
        40.500          35.8004
 121783986.673 7  94720941.075 6  22774212.185    22774212.572    22774221.478
        44.200          41.700
 134493017.277 6 104799761.58044  25593167.976    25593167.5564   25593170.4374
        38.400          27.7004
 107162075.304 8  83348323.023 8  20075060.432    20075060.584    20075066.342
        51.700          48.000
 102917802.792 8  80047223.309 7  19232647.085    19232647.445    19232653.519
        51.900          47.400
 106683775.456 8  82976304.478 8  19929420.660    19929420.846    19929426.466
        52.300          48.500
 125427665.532 6  97554900.023 5  23463828.228    23463827.787    23463836.365
        40.700          35.400
 25  1  1  8  8 30.0000000  0 31G10G24E03E08R04S31S35G13E13S48S33R02
                                E29E15G23G05R19G18E07G29G15R11E33E26
                                G27R24G32R18R17R03R01
 124358278.927 7  96902567.79446  23664592.895    23664592.3414   23664595.3444
        43.400          38.5004
 119758514.005 7  93318353.15446  22789284.652    22789284.2374   22789288.9264
        42.500          39.4004
 149528848.168 6                  28454384.412
        37.200
 128195054.305 7                  24394697.693
        46.300
 125900519.143 7  97922670.969 6  23511037.601    23511038.872    23511044.345
        44.600          39.100
 198974609.219 7                  37863604.078
        46.000
 200953039.606 7                  38240098.390
        44.400
 120473824.839 7  93875731.14944  22925398.046    22925397.4434   22925397.4344
        43.900          27.6004
 124483325.853 7                  23688368.320
        47.200
 412771779.042 5                  78547893.177
        32.900
 202102962.521 7                  38458885.187
        45.000
 106193718.524 8  82595159.022 8  19900651.445    19900651.726    19900656.929
        53.000          48.100
 143621520.949 6                  27330266.494
        39.200
 144403741.621 6                  27479090.342
        37.800
 109485570.952 7  85313440.14346  20834407.116    20834406.7364   20834407.3734
        47.600          38.7004
 128439367.173 6 100082664.73445  24441186.653    24441186.1884   24441188.0964
        39.700          32.9004
 126084978.310 5  98066116.359 5  23570249.431    23570249.126    23570256.195
        32.600          35.900
 106757131.849 8  83187380.46847  20315200.480    20315200.1144   20315200.3514
        50.600          44.1004
 124513073.498 8                  23694045.159
        48.100
 123484344.385 7  96221597.45246  23498279.728    23498279.0354   23498281.3904
        42.300          36.9004
 107569790.337 8  83820636.13348  20469841.324    20469840.8774   20469840.6164
        49.300          48.1004
 130916483.146 7 101823955.392 6  24499237.606    24499237.641    24499243.800
        43.100          40.900
 147295413.276 6                  28029384.032
        38.000
 126990996.635 7                  24165580.807
        47.500
 124627219.448 6  97112133.01145  23715769.267    23715768.5574   23715772.2114
        41.000          35.9004
 121844880.239 7  94768302.694 6  22785599.715    22785599.093    22785609.171
        43.900          41.800
 134440142.178 6 104758560.20044  25583106.548    25583106.1284   25583108.3564
        38.600          28.0004
 107123968.464 8  83318684.361 8  20067921.451    20067921.827    20067927.714
        51.800          48.200
 102936200.589 8  80061532.687 7  19236085.441    19236085.573    19236091.624
        52.300          47.700
 106660150.124 8  82957929.209 8  19925006.943    19925007.364    19925013.185
        52.400          48.500
 125484681.209 6  97599245.514 6  23474495.115    23474495.276    23474502.741
        41.700          36.400
 25  1  1  8  8 45.0000000  0 31G10G24E03E08R04S31S35G13E13S48S33R02
                                E29E15G23G05R19G18E07G29G15R11E33E26
                                G27R24G32R18R17R03R01
 124324124.281 7  96875953.79846  23658092.724    23658092.1794   23658096.1004
        42.300          38.4004
 119716001.546 7  93285226.58946  22781194.360    22781193.9494   22781199.1484
        42.500          39.4004
 149571674.695 6                  28462533.691
        37.500
 128216572.049 7                  24398792.393
        46.500
 125846407.772 7  97880584.356 6  23500932.631    23500932.513    23500940.191
        43.800          39.700
 198974607.826 7                  37863606.368
        45.900
 200953045.680 7                  38240097.290
        44.200
 120522903.468 7  93913974.22944  22934737.522    22934736.9324   22934736.9904
        43.800          27.3004
 124496165.349 7                  23690811.412
        47.400
 412771547.480 5                  78547876.153
        33.700
 202102932.086 7                  38458881.802
        45.200
 106225388.637 8  82619791.321 8  19906586.457    19906586.678    19906591.970
        53.100          48.100
 143576930.614 6                  27321780.912
        38.900
 144440295.465 6                  27486046.907
        38.200
 109470350.236 7  85301579.85046  20831511.033    20831510.6534   20831510.9254
        47.400          38.7004
 128481869.363 6 100115783.26745  24449273.990    24449273.5304   24449276.2064
        39.500          32.8004
 126022486.283 5  98017511.516 6  23558566.403    23558568.747    23558574.721
        33.100          36.400
 106753677.546 8  83184688.80047  20314543.249    20314542.8874   20314543.0364
        50.300          44.1004
 124492358.118 8                  23690103.279
        48.300
 123539064.542 7  96264236.52846  23508692.841    23508692.1534   23508694.1454
        43.100          36.8004
 107598036.800 8  83842646.35948  20475216.243    20475215.8014   20475215.7564
        49.100          48.1004
 130894611.154 6 101806943.776 6  24495143.845    24495143.790    24495150.114
        41.900          40.300
 147256255.224 6                  28021932.759
        38.200
 126967179.040 8                  24161048.513
        48.000
 124597597.644 6  97089051.07445  23710132.738    23710132.0234   23710135.2714
        40.300          35.8004
 121905835.215 7  94815712.114 6  22796999.388    22796998.874    22797007.645
        44.800          41.400
 134387278.732 6 104717367.88644  25573046.489    25573046.0694   25573048.9904
        37.900          27.9004
 107085987.191 8  83289143.367 8  20060806.694    20060806.836    20060812.401
        51.600          48.200
 102954775.830 8  80075980.101 7  19239556.324    19239556.804    19239562.945
        52.200          47.700
 106636655.489 8  82939655.593 8  19920618.425    19920618.520    19920624.234
        52.600          48.500
 125541684.199 6  97643581.174 6  23485156.767    23485157.909    23485166.027
        41.000          36.200
 25  1  1  8  9  0.0000000  0 31G10G24E03E08R04S31S35G13E13S48S33R02
                                E29E15G23G05R19G18E07G29G15R11E33E26
                                G27R24G32R18R17R03R01
 124289995.473 7  96849359.93746  23651598.894    23651598.3624   23651601.6804
        43.700          38.4004
 119673568.866 7  93252162.17946  22773120.160    22773119.7634   22773124.4174
        42.500          39.6004
 149614515.186 6                  28470686.200
        37.600
 128238171.600 7                  24402902.724
        46.200
 125792357.068 7  97838544.946 6  23490840.074    23490839.841    23490845.990
        44.400          39.000
 198974609.950 7                  37863603.533
        45.500
 200953054.188 7                  38240101.001
        44.100
 120572055.679 7  93952274.65344  22944090.564    22944089.9704   22944090.1494
        43.800          27.4004
 124509075.413 7                  23693268.405
        47.200
 412771318.864 5                  78547853.424
        33.500
 202102904.251 7                  38458876.235
        44.900
 106257161.264 8  82644503.352 8  19912540.797    19912540.984    19912545.998
        53.200          48.100
 143532366.305 6                  27313300.619
        38.800
 144476886.337 6                  27493009.901
        37.300
 109455185.591 7  85289763.24246  20828625.034    20828624.6594   20828625.1854
        47.800          38.8004
 128524378.259 6 100148907.03145  24457363.550    24457363.1084   24457365.5774
        39.600          32.9004
 125960010.278 5  97968919.108 6  23546888.600    23546888.476    23546895.200
        34.000          36.500
 106750340.554 8  83182088.54247  20313908.230    20313907.8684   20313908.0484
        50.700          44.2004
 124471734.420 7                  23686178.561
        47.500
 123593818.357 6  96306901.82246  23519111.976    23519111.2704   23519113.4054
        41.900          36.6004
 107626404.474 8  83864751.03448  20480614.567    20480614.1254   20480613.9624
        49.200          48.2004
 130872886.785 7 101790046.935 6  24491078.304    24491079.018    24491085.481
        42.000          41.800
 147217088.699 6                  28014479.915
        38.400
 126943405.498 7                  24156524.586
        47.700
 124568102.637 6  97066067.94246  23704520.504    23704519.7894   23704522.3474
        40.400          36.0004
 121966857.024 7  94863173.499 6  22808411.611    22808410.767    22808419.356
        45.400          41.700
 134334432.855 6 104676189.28344  25562990.145    25562989.7164   25562993.2904
        37.800          28.4004
 107048137.612 8  83259704.804 8  20053716.052    20053716.215    20053721.951
        51.700          48.200
 102973534.134 8  80090569.871 7  19243061.905    19243062.239    19243068.407
        52.300          47.200
 106613297.496 8  82921488.267 8  19916254.622    19916255.205    19916260.708
        52.400          48.400
 125598679.565 6  97687910.908 6  23495820.180    23495820.842    23495828.616
        41.000          36.500
 25  1  1  8  9 15.0000000  0 31G10G24E03E08R04S31S35G13E13S48S33R02
                                E29E15G23G05R19G18E07G29G15R11E33E26
                                G27R24G32R18R17R03R01
 124255887.484 7  96822782.29846  23645107.901    23645107.3514   23645110.9594
        43.500          38.6004
 119631211.401 7  93219156.36946  22765059.629    22765059.2404   22765064.0494
        42.100          39.6004
 149657364.522 6                  28478840.447
        38.300
 128259847.830 7                  24407027.440
        46.300
 125738361.861 7  97796548.634 6  23480756.992    23480757.017    23480762.146
        44.500          39.300
 198974609.529 7                  37863607.959
        45.900
 200953061.052 7                  38240101.667
        44.300
 120621276.128 7  93990628.23144  22953456.939    22953456.3544   22953456.5264
        44.100          27.3004
 124522051.122 7                  23695737.455
        47.300
 412771087.320 5                  78547815.044
        33.200
 202102875.522 7                  38458870.596
        45.100
 106289030.925 8  82669290.867 8  19918513.064    19918513.386    19918518.275
        52.800          48.200
 143487823.229 6                  27304824.949
        38.000
 144513509.200 6                  27499978.886
        37.500
 109440072.085 7  85277986.48046  20825748.862    20825748.4824   20825749.2264
        47.700          38.9004
 128566888.599 6 100182031.91945  24465453.468    24465453.0264   24465454.8724
        39.700          32.9004
 125897545.422 5  97920335.358 6  23535210.743    23535211.956    23535218.439
        34.400          37.000
 106747116.042 8  83179575.92047  20313294.484    20313294.1274   20313294.4434
        50.400          44.2004
 124451197.565 8                  23682270.476
        48.100
 123648601.245 7  96349589.76946  23529536.867    23529536.1614   23529538.1444
        42.600          36.6004
 107654887.977 8  83886945.96348  20486034.623    20486034.1814   20486034.2124
        49.200          48.2004
 130851305.530 7 101773261.486 6  24487040.014    24487040.191    24487046.890
        42.300          41.100
 147177908.851 6                  28007023.605
        38.500
 126919671.241 7                  24152008.071
        47.500
 124538729.726 6  97043179.95046  23698930.458    23698929.7524   23698932.8684
        40.900          36.3004
 122027940.142 7  94910682.525 6  22819832.417    22819832.839    22819841.964
        44.800          41.300
 134281599.743 6 104635020.62344  25552936.509    25552936.0584   25552939.4954
        39.000          28.3004
 107010415.356 8  83230365.279 8  20046649.137    20046649.362    20046655.128
        51.400          48.100
 102992470.341 8  80105298.021 7  19246600.550    19246600.920    19246607.119
        52.200          47.400
 106590070.675 8  82903422.965 8  19911915.720    19911915.920    19911921.678
        52.000          48.500
 125655662.415 6  97732230.840 6  23506481.589    23506480.819    23506487.529
        41.500          36.200
 25  1  1  8  9 30.0000000  0 31G10G24E03E08R04S31S35G13E13S48S33R02
                                E29E15G23G05R19G18E07G29G15R11E33E26
                                G27R24G32R18R17R03R01
 124221800.585 7  96796221.08846  23638621.592    23638621.0384   23638624.2364
        43.100          38.6004
 119588929.935 7  93186209.79246  22757013.659    22757013.2664   22757018.1834
        42.400          39.7004
 149700222.751 6                  28486996.107
        38.500
 128281600.862 7                  24411166.890
        46.200
 125684422.820 7  97754596.093 6  23470683.579    23470683.667    23470689.763
        44.300          40.000
 198974607.604 7                  37863606.354
        45.800
 200953066.020 7                  38240107.024
        44.400
 120670564.837 7  94029035.01244  22962836.076    22962835.4914   22962836.0404
        44.000          27.3004
 124535092.840 7                  23698219.134
        47.100
 412770854.469 5                  78547782.808
        32.600
 202102843.493 7                  38458859.583
        44.900
 106320997.618 8  82694153.856 8  19924503.545    19924503.974    19924508.975
        52.800          48.100
 143443301.830 6                  27296352.879
        39.700
 144550164.266 6                  27506954.286
        37.900
 109425009.972 7  85266249.77146  20822882.836    20822882.4614   20822883.0324
        47.400          38.9004
 128609400.619 6 100215158.11445  24473542.685    24473542.2384   24473544.6724
        39.300          32.6004
 125835092.648 5  97871761.005 5  23523536.492    23523536.513    23523541.848
        33.700          35.700
 106744004.469 8  83177151.30647  20312702.587    20312702.2254   20312702.3644
        50.300          44.3004
 124430747.811 8                  23678378.969
        48.100
 123703412.916 7  96392300.15246  23539967.203    23539966.5064   23539968.4454
        43.000          36.4004
 107683487.533 8  83909231.32748  20491476.904    20491476.4754   20491476.5124
        48.800          48.2004
 130829867.761 6 101756587.629 6  24483028.474    24483028.389    24483034.231
        41.600          39.200
 147138715.969 6                  27999565.569
        39.000
 126895976.639 7                  24147499.014
        47.400
 124509479.387 6  97020387.46346  23693364.239    23693363.5204   23693366.8654
        39.800          36.0004
 122089084.441 7  94958239.145 7  22831267.122    22831267.502    22831277.097
        45.000          42.000
 134228779.921 6 104593862.31344  25542884.957    25542884.4884   25542888.2264
        39.100          29.2004
 106972821.011 8  83201125.245 8  20039606.698    20039607.218    20039612.461
        51.800          48.200
 103011584.936 8  80120164.934 7  19250172.602    19250172.812    19250179.033
        52.200          47.600
 106566975.244 8  82885459.860 8  19907601.575    19907601.636    19907607.131
        52.500          48.400
 125712632.577 6  97776540.894 5  23517137.563    23517137.505    23517145.596
        40.400          35.800
 25  1  1  8  9 45.0000000  0 31G10G24E03E08R04S31S35G13E13S48S33R02
                                E29E15G23G05R19G18E07G29G15R11E33E26
                                G27R24G32R18R17R03R01
 124187737.815 7  96769678.66946  23632140.247    23632139.7024   23632142.2254
        43.700          38.7004
 119546727.898 7  93153325.11646  22748982.745    22748982.3564   22748987.2604
        43.100          39.8004
 149743092.752 6                  28495153.362
        38.200
 128303433.540 7                  24415321.807
        46.200
 125630543.096 7  97712689.666 6  23460621.978    23460622.159    23460628.004
        44.400          39.500
 198974606.757 7                  37863608.666
        45.700
 200953071.914 7                  38240104.543
        44.200
 120719924.425 7  94067497.01844  22972228.924    22972228.3394   22972228.7734
        43.900          27.1004
 124548203.630 7                  23700714.048
        47.200
 412770622.926 5                  78547762.820
        32.400
 202102813.099 7                  38458859.278
        44.700
 106353063.913 8  82719094.293 8  19930512.605    19930512.878    19930518.344
        52.800          48.000
 143398805.277 6                  27287884.721
        38.300
 144586854.546 6                  27513936.184
        38.200
 109410002.301 7  85254555.48246  20820027.089    20820026.7184   20820027.1634
        47.400          39.0004
 128651917.391 6 100248288.02445  24481633.415    24481632.9734   24481635.3804
        38.300          32.9004
 125772655.611 5  97823198.892 6  23511864.919    23511864.868    23511871.069
        33.400          37.000
 106741009.022 8  83174817.17247  20312132.642    20312132.2894   20312132.3624
        50.300          44.3004
 124410388.284 8                  23674504.669
        48.000
 123758255.793 7  96435034.85146  23550403.458    23550402.7524   23550404.7744
        42.300          37.0004
 107712205.768 8  83931609.17248  20496941.991    20496941.5494   20496941.4344
        49.200          48.3004
 130808577.103 7 101740028.237 6  24479044.479    24479044.321    24479050.802
        42.700          40.600
 147099513.328 6                  27992105.276
        38.100
 126872324.956 7                  24142998.271
        47.600
 124480354.956 6  96997693.09446  23687822.417    23687821.6934   23687824.8084
        40.400          36.3004
 122150293.165 7  95005845.825 6  22842713.856    22842713.210    22842723.399
        44.500          41.800
 134175976.621 6 104552716.87944  25532836.814    25532836.3324   25532840.1424
        39.900          29.4004
 106935358.138 8  83171987.448 8  20032588.637    20032588.716    20032594.782
        51.800          48.100
 103030880.684 8  80135172.721 7  19253778.895    19253778.853    19253785.026
        52.300          47.800
 106544014.745 8  82867601.690 8  19903311.975    19903312.424    19903318.080
        52.700          48.500
 125769592.646 6  97820843.014 6  23527792.731    23527793.024    23527801.343
        41.200          36.000
 25  1  1  8 10  0.0000000  0 31G10G24E03E08R04S31S35G13E13S48S33R02
                                E29E15G23G05R19G18E07G29G15R11E33E26
                                G27R24G32R18R17R03R01
 124153700.093 7  96743155.78546  23625662.678    23625662.1284   23625665.2374
        43.000          38.7004
 119504606.632 7  93120503.38846  22740967.281    22740966.8754   22740971.8464
        42.800          39.9004
 149785975.287 6                  28503314.030
        38.400
 128325346.572 7                  24419491.413
        46.200
 125576723.913 7  97670830.283 6  23450571.180    23450571.561    23450578.139
        43.800          39.700
 198974607.965 7                  37863605.688
        45.600
 200953079.674 7                  38240098.542
        43.900
 120769355.350 7  94106014.61744  22981635.213    22981634.6144   22981635.1444
        43.600          27.1004
 124561384.489 7                  23703222.313
        47.100
 412770393.665 5                  78547731.666
        32.400
 202102784.865 7                  38458852.768
        44.900
 106385230.343 8  82744112.627 8  19936540.443    19936540.907    19936546.082
        52.800          48.100
 143354334.635 6                  27279422.578
        38.000
 144623580.864 6                  27520925.007
        38.100
 109395049.962 7  85242904.31346  20817181.621    20817181.2504   20817181.8254
        47.600          39.0004
 128694439.800 6 100281422.32845  24489726.039    24489725.6284   24489727.1034
        38.900          32.8004
 125710235.153 5  97774649.754 6  23500196.292    23500195.498    23500201.905
        33.800          36.800
 106738130.790 8  83172574.39347  20311584.739    20311584.3864   20311584.6604
        50.200          44.3004
 124390119.947 7                  23670647.761
        47.800
 123813130.501 7  96477794.33546  23560845.698    23560844.9964   23560847.1264
        42.300          36.4004
 107741043.440 8  83954080.08148  20502429.450    20502429.0084   20502429.0904
        49.200          48.2004
 130787434.553 7 101723584.014 6  24475087.147    24475087.392    24475093.975
        42.800          41.100
 147060301.833 6                  27984643.571
        38.400
 126848717.255 7                  24138505.809
        47.500
 124451357.545 6  96975097.69746  23682304.099    23682303.3534   23682307.0854
        39.600          36.3004
 122211566.333 7  95053502.683 7  22854171.655    22854172.052    22854182.344
        44.200          42.600
 134123190.994 6 104511585.19844  25522792.413    25522791.9174   25522795.4654
        38.500          29.1004
 106898028.175 8  83142953.026 8  20025595.564    20025595.702    20025601.303
        51.300          48.200
 103050358.513 8  80150322.127 7  19257418.450    19257418.642    19257424.779
        51.900          47.400
 106521189.829 8  82849848.985 8  19899048.064    19899048.558    19899054.137
        52.200          48.500
 125826543.883 6  97865138.451 5  23538446.235    23538446.490    23538455.749
        39.000          35.500
 25  1  1  8 10 15.0000000  0 31G10G24E03E08R04S31S35G13E13S48S33R02
                                E29E15G23G05R19G18E07G29G15R11E33E26
                                G27R24G32R18R17R03R01
 124119682.680 7  96716648.71846  23619189.359    23619188.7964   23619191.8664
        43.400          38.6004
 119462561.783 7  93087741.19246  22732966.575    22732966.1694   22732970.8924
        42.600          40.0004
 149828865.391 6                  28511475.800
        38.000
 128347335.056 7                  24423675.930
        46.100
 125522960.681 7  97629014.443 6  23440532.382    23440531.441    23440538.046
        43.500          39.300
 198974606.862 7                  37863606.654
        45.800
 200953085.162 7                  38240103.376
        44.300
 120818852.531 7  94144583.84044  22991054.637    22991054.0384   22991054.2504
        43.700          27.4004
 124574630.694 7                  23705743.144
        47.100
 412770161.300 5                  78547711.387
        32.900
 202102754.784 7                  38458850.519
        45.300
 106417491.750 8  82769204.840 8  19942586.506    19942586.491    19942591.989
        52.900          48.200
 143309885.317 6                  27270964.700
        39.200
 144660338.485 6                  27527920.018
        37.500
 109380148.185 7  85231292.53646  20814346.046    20814345.6754   20814346.1104
        47.900          39.0004
 128736963.311 6 100314557.48245  24497817.511    24497817.0914   24497819.1934
        39.900          32.8004
 125647827.111 5  97726110.261 6  23488528.203    23488529.334    23488535.661
        33.300          36.900
 106735365.156 8  83170419.35347  20311058.626    20311058.2784   20311058.4214
        50.400          44.4004
 124369938.111 7                  23666807.360
        47.700
 123868032.068 7  96520574.75346  23571293.424    23571292.7144   23571294.4014
        42.400          36.4004
 107769995.445 8  83976640.07848  20507938.937    20507938.4904   20507938.4694
        49.300          48.2004
 130766435.661 7 101707251.477 6  24471157.596    24471157.873    24471164.322
        42.700          41.600
 147021076.853 6                  27977179.768
        37.500
 126825148.926 7                  24134020.832
        47.200
 124422482.593 6  96952597.72746  23676809.621    23676808.8884   23676812.2744
        40.400          36.0004
 122272899.030 7  95101205.823 6  22865640.380    22865640.882    22865650.571
        43.300          41.000
 134070418.485 6 104470463.77644  25512750.238    25512749.7604   25512753.3274
        38.200          28.8004
 106860826.675 8  83114018.533 8  20018626.571    20018626.606    20018632.082
        52.000          48.200
 103070013.593 8  80165609.395 7  19261091.278    19261091.669    19261097.841
        51.900          47.500
 106498495.631 8  82832197.970 8  19894808.639    19894809.021    19894814.775
        52.200          48.400
 125883480.992 6  97909422.943 5  23549097.390    23549097.944    23549106.863
        40.400          35.900
 25  1  1  8 10 30.0000000  0 31G10G24E03E08R04S31S35G13E13S48S33R02
                                E29E15G23G05R19G18E07G29G15R11E33E26
                                G27R24G32R18R17R03R01
 124085689.899 7  96690160.84946  23612720.765    23612720.1804   23612723.2034
        44.000          38.9004
 119420598.139 7  93055042.27646  22724981.276    22724980.8924   22724985.3484
        42.400          40.0004
 149871767.289 6                  28519639.881
        37.300
 128369403.197 7                  24427875.291
        46.300
 125469258.111 7  97587245.775 6  23430503.514    23430503.510    23430509.743
        45.100          39.900
 198974607.092 7                  37863606.448
        45.600
 200953092.507 7                  38240104.990
        43.900
 120868420.025 7  94183207.84744  23000487.036    23000486.4604   23000486.4634
        42.900          27.0004
 124587946.704 7                  23708277.089
        47.300
 412769931.396 5                  78547686.369
        32.900
 202102724.783 7                  38458841.557
        44.800
 106449852.190 8  82794374.064 8  19948651.059    19948651.120    19948656.359
        53.000          48.000
 143265461.882 6                  27262510.556
        39.100
 144697131.674 6                  27534921.291
        37.200
 109365301.376 7  85219723.59246  20811520.663    20811520.2924   20811520.8404
        47.900          39.0004
 128779492.154 6 100347696.79745  24505910.245    24505909.8124   24505912.1774
        38.800          32.6004
 125585436.435 5  97677584.211 6  23476865.863    23476865.737    23476872.028
        34.300          36.500
 106732716.659 8  83168355.58247  20310554.477    20310554.1244   20310554.4114
        50.500          44.5004
 124349847.205 7                  23662984.246
        47.600
 123922964.350 7  96563379.11246  23581746.539    23581745.8244   23581747.7134
        42.400          36.3004
 107799065.833 8  83999292.32548  20513470.880    20513470.4334   20513470.3764
        49.000          48.2004
 130745585.393 7 101691034.587 6  24467256.416    24467256.114    24467262.384
        42.100          40.500
 146981842.883 6                  27969713.475
        38.000
 126801624.545 7                  24129544.426
        47.300
 124393734.823 6  96930196.86346  23671339.191    23671338.4494   23671341.6784
        40.600          36.4004
 122334295.393 7  95148958.449 7  22877123.183    22877123.544    22877133.456
        44.300          42.000
 134017663.732 6 104429356.16544  25502710.796    25502710.3234   25502714.3244
        39.000          28.8004
 106823758.607 8  83085187.833 8  20011681.943    20011682.463    20011688.234
        51.200          48.100
 103089850.424 8  80181038.041 7  19264798.110    19264798.631    19264804.960
        51.500          47.400
 106475936.809 8  82814652.238 8  19890594.615    19890594.942    19890600.517
        52.900          48.500
 125940407.857 6  97953699.321 6  23559748.042    23559747.037    23559756.756
        40.800          37.100
 25  1  1  8 10 45.0000000  0 31G10G24E03E08R04S31S35G13E13S48S33R02
                                E29E15G23G05R19G18E07G29G15R11E33E26
                                G27R24G32R18R17R03R01
 124051717.185 7  96663688.62146  23606255.695    23606255.1054   23606258.5784
        43.200          38.7004
 119378711.614 7  93022403.44246  22717010.705    22717010.3164   22717014.3814
        42.800          39.8004
 149914676.220 6                  28527804.998
        38.700
 128391546.279 7                  24432088.933
        46.400
 125415611.503 7  97545520.678 6  23420484.721    23420484.584    23420491.247
        43.800          39.300
 198974604.735 7                  37863606.216
        45.600
 200953097.247 7                  38240110.155
        44.200
 120918052.971 7  94221882.87244  23009931.684    23009931.0994   23009931.3844
        43.700          26.7004
 124601328.033 7                  23710823.494
        47.400
 412769698.934 5                  78547664.073
        33.400
 202102693.483 7                  38458838.155
        44.800
 106482306.643 8  82819616.406 8  19954732.584    19954732.880    19954738.181
        52.500          48.000
 143221059.924 6                  27254061.490
        39.600
 144733955.825 6                  27541928.845
        38.400
 109350504.976 8  85208193.93246  20808704.642    20808704.2534   20808705.1764
        48.100          38.9004
 128822021.595 6 100380836.58645  24514003.832    24514003.4124   24514005.1744
        39.300          32.5004
 125523058.512 5  97629068.019 6  23465203.732    23465204.193    23465210.730
        33.700          36.100
 106730180.901 8  83166379.66447  20310072.105    20310071.7524   20310071.8834
        50.500          44.3004
 124329842.758 8                  23659177.368
        48.100
 123977922.638 6  96606203.73246  23592205.179    23592204.4694   23592205.9314
        41.700          36.0004
 107828249.773 8  84022033.05048  20519024.482    20519024.0494   20519023.9034
        48.700          48.1004
 130724879.328 7 101674929.889 6  24463381.090    24463381.095    24463387.670
        42.200          40.200
 146942595.325 6                  27962244.823
        38.500
 126778139.696 7                  24125075.520
        47.800
 124365109.825 6  96907891.65246  23665891.544    23665890.8024   23665894.3344
        40.600          36.2004
 122395750.278 7  95196756.626 7  22888615.821    22888615.833    22888625.584
        44.500          42.200
 133964922.345 6 104388258.93444  25492675.037    25492674.5414   25492676.8114
        37.800          26.7004
 106786819.926 8  83056457.734 8  20004762.331    20004762.591    20004768.121
        51.700          48.100
 103109864.260 8  80196604.352 7  19268538.310    19268538.817    19268544.971
        52.100          47.500
 106453508.569 8  82797208.073 8  19886404.772    19886405.027    19886410.777
        52.300          48.500
 125997319.873 6  97997964.283 6  23570394.528    23570393.819    23570402.469
        39.800          36.200
 25  1  1  8 11  0.0000000  0 31G10G24E03E08R04S31S35G13E13S48S33R02
                                E29E15G23G05R19G18E07G29G15R11E33E26
                                G27R24G32R18R17R03R01
 124017772.476 7  96637238.20546  23599796.576    23599795.9954   23599798.8504
        44.000          38.5004
 119336910.479 7  92989831.13146  22709055.943    22709055.5464   22709059.9194
        43.000          40.0004
 149957599.934 6                  28535973.516
        39.000
 128413771.990 7                  24436318.496
        46.000
 125362029.434 7  97503845.728 6  23410478.569    23410478.519    23410485.366
        44.300          39.500
 198974607.873 7                  37863603.206
        45.400
 200953106.738 7                  38240105.128
        43.800
 120967758.896 7  94260614.75044  23019390.333    23019389.7484   23019390.0104
        44.100          26.7004
 124614782.605 7                  23713383.879
        47.000
 412769471.269 5                  78547634.489
        33.300
 202102666.896 7                  38458834.841
        45.200
 106514862.630 8  82844937.732 8  19960834.214    19960834.257    19960839.111
        53.100          48.200
 143176687.490 6                  27245616.831
        39.000
 144770818.782 6                  27548943.487
        38.000
 109335766.877 8  85196709.70046  20805900.217    20805899.8244   20805900.5884
        48.100          38.9004
 128864559.572 6 100413983.00345  24522097.959    24522097.5444   24522099.8804
        39.400          32.3004
 125460702.134 5  97580568.762 6  23453548.183    23453547.925    23453554.895
        33.600          37.900
 106727765.935 8  83164497.86547  20309612.341    20309611.9844   20309612.3354
        50.800          44.3004
 124309932.618 8                  23655388.605
        48.000
 124032914.357 7  96649054.40346  23602669.450    23602668.7484   23602670.6594
        42.500          36.1004
 107857554.770 8  84044868.11148  20524601.223    20524600.8084   20524600.4904
        49.400          48.0004
 130704326.013 7 101658944.044 6  24459535.412    24459535.071    24459541.332
        43.200          40.900
 146903342.460 6                  27954775.268
        37.800
 126754702.440 7                  24120615.374
        47.400
 124336615.747 6  96885688.46746  23660469.431    23660468.6764   23660472.0624
        40.500          36.1004
 122457271.405 7  95244606.364 6  22900119.415    22900119.793    22900129.701
        44.100          41.300
 133912202.478 6 104347178.49144  25482642.942    25482642.4464   25482644.3594
        39.000          28.1004
 106750018.960 8  83027834.767 8  19997868.494    19997868.548    19997874.287
        51.500          48.200
 103130063.025 8  80212314.494 7  19272313.114    19272313.354    19272319.682
        51.900          47.600
 106431218.688 8  82779871.525 8  19882240.863    19882241.043    19882246.847
        52.200          48.400
 126054224.605 6  98042223.469 6  23581039.204    23581039.648    23581047.721
        40.400          36.100
 25  1  1  8 11 15.0000000  0 31G10G24E03E08R04S31S35G13E13S48S33R02
                                E29E15G23G05R19G18E07G29G15R11E33E26
                                G27R24G32R18R17R03R01
 123983849.187 7  96610804.47546  23593340.618    23593340.0284   23593343.2984
        43.200          38.3004
 119295188.607 7  92957320.56746  22701115.993    22701115.6044   22701120.7594
        42.400          39.9004
 150000531.732 6                  28544143.084
        37.600
 128436073.631 7                  24440562.295
        46.400
 125308505.311 7  97462215.844 6  23400484.541    23400483.433    23400490.315
        44.100          39.800
 198974609.450 7                  37863604.601
        45.400
 200953114.363 7                  38240111.460
        44.000
 121017530.880 7  94299398.10644  23028861.639    23028861.0674   23028861.3814
        43.100          26.5004
 124628303.970 7                  23715956.878
        47.200
 412769242.099 5                  78547600.925
        33.000
 202102638.129 7                  38458825.589
        44.800
 106547513.258 8  82870332.642 8  19966952.421    19966952.845    19966957.994
        52.900          48.200
 143132338.240 6                  27237178.233
        38.800
 144807713.964 6                  27555964.408
        37.900
 109321080.526 7  85185265.79546  20803105.586    20803105.1894   20803105.8684
        47.700          38.7004
 128907099.544 6 100447131.00445  24530193.277    24530192.8534   24530195.2474
        39.700          32.3004
 125398361.116 5  97532081.330 6  23441892.417    23441894.228    23441900.130
        33.500          36.800
 106725465.369 8  83162705.21147  20309174.663    20309174.3104   20309174.5634
        50.300          44.1004
 124290110.387 7                  23651616.488
        47.600
 124087932.501 6  96691925.66545  23613138.917    23613138.2294   23613140.0784
        41.700          35.1004
 107886974.118 8  84067792.26947  20530199.251    20530198.8184   20530198.8284
        49.600          47.8004
 130683918.786 7 101643071.813 6  24455715.347    24455715.911    24455722.092
        43.000          40.400
 146864077.722 6                  27947303.572
        38.200
 126731306.433 7                  24116163.296
        47.300
 124308246.313 6  96863582.41146  23655071.368    23655070.6314   23655073.8214
        40.600          36.1004
 122518852.027 7  95292502.352 6  22911637.544    22911637.445    22911645.797
        45.100          41.600
 133859497.821 6 104306109.91944  25472612.967    25472612.4404   25472615.9274
        39.200          29.2004
 106713349.613 8  82999314.155 8  19990998.670    19990999.053    19991005.119
        51.500          48.300
 103150439.946 8  80228163.186 7  19276121.078    19276121.298    19276127.394
        52.300          47.800
 106409060.651 8  82762637.514 8  19878101.251    19878101.814    19878107.421
        52.400          48.600
 126111115.431 6  98086471.851 6  23591682.471    23591681.886    23591690.245
        40.600          36.600
 25  1  1  8 11 30.0000000  0 31G10G24E03E08R04S31S35G13E13S48S33R02
                                E29E15G23G05R19G18E07G29G15R11E33E26
                                G27R24G32R18R17R03R01
 123949942.812 7  96584383.93246  23586888.886    23586888.3014   23586891.4314
        43.700          38.7004
 119253541.997 7  92924868.63346  22693191.822    22693191.4424   22693195.8504
        43.000          40.2004
 150043466.913 6                  28552313.341
        37.800
 128458446.542 7                  24444819.822
        46.200
 125255034.678 7  97420627.549 6  23390498.878    23390498.308    23390504.435
        44.200          39.300
 198974604.557 7                  37863602.057
        45.300
 200953116.685 7                  38240114.640
        43.700
 121067364.157 7  94338229.21644  23038344.904    23038344.3464   23038344.3294
        42.400          26.3004
 124641887.686 7                  23718541.863
        47.100
 412769007.689 5                  78547570.384
        32.800
 202102604.999 7                  38458820.071
        44.700
 106580253.609 8  82895797.353 8  19973088.064    19973088.265    19973093.400
        53.000          48.200
 143088007.794 6                  27228742.323
        38.900
 144844636.807 6                  27562990.887
        37.800
 109306441.426 7  85173858.69646  20800319.971    20800319.5744   20800320.1194
        47.400          38.9004
 128949636.853 6 100480276.91745  24538287.505    24538287.0634   24538289.8724
        39.300          32.4004
 125336031.088 5  97483602.451 6  23430241.582    23430241.962    23430248.012
        33.900          36.700
 106723274.864 8  83160998.32247  20308758.032    20308757.6844   20308757.7274
        50.400          44.4004
 124270371.546 8                  23647860.480
        48.000
 124142972.292 6  96734813.79745  23623612.628    23623611.9584   23623613.9864
        41.900          35.6004
 107916502.988 8  84090801.77248  20535818.507    20535818.0744   20535817.9814
        49.000          48.0004
 130663653.567 7 101627309.965 6  24451923.452    24451923.658    24451929.392
        42.500          39.800
 146824796.672 6                  27939828.758
        37.600
 126707947.303 7                  24111718.233
        47.300
 124279997.214 6  96841570.11446  23649695.624    23649694.8874   23649698.2564
        40.400          36.3004
 122580487.014 7  95340440.670 6  22923161.080    22923162.064    22923172.137
        44.400          41.500
 133806804.124 6 104265049.87944  25462585.922    25462585.4044   25462589.3824
        39.000          29.2004
 106676807.645 8  82970892.630 8  19984153.228    19984153.411    19984159.164
        51.300          48.100
 103170990.461 8  80244146.909 7  19279961.318    19279961.563    19279967.932
        52.000          47.600
 106387030.147 8  82745502.676 8  19873986.143    19873986.450    19873991.936
        52.500          48.400
 126167987.285 6  98130705.497 5  23602321.380    23602321.638    23602328.624
        41.100          35.300
 25  1  1  8 11 45.0000000  0 31G10G24E03E08R04S31S35G13E13S48S33R02
                                E29E15G23G05R19G18E07G29G15R11E33E26
                                G27R24G32R18R17R03R01
 123916064.127 7  96557984.96646  23580442.014    23580441.4154   23580444.4914
        43.300          38.7004
 119211981.808 7  92892484.04846  22685282.912    22685282.5324   22685287.1774
        42.800          40.3004
 150086416.054 6                  28560486.135
        38.200
 128480901.284 7                  24449092.755
        46.400
 125201628.701 7  97379089.598 6  23380524.784    23380525.181    23380531.773
        44.500          39.800
 198974605.282 7                  37863599.396
        45.200
 200953123.671 7                  38240119.330
        44.100
 121117268.950 7  94377116.06244  23047841.368    23047840.8234   23047840.7544
        43.300          26.5004
 124655544.547 7                  23721140.665
        47.400
 412768777.992 5                  78547554.411
        32.400
 202102575.376 7                  38458811.182
        44.600
 106613094.194 8  82921340.036 8  19979242.395    19979242.617    19979247.873
        52.900          48.300
 143043707.077 6                  27220312.014
        39.800
 144881597.968 6                  27570024.461
        37.900
 109291860.337 7  85162496.80546  20797545.179    20797544.7904   20797545.4324
        47.800          39.0004
 128992182.466 6 100513429.30145  24546384.492    24546384.0594   24546385.8034
        38.400          32.2004
 125273723.392 5  97435140.914 6  23418594.569    23418594.825    23418600.128
        34.300          37.400
 106721205.310 8  83159385.68247  20308363.987    20308363.6344   20308363.9074
        50.500          44.5004
 124250726.934 7                  23644122.075
        47.700
 124198043.938 7  96777726.76045  23634092.598    23634091.9504   23634093.7304
        42.100          35.8004
 107946151.756 8  84113904.70448  20541460.364    20541459.9314   20541459.9654
        49.200          48.1004
 130643541.411 7 101611667.157 6  24448158.774    24448159.411    24448166.110
        42.600          40.200
 146785510.186 6                  27932352.884
        38.000
 126684635.995 7                  24107282.134
        47.400
 124251879.456 6  96819660.17346  23644344.994    23644344.2574   23644347.7314
        41.200          36.5004
 122642187.010 7  95388429.566 6  22934699.896    22934700.617    22934709.961
        45.000          41.800
 133754132.315 6 104224006.89344  25452562.416    25452561.8894   25452566.1594
        37.400          27.7004
 106640404.644 8  82942579.184 8  19977334.010    19977334.155    19977339.702
        51.700          48.200
 103191725.411 8  80260274.095 7  19283836.222    19283836.430    19283842.620
        51.600          47.700
 106365137.857 8  82728475.364 8  19869896.249    19869896.512    19869902.150
        52.400          48.400
 126224851.030 6  98174932.888 6  23612958.423    23612958.858    23612966.972
        40.100          36.100
 25  1  1  8 12  0.0000000  0 31G10G24E03E08R04S31S35G13E13S48S33R02
                                E29E15G23G05R19G18E07G29G15R11E33E26
                                G27R24G32R18R17R03R01
 123882208.403 7  96531603.89246  23573999.439    23573998.8404   23574002.0554
        43.200          38.6004
 119170503.750 7  92860163.46446  22677390.137    22677389.7664   22677393.9634
        42.800          40.2004
 150129374.257 6                  28568661.004
        38.700
 128503432.961 7                  24453380.357
        46.600
 125148283.081 7  97337598.567 6  23370562.403    23370562.795    23370569.499
        44.200          39.700
 198974605.912 7                  37863603.367
        45.200
 200953130.411 7                  38240114.613
        43.800
 121167240.248 7  94416054.73644  23057350.295    23057349.7414   23057350.1154
        43.900          26.4004
 124669269.893 7                  23723752.539
        47.500
 412768548.008 5                  78547525.314
        32.600
 202102546.555 7                  38458807.350
        44.600
 106646029.776 8  82946956.595 8  19985414.406    19985414.606    19985420.143
        52.900          48.200
 142999431.554 6                  27211886.915
        39.300
 144918592.718 6                  27577063.718
        38.300
 109277332.539 8  85151176.43646  20794780.644    20794780.2474   20794780.8924
        48.000          39.0004
 129034731.407 6 100546584.27745  24554480.448    24554479.9974   24554482.7354
        38.700          32.3004
 125211433.791 5  97386693.490 6  23406950.135    23406950.412    23406956.014
        33.400          36.800
 106719252.170 8  83157863.75147  20307992.203    20307991.8504   20307992.2444
        50.600          44.4004
 124231171.939 8                  23640401.116
        48.000
 124253142.375 6  96820660.59745  23644576.923    23644576.2574   23644578.3214
        41.700          35.5004
 107975915.613 8  84137097.31247  20547124.344    20547123.9064   20547123.8344
        48.900          47.9004
 130623577.638 7 101596139.578 6  24444424.009    24444423.996    24444430.834
        43.500          40.300
 146746213.644 6                  27924874.856
        38.500
 126661367.962 7                  24102854.499
        47.700
 124223888.540 6  96797849.05746  23639018.268    23639017.5224   23639020.7814
        41.900          36.2004
 122703946.676 7  95436464.900 6  22946250.224    22946249.477    22946260.252
        44.400          41.600
 133701477.959 6 104182977.49544  25442543.221    25442542.7304   25442545.9464
        38.400          27.8004
 106604136.113 8  82914370.335 8  19970539.442    19970539.632    19970545.649
        51.400          48.100
 103212639.890 8  80276540.899 7  19287744.495    19287744.941    19287751.114
        51.800          47.700
 106343378.897 8  82711551.745 8  19865831.742    19865831.937    19865837.548
        52.300          48.400
 126281701.754 6  98219150.142 6  23623592.494    23623593.356    23623602.413
        38.800          36.400
 25  1  1  8 12 15.0000000  0 31G10G24E03E08R04S31S35G13E13S48S33R02
                                E29E15G23G05R19G18E07G29G15R11E33E26
                                G27R24G32R18R17R03R01
 123848376.469 7  96505241.34846  23567561.374    23567560.7754   23567563.9164
        44.100          38.5004
 119129109.116 7  92827907.88646  22669512.938    22669512.5764   22669516.9634
        43.700          40.2004
 150172342.219 6                  28576837.676
        38.800
 128526042.263 7                  24457682.824
        46.800
 125094998.676 7  97296155.139 6  23360612.894    23360613.149    23360619.155
        44.500          38.700
 198974607.018 7                  37863602.920
        45.300
 200953138.749 7                  38240117.470
        43.900
 121217278.524 7  94455045.59844  23066872.130    23066871.5454   23066871.9574
        43.500          26.2004
 124683064.653 7                  23726377.615
        47.800
 412769918.481 5                  78547499.728
        32.800
 202102518.672 7                  38458801.621
        44.700
 106679060.940 8  82972647.492 8  19991604.628    19991604.677    19991609.889
        53.200          48.300
 142955182.219 6                  27203466.016
        39.300
 144955621.808 6                  27584110.768
        38.200
 109262858.919 8  85139898.28746  20792026.520    20792026.1274   20792026.6774
        48.100          38.8004
 129077284.567 6 100579742.53645  24562578.427    24562577.9984   24562580.3564
        39.800          32.1004
 125149163.670 5  97338261.252 6  23395308.983    23395308.770    23395314.359
        34.100          36.000
 106717416.439 8  83156433.30447  20307642.815    20307642.4624   20307642.8984
        50.900          44.2004
 124211707.427 8                  23636696.852
        48.200
 124308268.164 7  96863615.75045  23655067.675    23655067.0054   23655068.5064
        42.100          35.2004
 108005794.850 8  84160379.82947  20552810.295    20552809.8574   20552809.6374
        49.600          47.7004
 130603764.065 7 101580728.923 6  24440716.508    24440716.820    24440723.135
        44.000          40.900
 146706908.046 6                  27917394.969
        38.300
 126638144.222 7                  24098435.234
        47.700
 124196025.547 6  96776137.61945  23633715.595    23633714.8224   23633718.6534
        41.300          35.9004
 122765766.867 7  95484547.263 6  22957810.819    22957811.259    22957820.022
        45.200          41.500
 133648842.048 6 104141962.46444  25432526.937    25432526.4464   25432529.0384
        38.400          27.7004
 106568003.382 8  82886267.098 8  19963770.553    19963770.834    19963776.457
        51.400          48.200
 103233734.740 8  80292947.991 7  19291686.762    19291686.963    19291693.144
        52.000          47.600
 106321754.583 8  82694732.858 8  19861791.878    19861792.103    19861797.902
        52.600          48.500
 126338539.750 6  98263357.460 6  23634226.910    23634226.803    23634234.729
        40.300          36.300
 25  1  1  8 12 30.0000000  0 31G10G24E03E08R04S31S35G13E13S48S33R02
                                E29E15G23G05R19G18E07G29G15R11E33E26
                                G27R24G32R18R17R03R01
 123814563.161 7  96478893.32646  23561126.793    23561126.2034   23561129.2284
        44.100          38.6004
 119087793.116 7  92795713.57646  22661650.607    22661650.2414   22661654.8984
        43.200          40.3004
 150215314.621 6                  28585015.021
        38.300
 128548723.824 7                  24461999.011
        46.800
 125041770.165 7  97254755.208 6  23350671.807    23350672.254    23350679.762
        43.200          39.600
 198974604.751 7                  37863600.219
        45.700
 200953142.019 7                  38240117.738
        44.200
 121267378.247 7  94494084.33844  23076406.346    23076405.7614   23076405.6444
        43.100          26.1004
 124696923.686 7                  23729014.585
        47.500
 412769685.435 5                  78547477.866
        32.600
 202102485.945 7                  38458800.687
        45.200
 106712182.052 8  82998408.365 8  19997811.226    19997811.392    19997816.738
        53.200          48.300
 142910954.059 6                  27195049.781
        39.900
 144992680.090 6                  27591162.476
        37.800
 109248434.268 8  85128658.29646  20789281.716    20789281.3234   20789281.7764
        48.100          39.1004
 129119836.920 6 100612900.16945  24570675.746    24570675.3404   24570677.8174
        39.000          32.1004
 125086907.973 5  97289840.148 6  23383670.903    23383671.873    23383677.512
        34.200          37.300
 106715693.099 8  83155090.43347  20307314.905    20307314.5484   20307314.9814
        50.500          44.4004
 124192328.245 7                  23633009.379
        47.800
 124363415.792 6  96906587.91945  23665561.726    23665561.0474   23665563.0204
        41.800          35.3004
 108035784.217 8  84183748.16047  20558516.929    20558516.4734   20558516.4384
        49.100          47.9004
 130584095.586 7 101565431.159 6  24437035.798    24437036.424    24437042.046
        43.800          40.100
 146667588.280 6                  27909912.707
        37.500
 126614959.771 7                  24094023.342
        47.600
 124168285.523 6  96754522.00245  23628436.781    23628435.9814   23628440.0064
        39.600          35.8004
 122827641.462 7  95532671.954 6  22969381.476    22969382.222    22969391.155
        46.100          41.700
 133596219.687 6 104100957.99844  25422513.024    25422512.5554   25422515.4434
        38.800          28.5004
 106532001.799 8  82858265.871 8  19957026.493    19957026.599    19957032.253
        51.400          48.100
 103255004.484 8  80309491.125 7  19295661.582    19295661.587    19295667.817
        51.300          47.600
 106300259.152 8  82678014.220 8  19857776.746    19857776.801    19857782.305
        52.800          48.300
 126395359.759 6  98307550.807 6  23644856.374    23644856.525    23644864.455
        41.000          36.100
 25  1  1  8 12 45.0000000  0 31G10G24E03E08R04S31S35G13E13S48S33R02
                                E29E15G23G05R19G18E07G29G15R11E33E26
                                G27R24G32R18R17R03R01
 123780773.878 7  96452564.01746  23554696.831    23554696.2464   23554699.2904
        43.800          38.4004
 119046561.656 7  92763585.14446  22653804.825    22653804.4504   22653808.7704
        42.700          40.3004
 150258296.621 6                  28593194.422
        38.100
 128571482.902 7                  24466329.704
        46.900
 124988603.610 7  97213403.454 6  23340743.973    23340743.530    23340750.573
        43.900          39.700
 198974603.480 7                  37863602.057
        45.500
 200953147.437 7                  38240112.690
        43.900
 121317544.613 7  94533175.01144  23085952.760    23085952.1844   23085952.0224
        43.100          25.8004
 124710852.482 7                  23731665.537
        47.800
 412769454.343 5                  78547439.951
        33.000
 202102455.249 7                  38458789.539
        45.000
 106745398.243 8  83024243.158 8  20004036.061    20004036.168    20004041.563
        52.600          48.200
 142866752.666 6                  27186638.421
        39.900
 145029772.916 6                  27598221.406
        38.000
 109234064.015 7  85117460.69646  20786547.145    20786546.7524   20786547.2004
        47.800          39.0004
 129162393.684 6 100646061.24945  24578773.922    24578773.5114   24578775.8314
        38.800          31.9004
 125024672.645 5  97241434.922 6  23372035.724    23372036.238    23372042.788
        33.400          36.900
 106714087.701 8  83153839.47247  20307009.591    20307009.2434   20307009.4884
        50.100          44.3004
 124173039.894 8                  23629338.932
        48.100
 124418590.530 6  96949581.21145  23676061.099    23676060.4154   23676062.5464
        41.500          35.2004
 108065888.786 8  84207206.26047  20564245.784    20564245.3334   20564245.1634
        48.700          47.7004
 130564577.794 7 101550250.553 6  24433382.324    24433382.496    24433389.678
        42.400          40.300
 146628259.883 6                  27902428.536
        38.200
 126591820.195 7                  24089619.917
        47.700
 124140674.146 6  96733006.62945  23623183.625    23623182.8434   23623185.8004
        39.500          35.9004
 122889575.935 7  95580843.170 6  22980963.644    22980963.608    22980973.954
        45.100          41.900
 133543616.466 6 104059968.46044  25412503.006    25412502.5554   25412505.6584
        38.600          28.4004
 106496137.145 8  82830371.136 8  19950307.507    19950307.941    19950313.743
        51.200          48.200
 103276454.751 8  80326174.656 7  19299669.811    19299670.066    19299676.372
        51.400          47.800
 106278898.125 8  82661400.100 8  19853786.004    19853786.352    19853791.842
        52.300          48.500
 126452166.848 6  98351734.103 6  23655481.787    23655482.652    23655491.477
        40.400          36.900
 25  1  1  8 13  0.0000000  0 31G10G24E03E08R04S31S35G13E13S48S33R02
                                E29E15G23G05R19G18E07G29G15R11E33E26
                                G27R24G32R18R17R03R01
 123747007.855 7  96426252.83546  23548271.453    23548270.8594   23548273.6224
        42.700          38.3004
 119005414.387 7  92731522.33646  22645974.922    22645974.5564   22645978.5834
        42.900          40.3004
 150301287.405 6                  28601375.099
        38.000
 128594318.527 7                  24470675.246
        46.900
 124935498.188 7  97172099.211 6  23330827.308    23330827.403    23330832.827
        44.100          39.200
 198974602.430 7                  37863604.230
        45.900
 200953152.850 7                  38240119.272
        44.200
 121367776.372 7  94572316.64844  23095510.877    23095510.2694   23095510.7364
        43.200          26.3004
 124724850.332 7                  23734329.139
        47.700
 412769223.799 5                  78547425.847
        33.200
 202102424.934 7                  38458784.263
        45.100
 106778708.153 8  83050150.860 8  20010278.707    20010278.661    20010283.657
        53.100          48.200
 142822577.399 6                  27178231.992
        39.900
 145066899.520 6                  27605286.104
        38.500
 109219747.392 7  85106304.88646  20783822.609    20783822.2074   20783822.7924
        47.900          39.1004
 129204954.009 6 100679225.09945  24586873.216    24586872.8194   24586874.8524
        39.000          32.1004
 124962457.407 5  97193045.306 6  23360405.030    23360405.064    23360412.598
        33.100          36.600
 106712599.598 8  83152679.90247  20306726.536    20306726.1834   20306726.3014
        50.300          44.3004
 124153841.686 8                  23625685.442
        48.200
 124473790.959 6  96992594.52245  23686565.457    23686564.7604   23686566.5894
        41.700          35.0004
 108096107.543 8  84230753.34147  20569996.186    20569995.7484   20569995.6074
        48.500          47.7004
 130545210.795 7 101535187.433 6  24429759.096    24429759.252    24429766.287
        44.000          41.400
 146588922.241 6                  27894942.825
        38.000
 126568724.870 7                  24085225.184
        47.600
 124113190.801 6  96711591.03045  23617953.412    23617952.6484   23617955.8984
        39.700          35.9004
 122951568.976 7  95629059.937 6  22992556.205    22992556.656    22992565.553
        44.800          41.700
 133491031.891 6 104018993.42844  25402496.029    25402495.5824   25402498.8334
        38.100          28.2004
 106460409.256 8  82802582.775 8  19943614.628    19943614.620    19943620.503
        50.900          48.200
 103298084.641 8  80342997.885 7  19303712.183    19303712.403    19303718.580
        52.100          47.700
 106257670.729 8  82644889.923 8  19849820.594    19849820.939    19849826.564
        52.200          48.400
 126508959.895 6  98395906.364 6  23666106.578    23666106.789    23666116.065
        40.700          37.200
 25  1  1  8 13 15.0000000  0 31G10G24E03E08R04S31S35G13E13S48S33R02
                                E29E15G23G05R19G18E07G29G15R11E33E26
                                G27R24G32R18R17R03R01
 123713266.946 7  96399961.23146  23541851.095    23541850.5104   23541852.7704
        44.000          38.6004
 118964353.608 7  92699526.93946  22638161.170    22638160.7904   22638165.0944
        43.200          40.5004
 150344288.628 6                  28609558.156
        38.500
 128617232.386 7                  24475035.745
        46.700
 124882456.277 7  97130844.425 6  23320921.343    23320921.118    23320927.955
        43.600          39.500
 198974603.821 7                  37863604.378
        45.600
 200953160.680 7                  38240120.131
        44.100
 121418075.015 7  94611510.38944  23105082.875    23105082.2944   23105082.2314
        43.100          26.2004
 124738919.127 7                  23737006.495
        47.500
 412768994.707 5                  78547395.172
        33.400
 202102396.631 7                  38458778.539
        45.000
 106812113.489 8  83076132.779 8  20016538.605    20016538.829    20016543.942
        52.900          48.200
 142778430.305 6                  27169831.091
        39.300
 145104061.656 6                  27612357.821
        38.000
 109205486.235 7  85095192.29746  20781108.872    20781108.4704   20781108.9644
        47.900          39.0004
 129247519.802 6 100712393.19345  24594972.848    24594972.4644   24594974.8564
        39.200          32.2004
 124900264.551 5  97144673.099 6  23348780.670    23348780.125    23348786.500
        33.700          38.000
 106711230.850 8  83151613.33447  20306465.919    20306465.5754   20306465.8334
        50.200          44.4004
 124134735.517 7                  23622049.837
        47.800
 124529018.633 7  97035629.05445  23697074.565    23697073.8554   23697076.2074
        42.000          35.1004
 108126441.992 8  84254390.56747  20575768.687    20575768.2494   20575768.0474
        48.600          47.7004
 130525996.304 7 101520242.952 6  24426163.888    24426163.330    24426169.193
        44.200          40.300
 146549577.258 6                  27887456.104
        37.800
 126545675.855 7                  24080838.907
        47.300
 124085837.643 6  96690276.85746  23612748.813    23612748.0494   23612750.9024
        40.600          36.2004
 123013622.294 7  95677323.586 6  23004160.779    23004161.103    23004170.603
        44.700          41.000
 133438468.005 6 103978034.53844  25392494.361    25392493.9284   25392496.6314
        38.000          28.0004
 106424820.438 8  82774902.585 8  19936947.355    19936947.681    19936953.595
        51.400          48.200
 103319895.885 8  80359962.181 7  19307787.910    19307788.198    19307794.420
        52.200          47.700
 106236579.069 8  82628485.323 8  19845880.458    19845880.724    19845886.407
        52.400          48.400
 126565740.798 6  98440069.191 6  23676729.968    23676729.347    23676737.765
        40.400          36.500
 25  1  1  8 13 30.0000000  0 31G10G24E03E08R04S31S35G13E13S48S33R02
                                E29E15G23G05R19G18E07G29G15R11E33E26
                                G27R24G32R18R17R03R01
 123679548.426 7  96373687.06646  23535433.950    23535433.3604   23535436.6134
        44.000          38.9004
 118923376.975 7  92667597.12246  22630363.274    22630362.8814   22630367.5864
        43.500          40.7004
 150387297.360 6                  28617742.291
        38.100
 128640221.610 7                  24479410.568
        46.500
 124829475.155 7  97089636.899 6  23311026.830    23311026.835    23311035.076
        42.700          39.700
 198974604.975 7                  37863603.577
        45.500
 200953168.075 7                  38240124.947
        44.100
 121468437.476 7  94650753.85444  23114666.455    23114665.8974   23114665.8714
        42.800          25.7004
 124753056.214 7                  23739696.584
        47.600
 412768765.938 5                  78547370.900
        32.900
 202102367.160 7                  38458773.911
        44.800
 106845611.129 8  83102186.495 8  20022816.047    20022816.263    20022821.457
        53.100          48.200
 142734308.812 6                  27161435.327
        38.700
 145141256.617 6                  27619436.219
        38.300
 109191277.865 8  85084120.84346  20778405.039    20778404.6374   20778405.1664
        48.000          39.3004
 129290088.227 6 100745563.35445  24603073.540    24603073.1514   24603075.6974
        39.100          32.5004
 124838091.591 5  97096316.411 6  23337159.567    23337157.237    23337162.916
        33.900          36.200
 106709978.879 8  83150637.76747  20306227.747    20306227.4034   20306227.6214
        50.500          44.6004
 124115718.712 7                  23618430.967
        47.700
 124584270.508 6  97078682.45145  23707588.837    23707588.1184   23707590.0704
        41.000          34.9004
 108156889.142 8  84278115.61247  20581562.578    20581562.1314   20581561.9644
        48.900          47.8004
 130506932.045 7 101505415.368 6  24422594.950    24422595.011    24422601.612
        43.600          40.800
 146510222.363 6                  27879967.090
        38.300
 126522670.559 7                  24076461.185
        47.300
 124058612.138 6  96669062.16346  23607567.498    23607566.7384   23607570.2154
        40.700          36.5004
 123075732.780 7  95725631.702 6  23015776.894    23015775.029    23015786.095
        43.300          41.900
 133385922.332 6 103937089.82744  25382495.012    25382494.5924   25382497.5474
        38.100          28.3004
 106389368.330 8  82747328.722 8  19930305.974    19930306.508    19930312.171
        51.000          48.200
 103341885.786 8  80377065.427 7  19311897.300    19311897.525    19311903.711
        52.000          47.800
 106215620.082 8  82612183.922 8  19841964.920    19841965.180    19841970.840
        52.300          48.300
 126622506.644 6  98484220.315 6  23687348.589    23687349.066    23687357.515
        41.200          36.500
 25  1  1  8 13 45.0000000  0 31G10G24E03E08R04S31S35G13E13S48S33R02
                                E29E15G23G05R19G18E07G29G15R11E33E26
                                G27R24G32R18R17R03R01
 123645851.328 7  96347429.59046  23529021.944    23529021.3364   23529024.2534
        43.600          38.6004
 118882483.971 7  92635732.47046  22622581.947    22622581.5674   22622585.7954
        43.200          40.6004
 150430312.554 6                  28625928.078
        38.100
 128663285.035 7                  24483799.376
        46.500
 124776554.115 7  97048476.085 6  23301145.586    23301145.662    23301151.713
        43.100          39.800
 198974604.948 7                  37863605.545
        45.600
 200953173.957 7                  38240126.409
        44.100
 121518862.429 7  94690046.01944  23124261.908    23124261.3504   23124261.4994
        43.500          25.8004
 124767260.720 7                  23742399.635
        47.500
 412768535.905 5                  78547338.083
        32.900
 202102338.181 7                  38458763.241
        44.800
 106879199.660 8  83128310.925 8  20029110.341    20029110.613    20029116.119
        52.800          48.300
 142690212.162 6                  27153044.400
        39.700
 145178483.312 6                  27626519.884
        38.000
 109177121.362 8  85073089.81846  20775711.096    20775710.6944   20775711.2374
        48.100          39.2004
 129332658.414 6 100778734.88745  24611174.777    24611174.3574   24611176.5914
        38.600          32.3004
 124775938.139 5  97047974.910 6  23325539.090    23325537.695    23325543.986
        34.400          37.300
 106708842.882 8  83149752.56647  20306011.571    20306011.2274   20306011.4494
        50.600          44.5004
 124096790.346 7                  23614829.141
        47.600
 124639545.464 6  97121753.83045  23718107.859    23718107.1714   23718108.7884
        40.800          34.8004
 108187447.745 8  84301927.50747  20587377.512    20587377.0614   20587377.0414
        49.100          47.6004
 130488016.941 7 101490703.645 6  24419055.940    24419055.672    24419062.439
        44.100          40.600
 146470856.678 6                  27872475.758
        37.700
 126499708.267 7                  24072091.595
        47.300
 124031513.589 6  96647946.39146  23602410.642    23602409.8874   23602413.6074
        40.800          36.2004
 123137899.151 7  95773983.291 6  23027401.365    23027401.525    23027410.435
        45.500          41.200
 133333394.181 6 103896158.75944  25372498.840    25372498.4164   25372501.4094
        39.200          28.7004
 106354052.489 8  82719860.853 8  19923690.129    19923690.559    19923696.339
        51.000          48.200
 103364053.303 8  80394306.838 7  19316039.759    19316040.117    19316046.307
        51.800          47.700
 106194792.915 8  82595985.043 8  19838074.427    19838074.792    19838080.036
        52.400          48.400
 126679256.052 6  98528358.747 6  23697965.084    23697964.466    23697973.295
        39.600          36.700
 25  1  1  8 14  0.0000000  0 31G10G24E03E08R04S31S35G13E13S48S33R02
                                E29E15G23G05R19G18E07G29G15R11E33E26
                                G27R24G32R18R17R03R01
 123612176.393 7  96321189.38946  23522613.969    23522613.3574   23522616.1994
        43.700          38.7004
 118841675.733 7  92603933.86146  22614816.122    22614815.7384   22614820.1884
        43.300          40.5004
 150473334.735 6                  28634115.081
        37.500
 128686423.241 7                  24488202.384
        46.500
 124723693.893 7  97007362.587 6  23291274.201    23291273.773    23291280.226
        44.400          39.700
 198974604.209 7                  37863606.019
        45.600
 200953179.575 7                  38240123.037
        44.000
 121569350.375 7  94729387.27744  23133869.863    23133869.3134   23133868.9684
        42.800          25.7004
 124781533.424 7                  23745115.610
        47.500
 412768306.697 5                  78547318.868
        33.100
 202102307.921 7                  38458759.342
        44.700
 106912879.341 8  83154506.216 8  20035421.790    20035422.076    20035427.274
        52.700          48.200
 142646141.214 6                  27144657.585
        38.900
 145215742.367 6                  27633610.002
        38.400
 109163017.373 8  85062099.69946  20773027.299    20773026.8974   20773027.3254
        48.000          39.0004
 129375231.039 6 100811908.31645  24619275.385    24619274.9654   24619277.8924
        39.000          31.9004
 124713805.385 5  96999649.420 6  23313923.560    23313922.758    23313928.673
        33.400          37.000
 106707823.734 8  83148958.41647  20305817.589    20305817.2504   20305817.5064
        50.200          44.3004
 124077951.210 7                  23611244.066
        47.900
 124694843.720 6  97164843.36645  23728630.258    23728629.5974   23728631.6344
        41.500          34.8004
 108218118.203 8  84325826.55447  20593213.891    20593213.4354   20593213.4434
        48.600          47.4004
 130469252.425 7 101476109.046 6  24415544.150    24415544.250    24415550.386
        44.900          40.400
 146431481.076 6                  27864983.544
        38.000
 126476789.830 7                  24067730.450
        47.400
 124004542.969 6  96626930.30346  23597278.460    23597277.7094   23597281.1324
        39.700          36.0004
 123200121.653 7  95822378.512 6  23039038.414    23039037.849    23039046.527
        45.300          41.400
 133280884.438 6 103855242.07044  25362506.764    25362506.3534   25362509.5824
        37.100          28.1004
 106318874.037 8  82692499.829 8  19917100.016    19917100.563    19917106.240
        51.300          48.300
 103386398.792 8  80411686.660 7  19320215.557    19320215.911    19320222.123
        51.600          47.800
 106174098.281 8  82579889.225 8  19834208.415    19834208.757    19834214.296
        52.400          48.300
 126735989.787 6  98572485.018 6  23708577.578    23708577.893    23708586.427
        40.700          36.900
 25  1  1  8 14 15.0000000  0 31G10G24E03E08R04S31S35G13E13S48S33R02
                                E29E15G23G05R19G18E07G29G15R11E33E26
                                G27R24G32R18R17R03R01
 123578524.816 7  96294967.38646  23516210.009    23516209.3884   23516212.7554
        43.500          38.7004
 118800953.898 7  92572202.58346  22607067.061    22607066.6724   22607071.0404
        42.900          40.6004
 150516365.004 6                  28642303.089
        36.700
 128709637.225 7                  24492619.707
        46.600
 124670896.194 7  96966297.735 6  23281413.803    23281413.984    23281421.242
        44.300          39.900
 198974604.264 7                  37863601.395
        45.200
 200953185.896 7                  38240121.964
        43.800
 121619902.029 7  94768778.17744  23143489.175    23143488.6214   23143488.6404
        42.900          25.9004
 124795875.566 7                  23747844.814
        47.800
 412768078.598 5                  78547293.318
        33.300
 202102277.166 7                  38458754.531
        44.700
 106946651.298 8  83180773.308 8  20041751.297    20041751.103    20041756.574
        52.900          48.200
 142602097.285 6                  27136276.162
        39.500
 145253035.022 6                  27640706.839
        37.800
 109148967.107 7  85051151.43346  20770353.495    20770353.0934   20770353.6844
        47.600          39.0004
 129417807.354 6 100845084.63445  24627377.673    24627377.2494   24627380.0614
        38.900          32.2004
 124651695.000 5  96951341.472 6  23302311.794    23302312.606    23302319.116
        34.800          37.800
 106706922.772 8  83148256.36647  20305646.176    20305645.8374   20305646.0644
        50.300          44.4004
 124059202.522 7                  23607676.248
        47.400
 124750165.937 6  97207951.56645  23739157.315    23739156.6454   23739159.4254
        41.500          34.9004
 108248901.339 8  84349813.40647  20599071.930    20599071.4794   20599071.2874
        48.000          47.5004
 130450639.618 7 101461632.370 6  24412060.511    24412060.870    24412067.368
        44.100          40.800
 146392096.851 6                  27857487.931
        37.900
 126453916.625 7                  24063377.597
        47.300
 123977701.592 6  96606014.92946  23592170.761    23592170.0154   23592173.4614
        40.200          36.1004
 123262401.163 7  95870818.101 6  23050684.950    23050684.436    23050693.543
        45.600          41.400
 133228394.566 6 103814340.85844  25352518.816    25352518.3924   25352521.5514
        39.200          28.5004
 106283834.736 8  82665247.048 8  19910536.154    19910536.709    19910542.498
        51.400          48.300
 103408923.578 8  80429205.958 7  19324425.335    19324425.237    19324431.543
        52.200          47.900
 106153537.269 8  82563897.355 8  19830367.367    19830367.830    19830373.401
        52.500          48.400
 126792708.576 6  98616599.607 6  23719188.813    23719187.685    23719197.100
        40.000          36.500
 25  1  1  8 14 30.0000000  0 31G10G24E03E08R04S31S35G13E13S48S33R02
                                E29E15G23G05R19G18E07G29G15R11E33E26
                                G27R24G32R18R17R03R01
 123544894.598 7  96268762.03146  23509810.710    23509810.0894   23509812.8924
        43.300          38.6004
 118760316.943 7  92540537.44346  22599334.001    22599333.5994   22599337.9734
        43.200          40.6004
 150559401.185 6                  28650493.082
        38.300
 128732924.872 7                  24497051.534
        46.500
 124618158.932 7  96925279.879 6  23271565.578    23271566.067    23271573.258
        44.000          40.200
 198974603.194 7                  37863596.780
        44.900
 200953190.395 7                  38240127.451
        43.800
 121670515.164 7  94808216.98444  23153120.301    23153119.7514   23153120.0324
        42.600          25.4004
 124810285.257 7                  23750587.071
        47.500
 412767848.553 5                  78547263.165
        32.600
 202102246.342 7                  38458750.350
        44.600
 106980512.862 8  83207110.068 8  20048096.797    20048096.715    20048102.177
        52.900          48.300
 142558078.673 6                  27127899.669
        38.900
 145290359.186 6                  27647808.860
        37.800
 109134968.703 7  85040243.59346  20767689.920    20767689.5144   20767689.8494
        47.700          39.1004
 129460385.247 6 100878262.16245  24635480.537    24635480.0994   24635482.6634
        38.100          32.0004
 124589605.113 5  96903049.379 6  23290704.918    23290705.271    23290711.329
        33.400          37.600
 106706138.197 8  83147645.00847  20305496.808    20305496.4604   20305496.7664
        50.000          44.3004
 124040542.460 7                  23604125.635
        47.900
 124805509.796 6  97251076.62645  23749689.946    23749689.2854   23749691.0764
        40.100          34.4004
 108279795.016 8  84373886.39547  20604950.677    20604950.2264   20604950.1604
        48.000          47.4004
 130432177.210 7 101447272.679 6  24408606.477    24408606.564    24408612.807
        44.500          40.700
 146352702.147 6                  27849991.833
        37.800
 126431086.888 7                  24059033.317
        47.200
 123950987.814 6  96585198.98046  23587086.982    23587086.2314   23587090.0854
        39.400          36.0004
 123324735.302 7  95919300.109 6  23062341.669    23062341.518    23062350.379
        46.300          41.400
 133175922.800 6 103773453.71044  25342533.745    25342533.3214   25342535.9484
        38.800          27.9004
 106248933.019 8  82638101.277 8  19903997.829    19903997.940    19904004.002
        51.200          48.200
 103431625.631 8  80446863.118 7  19328667.244    19328667.595    19328673.834
        51.800          47.800
 106133108.102 8  82548008.033 8  19826551.113    19826551.412    19826557.072
        52.200          48.300
 126849410.351 6  98660700.958 6  23729795.734    23729795.801    23729803.668
        40.000          36.200
 25  1  1  8 14 45.0000000  0 31G10G24E03E08R04S31S35G13E13S48S33R02
                                E29E15G23G05R19G18E07G29G15R11E33E26
                                G27R24G32R18R17R03R01
 123511289.733 7  96242576.42446  23503415.517    23503414.9054   23503417.9584
        43.200          38.6004
 118719769.225 7  92508941.83746  22591618.148    22591617.7334   22591621.9424
        42.800          40.4004
 150602446.910 6                  28658683.966
        37.800
 128756289.942 7                  24501497.678
        46.600
 124565486.482 7  96884312.399 6  23261728.429    23261729.512    23261735.939
        44.500          39.100
 198974604.040 7                  37863602.549
        45.200
 200953197.679 7                  38240126.288
        43.800
 121721193.133 7  94847706.29544  23162763.992    23162763.4344   23162763.9444
        42.900          25.1004
 124824766.477 7                  23753342.659
        47.600
 412767621.237 5                  78547239.904
        33.100
 202102217.621 7                  38458750.202
        44.700
 107014467.797 8  83233519.461 8  20054459.462    20054460.027    20054465.198
        52.900          48.200
 142514089.380 6                  27119529.149
        40.000
 145327718.721 6                  27654918.516
        37.400
 109121026.036 8  85029379.19346  20765036.735    20765036.3334   20765036.6964
        48.100          39.0004
 129502968.620 6 100911443.98145  24643583.230    24643582.7884   24643585.7584
        38.600          31.8004
 124527540.419 5  96854776.854 6  23279102.823    23279104.299    23279107.715
        34.300          36.500
 106705474.100 8  83147127.53047  20305370.571    20305370.2234   20305370.4024
        50.200          44.2004
 124021974.928 7                  23600592.137
        47.500
 124860878.714 6  97294221.21845  23760225.947    23760225.3134   23760227.2474
        40.900          34.5004
 108310802.815 8  84398048.30947  20610851.410    20610850.9684   20610850.7524
        48.200          47.3004
 130413869.403 7 101433033.254 6  24405179.496    24405180.411    24405186.024
        44.100          39.900
 146313301.035 6                  27842494.002
        37.700
 126408304.692 7                  24054698.104
        47.300
 123924405.754 6  96564485.66945  23582029.248    23582028.4884   23582031.7594
        40.400          35.9004
 123387127.856 7  95967827.594 6  23074008.223    23074008.840    23074017.670
        45.100          41.200
 133123473.319 6 103732583.93944  25332552.129    25332551.6964   25332554.6074
        37.500          27.6004
 106214173.377 8  82611065.987 8  19897486.344    19897486.922    19897492.425
        51.500          48.100
 103454508.806 8  80464661.108 7  19332943.624    19332943.924    19332950.230
        52.100          47.900
 106112814.725 8  82532224.325 8  19822760.073    19822760.567    19822765.838
        52.500          48.400
 126906098.568 6  98704791.724 6  23740401.259    23740401.747    23740408.877
        41.400          36.400
 25  1  1  8 15  0.0000000  0 31G10G24E03E08R04S31S35G13E13S48S33R02
                                E29E15G23G05R19G18E07G29G15R11E33E26
                                G27R24G32R18R17R03R01
 123477706.102 7  96216407.36546  23497025.078    23497024.4524   23497027.3074
        43.100          38.9004
 118679307.072 7  92477412.90446  22583918.263    22583917.8394   22583922.1704
        43.100          40.5004
 150645498.064 6                  28666875.992
        36.300
 128779728.161 7                  24505957.573
        46.500
 124512875.064 7  96843392.399 6  23251905.055    23251904.325    23251911.623
        44.000          40.000
 198974604.228 7                  37863604.038
        45.500
 200953203.048 7                  38240124.643
        43.800
 121771931.726 7  94887242.86244  23172419.354    23172418.7874   23172418.9114
        42.700          25.2004
 124839315.192 7                  23756111.205
        47.400
 412767392.762 5                  78547219.129
        33.200
 202102188.022 7                  38458741.648
        44.700
 107048511.626 8  83259997.979 8  20060839.768    20060839.740    20060845.076
        52.800          48.200
 142470125.535 6                  27111162.476
        38.600
 145365109.527 6                  27662034.112
        37.500
 109107134.995 7  85018555.01246  20762393.231    20762392.8294   20762393.2394
        47.900          39.1004
 129545553.519 6 100944626.98045  24651686.800    24651686.3354   24651689.6754
        38.300          32.3004
 124465497.459 5  96806521.278 6  23267503.301    23267503.949    23267510.767
        33.400          37.500
 106704926.502 8  83146700.83647  20305266.149    20305265.7924   20305266.2094
        50.200          44.3004
 124003495.901 7                  23597075.734
        47.200
 124916268.715 6  97337382.24345  23770766.381    23770765.7644   23770767.6844
        40.400          34.6004
 108341920.374 8  84422295.75547  20616773.069    20616772.6274   20616772.2274
        48.200          47.3004
 130395712.098 7 101418910.707 6  24401782.108    24401782.586    24401789.075
        45.100          40.400
 146273889.494 6                  27834994.468
        37.600
 126385566.113 7                  24050371.025
        47.200
 123897951.546 6  96543871.98845  23576994.081    23576993.3084   23576997.4594
        39.900          35.9004
 123449574.395 7  96016397.077 6  23085687.137    23085686.397    23085695.947
        44.900          41.400
 133071042.277 6 103691728.55644  25322575.795    25322575.3484   25322577.8494
        36.800          28.1004
 106179552.069 8  82584138.303 8  19891000.301    19891000.744    19891006.636
        51.400          48.200
 103477568.798 8  80482596.639 8  19337252.958    19337253.307    19337259.470
        51.700          48.000
 106092652.637 8  82516542.745 8  19818993.981    19818994.070    19818999.391
        52.400          48.300
 126962769.178 6  98748868.819 6  23751001.949    23751002.198    23751010.432
        40.100          36.400
 25  1  1  8 15 15.0000000  0 31G10G24E03E08R04S31S35G13E13S48S33R02
                                E29E15G23G05R19G18E07G29G15R11E33E26
                                G27R24G32R18R17R03R01
 123444147.204 7  96190257.58346  23490639.333    23490638.7124   23490641.5534
        43.400          38.9004
 118638934.381 7  92445953.68646  22576235.391    22576234.9714   22576239.4894
        43.200          40.5004
 150688558.014 6                  28675070.885
        38.000
 128803242.823 7                  24510432.333
        46.800
 124460328.083 7  96802522.571 6  23242091.806    23242092.284    23242099.667
        44.400          40.400
 198974606.370 7                  37863599.785
        45.300
 200953211.641 7                  38240130.429
        44.200
 121822734.021 7  94926829.03544  23182086.944    23182086.3724   23182086.3044
        42.600          25.2004
 124853934.973 7                  23758893.164
        47.800
 412767166.480 5                  78547192.581
        32.800
 202102159.258 7                  38458732.749
        44.900
 107082647.349 8  83286547.984 8  20067236.724    20067236.883    20067242.202
        53.100          48.200
 142426190.816 6                  27102802.310
        39.100
 145402535.084 6                  27669155.428
        38.200
 109093299.104 8  85007773.79746  20759760.269    20759759.8634   20759760.3294
        48.000          39.0004
 129588143.343 6 100977813.81145  24659791.873    24659791.4224   24659794.4014
        38.800          32.4004
 124403479.389 5  96758285.044 6  23255911.389    23255910.851    23255917.008
        34.200          37.800
 106704499.052 8  83146367.75847  20305185.078    20305184.7214   20305184.8394
        50.200          44.3004
 123985108.924 7                  23593576.769
        47.700
 124971682.804 6  97380562.02645  23781311.625    23781311.0134   23781312.5974
        41.200          34.5004
 108373150.723 8  84446631.08747  20622715.635    20622715.1884   20622715.1744
        48.400          47.3004
 130377709.731 7 101404908.794 6  24398413.674    24398413.867    24398419.681
        44.600          39.700
 146234471.166 6                  27827493.479
        38.100
 126362874.846 7                  24046053.263
        47.500
 123871628.907 6  96523360.82146  23571986.430    23571985.6884   23571988.2984
        40.100          36.0004
 123512077.926 7  96065010.870 6  23097375.416    23097375.147    23097384.970
        45.200          41.600
 133018633.374 6 103650890.45044  25312603.566    25312603.1154   25312605.5274
        38.600          28.4004
 106145073.114 8  82557321.330 8  19884541.842    19884541.857    19884547.623
        51.900          48.200
 103500809.185 8  80500672.487 7  19341596.257    19341596.277    19341602.494
        51.800          47.800
 106072625.245 8  82500965.927 8  19815252.440    19815252.565    19815258.038
        52.500          48.400
 127019425.233 6  98792934.549 6  23761601.258    23761600.896    23761608.812
        40.900          36.100
 25  1  1  8 15 30.0000000  0 31G10G24E03E08R04S31S35G13E13S48S33R02
                                E29E15G23G05R19G18E07G29G15R11E33E26
                                G27R24G32R18R17R03R01
 123410608.924 7  96164123.87546  23484256.991    23484256.3524   23484259.7024
        43.800          39.0004
 118598647.540 7  92414561.37146  22568569.177    22568568.7444   22568573.3574
        43.000          40.6004
 150731622.417 6                  28683265.148
        38.200
 128826829.716 7                  24514920.900
        46.700
 124407841.709 7  96761699.835 6  23232288.738    23232289.530    23232297.280
        42.900          40.000
 198974605.799 7                  37863601.176
        45.800
 200953217.154 7                  38240130.111
        44.200
 121873595.675 7  94966461.48244  23191765.574    23191764.9984   23191765.1224
        43.200          25.3004
 124868621.770 8                  23761688.164
        48.000
 412766938.091 5                  78547167.638
        33.200
 202102129.595 7                  38458729.405
        45.200
 107116870.378 8  83313165.883 8  20073649.870    20073650.156    20073655.273
        52.900          48.300
 142382281.260 6                  27094446.780
        39.100
 145439991.295 6                  27676283.251
        38.000
 109079514.318 8  84997032.40546  20757137.285    20757136.8834   20757137.1774
        48.300          39.0004
 129630733.721 6 101011001.07545  24667897.193    24667896.7424   24667898.9494
        38.900          32.4004
 124341483.013 5  96710065.643 6  23244319.685    23244321.152    23244327.618
        34.100          37.700
 106704187.811 8  83146125.22647  20305125.791    20305125.4344   20305125.5904
        50.600          44.3004
 123966809.976 7                  23590094.569
        47.900
 125027116.516 6  97423757.10645  23791859.053    23791858.4274   23791861.3614
        40.300          34.4004
 108404489.501 8  84471050.91047  20628679.271    20628678.8294   20628678.7674
        48.600          47.3004
 130359858.113 7 101391024.176 6  24395072.258    24395072.456    24395079.504
        43.900          40.400
 146195042.122 6                  27819990.499
        37.400
 126340226.981 7                  24041743.433
        47.500
 123845433.981 6  96502949.18346  23567001.000    23567000.2454   23567003.7984
        41.200          36.4004
 123574633.699 7  96113665.256 6  23109073.975    23109073.896    23109082.614
        45.600          41.300
 132966242.737 6 103610066.52444  25302633.317    25302632.8614   25302635.8574
        37.900          27.6004
 106110732.801 8  82530612.191 8  19878108.393    19878108.721    19878114.555
        51.500          48.100
 103524225.585 8  80518885.216 7  19345972.116    19345972.251    19345978.348
        52.000          47.700
 106052728.703 8  82485490.857 8  19811535.490    19811535.703    19811541.341
        52.400          48.300
 127076062.768 6  98836985.975 6  23772195.956    23772196.195    23772204.653
        40.500          36.600
 25  1  1  8 15 45.0000000  0 31G10G24E03E08R04S31S35G13E13S48S33R02
                                E29E15G23G05R19G18E07G29G15R11E33E26
                                G27R24G32R18R17R03R01
 123377091.971 7  96138006.77646  23477878.734    23477878.0954   23477881.4164
        43.600          39.0004
 118558447.620 7  92383236.78946  22560919.807    22560919.3744   22560923.5744
        43.100          40.6004
 150774691.795 6                  28691461.469
        38.200
 128850489.306 7                  24519423.055
        46.600
 124355416.840 7  96720924.920 6  23222499.895    23222500.451    23222507.409
        43.400          40.300
 198974604.463 7                  37863603.430
        45.800
 200953221.243 7                  38240128.408
        44.100
 121924517.086 7  95006140.48344  23201455.207    23201454.6134   23201454.8734
        42.700          25.1004
 124883376.302 7                  23764495.843
        47.700
 412766708.951 5                  78547139.892
        32.800
 202102098.094 7                  38458722.657
        45.000
 107151181.298 8  83339852.141 8  20080079.799    20080080.215    20080085.243
        52.900          48.200
 142338397.678 6                  27086095.914
        39.100
 145477478.658 6                  27683417.377
        38.100
 109065781.272 8  84986331.33446  20754524.064    20754523.6624   20754523.8544
        48.200          39.1004
 129673325.175 6 101044189.18545  24676001.841    24676001.3944   24676003.6894
        37.100          31.9004
 124279509.397 5  96661863.933 6  23232736.167    23232735.098    23232742.158
        33.400          37.000
 106703993.579 8  83145973.86947  20305088.780    20305088.4184   20305088.6504
        50.400          44.3004
 123948599.734 7                  23586629.216
        47.500
 125082570.041 6  97466967.62145  23802412.139    23802411.5094   23802413.6524
        40.700          34.1004
 108435937.404 8  84495555.76447  20634663.520    20634663.0784   20634663.1264
        48.100          47.3004
 130342158.018 7 101377257.324 6  24391760.400    24391761.063    24391767.378
        45.700          41.200
 146155603.118 6                  27812485.293
        37.400
 126317623.342 7                  24037442.040
        47.400
 123819367.631 6  96482637.72446  23562040.371    23562039.6204   23562043.4324
        39.900          36.1004
 123637242.592 7  96162361.003 6  23120781.732    23120782.504    23120790.775
        45.900          40.800
 132913871.283 6 103569257.56044  25292667.111    25292666.6734   25292669.3844
        38.700          28.3004
 106076532.280 8  82504011.789 8  19871701.436    19871701.678    19871707.377
        51.500          48.100
 103547818.759 8  80537235.446 7  19350381.006    19350381.249    19350387.430
        51.700          47.600
 106032963.736 8  82470118.113 8  19807843.336    19807843.525    19807848.890
        52.600          48.200
 127132681.900 6  98881023.028 6  23782787.796    23782788.020    23782796.684
        40.100          36.200
 25  1  1  8 16  0.0000000  0 31G10G24E03E08R04S31S35G13E13S48S33R02
                                E29E15G23G05R19G18E07G29G15R11E33E26
                                G27R24G32R18R17R03R01
 123343601.630 7  96111910.41046  23471505.574    23471504.9354   23471508.0354
        44.500          39.0004
 118518340.378 7  92351984.42546  22553287.428    22553287.0044   22553291.2974
        43.000          40.6004
 150817771.347 6                  28699658.740
        37.500
 128874226.740 7                  24523940.269
        46.600
 124303059.259 7  96680202.382 6  23212722.689    23212723.324    23212729.786
        45.000          40.200
 198974607.173 7                  37863603.801
        45.800
 200953229.701 7                  38240130.921
        44.200
 121975503.074 7  95045869.80344  23211157.937    23211157.3474   23211157.3334
        42.100          24.7004
 124898203.958 7                  23767317.294
        47.800
 412766483.873 5                  78547102.478
        33.000
 202102070.558 7                  38458716.598
        45.100
 107185585.100 8  83366610.660 8  20086526.404    20086526.971    20086532.572
        52.300          48.200
 142294545.587 6                  27077750.848
        38.700
 145515002.534 6                  27690557.783
        37.600
 109052105.336 8  84975674.76246  20751921.446    20751921.0444   20751921.3834
        48.000          39.0004
 129715923.687 6 101077382.79545  24684108.013    24684107.5754   24684109.9534
        38.800          31.6004
 124217564.767 5  96613684.782 6  23221156.706    23221156.162    23221163.043
        34.200          38.600
 106703921.836 8  83145917.95847  20305075.092    20305074.7304   20305074.9934
        50.300          44.2004
 123930483.606 7                  23583181.937
        47.700
 125138048.113 6  97510197.27645  23812969.698    23812969.0814   23812970.6394
        41.500          34.4004
 108467499.368 8  84520149.49547  20640669.701    20640669.2594   20640669.1864
        48.100          47.2004
 130324615.533 7 101363613.139 6  24388477.277    24388477.725    24388484.174
        44.600          40.700
 146116159.557 6                  27804979.322
        38.200
 126295069.452 7                  24033150.136
        47.200
 123793435.376 6  96462430.75245  23557106.604    23557105.8674   23557108.6574
        40.000          35.9004
 123699909.395 7  96211101.800 6  23132501.122    23132500.628    23132510.120
        45.300          41.400
 132861524.562 6 103528467.88144  25282705.337    25282704.9174   25282708.5764
        38.500          28.9004
 106042477.446 8  82477524.695 8  19865321.630    19865322.336    19865328.089
        51.900          48.200
 103571593.730 8  80555727.073 7  19354824.019    19354824.123    19354830.363
        51.800          47.800
 106013335.391 8  82454851.645 8  19804176.668    19804176.955    19804182.280
        52.600          48.300
 127189287.942 6  98925049.928 5  23793378.790    23793378.593    23793385.459
        41.700          35.400
 25  1  1  8 16 15.0000000  0 31G10G24E03E08R04S31S35G13E13S48S33R02
                                E29E15G23G05R19G18E07G29G15R11E33E26
                                G27R24G32R18R17R03R01
 123310131.292 7  96085829.63546  23465136.597    23465135.9454   23465138.9194
        43.500          39.4004
 118478319.603 7  92320799.44246  22545671.336    22545670.9164   22545675.5294
        43.100          40.7004
 150860854.282 6                  28707857.493
        37.900
 128898035.190 7                  24528470.997
        46.600
 124250762.142 7  96639526.850 6  23202956.483    23202957.323    23202963.798
        44.000          39.900
 198974606.736 7                  37863604.087
        45.800
 200953235.367 7                  38240139.645
        44.300
 122026546.623 7  95085643.98344  23220871.033    23220870.4344   23220870.6324
        42.200          24.6004
 124913098.152 7                  23770151.664
        47.700
 412766255.102 5                  78547079.865
        32.900
 202102040.405 7                  38458712.502
        45.300
 107220074.724 8  83393435.906 8  20092990.517    20092990.751    20092995.824
        52.800          48.300
 142250718.487 6                  27069411.357
        39.200
 145552556.215 6                  27697703.994
        38.000
 109038479.856 8  84965057.50946  20749328.740    20749328.3384   20749328.5574
        48.300          39.1004
 129758522.412 6 101110576.56345  24692213.310    24692212.8594   24692215.9864
        38.600          31.9004
 124155642.264 5  96565522.887 6  23209581.085    23209580.021    23209587.126
        33.700          38.500
 106703966.094 8  83145952.43947  20305083.441    20305083.0754   20305083.4184
        50.200          44.4004
 123912454.976 7                  23579751.080
        47.400
 125193544.160 6  97553440.93045  23823530.469    23823529.8354   23823531.4624
        41.300          34.6004
 108499168.319 8  84544826.59447  20646696.025    20646695.5784   20646695.5924
        48.300          47.4004
 130307223.872 7 101350086.151 6  24385223.171    24385223.457    24385230.215
        44.800          40.900
 146076704.974 6                  27797471.478
        37.600
 126272558.817 7                  24028866.439
        47.400
 123767630.828 6  96442323.30146  23552195.393    23552194.6604   23552198.4264
        40.500          36.1004
 123762626.885 7  96259882.023 7  23144229.718    23144229.944    23144239.346
        45.600          42.000
 132809196.168 6 103487692.47344  25272748.289    25272747.8744   25272751.1544
        39.200          29.4004
 106008561.913 8  82451145.948 8  19858968.182    19858968.554    19858974.419
        51.300          48.000
 103595543.969 8  80574355.034 7  19359299.445    19359299.766    19359306.028
        52.000          47.800
 105993837.311 8  82439686.491 8  19800534.080    19800534.318    19800539.750
        52.500          48.300
 127245873.895 6  98969061.124 6  23803962.966    23803963.205    23803971.426
        41.000          36.300
 25  1  1  8 16 30.0000000  0 31G10G24E03E08R04S31S35G13E13S48S33R02
                                E29E15G23G05R19G18E07G29G15R11E33E26
                                G27R24G32R18R17R03R01
 123276683.929 7  96059766.76446  23458771.857    23458771.2054   23458774.2134
        43.500          39.4004
 118438388.695 7  92289684.47746  22538072.511    22538072.0784   22538076.8604
        42.200          40.6004
 150903943.405 6                  28716056.912
        36.400
 128921917.508 7                  24533015.223
        46.600
 124198528.732 7  96598900.862 6  23193202.840    23193203.252    23193209.732
        44.900          39.800
 198974607.417 7                  37863607.311
        45.500
 200953241.308 7                  38240137.820
        44.100
 122077650.424 7  95125465.11244  23230595.754    23230595.1334   23230595.6194
        42.800          24.4004
 124928061.955 7                  23772999.189
        47.700
 412766026.545 5                  78547062.269
        32.600
 202102009.664 7                  38458709.680
        45.000
 107254652.605 8  83420329.826 8  20099470.021    20099470.280    20099475.679
        52.500          48.100
 142206919.572 6                  27061076.184
        39.000
 145590142.716 6                  27704856.687
        37.500
 109024907.857 8  84954481.93346  20746745.850    20746745.4444   20746745.8824
        48.000          39.0004
 129801124.248 6 101143772.75045  24700320.367    24700319.9204   24700322.8544
        39.200          32.2004
 124093745.350 5  96517380.835 6  23198009.481    23198008.786    23198014.576
        33.600          37.100
 106704129.538 8  83146079.79347  20305114.633    20305114.2674   20305114.5184
        50.000          44.2004
 123894516.891 7                  23576337.696
        47.400
 125249060.836 6  97596700.65845  23834094.248    23834093.5914   23834095.9974
        40.200          34.3004
 108530947.030 8  84569589.21847  20652743.327    20652742.8714   20652742.9034
        48.200          47.3004
 130289986.583 7 101336679.317 6  24381997.106    24381997.682    24382004.418
        44.600          41.000
 146037242.377 6                  27789962.040
        37.300
 126250094.630 7                  24024591.821
        47.300
 123741957.187 6  96422317.83946  23547310.367    23547309.6214   23547312.9244
        40.100          36.1004
 123825397.926 7  96308703.858 6  23155968.314    23155968.374    23155977.745
        46.400          41.600
 132756889.293 6 103446933.84044  25262793.978    25262793.5314   25262797.6804
        37.700          28.8004
 105974789.322 8  82424878.376 8  19852641.704    19852641.995    19852647.752
        51.800          48.100
 103619672.156 8  80593121.396 7  19363808.633    19363808.780    19363814.899
        52.000          47.700
 105974472.287 8  82424624.839 8  19796916.332    19796916.650    19796922.150
        52.200          48.300
 127302442.509 6  99013058.889 6  23814545.330    23814545.908    23814553.933
        41.300          36.100
 25  1  1  8 16 45.0000000  0 31G10G24E03E08R04S31S35G13E13S48S33R02
                                E29E15G23G05R19G18E07G29G15R11E33E26
                                G27R24G32R18R17R03R01
 123243260.093 7  96033722.22846  23452411.831    23452411.1884   23452414.1704
        44.100          39.6004
 118398548.605 7  92258640.29346  22530491.739    22530491.3334   22530495.5154
        42.800          40.7004
 150947039.088 6                  28724258.220
        36.900
 128945874.007 7                  24537574.320
        46.900
 124146360.065 7  96558325.234 6  23183459.830    23183461.357    23183467.242
        45.500          40.000
 198974609.004 7                  37863604.673
        45.400
 200953248.487 7                  38240139.126
        44.200
 122128814.635 7  95165333.32444  23240331.994    23240331.3604   23240331.8534
        42.800          24.6004
 124943095.931 8                  23775860.131
        48.000
 412767399.378 5                  78547028.204
        33.300
 202101981.907 7                  38458699.472
        44.900
 107289318.897 8  83447292.487 8  20105966.755    20105967.324    20105972.285
        52.700          48.100
 142163149.519 6                  27052747.046
        39.200
 145627762.332 6                  27712015.628
        38.900
 109011389.823 8  84943948.40046  20744173.627    20744173.2254   20744173.5014
        48.500          39.1004
 129843729.546 6 101176971.63745  24708428.343    24708427.8924   24708430.3754
        38.800          32.2004
 124031875.340 5  96469259.731 6  23186442.092    23186442.281    23186449.346
        33.800          37.600
 106704412.779 8  83146300.50547  20305168.488    20305168.1224   20305168.3974
        50.500          44.3004
 123876669.895 7                  23572941.510
        47.600
 125304598.043 6  97639976.39045  23844662.690    23844662.0334   23844664.4494
        41.200          34.3004
 108562835.688 8  84594437.51647  20658811.429    20658810.9734   20658811.1454
        48.600          47.3004
 130272904.658 7 101323393.347 6  24378801.430    24378801.196    24378807.878
        44.600          40.600
 145997772.454 6                  27782450.819
        37.900
 126227677.586 7                  24020325.789
        47.400
 123716415.171 6  96402414.93946  23542449.719    23542448.9684   23542452.3194
        40.400          36.1004
 123888222.719 7  96357567.520 6  23167716.561    23167716.203    23167726.459
        45.300          41.700
 132704604.697 6 103406192.57444  25252845.344    25252844.9064   25252848.3104
        38.300          28.5004
 105941160.445 8  82398722.578 8  19846341.345    19846341.957    19846347.795
        51.600          48.000
 103643978.801 8  80612026.561 7  19368350.553    19368350.956    19368357.142
        51.700          47.600
 105955240.849 8  82409667.052 8  19793323.800    19793324.274    19793329.536
        52.500          48.200
 127358994.118 6  99057043.409 6  23825124.682    23825124.238    23825133.031
        41.000          36.300
 25  1  1  8 17  0.0000000  0 31G10G24E03E08R04S31S35G13E13S48S33R02
                                E29E15G23G05R19G18E07G29G15R11E33E26
                                G27R24G32R18R17R03R01
 123209856.456 7  96007693.43646  23446054.943    23446054.3174   23446058.0094
        43.900          39.9004
 118358796.455 7  92227664.62546  22522927.107    22522926.7054   22522930.8314
        43.100          40.9004
 150990137.899 6                  28732459.288
        37.100
 128969901.240 7                  24542146.373
        46.600
 124094252.540 7  96517797.186 6  23173729.769    23173728.464    23173737.063
        42.800          40.400
 198974607.081 7                  37863604.413
        45.300
 200953253.061 7                  38240136.940
        43.700
 122180035.621 7  95205245.76344  23250079.017    23250078.3564   23250078.5864
        42.900          24.6004
 124958196.835 7                  23778733.718
        47.900
 412767169.701 5                  78546995.704
        32.500
 202101950.497 7                  38458694.200
        44.700
 107324070.090 8  83474321.182 8  20112478.725    20112479.017    20112484.541
        52.100          48.100
 142119405.161 6                  27044422.956
        39.300
 145665411.757 6                  27719179.846
        38.400
 108997922.491 8  84933454.37846  20741610.829    20741610.4144   20741610.7424
        48.500          39.2004
 129886334.917 6 101210170.58845  24716535.807    24716535.3514   24716537.9464
        37.800          32.1004
 123970029.193 5  96421157.196 6  23174881.550    23174881.929    23174887.858
        35.000          38.100
 106704812.652 8  83146612.09147  20305244.705    20305244.3394   20305244.5314
        50.300          44.5004
 123858910.747 7                  23569562.116
        47.600
 125360152.247 7  97683265.36045  23855234.401    23855233.7404   23855235.8924
        42.100          34.7004
 108594830.648 8  84619368.64447  20664899.862    20664899.4024   20664899.5814
        48.200          47.5004
 130255974.853 7 101310225.703 6  24375633.061    24375633.226    24375639.921
        45.100          41.500
 145958292.090 6                  27774938.435
        37.200
 126205304.548 7                  24016068.499
        47.400
 123691001.707 6  96382612.21946  23537613.832    23537613.0774   23537616.0944
        41.100          36.4004
 123951097.518 7  96406470.121 6  23179474.148    23179474.978    23179483.374
        46.700          41.700
 132652339.342 6 103365466.27944  25242899.570    25242899.1324   25242901.9374
        38.900          28.4004
 105907672.615 8  82372676.475 7  19840068.474    19840068.548    19840074.386
        51.600          47.900
 103668460.485 8  80631067.854 7  19372925.893    19372926.106    19372932.207
        52.000          47.900
 105936139.511 8  82394810.473 8  19789755.308    19789755.664    19789761.293
        52.200          48.300
 127415525.256 6  99101012.018 6  23835700.327    23835699.934    23835708.781
        40.500          36.400
 25  1  1  8 17 15.0000000  0 31G10G24E03E08R04S31S35G13E13S48S33R02
                                E29E15G23G05R19G18E07G29G15R11E33E26
                                G27R24G32R18R17R03R01
 123176478.897 7  95981684.95246  23439703.261    23439702.6184   23439706.2044
        44.400          39.7004
 118319138.548 7  92196762.38646  22515379.934    22515379.5054   22515384.0874
        43.400          40.8004
 151033245.493 6                  28740662.409
        37.300
 128994004.868 7                  24546733.423
        46.500
 124042212.717 7  96477321.739 6  23164012.680    23164012.844    23164018.255
        44.300          40.400
 198974609.588 7                  37863606.153
        45.300
 200953260.301 7                  38240135.634
        43.800
 122231318.937 7  95245206.76244  23259838.124    23259837.4814   23259837.5494
        42.200          24.5004
 124973370.571 7                  23781621.127
        47.900
 412766944.090 5                  78546978.797
        32.900
 202101922.236 7                  38458687.130
        44.700
 107358911.642 8  83501420.163 8  20119008.247    20119008.587    20119013.718
        52.800          48.300
 142075692.517 6                  27036104.371
        39.500
 145703096.765 6                  27726351.133
        38.600
 108984511.727 8  84923004.43146  20739058.695    20739058.2714   20739058.7654
        48.300          39.2004
 129928946.561 6 101243374.40745  24724645.009    24724644.5854   24724647.0994
        38.000          32.3004
 123908213.535 5  96373078.356 6  23163326.128    23163325.915    23163333.056
        33.500          38.400
 106705335.157 8  83147019.23047  20305344.003    20305343.6324   20305343.9394
        50.400          44.3004
 123841245.347 7                  23566200.473
        47.900
 125415728.834 6  97726571.77545  23865810.527    23865809.8524   23865811.9734
        40.800          34.6004
 108626937.538 8  84644386.99247  20671009.634    20671009.1784   20671009.3424
        48.200          47.4004
 130239203.286 7 101297181.175 6  24372494.398    24372494.514    24372500.096
        44.800          40.000
 145918807.230 6                  27767424.638
        37.800
 126182981.548 7                  24011820.695
        47.500
 123665722.863 6  96362914.39946  23532803.257    23532802.4844   23532805.8094
        40.900          36.6004
 124014027.769 7  96455415.795 7  23191242.643    23191243.063    23191252.788
        45.600          42.000
 132600099.247 6 103324759.66644  25232957.579    25232957.1594   25232960.4834
        39.300          28.8004
 105874332.133 8  82346744.987 8  19833822.622    19833822.782    19833828.714
        51.900          48.100
 103693123.028 8  80650249.821 7  19377534.484    19377534.873    19377540.956
        52.100          47.900
 105917174.140 8  82380059.667 8  19786212.393    19786212.999    19786218.333
        52.400          48.200
 127472041.710 6  99144969.243 5  23846271.904    23846272.281    23846280.296
        41.600          35.900
 25  1  1  8 17 30.0000000  0 31G10G24E03E08R04S31S35G13E13S48S33R02
                                E29E15G23G05R19G18E07G29G15R11E33E26
                                G27R24G32R18R17R03R01
 123143122.277 7  95955692.79246  23433355.697    23433355.0184   23433358.2174
        43.700          39.3004
 118279570.172 7  92165929.92246  22507850.366    22507849.9244   22507854.5274
        42.800          40.6004
 151076356.696 6                  28748866.201
        37.000
 129018179.620 7                  24551333.527
        46.600
 123990235.526 7  96436895.059 6  23154305.324    23154305.582    23154312.482
        43.600          40.700
 198974610.883 7                  37863602.455
        45.100
 200953266.916 7                  38240138.737
        43.700
 122282659.063 7  95285212.03144  23269607.647    23269606.9904   23269606.9134
        42.600          24.2004
 124988612.100 7                  23784521.505
        47.600
 412766717.343 5                  78546953.286
        32.100
 202101892.814 7                  38458676.666
        44.400
 107393838.107 8  83528585.192 8  20125553.268    20125553.625    20125558.998
        52.600          48.100
 142032006.664 6                  27027791.403
        38.900
 145740812.285 6                  27733528.076
        38.000
 108971152.431 7  84912594.58246  20736516.610    20736516.1864   20736516.5634
        47.900          38.9004
 129971559.284 6 101276579.07245  24732754.126    24732753.7024   24732756.3914
        38.700          32.3004
 123846422.898 5  96325018.994 6  23151776.229    23151775.625    23151780.923
        34.500          38.100
 106705975.345 8  83147518.07247  20305465.998    20305465.6274   20305465.7914
        49.900          44.2004
 123823668.642 7                  23562855.469
        47.400
 125471322.570 6  97769891.54245  23876389.835    23876389.1514   23876391.2194
        40.500          34.2004
 108659150.993 8  84669488.37847  20677139.803    20677139.3474   20677139.3874
        48.400          47.2004
 130222585.000 7 101284255.719 6  24369384.414    24369385.355    24369390.927
        44.600          40.000
 145879312.895 6                  27759908.688
        38.100
 126160703.656 7                  24007581.382
        47.500
 123640573.763 6  96343317.67646  23528017.290    23528016.5034   23528020.4084
        41.000          36.4004
 124077008.205 7  96504400.501 6  23203020.346    23203020.204    23203029.396
        45.100          41.200
 132547879.589 6 103284068.98544  25223021.357    25223020.9334   25223023.1334
        38.800          28.9004
 105841134.250 8  82320924.421 7  19827603.666    19827603.815    19827609.457
        51.600          47.900
 103717961.300 8  80669568.462 7  19382176.496    19382176.435    19382182.657
        52.100          47.800
 105898339.638 8  82365410.668 8  19782693.881    19782694.422    19782699.788
        52.200          48.200
 127528538.078 6  99188910.875 6  23856841.606    23856840.791    23856850.331
        41.200          36.700
 25  1  1  8 17 45.0000000  0 31G10G24E03E08R04S31S35G13E13S48S33R02
                                E29E15G23G05R19G18E07G29G15R11E33E26
                                G27R24G32R18R17R03R01
 123109785.656 7  95929716.21646  23427012.202    23427011.5184   23427014.5414
        44.300          39.6004
 118240090.808 7  92135166.82046  22500337.746    22500337.3084   22500342.0054
        42.800          40.7004
 151119470.300 6                  28757070.590
        36.900
 129042424.343 7                  24555946.994
        46.600
 123938320.020 7  96396516.316 6  23144610.756    23144612.030    23144617.387
        45.000          40.600
 198974607.926 7                  37863603.313
        45.600
 200953270.176 7                  38240144.582
        44.100
 122334054.703 7  95325260.56943  23279387.712    23279387.0514   23279387.1974
        42.800          23.9004
 125003920.475 7                  23787434.747
        47.700
 412766487.953 5                  78546928.947
        32.700
 202101860.763 7                  38458677.368
        44.900
 107428847.943 8  83555815.045 8  20132114.298    20132114.435    20132119.794
        52.500          48.100
 141988346.796 6                  27019483.583
        39.500
 145778557.338 6                  27740710.934
        37.300
 108957843.670 8  84902224.11846  20733984.119    20733983.6954   20733984.0014
        48.100          38.9004
 130014171.756 6 101309783.55245  24740863.364    24740862.9404   24740865.4374
        38.500          32.2004
 123784657.322 5  96276979.140 6  23140228.054    23140228.558    23140234.089
        34.900          38.300
 106706732.385 8  83148107.96547  20305610.232    20305609.8704   20305609.8624
        50.500          44.2004
 123806179.694 7                  23559527.725
        47.500
 125526931.771 7  97813223.37045  23886971.611    23886970.9144   23886973.3364
        42.100          34.3004
 108691469.790 8  84694671.84947  20683289.790    20683289.3214   20683289.4874
        48.300          47.2004
 130206119.809 7 101271449.529 6  24366302.421    24366302.824    24366310.064
        44.000          40.300
 145839808.173 6                  27752391.586
        38.400
 126138470.101 7                  24003350.266
        47.600
 123615553.622 6  96323821.45146  23523256.472    23523255.6774   23523259.2754
        41.300          36.3004
 124140037.295 7  96553423.033 6  23214807.892    23214808.116    23214817.076
        46.200          41.500
 132495679.582 6 103243393.63244  25213088.653    25213088.2384   25213089.9204
        38.800          28.8004
 105808078.469 8  82295214.359 8  19821410.891    19821411.146    19821417.198
        51.700          48.000
 103742973.726 8  80689022.545 7  19386850.368    19386850.739    19386856.965
        52.100          47.700
 105879635.052 8  82350862.670 8  19779200.136    19779200.221    19779205.751
        52.300          48.300
 127585012.947 6  99232835.786 6  23867405.080    23867405.361    23867415.035
        40.300          36.100
 25  1  1  8 18  0.0000000  0 31G10G24E03E08R04S31S35G13E13S48S33R02
                                E29E15G23G05R19G18E07G29G15R11E33E26
                                G27R24G32R18R17R03R01
 123076475.980 7  95903760.63446  23420673.328    23420672.6354   23420676.0964
        44.700          40.0004
 118200707.825 7  92104478.82246  22492843.556    22492843.1364   22492847.6194
        43.600          40.9004
 151162593.074 6                  28765276.651
        38.000
 129066745.808 7                  24560575.346
        46.800
 123886473.497 7  96356191.281 6  23134928.498    23134929.156    23134935.614
        44.100          41.000
 198974610.667 7                  37863605.697
        45.600
 200953278.266 7                  38240142.927
        44.200
 122385512.458 7  95365357.50244  23289179.438    23289178.7634   23289179.7194
        42.600          24.0004
 125019302.741 8                  23790361.955
        48.100
 412766263.894 5                  78546902.337
        32.800
 202101833.009 7                  38458669.373
        44.800
 107463947.929 8  83583115.038 8  20138692.329    20138692.549    20138697.532
        52.800          48.200
 141944720.007 6                  27011181.288
        39.000
 145816338.797 6                  27747900.172
        38.000
 108944592.387 8  84891898.45246  20731462.265    20731461.8454   20731462.3824
        48.200          39.1004
 130056791.121 6 101342993.40745  24748972.939    24748972.5154   24748975.3154
        38.900          32.3004
 123722923.820 5  96228964.189 6  23128687.934    23128688.655    23128694.437
        34.600          38.400
 106707613.355 8  83148794.43147  20305777.670    20305777.3084   20305777.5264
        50.500          44.4004
 123788785.495 7                  23556217.771
        47.500
 125582563.364 6  97856572.64545  23897557.665    23897556.9504   23897559.5984
        41.500          34.3004
 108723900.550 8  84719942.56647  20689461.056    20689460.5964   20689460.8804
        48.100          47.5004
 130189814.355 7 101258767.447 6  24363251.547    24363250.874    24363258.518
        42.700          40.200
 145800300.170 6                  27744873.115
        37.700
 126116287.996 7                  23999129.019
        47.600
 123590669.586 6  96304431.27146  23518521.135    23518520.3444   23518523.9294
        40.900          36.8004
 124203121.578 7  96602488.516 6  23226605.125    23226604.865    23226613.596
        46.000          41.000
 132443506.424 6 103202739.19345  25203159.365    25203158.9454   25203162.1714
        39.900          30.0004
 105775172.225 8  82269620.622 7  19815246.703    19815246.773    19815252.646
        51.700          47.900
 103768167.795 8  80708617.934 7  19391558.909    19391558.843    19391565.051
        51.900          47.800
 105861066.974 8  82336420.877 8  19775731.223    19775731.610    19775736.845
        52.000          48.300
 127641473.112 6  99276749.221 6  23877967.364    23877967.307    23877976.212
        40.200          36.200
 25  1  1  8 18 15.0000000  0 31G10G24E03E08R04S31S35G13E13S48S33R02
                                E29E15G23G05R19G18E07G29G15R11E33E26
                                G27R24G32R18R17R03R01
 123043189.009 7  95877822.74446  23414339.270    23414338.5774   23414341.7794
        44.700          39.8004
 118161417.369 7  92073862.92346  22485366.970    22485366.5414   22485370.6284
        42.700          40.7004
 151205720.642 6                  28773483.728
        37.900
 129091139.569 7                  24565217.455
        46.900
 123834691.952 7  96315916.751 6  23125258.634    23125258.257    23125265.412
        44.600          40.700
 198974613.620 7                  37863609.323
        45.500
 200953286.198 7                  38240142.234
        44.000
 122437027.787 7  95405499.31743  23298982.798    23298982.1234   23298982.6434
        42.500          23.6004
 125034754.686 8                  23793302.270
        48.100
 412766039.640 5                  78546881.369
        33.200
 202101804.746 7                  38458661.856
        44.500
 107499133.427 8  83610481.527 8  20145285.182    20145286.064    20145291.038
        52.300          48.100
 141901122.173 6                  27002884.852
        39.800
 145854152.288 6                  27755095.859
        38.100
 108931394.299 8  84881614.22946  20728950.928    20728950.5134   20728950.8374
        48.600          39.0004
 130099413.116 6 101376205.31345  24757083.474    24757083.0544   24757086.0694
        39.900          32.7004
 123661219.502 5  96180971.984 6  23117152.862    23117151.784    23117159.761
        34.600          38.400
 106708614.105 8  83149574.23047  20305968.204    20305967.8424   20305967.9544
        50.200          44.3004
 123771481.803 7                  23552924.738
        47.800
 125638212.650 6  97899935.72345  23908147.718    23908147.0084   23908148.9014
        41.600          34.5004
 108756438.430 8  84745296.74847  20695653.036    20695652.5804   20695652.6474
        48.200          47.4004
 130173665.036 7 101246206.782 6  24360230.350    24360230.070    24360235.965
        44.300          40.100
 145760784.743 6                  27737354.141
        38.100
 126094153.227 7                  23994917.140
        47.600
 123565917.601 6  96285143.99146  23513811.142    23513810.3734   23513814.0054
        41.600          36.7004
 124266256.747 7  96651593.575 6  23238410.931    23238411.232    23238420.630
        45.700          41.200
 132391356.057 6 103162102.50144  25193236.029    25193235.6094   25193238.1704
        39.000          28.8004
 105742411.848 8  82244140.307 7  19809109.564    19809109.793    19809115.555
        51.800          47.900
 103793538.765 8  80728350.887 7  19396299.580    19396299.979    19396306.125
        52.000          47.700
 105842631.577 8  82322082.239 8  19772287.136    19772287.539    19772292.851
        52.200          48.300
 127697914.343 6  99320647.895 5  23888527.235    23888526.118    23888534.576
        40.600          35.700
 25  1  1  8 18 30.0000000  0 31G10G24E03E08R04S31S35G13E13S48S33R02
                                E29E15G23G05R19G18E07G29G15R11E33E26
                                G27R24G32R18R17R03R01
 123009918.426 7  95851897.62746  23408007.931    23408007.2434   23408010.5204
        43.100          39.7004
 118122213.574 7  92043314.56046  22477906.808    22477906.3884   22477910.2854
        43.200          40.7004
 151248846.590 6                  28781690.222
        37.700
 129115599.204 7                  24569871.938
        46.800
 123782968.925 7  96275687.738 6  23115599.780    23115599.736    23115606.627
        44.400          40.500
 198974609.690 7                  37863601.520
        45.200
 200953287.738 7                  38240144.121
        43.700
 122488594.054 7  95445680.82443  23308795.461    23308794.7734   23308795.3064
        42.700          23.6004
 125050270.053 8                  23796254.813
        48.000
 412765808.791 5                  78546848.539
        32.400
 202101771.578 7                  38458655.887
        44.400
 107534397.589 8  83637909.199 8  20151894.739    20151894.648    20151900.012
        52.900          48.400
 141857547.222 6                  26994593.029
        39.200
 145891991.499 6                  27762296.928
        39.000
 108918243.177 8  84871366.60246  20726448.306    20726447.8824   20726448.2624
        48.100          38.9004
 130142031.585 6 101409414.45845  24765193.551    24765193.1314   24765196.2284
        39.300          32.9004
 123599537.648 5  96132997.189 6  23105622.448    23105622.935    23105628.631
        35.400          38.700
 106709728.498 8  83150442.57647  20306180.060    20306179.7034   20306180.0034
        50.300          44.2004
 123754262.401 8                  23549648.129
        48.200
 125693873.052 6  97943307.43445  23918739.421    23918738.7064   23918741.2544
        40.500          34.4004
 108789077.069 8  84770729.44547  20701864.031    20701863.5804   20701863.5694
        48.100          47.3004
 130157665.725 7 101233762.955 6  24357235.226    24357235.518    24357242.660
        44.200          40.600
 145721255.740 6                  27729831.779
        38.600
 126072059.725 7                  23990712.814
        47.900
 123541291.606 6  96265954.89446  23509125.023    23509124.2234   23509127.7494
        41.800          36.7004
 124329435.930 7  96700732.885 6  23250225.654    23250225.979    23250235.461
        45.700          41.200
 132339222.468 6 103121478.88844  25183315.425    25183315.0144   25183317.2584
        39.100          29.1004
 105709791.155 8  82218768.659 7  19802998.565    19802998.735    19803004.456
        51.800          47.900
 103819080.188 8  80748216.417 7  19401072.832    19401072.900    19401079.130
        51.700          47.800
 105824322.114 8  82307841.545 8  19768866.930    19768867.240    19768872.391
        52.300          48.200
 127754329.886 6  99364526.599 5  23899080.142    23899080.292    23899088.929
        41.500          35.800
 25  1  1  8 18 45.0000000  0 31G10G24E03E08R04S31S35G13E13S48S33R02
                                E29E15G23G05R19G18E07G29G15R11E33E26
                                G27R24G32R18R17R03R01
 122976673.588 7  95825992.57246  23401682.065    23401681.3814   23401684.2344
        44.000          39.7004
 118083106.223 7  92012841.34046  22470464.361    22470463.9324   22470468.4544
        43.100          40.8004
 151291980.144 6                  28789898.218
        36.500
 129140133.827 7                  24574540.597
        46.500
 123731314.328 7  96235511.939 6  23105953.543    23105953.775    23105960.734
        45.900          40.900
 198974609.524 7                  37863601.914
        45.300
 200953292.637 7                  38240144.340
        43.600
 122540220.134 7  95485908.93943  23318619.992    23318619.2904   23318619.8994
        42.000          23.9004
 125065858.245 7                  23799221.000
        47.600
 412765580.766 5                  78546820.502
        31.900
 202101740.399 7                  38458653.159
        44.700
 107569749.499 8  83665405.112 8  20158518.930    20158519.411    20158524.823
        52.600          48.200
 141814004.653 6                  26986307.279
        39.200
 145929865.673 6                  27769503.030
        38.000
 108905148.368 8  84861162.86346  20723956.286    20723955.8624   20723956.3834
        48.300          38.8004
 130184655.689 6 101442627.98845  24773304.629    24773304.2004   24773307.3454
        39.300          32.7004
 123537887.979 5  96085047.487 6  23094097.067    23094097.113    23094103.646
        33.500          37.500
 106710966.060 8  83151406.89847  20306415.595    20306415.2384   20306415.5424
        50.300          44.2004
 123737136.672 7                  23546389.177
        47.300
 125749553.290 6  97986694.61345  23929335.363    23929334.6704   23929336.6214
        41.600          34.5004
 108821825.632 8  84796247.79947  20708095.780    20708095.3334   20708095.4374
        48.400          47.3004
 130141825.984 7 101221443.164 6  24354270.945    24354271.615    24354278.382
        45.100          40.300
 145681722.610 6                  27722308.591
        38.500
 126050016.991 7                  23986518.179
        47.400
 123516801.147 6  96246871.40346  23504464.002    23504463.1934   23504467.4334
        40.400          36.8004
 124392668.130 7  96749913.442 6  23262050.676    23262050.889    23262060.354
        45.000          41.200
 132287115.166 6 103080875.77544  25173399.780    25173399.3694   25173401.7304
        39.100          28.9004
 105677320.234 8  82193513.498 8  19796915.805    19796915.870    19796921.758
        52.200          48.000
 103844801.417 8  80768221.795 7  19405879.190    19405879.568    19405885.847
        51.600          47.700
 105806148.240 8  82293706.318 8  19765471.792    19765471.977    19765477.624
        52.100          48.300
 127810728.937 6  99408392.537 5  23909629.868    23909630.209    23909638.926
        40.800          35.300
 25  1  1  8 19  0.0000000  0 31G10G24E03E08R04S31S35G13E13S48S33R02
                                E29E15G23G05R19G18E07G29G15R11E33E26
                                G27R24G32R18R17R03R01
 122943450.873 7  95800104.74946  23395359.963    23395359.2754   23395362.2014
        44.600          40.1004
 118044092.088 7  91982440.76146  22463040.636    22463040.2074   22463044.3444
        43.600          41.0004
 151335117.562 6                  28798107.019
        37.300
 129164739.658 7                  24579223.049
        46.300
 123679724.505 7  96195386.536 6  23096319.080    23096319.830    23096326.650
        44.400          40.700
 198974608.984 7                  37863601.364
        45.400
 200953297.430 7                  38240149.178
        44.000
 122591902.165 7  95526180.64743  23328454.303    23328453.6194   23328454.4954
        42.700          23.9004
 125081515.678 7                  23802200.735
        47.400
 412765352.324 5                  78546797.035
        33.000
 202101709.287 7                  38458646.988
        44.900
 107605185.197 8  83692966.215 8  20165160.099    20165160.244    20165165.268
        53.000          48.200
 141770490.947 6                  26978026.596
        39.500
 145967771.162 6                  27776716.464
        38.000
 108892106.224 7  84851000.15146  20721474.572    20721474.1524   20721474.5924
        47.900          39.0004
 130227281.596 6 101475842.92045  24781416.387    24781415.9494   24781418.7884
        38.500          32.6004
 123476267.689 5  96037120.586 6  23082578.375    23082578.303    23082584.733
        34.400          39.200
 106712323.267 8  83152464.46447  20306673.925    20306673.5724   20306673.8054
        50.500          44.3004
 123720101.015 7                  23543147.476
        47.300
 125805249.569 6  98030094.29745  23939934.130    23939933.4604   23939935.2024
        41.700          34.3004
 108854680.056 8  84821848.64247  20714347.780    20714347.3334   20714347.4504
        48.200          47.5004
 130126142.551 7 101209244.921 6  24351336.564    24351336.813    24351343.709
        44.200          40.600
 145642181.913 6                  27714784.105
        36.800
 126028021.589 7                  23982332.738
        47.100
 123492442.784 6  96227890.84046  23499829.298    23499828.5114   23499832.0694
        41.800          36.8004
 124455949.469 7  96799132.191 6  23273884.736    23273884.256    23273894.316
        44.800          41.200
 132235030.820 6 103040290.53044  25163488.074    25163487.6684   25163490.7234
        40.500          29.8004
 105644995.822 8  82168372.298 7  19790860.032    19790860.274    19790866.157
        51.800          47.900
 103870698.600 8  80788364.031 7  19410719.222    19410719.236    19410725.341
        52.400          47.700
 105788105.835 8  82279673.351 8  19762101.088    19762101.666    19762107.085
        52.300          48.200
 127867107.824 6  99452242.776 6  23920177.066    23920177.273    23920185.534
        39.600          36.000
 25  1  1  8 19 15.0000000  0 31G10G24E03E08R04S31S35G13E13S48S33R02
                                E29E15G23G05R19G18E07G29G15R11E33E26
                                G27R24G32R18R17R03R01
 122910256.109 7  95774238.71046  23389042.847    23389042.1724   23389045.4344
        44.400          40.1004
 118005177.462 7  91952117.72146  22455634.930    22455634.4974   22455639.1184
        43.100          41.0004
 151378264.409 6                  28806317.835
        37.700
 129189422.340 7                  24583919.991
        46.600
 123628205.834 7  96155316.488 6  23086698.515    23086698.745    23086706.039
        44.200          41.100
 198974613.725 7                  37863600.407
        45.200
 200953307.365 7                  38240149.751
        43.900
 122643645.574 7  95566500.19843  23338301.271    23338300.6054   23338300.5164
        42.400          23.1004
 125097248.247 7                  23805194.292
        47.900
 412765130.139 5                  78546775.177
        32.800
 202101683.884 7                  38458642.244
        44.700
 107640710.210 8  83720596.787 8  20171816.631    20171817.573    20171822.771
        52.400          48.200
 141727012.133 6                  26969753.065
        40.200
 146005713.642 6                  27783936.529
        38.100
 108879122.598 8  84840883.03946  20719004.093    20719003.6784   20719003.8914
        48.500          38.9004
 130269915.304 6 101509063.93345  24789529.517    24789529.0974   24789531.9214
        38.300          32.5004
 123414683.222 5  95989221.542 6  23071066.611    23071066.165    23071071.981
        34.700          38.700
 106713806.079 8  83153619.89547  20306956.099    20306955.7464   20306955.9774
        50.600          44.3004
 123703161.300 7                  23539923.770
        47.500
 125860967.483 6  98073510.84345  23950536.482    23950535.7984   23950537.9614
        41.400          34.3004
 108887645.898 8  84847536.30347  20720620.999    20720620.5574   20720620.6224
        48.900          47.5004
 130110621.531 7 101197173.025 6  24348430.683    24348431.045    24348438.085
        42.800          39.200
 145602639.415 6                  27707259.454
        37.700
 126006079.495 7                  23978157.326
        47.600
 123468222.527 6  96209017.89646  23495220.153    23495219.3494   23495222.8774
        41.300          36.6004
 124519285.308 7  96848393.360 6  23285728.609    23285728.913    23285738.083
        45.200          40.700
 132182975.437 6 102999727.86745  25153582.482    25153582.1074   25153585.3644
        41.200          30.3004
 105612824.197 8  82143349.923 7  19784833.279    19784833.680    19784839.375
        52.100          47.900
 103896777.552 8  80808647.645 7  19415592.371    19415592.594    19415598.690
        51.900          47.700
 105770201.138 8  82265747.484 8  19758756.135    19758756.745    19758762.343
        51.800          48.200
 127923472.210 6  99496081.805 5  23930722.669    23930721.372    23930729.960
        41.000          35.900
 25  1  1  8 19 30.0000000  0 31G10G24E03E08R04S31S35G13E13S48S33R02
                                E29E15G23G05R19G18E07G29G15R11E33E26
                                G27R24G32R18R17R03R01
 122877078.603 7  95748386.12746  23382729.321    23382728.6604   23382731.8614
        44.800          40.1004
 117966352.039 7  91921864.19146  22448246.852    22448246.4324   22448250.8264
        43.300          41.0004
 151421409.838 6                  28814527.875
        36.500
 129214171.025 7                  24588629.649
        46.300
 123576747.436 7  96115293.271 6  23077089.471    23077089.309    23077095.842
        44.700          40.800
 198974612.685 7                  37863605.773
        45.700
 200953311.941 7                  38240144.210
        44.000
 122695439.265 7  95606858.90643  23348157.296    23348156.6354   23348156.7814
        42.400          23.6004
 125113045.304 7                  23808200.500
        47.500
 412764903.021 5                  78546740.491
        33.200
 202101652.579 7                  38458638.032
        45.100
 107676313.374 8  83748288.120 8  20178489.363    20178489.538    20178494.754
        52.500          48.300
 141683557.687 6                  26961483.177
        39.900
 146043682.444 6                  27791162.048
        38.400
 108866186.834 8  84830803.21646  20716542.120    20716541.7054   20716542.3394
        48.100          38.8004
 130312546.007 6 101542282.61045  24797642.361    24797641.9374   24797644.3384
        40.100          32.9004
 123353124.089 5  95941342.199 6  23059558.785    23059557.679    23059563.925
        34.700          38.700
 106715403.940 8  83154864.97447  20307260.192    20307259.8394   20307260.0614
        50.600          44.2004
 123686306.883 7                  23536716.630
        47.700
 125916695.801 6  98116935.48245  23961141.636    23961140.9574   23961142.7944
        41.200          34.4004
 108920712.141 8  84873302.20247  20726913.043    20726912.5924   20726912.9694
        48.700          47.5004
 130095252.422 7 101185219.233 6  24345555.854    24345555.761    24345562.496
        43.300          40.200
 145563084.667 6                  27699732.988
        38.200
 125984180.214 7                  23973989.758
        47.400
 123444129.923 6  96190244.42646  23490635.703    23490634.9084   23490638.2654
        41.500          37.0004
 124582664.590 7  96897688.307 6  23297580.751    23297580.748    23297591.675
        44.700          41.600
 132130938.550 6 102959179.62844  25143680.202    25143679.8184   25143683.2694
        39.500          29.5004
 105580795.050 8  82118438.359 8  19778833.286    19778833.389    19778839.308
        51.600          48.000
 103923027.312 8  80829064.093 7  19420498.096    19420498.201    19420504.351
        52.200          47.800
 105752423.146 8  82251920.146 8  19755435.683    19755435.939    19755441.144
        52.500          48.200
 127979810.647 6  99539900.508 6  23941260.560    23941260.526    23941269.543
        40.300          36.200
 25  1  1  8 19 45.0000000  0 31G10G24E03E08R04S31S35G13E13S48S33R02
                                E29E15G23G05R19G18E07G29G15R11E33E26
                                G27R24G32R18R17R03R01
 122843927.045 7  95722553.75346  23376421.134    23376420.4774   23376423.0724
        44.200          39.8004
 117927624.878 7  91891687.22746  22440877.466    22440877.0514   22440881.1854
        43.900          40.9004
 151464562.451 6                  28822739.538
        37.000
 129238994.172 7                  24593353.019
        46.200
 123525358.450 7  96075324.067 6  23067492.069    23067493.059    23067499.762
        45.200          40.400
 198974615.811 7                  37863602.678
        45.400
 200953319.992 7                  38240153.078
        43.900
 122747291.508 7  95647263.24043  23358024.432    23358023.7714   23358023.9664
        42.500          23.2004
 125128915.592 7                  23811220.496
        47.300
 412764679.668 5                  78546724.415
        32.500
 202101625.672 7                  38458632.961
        45.000
 107712003.204 8  83776046.869 8  20185177.572    20185177.829    20185182.839
        52.700          48.200
 141640136.421 6                  26953220.737
        39.400
 146081686.127 6                  27798393.888
        38.500
 108853307.601 8  84820767.44546  20714091.515    20714091.1004   20714091.4834
        48.300          38.8004
 130355182.321 6 101575505.65745  24805755.594    24805755.1564   24805758.0844
        39.200          32.6004
 123291599.207 5  95893489.567 6  23048055.547    23048056.840    23048062.970
        34.700          38.600
 106717125.672 8  83156206.58147  20307587.735    20307587.3824   20307587.6974
        50.300          44.1004
 123669546.465 7                  23533527.105
        47.000
 125972442.850 6  98160374.72445  23971749.948    23971749.2824   23971751.2174
        41.200          34.5004
 108953887.159 8  84899152.85547  20733225.995    20733225.5394   20733225.9874
        48.500          47.4004
 130080044.199 7 101173390.622 6  24342710.253    24342710.597    24342716.765
        43.800          40.200
 145523526.558 6                  27692205.107
        38.100
 125962332.609 7                  23969832.290
        47.200
 123420173.817 6  96171577.30646  23486076.957    23486076.1574   23486079.7504
        40.900          36.9004
 124646095.842 7  96947023.714 6  23309443.017    23309443.068    23309452.546
        44.600          41.200
 132078929.067 6 102918652.73744  25133783.284    25133782.8644   25133785.9854
        40.300          29.1004
 105548917.520 8  82093644.735 7  19772861.574    19772861.604    19772867.500
        51.600          47.900
 103949456.573 8  80849620.189 7  19425436.841    19425437.162    19425443.298
        52.500          47.600
 105734780.431 8  82238198.054 8  19752139.604    19752140.090    19752145.339
        51.900          48.200
 128036132.174 6  99583706.074 5  23951797.582    23951797.024    23951806.072
        40.100          35.500
 25  1  1  8 20  0.0000000  0 31G10G24E03E08R04S31S35G13E13S48S33R02
                                E29E15G23G05R19G18E07G29G15R11E33E26
                                G27R24G32R18R17R03R01
 122810795.578 7  95696737.03346  23370116.231    23370115.5744   23370118.3084
        44.500          40.0004
 117888990.606 7  91861582.64546  22433525.366    22433524.9334   22433529.2574
        43.700          41.2004
 151507716.206 6                  28830951.124
        36.600
 129263885.776 7                  24598089.861
        46.400
 123474032.768 7  96035404.116 6  23057907.497    23057907.872    23057916.351
        44.000          41.600
 198974615.947 7                  37863607.924
        45.600
 200953325.640 7                  38240148.673
        44.000
 122799196.261 7  95687708.49443  23367901.307    23367900.6414   23367901.2264
        42.800          23.4004
 125144853.276 7                  23814253.411
        47.500
 412764453.620 5                  78546700.206
        32.500
 202101595.679 7                  38458626.812
        45.000
 107747773.046 8  83803867.852 8  20191880.858    20191880.993    20191886.396
        52.600          48.300
 141596742.661 6                  26944963.546
        39.700
 146119718.826 6                  27805630.598
        38.900
 108840479.090 7  84810771.21246  20711650.207    20711649.7924   20711650.2904
        47.600          38.8004
 130397818.511 6 101608728.61745  24813868.839    24813868.3974   24813871.7054
        39.100          33.2004
 123230103.570 6  95845659.574 6  23036560.496    23036561.774    23036567.055
        36.000          38.900
 106718965.523 8  83157640.22747  20307937.920    20307937.5724   20307937.8344
        50.400          44.2004
 123652874.229 7                  23530354.600
        47.400
 126028202.580 6  98203823.86245  23982360.676    23982360.0154   23982361.7784
        41.300          34.1004
 108987164.620 8  84925083.33847  20739558.716    20739558.2654   20739558.4854
        48.400          47.5004
 130064991.265 7 101161682.740 6  24339893.238    24339893.037    24339899.598
        44.000          40.400
 145483959.225 6                  27684675.649
        38.200
 125940530.969 7                  23965683.729
        47.300
 123396348.564 6  96153012.15746  23481543.479    23481542.6924   23481545.9634
        41.600          36.8004
 124709572.800 7  96996394.659 6  23321314.041    23321314.010    23321323.604
        44.800          41.400
 132026941.390 6 102878142.81244  25123890.204    25123889.7574   25123892.0864
        40.300          28.8004
 105517186.305 8  82068964.892 8  19766917.251    19766917.454    19766923.140
        52.000          48.000
 103976059.166 8  80870311.071 7  19430408.145    19430408.215    19430414.517
        52.100          47.800
 105717267.149 8  82224576.618 8  19748868.024    19748868.427    19748873.658
        51.800          48.200
 128092430.646 6  99627493.745 5  23962327.751    23962328.133    23962337.588
        40.200          34.900
 25  1  1  8 20 15.0000000  0 31G10G24E03E08R04S31S35G13E13S48S33R02
                                E29E15G23G05R19G18E07G29G15R11E33E26
                                G27R24G32R18R17R03R01
 122777683.830 7  95670935.68446  23363815.183    23363814.5224   23363817.3944
        44.400          40.0004
 117850449.227 7  91831550.44146  22426191.233    22426190.8044   22426195.0534
        43.400          41.1004
 151550870.561 5                  28839163.014
        34.700
 129288845.268 7                  24602839.581
        46.300
 123422770.634 7  95995533.583 6  23048335.660    23048336.194    23048341.659
        45.300          40.900
 198974613.494 7                  37863608.071
        45.600
 200953328.566 7                  38240153.869
        43.800
 122851152.899 6  95728194.18443  23377788.476    23377787.8014   23377788.1274
        41.800          22.9004
 125160858.043 7                  23817298.950
        47.700
 412764224.570 5                  78546668.060
        32.600
 202101562.799 7                  38458617.654
        44.400
 107783622.299 8  83831750.609 8  20198598.973    20198599.378    20198604.616
        52.900          48.200
 141553376.131 6                  26936711.248
        39.600
 146157780.102 6                  27812873.624
        38.700
 108827700.892 7  84800814.17846  20709218.594    20709218.1834   20709218.7294
        47.900          38.7004
 130440454.425 6 101641951.35745  24821982.424    24821981.9774   24821985.0574
        39.500          32.9004
 123168637.211 5  95797852.473 6  23025069.780    23025070.040    23025076.626
        34.000          38.700
 106720923.232 8  83159165.70947  20308310.407    20308310.0544   20308310.3874
        50.200          44.1004
 123636289.827 7                  23527198.734
        47.600
 126083974.087 6  98247282.16745  23992973.445    23992972.7974   23992975.0144
        41.400          34.4004
 109020544.020 8  84951093.25247  20745910.602    20745910.1514   20745910.4074
        48.500          47.4004
 130050093.413 7 101150095.522 6  24337104.553    24337104.618    24337111.988
        43.700          40.200
 145444382.487 6                  27677144.811
        37.800
 125918775.133 7                  23961543.612
        47.600
 123372653.966 6  96134548.81446  23477033.931    23477033.1364   23477037.0874
        40.900          36.9004
 124773094.625 7  97045800.560 6  23333192.687    23333192.947    23333202.304
        45.600          41.500
 131974975.292 6 102837649.73544  25114001.184    25114000.7424   25114003.3524
        39.700          29.3004
 105485601.282 8  82044398.769 7  19761000.214    19761000.339    19761006.276
        51.600          47.900
 104002834.677 8  80891136.449 7  19435412.126    19435412.019    19435418.200
        52.300          47.700
 105699882.893 8  82211055.548 7  19745620.759    19745620.706    19745626.330
        51.800          47.900
 128148705.283 6  99671262.942 6  23972855.880    23972855.477    23972865.192
        39.300          36.100
 25  1  1  8 20 30.0000000  0 31G10G24E03E08R04S31S35G13E13S48S33R02
                                E29E15G23G05R19G18E07G29G15R11E33E26
                                G27R24G32R18R17R03R01
 122744598.374 7  95645154.82946  23357519.228    23357518.5714   23357521.6494
        44.500          40.0004
 117812007.724 7  91801596.06646  22418876.267    22418875.8434   22418879.8414
        43.600          41.1004
 151594031.915 6                  28847376.253
        38.000
 129313879.027 7                  24607603.317
        46.600
 123371578.434 7  95955717.434 6  23038775.652    23038774.868    23038782.193
        43.900          40.600
 198974614.783 7                  37863608.384
        45.500
 200953335.039 7                  38240153.100
        43.900
 122903167.486 7  95768725.03043  23387686.177    23387685.4984   23387686.0414
        42.700          23.1004
 125176936.495 7                  23820358.732
        47.700
 412763999.353 5                  78546641.190
        32.600
 202101533.987 7                  38458610.683
        44.500
 107819557.258 8  83859700.010 8  20205332.866    20205333.212    20205338.580
        52.500          48.200
 141510043.616 6                  26928465.211
        40.000
 146195876.470 6                  27820122.951
        38.600
 108814979.599 8  84790901.49146  20706797.818    20706797.4034   20706797.9494
        48.100          38.6004
 130483096.176 6 101675178.65145  24830096.508    24830096.0614   24830099.5494
        39.200          32.7004
 123107206.962 5  95750073.395 6  23013585.722    23013586.515    23013592.292
        34.700          38.500
 106723005.519 8  83160788.26147  20308706.799    20308706.4464   20308706.6454
        50.400          44.1004
 123619799.840 8                  23524060.655
        48.000
 126139763.657 6  98290754.55045  24003590.051    24003589.3944   24003591.2274
        40.700          34.1004
 109054031.787 8  84977187.60847  20752283.326    20752282.8794   20752282.9294
        48.500          47.6004
 130035357.444 7 101138634.102 6  24334346.711    24334347.326    24334354.303
        43.700          39.700
 145404803.001 6                  27669613.131
        38.400
 125897071.809 7                  23957413.671
        47.700
 123349096.818 6  96116192.57846  23472551.875    23472551.0884   23472554.4564
        41.600          37.0004
 124836667.665 7  97095246.298 6  23345080.389    23345080.366    23345091.025
        43.800          41.200
 131923037.615 6 102797178.80644  25104118.447    25104117.9744   25104120.4724
        39.700          29.8004
 105454169.611 8  82019951.902 7  19755112.105    19755112.308    19755117.981
        51.900          47.800
 104029789.587 8  80912101.351 7  19440448.984    19440449.128    19440455.376
        52.100          47.600
 105682634.503 8  82197640.144 8  19742398.142    19742398.620    19742404.142
        51.700          48.500
 128204962.726 6  99715018.715 5  23983380.256    23983379.678    23983388.252
        40.200          35.400
 25  1  1  8 20 45.0000000  0 31G10G24E03E08R04S31S35G13E13S48S33R02
                                E29E15G23G05R19G18E07G29G15R11E33E26
                                G27R24G32R18R17R03R01
 122711538.160 7  95619393.63446  23351228.128    23351227.4854   23351230.4924
        44.400          40.1004
 117773665.546 7  91771719.08746  22411579.565    22411579.1364   22411583.4944
        43.200          41.2004
 151637199.185 6                  28855591.219
        36.000
 129338985.910 7                  24612381.126
        46.900
 123320455.863 7  95915955.461 6  23029228.747    23029229.233    23029235.901
        45.300          41.400
 198974618.917 7                  37863606.157
        45.200
 200953343.898 7                  38240153.529
        43.900
 122955238.742 6  95809300.00343  23397595.215    23397594.5364   23397595.0674
        41.800          23.0004
 125193087.739 7                  23823432.037
        47.900
 412763777.699 5                  78546611.042
        32.700
 202101507.024 7                  38458607.848
        44.700
 107855576.646 8  83887715.076 8  20212083.118    20212083.457    20212088.677
        52.200          48.100
 141466744.276 6                  26920225.822
        40.600
 146234006.871 6                  27827379.034
        37.700
 108802314.260 7  84781032.41946  20704387.356    20704386.9364   20704387.8434
        47.800          38.8004
 130525742.939 6 101708409.84145  24838211.954    24838211.5034   24838214.7574
        39.700          32.8004
 123045812.029 5  95702321.779 6  23002108.705    23002109.720    23002115.501
        35.200          39.200
 106725211.547 8  83162507.24447  20309126.447    20309126.0904   20309126.4504
        50.200          44.2004
 123603403.358 7                  23520940.529
        47.700
 126195569.623 6  98334239.70745  24014209.441    24014208.7844   24014210.9504
        40.700          34.4004
 109087626.508 8  85003365.30447  20758676.046    20758675.5954   20758675.7894
        48.500          47.6004
 130020782.946 7 101127298.285 6  24331620.023    24331620.173    24331626.671
        43.200          40.000
 145365219.869 6                  27662080.941
        38.900
 125875420.198 7                  23953293.576
        47.900
 123325676.279 7  96097942.79646  23468094.814    23468094.0274   23468097.6124
        42.000          37.2004
 124900290.384 7  97144730.643 6  23356978.211    23356978.124    23356988.626
        43.800          41.200
 131871127.592 6 102756729.42645  25094239.253    25094238.7754   25094242.7164
        40.300          30.0004
 105422890.701 8  81995623.869 8  19749252.216    19749252.573    19749258.442
        51.900          48.100
 104056922.854 8  80933205.007 7  19445519.571    19445519.670    19445525.892
        52.400          47.500
 105665520.658 8  82184329.379 8  19739201.202    19739201.736    19739207.200
        52.200          48.400
 128261201.491 6  99758760.013 5  23993901.055    23993901.647    23993909.403
        41.600          35.600
 25  1  1  8 21  0.0000000  0 31G10G24E03E08R04S31S35G13E13S48S33R02
                                E29E15G23G05R19G18E07G29G15R11E33E26
                                G27R24G32R18R17R03R01
 122678497.572 7  95593647.73846  23344940.571    23344939.9234   23344943.1364
        44.800          40.1004
 117735417.390 7  91741915.37246  22404301.388    22404300.9504   22404304.9944
        43.800          41.3004
 151680366.465 6                  28863805.501
        36.500
 129364160.026 7                  24617171.495
        46.700
 123269397.013 7  95876243.024 6  23019694.172    23019694.312    23019700.054
        44.600          40.700
 198974620.185 7                  37863612.015
        45.100
 200953350.811 7                  38240159.879
        44.300
 123007360.664 7  95849914.46843  23407513.915    23407513.2454   23407513.5604
        42.200          23.0004
 125209306.077 8                  23826518.503
        48.000
 412763554.411 5                  78546590.844
        33.000
 202101478.830 7                  38458599.424
        44.200
 107891674.312 8  83915791.019 8  20218847.556    20218847.994    20218853.460
        52.600          48.200
 141423472.547 6                  26911990.911
        40.100
 146272165.477 6                  27834640.232
        38.400
 108789699.100 7  84771202.42946  20701986.985    20701986.5654   20701987.2354
        47.900          38.7004
 130568389.116 6 101741640.57145  24846327.291    24846326.8314   24846329.8184
        38.900          32.7004
 122984447.475 5  95654593.778 6  22990638.158    22990637.451    22990643.840
        34.900          38.900
 106727535.705 8  83164318.27347  20309568.702    20309568.3454   20309568.7384
        50.500          44.1004
 123587094.683 8                  23517837.146
        48.000
 126251386.313 6  98377733.21645  24024831.587    24024830.9174   24024832.5034
        40.900          34.1004
 109121322.126 8  85029621.62547  20765087.882    20765087.4354   20765087.8634
        48.500          47.6004
 130006364.372 7 101116083.820 6  24328921.892    24328922.676    24328928.298
        44.900          40.100
 145325627.580 6                  27654545.963
        37.500
 125853814.769 7                  23949182.228
        47.800
 123302386.871 6  96079795.18846  23463662.918    23463662.1234   23463665.6174
        41.600          37.3004
 124963956.617 7  97194248.813 6  23368885.114    23368885.076    23368893.839
        44.000          40.400
 131819239.735 6 102716297.30744  25084365.783    25084365.2924   25084368.5824
        40.100          29.1004
 105391759.279 8  81971410.533 8  19743420.389    19743420.746    19743426.382
        52.100          48.100
 104084228.462 8  80954442.681 7  19450622.269    19450622.494    19450628.550
        52.400          47.400
 105648535.473 8  82171118.678 8  19736028.313    19736028.691    19736034.127
        51.900          48.400
 128317415.945 6  99802482.370 5  24004416.405    24004416.627    24004425.524
        39.000          35.600
 25  1  1  8 21 15.0000000  0 31G10G24E03E08R04S31S35G13E13S48S33R02
                                E29E15G23G05R19G18E07G29G15R11E33E26
                                G27R24G32R18R17R03R01
 122645476.865 7  95567917.32046  23338657.073    23338656.4304   23338659.3484
        44.100          39.9004
 117697264.023 7  91712185.51546  22397041.004    22397040.5574   22397044.5734
        44.300          41.2004
 151723534.003 6                  28872020.184
        37.300
 129389401.529 7                  24621974.685
        46.400
 123218402.571 7  95836580.676 6  23010170.544    23010171.705    23010177.868
        45.700          41.400
 198974618.306 7                  37863608.067
        45.500
 200953354.533 7                  38240157.174
        44.300
 123059533.019 6  95890568.20343  23417442.062    23417441.3834   23417441.4794
        41.700          22.5004
 125225591.927 7                  23829617.288
        47.700
 412764928.792 5                  78546563.924
        33.000
 202101447.470 7                  38458593.034
        44.500
 107927849.996 8  83943927.657 8  20225627.041    20225627.510    20225632.730
        52.700          48.200
 141380228.917 6                  26903762.547
        39.800
 146310352.640 6                  27841907.324
        38.500
 108777134.552 7  84761411.87746  20699596.083    20699595.6634   20699596.2584
        47.800          38.6004
 130611034.902 6 101774871.02045  24854442.089    24854441.6654   24854444.8654
        39.800          32.6004
 122923114.068 5  95606889.992 6  22979170.486    22979172.215    22979178.273
        35.700          38.400
 106729978.461 8  83166221.71147  20310033.659    20310033.3064   20310033.6034
        50.500          44.0004
 123570874.193 7                  23514750.514
        47.500
 126307213.913 6  98421235.23245  24035455.364    24035454.6894   24035456.0094
        40.800          34.3004
 109155118.630 8  85055956.55047  20771519.260    20771518.8314   20771519.1704
        48.300          47.5004
 129992102.486 7 101104991.435 6  24326253.075    24326252.929    24326259.209
        42.800          39.600
 145286026.525 6                  27647010.551
        38.200
 125832256.028 7                  23945079.656
        47.800
 123279229.099 6  96061750.15046  23459256.205    23459255.4144   23459258.7214
        41.500          37.1004
 125027666.421 7  97243800.842 6  23380798.903    23380798.976    23380808.392
        45.000          41.100
 131767374.565 6 102675882.86244  25074495.745    25074495.2454   25074498.2044
        39.500          28.8004
 105360776.065 8  81947312.466 8  19737616.294    19737616.557    19737622.315
        52.400          48.100
 104111706.391 8  80975814.386 7  19455757.208    19455757.249    19455763.600
        52.300          47.500
 105631679.347 8  82158008.371 8  19732879.486    19732879.783    19732885.282
        52.200          48.300
 128373605.844 6  99846185.601 6  24014929.754    24014929.586    24014936.998
        41.400          36.200
 25  1  1  8 21 30.0000000  0 31G10G24E03E08R04S31S35G13E13S48S33R02
                                E29E15G23G05R19G18E07G29G15R11E33E26
                                G27R24G32R18R17R03R01
 122612477.647 7  95542203.65746  23332377.557    23332376.9274   23332379.7014
        44.700          40.0004
 117659207.339 7  91682530.99046  22389798.967    22389798.5254   22389802.5974
        43.500          41.2004
 151766703.103 6                  28880235.158
        36.500
 129414711.728 7                  24626791.125
        46.400
 123167474.041 7  95796969.623 6  23000660.030    23000660.542    23000666.941
        44.400          40.900
 198974616.393 7                  37863610.343
        45.700
 200953357.182 7                  38240157.115
        44.300
 123111757.253 7  95931262.40443  23427379.972    23427379.2934   23427380.1524
        42.000          23.0004
 125241946.800 7                  23832729.583
        47.500
 412764702.713 5                  78546536.205
        33.100
 202101415.175 7                  38458586.711
        44.600
 107964105.141 8  83972126.109 8  20232421.170    20232421.336    20232426.851
        52.500          48.200
 141337015.096 6                  26895538.700
        40.600
 146348569.747 6                  27849180.069
        38.500
 108764622.114 7  84751661.93546  20697215.080    20697214.6694   20697215.2004
        47.400          38.6004
 130653681.927 6 101808102.42645  24862558.274    24862557.8454   24862560.4354
        39.600          32.5004
 122861813.955 5  95559212.180 6  22967714.168    22967713.628    22967718.752
        35.400          38.600
 106732541.478 8  83168218.87147  20310521.289    20310520.9324   20310521.3414
        50.200          44.0004
 123554743.419 7                  23511680.979
        47.500
 126363053.324 6  98464746.45645  24046080.874    24046080.2084   24046081.9304
        41.100          34.1004
 109189017.337 8  85082371.11947  20777970.240    20777969.8114   20777969.8974
        48.800          47.5004
 129977998.526 7 101094021.687 6  24323613.645    24323614.337    24323620.044
        44.100          40.200
 145246418.486 6                  27639473.206
        37.900
 125810745.691 7                  23940986.396
        47.500
 123256204.673 6  96043809.02046  23454875.201    23454874.4374   23454877.2564
        41.100          36.9004
 125091421.082 7  97293387.771 6  23392721.080    23392721.292    23392731.424
        44.400          41.300
 131715533.868 6 102635487.49844  25064631.353    25064630.8714   25064633.7824
        37.900          29.0004
 105329943.076 8  81923331.267 7  19731840.168    19731840.397    19731846.061
        52.500          47.900
 104139358.242 8  80997321.368 7  19460924.443    19460924.719    19460931.012
        52.200          47.500
 105614953.431 8  82144999.364 8  19729754.669    19729755.214    19729760.656
        52.200          48.200
 128429772.613 6  99889870.837 5  24025435.164    24025435.516    24025444.618
        40.300          35.600
 25  1  1  8 21 45.0000000  0 31G10G24E03E08R04S31S35G13E13S48S33R02
                                E29E15G23G05R19G18E07G29G15R11E33E26
                                G27R24G32R18R17R03R01
 122579506.926 7  95516512.20046  23326103.059    23326102.4384   23326105.6614
        44.700          40.1004
 117621254.888 7  91652957.68246  22382577.152    22382576.7194   22382580.6134
        43.100          41.4004
 151809880.775 6                  28888451.193
        37.500
 129440097.563 7                  24631621.888
        46.200
 123116619.057 7  95757415.774 6  22991163.747    22991164.157    22991170.507
        45.300          41.500
 198974619.775 7                  37863601.972
        45.100
 200953366.058 7                  38240156.078
        44.000
 123164040.062 6  95972002.21143  23437329.044    23437328.3694   23437329.1634
        41.500          22.6004
 125258377.856 7                  23835856.418
        47.100
 412764482.721 5                  78546506.361
        31.900
 202101389.021 7                  38458580.884
        44.500
 108000446.619 8  84000391.694 8  20239231.805    20239232.051    20239237.454
        52.500          48.200
 141293838.302 6                  26887322.614
        39.400
 146386823.875 6                  27856459.372
        37.900
 108752168.879 7  84741958.11746  20694845.432    20694845.0214   20694845.4234
        47.100          38.7004
 130696337.015 6 101841340.11945  24870674.469    24870674.0544   24870677.5254
        40.000          32.8004
 122800554.404 5  95511565.874 6  22956261.671    22956261.338    22956267.097
        35.000          38.700
 106735231.915 8  83170315.31047  20311033.372    20311033.0194   20311033.3064
        50.000          44.2004
 123538709.477 7                  23508629.792
        47.500
 126418911.098 6  98508271.98645  24056709.560    24056708.8814   24056711.5234
        40.700          34.4004
 109223025.039 8  85108870.62047  20784441.469    20784441.0364   20784441.3374
        48.500          47.6004
 129964060.231 7 101083180.809 6  24321004.721    24321004.930    24321011.286
        43.300          39.900
 145206810.527 6                  27631936.392
        37.700
 125789291.019 7                  23936903.671
        47.400
 123233320.865 6  96025977.46346  23450520.050    23450519.2774   23450522.5444
        41.100          37.3004
 125155227.201 7  97343014.726 6  23404652.796    23404652.851    23404662.951
        43.800          40.900
 131663724.926 6 102595116.90045  25054772.257    25054771.7884   25054775.4774
        39.500          30.1004
 105299267.907 8  81899472.796 8  19726093.552    19726094.174    19726099.677
        52.200          48.100
 104167191.171 8  81018969.166 7  19466125.800    19466125.954    19466132.368
        52.100          47.400
 105598365.395 8  82132097.549 8  19726656.296    19726656.581    19726662.014
        52.500          48.400
 128485923.468 6  99933543.700 5  24035940.510    24035940.373    24035948.732
        40.900          35.300
 25  1  1  8 22  0.0000000  0 31G10G24E03E08R04S31S35G13E13S48S33R02
                                E29E15G23G05R19G18E07G29G15R11E33E26
                                G27R24G32R18R17R03R01
 122546553.415 7  95490834.15446  23319832.063    23319831.4424   23319834.8054
        44.800          40.4004
 117583395.691 7  91623457.04246  22375372.712    22375372.2884   22375376.2884
        43.100          41.6004
 151853055.453 6                  28896667.432
        36.000
 129465547.498 7                  24636464.887
        46.500
 123065826.043 7  95717910.092 6  22981677.481    22981678.079    22981685.319
        44.700          41.700
 198974617.970 7                  37863606.479
        45.600
 200953369.180 7                  38240158.757
        43.900
 123216369.761 6  96012778.58143  23447287.142    23447286.4674   23447287.0734
        41.600          23.0004
 125274873.795 7                  23838995.409
        47.400
 412764257.493 5                  78546485.421
        32.900
 202101357.266 7                  38458576.757
        44.700
 108036862.224 8  84028714.937 8  20246055.135    20246055.988    20246061.593
        52.200          48.200
 141250687.318 6                  26879111.615
        40.500
 146425103.638 6                  27863744.103
        37.600
 108739763.521 7  84732291.60346  20692484.838    20692484.4324   20692484.8044
        47.600          38.9004
 130738988.934 6 101874575.33345  24878791.376    24878790.9744   24878793.9324
        40.000          32.7004
 122739324.460 5  95463942.547 6  22944814.661    22944814.659    22944820.749
        35.000          38.800
 106738038.579 8  83172502.30247  20311567.434    20311567.0904   20311567.4194
        50.300          44.3004
 123522761.098 7                  23505594.918
        47.400
 126474775.606 6  98551802.74845  24067340.990    24067340.3064   24067342.2734
        40.500          34.5004
 109257130.017 8  85135445.92047  20790931.279    20790930.8374   20790931.3294
        48.400          47.9004
 129950276.015 7 101072459.621 6  24318425.556    24318426.257    24318431.777
        44.200          39.500
 145167191.530 6                  27624396.544
        38.300
 125767880.837 7                  23932829.414
        47.600
 123210566.552 6  96008246.81246  23446190.106    23446189.3514   23446192.7524
        41.100          37.5004
 125219073.107 7  97392672.628 6  23416593.148    23416593.049    23416602.420
        45.000          41.100
 131611936.628 6 102554762.34144  25044917.572    25044917.0944   25044919.8254
        39.200          29.3004
 105268739.503 8  81875728.496 8  19720374.363    19720374.897    19720380.749
        51.800          48.300
 104195193.398 8  81040748.666 7  19471358.964    19471358.968    19471365.136
        52.400          47.500
 105581903.127 8  82119293.581 8  19723581.049    19723581.379    19723586.897
        52.300          48.300
 128542046.534 6  99977194.958 5  24046438.965    24046439.246    24046447.722
        41.900          35.400
 25  1  1  8 22 15.0000000  0 31G10G24E03E08R04S31S35G13E13S48S33R02
                                E29E15G23G05R19G18E07G29G15R11E33E26
                                G27R24G32R18R17R03R01
 122513623.777 7  95465174.70946  23313566.078    23313565.4614   23313568.4174
        44.400          40.2004
 117545636.923 7  91594034.65746  22368187.117    22368186.6934   22368191.0044
        43.600          41.7004
 151896233.649 6                  28904884.184
        37.500
 129491068.036 7                  24641321.080
        46.500
 123015102.100 7  95678458.145 6  22972205.962    22972206.226    22972212.938
        44.500          41.400
 198974618.001 7                  37863608.966
        45.400
 200953374.095 7                  38240160.098
        43.800
 123268752.750 6  96053596.49743  23457255.598    23457254.9324   23457254.8164
        41.500          23.2004
 125291441.367 7                  23842148.246
        47.500
 412764034.167 5                  78546455.760
        32.200
 202101327.489 7                  38458575.147
        44.500
 108073358.670 8  84057101.050 8  20252895.388    20252895.590    20252900.868
        52.400          48.200
 141207569.049 6                  26870905.789
        40.600
 146463415.652 6                  27871034.263
        37.800
 108727412.769 7  84722667.65046  20690134.261    20690133.8554   20690134.5334
        47.700          38.8004
 130781644.421 6 101907813.34745  24886908.900    24886908.4804   24886911.0134
        39.100          32.7004
 122678131.577 6  95416348.056 6  22933375.265    22933376.146    22933380.890
        36.100          38.500
 106740968.273 8  83174785.16347  20312124.995    20312124.6474   20312124.9414
        50.300          44.1004
 123506904.955 7                  23502577.495
        47.700
 126530653.267 6  98595343.76645  24077974.454    24077973.7934   24077975.2824
        41.500          34.3004
 109291338.602 8  85162101.95447  20797441.198    20797440.7564   20797441.0014
        48.600          47.7004
 129936653.359 7 101061864.188 6  24315876.270    24315876.628    24315882.688
        43.500          39.900
 145127568.213 6                  27616856.862
        37.900
 125746522.003 7                  23928765.109
        47.600
 123187948.551 6  95990622.38246  23441886.159    23441885.4084   23441889.1694
        41.500          37.7004
 125282965.255 7  97442366.496 6  23428540.805    23428541.180    23428550.757
        44.800          40.600
 131560175.904 6 102514429.29744  25035067.858    25035067.3674   25035069.9134
        39.300          29.8004
 105238365.043 8  81852103.913 8  19714684.588    19714684.700    19714690.605
        51.700          48.200
 104223371.467 8  81062664.922 7  19476624.412    19476624.783    19476630.946
        52.100          47.700
 105565573.902 8  82106593.088 8  19720530.261    19720530.628    19720536.217
        52.300          48.400
 128598148.340 6 100020829.658 5  24056933.795    24056933.639    24056942.021
        39.600          35.100
 25  1  1  8 22 30.0000000  0 31G10G24E03E08R04S31S35G13E13S48S33R02
                                E29E15G23G05R19G18E07G29G15R11E33E26
                                G27R24G32R18R17R03R01
 122480718.256 7  95439534.05246  23307304.619    23307303.9984   23307306.6024
        44.300          40.1004
 117507979.157 7  91564690.98046  22361021.130    22361020.7064   22361024.8534
        44.400          41.6004
 151939415.629 5                  28913101.140
        35.900
 129516659.215 7                  24646190.947
        46.500
 122964447.797 7  95639060.384 6  22962745.722    22962746.356    22962753.672
        45.000          41.600
 198974619.101 7                  37863609.261
        45.700
 200953380.523 7                  38240162.629
        44.000
 123321188.792 6  96094455.74743  23467233.458    23467232.7924   23467233.3714
        41.300          22.5004
 125308080.817 7                  23845314.772
        47.500
 412763812.243 5                  78546436.778
        33.300
 202101299.229 7                  38458570.747
        44.600
 108109935.584 8  84085549.763 8  20259749.293    20259749.796    20259755.517
        52.100          48.200
 141164483.843 6                  26862707.358
        40.200
 146501760.130 6                  27878331.134
        38.800
 108715116.826 7  84713086.40446  20687794.444    20687794.0384   20687794.7074
        47.900          38.8004
 130824303.652 6 101941054.28245  24895026.885    24895026.4654   24895028.7074
        40.000          32.4004
 122616976.218 5  95368782.822 6  22921942.880    22921942.623    22921949.030
        34.900          39.000
 106744021.371 8  83177164.19847  20312705.988    20312705.6444   20312705.9444
        50.500          44.1004
 123491141.296 7                  23499577.783
        47.500
 126586544.188 6  98638895.12045  24088609.829    24088609.1634   24088611.0634
        40.800          34.5004
 109325650.670 8  85188838.62647  20803970.693    20803970.2464   20803970.3664
        48.500          47.7004
 129923192.733 6 101051394.815 6  24313357.255    24313357.038    24313364.006
        41.800          39.400
 145087940.943 6                  27609316.038
        38.400
 125725214.901 7                  23924710.390
        47.500
 123165467.304 6  95973104.51046  23437608.243    23437607.5014   23437611.2484
        41.900          37.6004
 125346903.453 7  97492096.185 6  23440497.229    23440497.530    23440507.142
        44.800          40.800
 131508443.160 6 102474118.05844  25025222.775    25025222.2794   25025225.5154
        39.300          29.2004
 105208145.117 8  81828599.529 8  19709023.486    19709023.661    19709029.361
        52.000          48.100
 104251725.623 8  81084718.162 7  19481922.944    19481923.298    19481929.479
        52.500          47.400
 105549377.588 8  82093996.002 8  19717505.125    19717505.155    19717510.498
        52.200          48.200
 128654229.225 6 100064448.141 5  24067424.682    24067425.076    24067432.935
        40.000          34.100
 25  1  1  8 22 45.0000000  0 31G10G24E03E08R04S31S35G13E13S48S33R02
                                E29E15G23G05R19G18E07G29G15R11E33E26
                                G27R24G32R18R17R03R01
 122447835.766 7  95413911.35346  23301046.958    23301046.3414   23301049.3274
        44.800          40.1004
 117470421.737 7  91535425.48946  22353874.105    22353873.6634   22353877.8504
        43.700          41.5004
 151982600.177 6                  28921319.292
        37.400
 129542319.792 7                  24651074.261
        46.500
 122913861.950 7  95599715.847 6  22953300.432    22953300.443    22953307.074
        45.800          41.600
 198974620.794 7                  37863606.377
        45.500
 200953387.542 7                  38240157.625
        43.800
 123373676.402 7  96135355.19643  23477221.524    23477220.8404   23477221.5864
        42.300          22.4004
 125324791.107 7                  23848494.603
        47.500
 412763591.383 5                  78546400.777
        32.000
 202101271.207 7                  38458563.011
        44.300
 108146591.774 8  84114060.106 8  20266618.910    20266619.384    20266624.734
        51.900          48.100
 141121430.783 6                  26854514.208
        39.900
 146540135.886 6                  27885633.558
        38.100
 108702874.624 8  84703547.02646  20685464.904    20685464.4934   20685465.0994
        48.000          38.8004
 130866965.505 6 101974297.26645  24903144.889    24903144.4744   24903147.0954
        39.600          32.8004
 122555857.596 5  95321246.063 6  22910517.814    22910517.936    22910523.230
        35.600          38.900
 106747196.903 8  83179638.63747  20313310.278    20313309.9344   20313310.2304
        50.300          44.1004
 123475469.083 7                  23496595.641
        47.800
 126642446.724 6  98682455.52445  24099247.550    24099246.8844   24099249.3624
        40.000          34.3004
 109360064.925 8  85215654.92447  20810519.705    20810519.2544   20810519.1784
        48.800          47.6004
 129909893.091 6 101041050.656 6  24310868.377    24310867.910    24310875.195
        41.800          40.200
 145048308.822 6                  27601774.008
        37.400
 125703958.663 7                  23920665.595
        47.500
 123143121.900 7  95955692.49446  23433356.097    23433355.3514   23433358.8064
        42.200          37.5004
 125410886.113 7  97541860.465 6  23452462.560    23452462.304    23452472.703
        43.600          41.000
 131456737.585 6 102433827.98644  25015384.010    25015383.5194   25015386.3994
        39.600          29.3004
 105178079.285 8  81805214.983 8  19703391.240    19703391.326    19703397.048
        52.100          48.200
 104280254.517 8  81106907.277 7  19487254.409    19487254.612    19487260.771
        52.100          47.300
 105533312.857 8  82081501.228 8  19714503.824    19714504.169    19714509.271
        52.200          48.400
 128710287.817 6 100108049.325 5  24077911.740    24077911.769    24077920.146
        41.000          35.100
 25  1  1  8 23  0.0000000  0 30G10G24E08R04S31S35G13E13S48S33R02E29
                                E15G23G05R19G18E07G29G15R11E33E26G27
                                R24G32R18R17R03R01
 122414976.622 7  95388306.82946  23294794.461    23294793.8444   23294796.4424
        43.700          40.0004
 117432965.371 7  91506238.74346  22346746.700    22346746.2584   22346750.0384
        43.200          41.7004
 129568049.866 7                  24655970.371
        46.600
 122863345.026 7  95560424.901 6  22943866.332    22943866.880    22943873.552
        46.000          41.800
 198974624.251 7                  37863607.186
        45.800
 200953395.618 7                  38240165.106
        44.100
 123426215.624 7  96176294.83143  23487219.258    23487218.5654   23487219.4054
        42.100          22.6004
 125341572.601 7                  23851687.963
        47.600
 412763371.656 5                  78546389.316
        33.300
 202101244.760 7                  38458558.070
        44.800
 108183327.001 8  84142631.932 8  20273503.892    20273503.514    20273509.074
        52.500          48.100
 141078410.294 6                  26846328.096
        40.500
 146578543.210 6                  27892942.580
        38.200
 108690686.505 7  84694049.79946  20683145.413    20683144.9984   20683145.7184
        47.800          38.9004
 130909630.280 6 102007542.54145  24911264.307    24911263.8834   24911266.0954
        38.700          32.7004
 122494776.922 5  95273738.877 6  22899098.972    22899099.295    22899104.946
        35.100          39.200
 106750495.271 8  83182208.79147  20313937.967    20313937.6234   20313937.8854
        50.400          44.1004
 123459888.640 7                  23493630.740
        47.800
 126698360.858 6  98726024.96645  24109887.954    24109887.3114   24109889.0114
        41.500          34.1004
 109394581.481 8  85242550.93547  20817087.615    20817087.1594   20817087.4504
        48.500          47.7004
 129896754.974 7 101030832.125 6  24308410.798    24308411.089    24308416.040
        43.500          39.600
 145008672.215 6                  27594232.272
        37.900
 125682753.755 7                  23916630.273
        47.800
 123120912.795 6  95938386.67346  23429129.510    23429128.7594   23429132.3634
        41.500          37.7004
 125474913.430 7  97591659.482 6  23464436.530    23464436.531    23464445.956
        43.600          40.700
 131405059.647 6 102393559.47145  25005550.360    25005549.8694   25005553.0234
        39.200          30.1004
 105148168.111 8  81781950.738 8  19697787.632    19697788.048    19697793.533
        52.100          48.200
 104308958.254 8  81129232.398 7  19492618.295    19492618.730    19492624.751
        52.500          47.400
 105517380.005 8  82069109.038 8  19711527.559    19711527.790    19711532.981
        52.600          48.200
 128766323.973 6 100151633.051 5  24088393.983    24088394.227    24088402.832
        39.800          35.200
 25  1  1  8 23 15.0000000  0 30G10G24E08R04S31S35G13E13S48S33R02E29
                                E15G23G05R19G18E07G29G15R11E33E26G27
                                R24G32R18R17R03R01
 122382136.499 7  95362717.13946  23288544.851    23288544.2434   23288547.2114
        44.400          40.1004
 117395606.221 7  91477127.74046  22339637.363    22339636.9394   22339640.7714
        43.900          41.8004
 129593844.985 7                  24660879.073
        46.300
 122812893.001 7  95521184.462 6  22934445.015    22934445.153    22934451.597
        46.000          41.700
 198974623.265 7                  37863604.856
        45.300
 200953399.760 7                  38240168.245
        44.200
 123478801.869 7  96217271.11343  23497226.067    23497225.3484   23497226.0554
        42.200          22.9004
 125358421.059 7                  23854893.963
        47.400
 412763148.098 5                  78546356.150
        32.800
 202101214.392 7                  38458553.379
        44.900
 108220136.629 8  84171261.643 8  20280401.218    20280401.819    20280407.290
        52.500          48.100
 141035418.285 6                  26838146.773
        40.400
 146616977.667 6                  27900256.216
        38.300
 108678548.184 7  84684591.37446  20680835.693    20680835.2824   20680835.8794
        47.900          39.0004
 130952293.764 6 102040786.79445  24919382.099    24919381.6794   24919384.5984
        39.900          32.4004
 122433730.082 5  95226258.031 6  22887685.866    22887687.106    22887692.775
        35.500          38.500
 106753912.275 8  83184871.37947  20314588.179    20314587.8314   20314588.1264
        50.500          44.1004
 123444395.708 7                  23490682.224
        47.700
 126754281.806 6  98769599.71545  24120528.659    24120528.0204   24120530.6724
        41.700          34.7004
 109429195.625 8  85269522.98947  20823674.408    20823673.9574   20823674.2894
        48.800          47.7004
 129883774.247 7 101020735.949 6  24305980.734    24305980.578    24305987.055
        42.600          39.600
 144969027.022 6                  27586687.695
        38.000
 125661596.061 7                  23912604.161
        47.700
 123098835.908 7  95921183.88746  23424928.515    23424927.7734   23424931.5374
        42.300          37.9004
 125538980.532 7  97641489.416 6  23476416.950    23476417.488    23476426.944
        45.000          41.000
 131353405.317 6 102353309.32245  24995720.814    24995720.3454   24995723.4094
        39.300          30.1004
 105118407.686 8  81758803.748 8  19692212.280    19692212.664    19692218.470
        51.500          48.300
 104337832.357 8  81151690.025 7  19498014.375    19498014.463    19498020.667
        52.500          47.700
 105501574.958 8  82056816.269 8  19708575.052    19708575.115    19708580.471
        52.400          48.300
 128822333.416 6 100195195.997 5  24098871.463    24098871.945    24098880.488
        40.800          34.300
 25  1  1  8 23 30.0000000  0 30G10G24E08R04S31S35G13E13S48S33R02E29
                                E15G23G05R19G18E07G29G15R11E33E26G27
                                R24G32R18R17R03R01
 122349313.598 7  95337140.86746  23282298.637    23282298.0254   23282301.1594
        44.900          40.2004
 117358342.814 7  91448091.34446  22332546.219    22332545.7994   22332549.7354
        43.300          41.9004
 129619703.112 7                  24665799.874
        46.400
 122762504.048 7  95481993.079 6  22925035.378    22925035.822    22925042.065
        46.300          41.800
 198974617.319 7                  37863604.762
        45.900
 200953400.133 7                  38240161.779
        44.200
 123531432.916 6  96258282.30243  23507241.525    23507240.7974   23507241.3904
        41.400          22.2004
 125375334.655 7                  23858112.496
        47.300
 412762919.549 5                  78546337.083
        33.000
 202101178.782 7                  38458546.806
        45.000
 108257018.494 8  84199947.539 8  20287313.181    20287313.271    20287318.746
        52.800          48.200
 140992453.062 6                  26829970.646
        39.900
 146655437.399 6                  27907574.795
        37.900
 108666457.814 7  84675170.31546  20678535.023    20678534.6084   20678535.1804
        47.500          39.0004
 130994953.982 6 102074028.52145  24927500.193    24927499.7694   24927502.6234
        39.100          32.5004
 122372715.577 5  95178802.289 6  22876280.681    22876280.927    22876287.423
        35.000          39.200
 106757446.247 8  83187625.11247  20315260.639    20315260.2954   20315260.6354
        50.100          44.1004
 123428988.453 7                  23487750.528
        47.700
 126810207.437 6  98813178.11745  24131171.252    24131170.6224   24131173.1834
        40.100          34.4004
 109463905.315 8  85296569.49547  20830279.416    20830278.9604   20830279.3364
        48.600          47.8004
 129870949.299 7 101010760.978 6  24303580.969    24303581.182    24303587.054
        43.200          39.100
 144929371.521 6                  27579141.493
        38.500
 125640483.910 7                  23908586.618
        47.800
 123076889.585 7  95904082.83746  23420752.017    23420751.2804   23420755.5384
        42.500          38.2004
 125603085.177 7  97691348.603 6  23488404.473    23488403.883    23488414.474
        44.100          41.100
 131301772.940 6 102313076.30245  24985895.949    24985895.4844   24985898.4184
        40.000          30.5004
 105088796.581 8  81735772.897 8  19686665.515    19686665.772    19686671.333
        51.900          48.100
 104366874.796 8  81174278.588 7  19503441.754    19503441.872    19503447.861
        52.400          47.500
 105485895.352 8  82044621.057 8  19705645.804    19705646.010    19705651.519
        52.700          48.300
 128878313.868 6 100238736.342 5  24109344.417    24109344.668    24109353.144
        41.500          35.600
 25  1  1  8 23 45.0000000  0 30G10G24E08R04S31S35G13E13S48S33R02E29
                                E15G23G05R19G18E07G29G15R11E33E26G27
                                R24G32R18R17R03R01
 122316522.107 7  95311589.06546  23276058.511    23276057.8944   23276061.0644
        44.400          40.2004
 117321189.786 7  91419140.96946  22325476.459    22325476.0574   22325479.8544
        43.900          41.9004
 129645638.266 7                  24670734.872
        46.600
 122712192.866 7  95442862.200 6  22915638.792    22915639.659    22915646.327
        45.200          41.500
 198974620.979 7                  37863603.626
        45.500
 200953408.311 7                  38240163.805
        44.000
 123584122.620 6  96299339.22243  23517268.104    23517267.3854   23517268.0384
        41.000          22.6004
 125392327.653 7                  23861346.296
        47.600
 412762699.885 5                  78546310.361
        33.100
 202101153.113 7                  38458539.119
        44.700
 108293986.395 8  84228700.344 8  20294241.244    20294241.469    20294246.617
        52.800          48.200
 140949528.965 6                  26821802.979
        40.300
 146693936.420 6                  27914900.811
        38.600
 108654429.629 7  84665797.71046  20676245.974    20676245.5594   20676246.2954
        47.300          39.0004
 131037624.922 6 102107278.58445  24935620.525    24935620.1054   24935622.7194
        39.000          32.5004
 122311748.684 5  95131383.599 6  22864883.386    22864883.177    22864889.324
        35.100          38.800
 106761111.481 8  83190481.13247  20315958.259    20315957.9114   20315958.1194
        50.400          44.1004
 123413681.123 8                  23484837.605
        48.000
 126866151.458 6  98856770.85245  24141817.343    24141816.7264   24141818.8464
        40.200          34.4004
 109498724.262 8  85323701.13447  20836905.372    20836904.9164   20836905.1404
        48.500          47.7004
 129858295.122 7 101000918.896 6  24301212.501    24301213.301    24301219.272
        42.500          40.100
 144889720.012 6                  27571595.889
        38.300
 125619431.684 7                  23904580.465
        47.800
 123055088.165 6  95887094.68946  23416603.901    23416603.1684   23416606.7364
        41.800          38.0004
 125667241.410 7  97741247.904 6  23500402.200    23500401.939    23500412.334
        43.300          40.800
 131250176.977 6 102272871.64845  24976076.770    24976076.3104   24976079.5264
        39.700          30.0004
 105059349.673 8  81712869.749 8  19681149.160    19681149.266    19681155.010
        52.100          48.400
 104396099.812 8  81197009.150 7  19508902.924    19508903.329    19508909.331
        52.500          47.800
 105470355.989 8  82032534.881 8  19702743.021    19702743.413    19702748.362
        53.100          48.300
 128934279.500 6 100282265.171 5  24119814.858    24119814.722    24119822.080
        40.800          34.900
 25  1  1  8 24  0.0000000  0 30G10G24E08R04S31S35G13E13S48S33R02E29
                                E15G23G05R19G18E07G29G15R11E33E26G27
                                R24G32R18R17R03R01
 122283750.627 7  95286052.86346  23269822.546    23269821.9344   23269824.8944
        44.400          40.1004
 117284136.110 7  91390268.00446  22318424.888    22318424.4774   22318428.8114
        43.800          41.9004
 129671638.845 7                  24675682.763
        46.500
 122661948.137 7  95403782.984 7  22906256.787    22906257.323    22906264.228
        45.700          42.500
 198974621.337 7                  37863604.181
        45.400
 200953414.214 7                  38240169.649
        44.300
 123636859.096 6  96340432.55643  23527303.535    23527302.8424   23527303.8754
        40.800          22.3004
 125409388.657 7                  23864592.910
        47.700
 412762477.039 5                  78546287.757
        33.400
 202101124.528 7                  38458536.271
        45.100
 108331028.618 8  84257510.949 8  20301182.331    20301182.701    20301188.534
        52.700          48.200
 140906634.707 6                  26813640.081
        40.500
 146732463.356 6                  27922232.077
        38.700
 108642452.216 7  84656464.67346  20673966.745    20673966.3344   20673967.0734
        47.700          39.0004
 131080295.371 6 102140528.25645  24943740.682    24943740.2534   24943742.4884
        39.700          32.4004
 122250817.696 6  95083992.814 6  22853493.186    22853494.106    22853499.368
        36.000          38.700
 106764896.643 8  83193430.59447  20316678.285    20316677.9414   20316678.4174
        50.100          44.0004
 123398462.293 7                  23481941.576
        47.800
 126922102.231 6  98900368.84545  24152464.148    24152463.5404   24152466.0704
        41.400          34.5004
 109533640.850 8  85350908.85947  20843549.493    20843549.0424   20843549.5074
        48.500          47.6004
 129845799.811 6 100991200.286 6  24298873.779    24298873.663    24298880.770
        41.200          39.600
 144850061.236 6                  27564048.569
        37.600
 125598428.140 8                  23900583.715
        48.000
 123033420.456 7  95870210.73946  23412480.143    23412479.4194   23412483.3814
        42.100          38.1004
 125731437.211 7  97791177.930 6  23512408.408    23512408.800    23512416.839
        44.800          40.300
 131198606.166 6 102232686.58945  24966263.658    24966263.1714   24966265.4464
        39.400          30.0004
 105030055.789 8  81690085.618 8  19675661.059    19675661.494    19675667.314
        52.100          48.300
 104425495.639 8  81219872.575 7  19514396.537    19514396.610    19514402.528
        52.800          47.300
 105454944.621 8  82020548.291 8  19699863.753    19699864.193    19699869.411
        52.700          48.200
 128990218.584 6 100325773.402 5  24130278.771    24130278.659    24130286.030
        40.100          34.900
 25  1  1  8 24 15.0000000  0 30G10G24E08R04S31S35G13E13S48S33R02E29
                                E15G23G05R19G18E07G29G15R11E33E26G27
                                R24G32R18R17R03R01
 122251002.974 7  95260535.21546  23263591.034    23263590.4314   23263593.3084
        44.300          40.2004
 117247186.076 7  91361475.80947  22311393.595    22311393.1804   22311397.4354
        43.700          42.1004
 129697708.544 7                  24680643.665
        46.700
 122611773.805 7  95364758.482 7  22896887.454    22896887.964    22896894.895
        46.000          42.500
 198974623.594 7                  37863604.986
        45.500
 200953421.798 7                  38240164.851
        44.000
 123689646.051 6  96381565.23843  23537348.398    23537347.7054   23537348.5654
        41.300          22.2004
 125426521.612 7                  23867853.146
        47.500
 412762255.980 5                  78546255.101
        32.900
 202101096.959 7                  38458531.652
        45.000
 108368148.462 8  84286381.926 8  20308139.349    20308139.245    20308144.367
        52.800          48.100
 140863774.388 6                  26805484.043
        40.000
 146771022.036 6                  27929569.922
        38.200
 108630529.478 7  84647174.23146  20671697.791    20671697.3854   20671698.2754
        47.500          39.2004
 131122969.194 6 102173780.55045  24951861.121    24951860.6834   24951863.2584
        39.700          33.1004
 122189927.009 5  95036633.397 6  22842110.931    22842111.242    22842116.943
        35.400          39.100
 106768805.776 8  83196476.65947  20317422.346    20317422.0024   20317422.2944
        50.100          44.2004
 123383335.912 7                  23479062.984
        47.600
 126978063.544 6  98943975.05145  24163113.237    24163112.6384   24163115.1814
        40.000          34.5004
 109568658.730 8  85378195.51447  20850213.441    20850212.9904   20850213.2124
        48.500          47.9004
 129833467.811 6 100981608.659 6  24296566.279    24296565.573    24296573.055
        40.600          39.900
 144810399.163 6                  27556501.759
        38.000
 125577477.347 7                  23896596.789
        47.800
 123011890.450 6  95853434.09346  23408383.175    23408382.4514   23408386.3104
        40.900          38.0004
 125795676.234 7  97841141.623 6  23524419.323    23524419.292    23524430.076
        42.800          40.700
 131147064.675 6 102192524.39545  24956455.894    24956455.4034   24956458.1634
        38.900          30.4004
 105000919.202 8  81667423.818 8  19670202.765    19670203.261    19670209.001
        52.300          48.300
 104455065.951 8  81242871.700 7  19519922.336    19519922.538    19519928.518
        52.900          47.500
 105439665.820 8  82008664.800 8  19697009.449    19697010.033    19697015.259
        52.300          48.200
 129046134.906 6 100369263.809 5  24140739.324    24140739.076    24140746.769
        40.500          34.300
