     2.11           OBSERVATION DATA    M (MIXED)           RINEX VERSION / TYPE
teqc  2019Feb25                         20260317 16:20:09UTCPGM / RUN BY / DATE
Linux 2.4.21-27.ELsmp|Opteron|gcc -static|Linux 64|=+       COMMENT
BIT 2 OF LLI FLAGS DATA COLLECTED UNDER A/S CONDITION       COMMENT
-Unknown-                                                   MARKER NAME
-Unknown-           -Unknown-                               OBSERVER / AGENCY
-Unknown-           -Unknown-           -Unknown-           REC # / TYPE / VERS
-Unknown-           -Unknown-                               ANT # / TYPE
        0.0000        0.0000        0.0000                  APPROX POSITION XYZ
        0.0000        0.0000        0.0000                  ANTENNA: DELTA H/E/N
     1     1                                                WAVELENGTH FACT L1/2
     7    L1    L2    C1    P1    P2    S1    S2            # / TYPES OF OBSERV
 SNR is mapped to RINEX snr flag value [0-9]                COMMENT
  L1 & L2: min(max(int(snr_dBHz/6), 0), 9)                  COMMENT
  2025     1     1    19     0    0.0000000     GPS         TIME OF FIRST OBS
    18                                                      LEAP SECONDS
                                                            END OF HEADER
 25  1  1 19  0  0.0000000  0 34G09E05E19R18G08S31S35G07E13E33S48S33
                                R19G30E04E31G16G27E21R01G04E06R07R20
                                R08R10E26R11G21E24R09E09G14G02
 110537407.694 8  86133046.54848  21034575.446    21034574.8834   21034580.1424
        48.100          49.0004
 140856711.530 6                  26804144.358
        37.300
 145315433.050 5                  27652672.779
        32.300
 129354604.373 6 100609328.222 6  24232432.419    24232433.168    24232450.131
        41.900          40.000
 106016607.622 8  82610484.47148  20174237.688    20174236.9514   20174241.3944
        49.600          49.5004
 198977682.420 7                  37864201.974
        45.900
 200901240.613 7                  38230247.459
        43.800
 110509095.830 8  86111031.51447  21029161.917    21029161.2384   21029162.2024
        48.200          47.7004
 148247290.557 6                  28210489.748
        38.700
 150284102.408 5                  28598113.153
        34.500
 412898706.867 5                  78571721.014
        33.100
 202122541.272 7                  38462634.178
        45.300
 118335256.663 6  92038747.261 7  22121463.186    22121462.454    22121470.798
        39.200          42.900
 120898775.537 7  94206872.30446  23006264.393    23006263.5444   23006267.7524
        43.100          39.5004
 126541799.140 8                  24080111.231
        48.100
 125159696.613 8                  23817044.652
        48.300
 126752671.792 6  98768367.76343  24120220.691    24120219.6004   24120225.6654
        39.500          22.5004
 113464439.448 7  88414016.13547  21591500.894    21591500.1574   21591504.0084
        47.100          47.0004
 148128782.743 6                  28187986.053
        37.300
 119019693.788 7  92570903.627 6  22265094.301    22265094.882    22265103.376
        44.900          38.400
 117491560.499 7  91551833.64045  22357927.813    22357927.3714   22357938.0244
        43.500          30.3004
 124534143.991 8                  23698060.186
        48.800
 119538598.917 7  92974428.557 7  22330854.210    22330854.214    22330875.757
        45.500          42.800
 117862239.487 6  91670778.927 7  22040791.051    22040791.374    22040809.428
        36.100          44.100
 109474578.181 8  85146907.408 7  20443607.774    20443607.967    20443615.408
        48.900          47.700
 106433092.548 8                  19966528.674    19966528.402
        48.100
 145608993.172 6                  27708431.380
        39.200
 117426329.037 8  91331749.672 7  21974687.732    21974688.000    21974692.902
        48.800          43.300
 125566845.646 6  97844378.64242  23894573.823    23894572.5094   23894593.6184
        36.600          17.1004
 146399085.873 6                  27858790.392
        38.900
 113496579.129 8  88275204.864 7  21254244.496    21254244.558    21254251.801
        49.100          47.200
 129045790.095 7                  24556595.299
        47.200
 127408320.764 6  99279337.81243  24244961.450    24244961.0664   24244970.6144
        38.900          22.0004
 131565936.905 6 102518984.16242  25036164.829    25036163.6764   25036185.7424
        37.100          17.2004
 25  1  1 19  0 15.0000000  0 34G09E05E19R18G08S31S35G07E13E33S48S33
                                R19G30E04E31G16G27E21R01G04E06R07R20
                                R08R10E26R11G21E24R09E09G14G02
 110571994.804 8  86159997.47748  21041157.288    21041156.7384   21041161.9414
        48.200          48.8004
 140815584.228 6                  26796318.243
        38.200
 145362631.158 5                  27661653.930
        32.500
 129400918.485 6 100645351.216 6  24241107.854    24241107.646    24241125.540
        39.500          38.400
 106015035.069 8  82609259.13348  20173938.295    20173937.5534   20173942.1124
        49.900          49.3004
 198977678.295 7                  37864204.398
        45.700
 200901212.399 7                  38230244.114
        44.000
 110485953.713 8  86092998.71447  21024758.160    21024757.4854   21024758.3744
        48.400          47.5004
 148243675.362 6                  28209801.415
        38.200
 150244918.806 5                  28590657.306
        35.500
 412897729.581 5                  78571762.197
        34.000
 202122555.702 7                  38462631.893
        45.400
 118344764.725 6  92046142.401 7  22123240.904    22123240.090    22123248.478
        40.100          42.800
 120856820.142 7  94174179.80046  22998280.477    22998279.6234   22998283.8314
        43.600          39.4004
 126569008.642 7                  24085288.950
        47.900
 125147536.301 8                  23814730.675
        48.400
 126803052.033 6  98807624.97343  24129807.479    24129806.3754   24129812.6094
        39.600          22.0004
 113497245.615 7  88439579.38147  21597743.482    21597742.7544   21597746.7914
        46.800          46.8004
 148164725.277 6                  28194825.462
        37.800
 118984167.709 7  92543272.239 6  22258449.480    22258449.331    22258457.614
        45.600          38.300
 117543135.093 7  91592021.41245  22367742.611    22367742.1914   22367752.4354
        43.200          30.1004
 124540761.188 8                  23699319.645
        48.900
 119602531.697 7  93024153.627 7  22342797.624    22342798.123    22342819.591
        46.100          43.300
 117810896.203 6  91630845.682 7  22031189.788    22031190.053    22031207.017
        36.900          43.800
 109498798.928 8  85165745.719 7  20448130.876    20448131.393    20448138.548
        49.500          47.800
 106434997.950 8                  19966886.340    19966885.819
        48.500
 145577893.574 6                  27702512.477
        39.700
 117392736.688 8  91305622.342 7  21968401.067    21968401.270    21968407.639
        48.600          44.000
 125522966.434 6  97810187.03042  23886223.809    23886222.4994   23886243.7444
        37.200          17.4004
 146365481.825 6                  27852394.762
        38.800
 113527974.155 8  88299623.202 7  21260123.782    21260123.856    21260130.791
        49.200          47.200
 129032324.489 7                  24554032.747
        47.200
 127366465.243 6  99246723.42143  24236996.027    24236995.6474   24237005.4024
        39.500          22.1004
 131522316.877 6 102484994.63843  25027864.079    25027862.9264   25027885.1684
        37.400          19.1004
 25  1  1 19  0 30.0000000  0 34G09E05E19R18G08S31S35G07E13E33S48S33
                                R19G30E04E31G16G27E21R01G04E06R07R20
                                R08R10E26R11G21E24R09E09G14G02
 110606701.684 8  86187041.73248  21047761.679    21047761.1254   21047766.5554
        48.600          48.9004
 140774490.337 6                  26788498.072
        37.800
 145409834.158 5                  27670637.037
        31.100
 129447355.765 6 100681470.122 6  24249807.216    24249807.371    24249822.984
        41.800          39.800
 106013624.186 8  82608159.77148  20173669.947    20173669.2054   20173673.6014
        50.300          49.4004
 198977675.546 7                  37864201.921
        45.600
 200901184.756 7                  38230239.620
        43.900
 110462867.018 8  86075009.10547  21020365.075    21020364.4144   21020365.1164
        48.800          47.6004
 148240165.195 6                  28209133.673
        36.700
 150205707.417 5                  28583195.285
        34.800
 412898355.070 5                  78571791.451
        33.100
 202122572.028 7                  38462636.610
        45.400
 118354472.582 6  92053692.939 7  22125055.759    22125054.875    22125063.398
        39.600          42.800
 120814883.870 7  94141502.19946  22990300.156    22990299.3074   22990303.5014
        44.200          39.7004
 126596305.147 7                  24090483.283
        47.400
 125135429.082 8                  23812426.623
        48.200
 126853431.343 6  98846881.45943  24139395.301    24139394.1974   24139399.3484
        40.100          21.5004
 113530184.358 7  88465245.93047  21604011.509    21604010.7854   21604014.7854
        47.300          46.8004
 148200657.675 6                  28201663.865
        37.600
 118948807.467 7  92515769.830 6  22251834.091    22251834.795    22251842.886
        45.600          38.400
 117594775.074 7  91632260.12345  22377569.410    22377569.0084   22377579.3984
        44.300          30.0004
 124547483.978 8                  23700598.866
        48.500
 119666513.590 7  93073916.912 7  22354751.095    22354751.021    22354771.970
        46.300          42.800
 117759652.942 6  91590990.249 7  22021605.500    22021606.946    22021624.491
        36.400          44.200
 109523209.250 8  85184731.478 7  20452689.224    20452689.832    20452696.835
        49.000          47.700
 106436963.349 8                  19967255.139    19967254.553
        48.600
 145546846.093 6                  27696603.730
        39.300
 117359179.211 8  91279522.088 7  21962121.359    21962121.458    21962127.035
        48.600          43.600
 125479111.287 6  97776014.18442  23877878.396    23877877.0734   23877898.7214
        38.000          17.6004
 146331906.576 6                  27846005.881
        37.900
 113559402.253 8  88324067.257 7  21266008.929    21266009.437    21266016.506
        49.100          47.200
 129018958.688 7                  24551489.680
        46.800
 127324641.354 6  99214133.68043  24229036.322    24229035.9424   24229046.4594
        39.500          22.0004
 131478672.436 6 102450986.16043  25019558.462    25019557.3004   25019580.0014
        36.600          19.0004
 25  1  1 19  0 45.0000000  0 34G09E05E19R18G08S31S35G07E13E33S48S33
                                R19G30E04E31G16G27E21R01G04E06R07R20
                                R08R10E26R11G21E24R09E09G14G02
 110641523.763 8  86214175.75348  21054388.224    21054387.6704   21054393.0524
        48.900          48.9004
 140733425.758 6                  26780683.534
        36.300
 145457037.581 5                  27679618.955
        32.800
 129493911.153 6 100717680.875 6  24258526.865    24258526.977    24258544.146
        40.200          38.400
 106012370.643 8  82607183.00448  20173431.323    20173430.5724   20173435.0444
        50.000          49.4004
 198977669.934 7                  37864198.003
        45.600
 200901156.097 7                  38230237.952
        44.100
 110439831.702 8  86057059.51947  21015981.534    21015980.8774   21015981.6074
        49.000          47.7004
 148236755.895 6                  28208484.799
        36.600
 150166464.231 5                  28575728.331
        34.400
 412898977.927 5                  78571829.267
        33.300
 202122585.909 7                  38462634.258
        45.200
 118364376.070 6  92061395.655 7  22126906.581    22126905.962    22126914.359
        39.100          42.900
 120772962.680 7  94108836.35446  22982322.740    22982321.8864   22982326.1934
        43.800          39.6004
 126623684.278 7                  24095693.672
        47.600
 125123370.650 8                  23810132.074
        48.100
 126903805.308 6  98886133.76943  24148981.185    24148980.0724   24148985.1384
        40.200          22.2004
 113563251.099 7  88491012.22147  21610304.099    21610303.3754   21610307.1724
        47.100          46.9004
 148236575.572 6                  28208499.157
        36.900
 118913609.069 7  92488393.315 6  22245248.941    22245249.754    22245258.757
        45.600          37.800
 117646475.858 7  91672546.22345  22387407.542    22387407.1584   22387417.8484
        44.000          30.1004
 124554308.105 8                  23701897.642
        48.500
 119730539.995 7  93123714.799 7  22366710.644    22366711.922    22366733.131
        45.800          42.400
 117708505.883 6  91551209.589 7  22012041.066    22012042.006    22012059.020
        36.800          43.600
 109547804.132 8  85203860.775 7  20457282.394    20457282.756    20457289.751
        48.800          47.700
 106438984.786 8                  19967633.815    19967633.903
        48.400
 145515846.733 6                  27690704.282
        39.100
 117325652.205 8  91253445.537 7  21955847.190    21955848.254    21955853.518
        49.200          43.800
 125435276.255 6  97741856.98942  23869536.838    23869535.4934   23869556.9764
        36.800          16.8004
 146298355.867 6                  27839621.036
        37.200
 113590859.086 8  88348533.643 7  21271899.987    21271900.227    21271907.140
        49.900          47.100
 129005688.534 7                  24548964.140
        46.700
 127282844.939 6  99181565.34243  24221082.945    24221082.5794   24221092.6144
        39.300          22.1004
 131434999.733 6 102416955.60643  25011248.053    25011246.8864   25011269.3254
        37.900          18.5004
 25  1  1 19  1  0.0000000  0 35G09E05E19R18G08S31S35G07E13E33S48S33
                                R19G30E04E31G16G27E21R01G04E06R07R20
                                R08R10E26R11G21E24R09E09R21G14G02
 110676459.540 8  86241398.37748  21061036.359    21061035.7964   21061041.1974
        48.300          48.9004
 140692389.538 6                  26772874.829
        37.500
 145504240.126 5                  27688601.849
        31.600
 129540582.939 6 100753982.269 6  24267269.907    24267269.822    24267285.261
        39.400          37.900
 106011273.225 8  82606327.90048  20173222.605    20173221.8594   20173226.1924
        49.700          49.4004
 198977660.913 7                  37864198.969
        45.800
 200901122.434 7                  38230228.687
        43.900
 110416846.761 8  86039149.18547  21011607.603    21011606.9464   21011607.6984
        48.800          47.6004
 148233446.228 6                  28207855.014
        37.000
 150127188.228 5                  28568253.955
        34.400
 412897995.944 5                  78571866.002
        33.300
 202122595.627 7                  38462641.802
        45.200
 118374473.310 6  92069249.065 7  22128793.157    22128793.456    22128802.045
        39.200          42.900
 120731055.605 7  94076181.50346  22974348.165    22974347.3164   22974351.5064
        43.300          39.8004
 126651144.615 7                  24100918.892
        47.500
 125111359.674 8                  23807846.321
        48.100
 126954172.622 6  98925380.88843  24158565.635    24158564.5134   24158570.0664
        39.500          22.1004
 113596444.268 7  88516877.01547  21616620.444    21616619.7164   21616623.6694
        46.800          46.8004
 148272477.744 6                  28215331.489
        36.400
 118878571.522 7  92461141.901 6  22238694.536    22238695.366    22238703.980
        45.300          38.500
 117698235.850 7  91712878.46144  22397257.783    22397257.4034   22397267.7604
        44.100          29.9004
 124561232.316 8                  23703215.255
        48.600
 119794608.868 7  93173545.717 7  22378680.645    22378680.600    22378702.765
        46.100          43.200
 117657454.360 6  91511503.280 7  22002494.183    22002494.466    22002511.466
        36.200          44.000
 109572582.459 8  85223132.760 7  20461909.479    20461910.117    20461917.164
        49.200          47.500
 106441060.596 8                  19968023.650    19968023.373
        48.400
 145484894.536 6                  27684813.482
        39.000
 117292154.443 7  91227391.784 7  21949578.773    21949578.521    21949584.518
        47.900          43.600
 125391460.651 6  97707714.96643  23861199.066    23861197.7214   23861219.5244
        36.400          18.0004
 146264828.402 6                  27833241.126
        38.100
 113622343.603 8  88373021.600 7  21277795.867    21277796.397    21277803.337
        49.500          46.900
 128992512.917 7                  24546456.897
        46.800
 132390355.104 6 102970402.149 6  24740303.715    24740304.045    24740332.567
        41.500          38.100
 127241074.770 6  99149017.46943  24213133.842    24213133.4714   24213143.9564
        38.500          22.2004
 131391297.775 6 102382902.25843  25002931.640    25002930.4384   25002952.5724
        38.200          18.7004
 25  1  1 19  1 15.0000000  0 35G09E05E19R18G08S31S35G07E13E33S48S33
                                R19G30E04E31G16G27E21R01G04E06R07R20
                                R08R10E26R11G21E24R09E09R21G14G02
 110711513.020 8  86268712.71248  21067706.925    21067706.3674   21067711.7534
        48.200          48.9004
 140651386.162 6                  26765072.158
        37.400
 145551445.814 5                  27697584.970
        31.300
 129587375.258 6 100790377.458 6  24276034.437    24276034.278    24276051.116
        39.200          39.100
 106010336.186 8  82605597.76848  20173044.263    20173043.5214   20173047.8514
        50.100          49.5004
 198977651.915 7                  37864197.619
        46.100
 200901089.685 7                  38230220.446
        43.900
 110393916.736 8  86021281.64947  21007244.176    21007243.5194   21007244.2404
        48.700          47.7004
 148230240.589 6                  28207245.419
        37.500
 150087884.040 5                  28560774.793
        34.800
 412898613.427 5                  78571887.810
        32.500
 202122605.723 7                  38462641.194
        45.500
 118384768.900 6  92077256.705 7  22130718.707    22130718.852    22130726.502
        39.800          42.500
 120689166.883 7  94043540.95546  22966377.219    22966376.3744   22966380.3924
        43.600          39.8004
 126678690.404 7                  24106160.711
        47.200
 125099400.436 7                  23805570.384
        47.700
 127004537.476 6  98964626.09443  24168150.113    24168148.9914   24168154.4214
        39.200          22.3004
 113629767.885 7  88542843.46347  21622961.847    21622961.1194   21622964.9494
        47.000          46.8004
 148308368.476 6                  28222161.277
        36.500
 118843699.506 7  92434019.216 6  22232171.495    22232171.524    22232180.169
        44.700          38.200
 117750059.057 7  91753259.94744  22407119.544    22407119.1644   22407129.6594
        43.500          29.9004
 124568260.950 8                  23704552.703
        48.200
 119858724.598 7  93223413.065 7  22390658.588    22390658.727    22390680.320
        46.600          43.000
 117606503.456 6  91471875.194 7  21992966.043    21992966.329    21992983.404
        36.500          44.000
 109597547.822 8  85242550.207 7  20466571.951    20466572.101    20466579.193
        49.000          47.600
 106443195.258 8                  19968424.113    19968423.739
        48.200
 145453994.136 6                  27678933.206
        38.900
 117258690.331 8  91201364.145 7  21943317.179    21943316.961    21943322.127
        49.100          43.700
 125347669.318 6  97673591.85742  23852865.813    23852864.5084   23852886.8214
        36.100          17.4004
 146231328.631 6                  27826865.511
        38.300
 113653860.001 8  88397534.304 7  21283698.202    21283698.080    21283705.275
        48.900          46.900
 128979436.313 7                  24543968.748
        46.500
 132326932.948 6 102921073.819 6  24728452.258    24728451.679    24728480.464
        40.100          37.700
 127199335.209 6  99116493.44243  24205191.592    24205191.2534   24205201.2914
        39.500          22.3004
 131347571.335 6 102348829.85343  24994609.849    24994608.6514   24994631.4464
        38.900          19.1004
 25  1  1 19  1 30.0000000  0 35G09E05E19R18G08S31S35G07E13E33S48S33
                                R19G30E04E31G16G27E21R01G04E06R07R20
                                R08R10E26R11G21E24R09E09R21G14G02
 110746686.443 8  86296120.51048  21074400.150    21074399.5874   21074405.1114
        48.400          49.0004
 140610418.389 6                  26757276.128
        38.000
 145598657.089 5                  27706569.170
        32.300
 129634289.404 6 100826867.092 6  24284823.212    24284822.398    24284838.812
        40.800          39.500
 106009562.062 8  82604994.58248  20172896.640    20172895.8854   20172900.5244
        50.200          49.6004
 198977645.736 7                  37864199.712
        46.000
 200901060.261 7                  38230211.145
        43.500
 110371044.240 8  86003458.93147  21002891.770    21002891.1094   21002891.7374
        49.000          47.8004
 148227141.583 6                  28206655.389
        37.800
 150048554.448 5                  28553290.045
        35.500
 412899233.923 5                  78571932.361
        33.100
 202122618.816 7                  38462648.809
        45.200
 118395265.346 6  92085420.589 7  22132680.004    22132680.097    22132688.650
        38.900          42.500
 120647299.350 7  94010916.91346  22958409.877    22958409.0374   22958413.3294
        43.600          40.1004
 126706324.003 7                  24111419.562
        47.600
 125087495.397 8                  23803305.161
        48.000
 127054902.133 6  99003871.15743  24177733.905    24177732.7924   24177738.4854
        39.000          22.2004
 113663224.154 7  88568913.27647  21629328.537    21629327.8044   21629331.4404
        46.900          46.9004
 148344250.271 6                  28228988.954
        36.600
 118808996.512 7  92407028.022 6  22225679.274    22225679.220    22225688.071
        44.800          38.300
 117801947.619 7  91793692.36544  22416993.695    22416993.3204   22417003.7894
        43.400          29.9004
 124575396.503 8                  23705910.360
        48.600
 119922888.769 7  93273318.074 7  22402644.358    22402644.947    22402667.367
        45.800          43.000
 117555656.281 6  91432327.789 7  21983457.205    21983456.909    21983474.463
        36.400          44.300
 109622702.853 8  85262115.171 7  20471269.213    20471269.447    20471276.602
        49.000          47.500
 106445391.239 8                  19968836.077    19968835.553
        48.500
 145423148.285 6                  27673063.034
        38.500
 117225262.351 8  91175364.606 7  21937060.572    21937061.362    21937066.260
        49.300          43.400
 125303904.968 6  97639489.77742  23844538.204    23844536.9084   23844558.7734
        36.200          17.1004
 146197859.041 6                  27820496.675
        37.700
 113685410.969 8  88422073.911 7  21289606.796    21289606.936    21289614.099
        49.200          46.900
 128966461.356 7                  24541499.732
        46.800
 132263467.459 5 102871711.776 5  24716591.141    24716592.301    24716620.313
        34.000          33.500
 127157628.826 6  99083995.22743  24197254.417    24197254.0424   24197264.3264
        39.400          21.9004
 131303823.341 6 102314740.63243  24986285.137    24986283.9214   24986306.8414
        38.200          19.6004
 25  1  1 19  1 45.0000000  0 35G09E05E19R18G08S31S35G07E13E33S48S33
                                R19G30E04E31G16G27E21R01G04E06R07R20
                                R08R10E26R11G21E24R09E09R21G14G02
 110781974.037 8  86323617.27348  21081115.528    21081114.9704   21081120.2454
        48.400          49.1004
 140569480.895 6                  26749485.773
        37.100
 145645868.246 5                  27715553.072
        32.200
 129681319.873 6 100863447.188 6  24293631.201    24293630.873    24293647.801
        38.800          39.000
 106008945.263 8  82604513.98748  20172779.489    20172778.7294   20172783.1044
        49.600          49.8004
 198977637.456 7                  37864192.275
        45.600
 200901027.528 7                  38230213.161
        44.200
 110348224.100 8  85985677.00247  20998549.226    20998548.5514   20998549.2104
        49.100          47.9004
 148224143.767 6                  28206084.915
        37.400
 150009194.073 5                  28545800.479
        35.200
 412899851.707 5                  78571967.271
        33.300
 202122629.619 7                  38462649.457
        45.000
 118405956.667 6  92093736.061 7  22134679.722    22134679.372    22134687.318
        39.100          42.500
 120605447.676 7  93978305.22946  22950445.555    22950444.7244   22950449.1594
        43.200          40.2004
 126734039.823 7                  24116693.497
        47.300
 125075639.003 8                  23801048.841
        48.200
 127105261.106 6  99043111.77743  24187317.630    24187316.5444   24187321.5484
        39.100          22.4004
 113696807.242 7  88595081.90747  21635718.987    21635718.2544   21635722.0864
        46.800          47.0004
 148380117.481 6                  28235814.431
        37.300
 118774456.918 7  92380163.879 6  22219218.814    22219218.217    22219226.594
        44.900          38.100
 117853895.728 7  91834171.17544  22426879.201    22426878.8354   22426889.5094
        43.300          29.9004
 124582633.460 8                  23707287.776
        48.700
 119987095.136 7  93323255.910 7  22414639.802    22414639.819    22414661.524
        45.900          42.600
 117504907.682 6  91392857.033 7  21973966.067    21973966.565    21973983.507
        36.300          44.000
 109648041.429 8  85281822.891 7  20476001.440    20476001.398    20476008.504
        48.900          47.400
 106447642.856 8                  19969258.583    19969257.974
        48.400
 145392351.755 6                  27667201.762
        38.400
 117191864.962 8  91149388.874 7  21930810.395    21930810.915    21930816.886
        48.900          44.100
 125260162.643 6  97605404.87343  23836213.758    23836212.4664   23836234.7404
        37.200          18.0004
 146164414.117 6                  27814132.149
        38.000
 113716990.646 8  88446635.853 7  21295520.090    21295520.831    21295527.690
        49.200          46.900
 128953582.659 7                  24539048.959
        46.700
 132199953.687 6 102822312.213 6  24704721.963    24704722.526    24704751.571
        38.500          37.000
 127115950.201 6  99051518.66343  24189323.639    24189323.2244   24189332.1954
        38.300          22.4004
 131260048.554 6 102280630.52743  24977956.008    24977954.8014   24977976.3154
        36.500          18.7004
 25  1  1 19  2  0.0000000  0 34G09E05E19R18G08S31S35G07E13E33S48S33
                                R19G30E04E31G16G27E21R01G04E06R07R20
                                R08R10E26R11G21E24R09E09G14G02
 110817376.760 8  86351203.75148  21087852.292    21087851.7254   21087857.2634
        48.200          49.0004
 140528575.238 6                  26741701.975
        36.900
 145693080.291 5                  27724537.727
        31.600
 129728467.398 6 100900118.228 6  24302463.815    24302464.425    24302479.497
        40.900          39.000
 106008487.062 8  82604156.97848  20172692.327    20172691.5814   20172695.8984
        50.100          49.7004
 198977627.105 7                  37864191.220
        45.800
 200900993.635 7                  38230204.008
        44.200
 110325457.691 8  85967936.94747  20994216.547    20994215.8634   20994216.9054
        49.000          47.8004
 148221248.505 6                  28205533.647
        37.100
 149969804.474 5                  28538304.886
        34.900
 412898868.086 5                  78571992.316
        33.500
 202122638.745 7                  38462651.465
        45.400
 118416844.441 6  92102204.311 7  22136713.749    22136714.202    22136722.550
        39.400          42.600
 120563613.334 7  93945707.05846  22942485.077    22942484.2504   22942488.3204
        44.700          40.0004
 126761838.958 7                  24121983.619
        47.400
 125063832.444 8                  23798802.219
        48.200
 127155615.499 6  99082348.83543  24196898.842    24196897.7294   24196904.0794
        39.100          21.9004
 113730518.118 7  88621350.11447  21642133.722    21642132.9854   21642137.0494
        47.300          46.8004
 148415971.443 6                  28242637.955
        37.900
 118740082.400 7  92353428.194 6  22212787.792    22212787.742    22212796.204
        45.300          38.300
 117905904.286 7  91874697.09344  22436776.166    22436775.8044   22436786.6504
        43.800          29.8004
 124589973.120 8                  23708684.431
        48.800
 120051344.577 7  93373227.247 7  22426641.726    22426642.111    22426664.557
        46.600          42.700
 117454259.771 5  91353464.652 7  21964496.105    21964494.900    21964511.890
        35.800          44.300
 109673564.490 8  85301674.121 7  20480766.800    20480767.759    20480774.967
        48.800          47.400
 106449951.742 8                  19969691.609    19969691.154
        48.700
 145361606.076 6                  27661351.255
        38.700
 117158499.393 8  91123437.897 7  21924567.020    21924567.063    21924573.249
        49.300          43.800
 125216444.183 6  97571338.56042  23827894.367    23827893.0664   23827915.2374
        37.800          17.9004
 146130995.189 6                  27807772.724
        39.400
 113748600.506 8  88471221.287 7  21301440.143    21301440.745    21301447.202
        50.100          46.800
 128940801.650 7                  24536616.656
        47.000
 127074300.694 6  99019064.78943  24181397.620    24181397.2234   24181406.3524
        38.400          21.9004
 131216248.489 6 102246500.74843  24969621.146    24969619.9444   24969641.5014
        38.300          20.5004
 25  1  1 19  2 15.0000000  0 35G09E05E19R18G08S31S35G07E13E33S48S33
                                R19G30E04E31G16G27E21R01G04E06R07R20
                                R08R10E26R11G21E24R21R09E09G14G02
 110852903.717 8  86378887.02448  21094612.907    21094612.3444   21094617.8914
        48.100          49.0004
 140487710.958 6                  26733925.850
        37.000
 145740302.463 5                  27733523.795
        30.800
 129775741.174 6 100936887.465 6  24311319.176    24311319.391    24311334.383
        39.700          38.000
 106008196.817 8  82603930.84348  20172637.205    20172636.4634   20172640.6344
        50.200          49.7004
 198977625.479 7                  37864190.178
        45.800
 200900968.904 7                  38230203.753
        44.400
 110302754.760 8  85950246.35947  20989896.670    20989895.9914   20989896.6794
        48.900          47.7004
 148218465.250 6                  28205003.966
        38.100
 149930395.317 5                  28530805.602
        34.600
 412899492.369 5                  78572029.220
        33.500
 202122656.205 7                  38462651.554
        45.500
 118427937.921 6  92110832.549 7  22138788.362    22138788.660    22138796.314
        39.800          42.400
 120521805.874 7  93913129.83146  22934528.846    22934528.0154   22934532.5174
        44.100          40.1004
 126789730.702 7                  24127291.221
        47.700
 125052085.101 8                  23796566.606
        48.100
 127205974.558 6  99121589.52543  24206482.162    24206481.0674   24206487.3784
        38.700          21.7004
 113764365.867 7  88647724.97447  21648574.582    21648573.8404   21648578.0544
        47.200          46.7004
 148451821.463 6                  28249459.348
        38.200
 118705882.899 7  92326828.584 6  22206389.965    22206389.230    22206398.743
        43.900          38.200
 117957982.372 7  91915277.17744  22446686.486    22446686.1384   22446696.9194
        44.000          29.6004
 124597424.859 8                  23710102.580
        49.000
 120115646.193 7  93423239.154 7  22438654.317    22438654.490    22438677.509
        46.300          43.500
 117403722.340 6  91314158.134 7  21955044.330    21955044.148    21955061.197
        36.800          44.200
 109699281.339 8  85321676.055 7  20485569.834    20485570.165    20485577.486
        49.100          47.600
 106452326.797 8                  19970136.848    19970136.661
        48.300
 145330920.920 6                  27655511.154
        38.600
 117125175.267 8  91097519.165 7  21918330.396    21918330.912    21918336.574
        48.500          43.700
 125172759.155 6  97537298.28942  23819581.322    23819580.0214   23819601.5034
        38.000          17.1004
 146097611.628 6                  27801419.066
        38.800
 132072793.730 6 102723412.468 6  24680960.303    24680960.333    24680989.279
        39.200          37.500
 113780250.067 8  88495837.597 7  21307366.429    21307367.376    21307374.181
        49.600          47.000
 128928127.821 7                  24534205.062
        47.200
 127032689.690 6  98986640.90343  24173479.051    24173478.6454   24173487.4934
        40.200          22.2004
 131172432.951 6 102212358.90243  24961282.502    24961281.2684   24961303.7504
        38.200          19.8004
 25  1  1 19  2 30.0000000  0 35G09E05E19R18G08S31S35G07E13E33S48S33
                                R19G30E04E31G16G27E21R01G04E06R07R20
                                R08R10E26R11G21E24R21R09E09G14G02
 110888539.898 8  86406655.40948  21101394.320    21101393.7624   21101399.2944
        48.400          48.8004
 140446873.595 6                  26726154.887
        36.700
 145787519.918 5                  27742509.196
        32.600
 129823125.778 6 100973742.885 6  24320194.816    24320196.059    24320210.755
        40.200          38.200
 106008059.763 8  82603824.07648  20172610.777    20172610.0314   20172614.5334
        50.000          49.6004
 198977617.527 7                  37864189.208
        46.200
 200900936.925 7                  38230199.586
        44.800
 110280100.730 8  85932593.87647  20985585.651    20985584.9724   20985585.7484
        49.000          47.6004
 148215779.236 6                  28204492.802
        37.900
 149890952.147 6                  28523300.187
        36.200
 412900109.964 5                  78572072.237
        33.900
 202122667.602 7                  38462657.139
        45.500
 118439222.365 6  92119609.331 7  22140897.429    22140897.767    22140906.021
        39.700          42.300
 120480010.739 7  93880562.21846  22926576.229    22926575.4024   22926579.1734
        44.200          40.1004
 126817700.170 7                  24132613.707
        47.700
 125040382.184 8                  23794339.887
        48.300
 127256323.307 6  99160822.18143  24216063.680    24216062.6124   24216068.4244
        39.600          22.0004
 113798335.419 7  88674194.74647  21655038.875    21655038.1294   21655042.2864
        47.600          46.6004
 148487652.794 6                  28256278.185
        38.100
 118671843.886 7  92300353.837 6  22200021.911    22200021.787    22200030.652
        45.000          37.800
 118010114.930 7  91955899.71244  22456606.899    22456606.5374   22456617.7144
        44.400          29.4004
 124604973.944 8                  23711539.062
        48.900
 120179984.277 7  93473279.443 7  22450674.306    22450674.444    22450696.510
        47.700          42.900
 117353281.336 6  91274926.625 7  21945610.331    21945611.104    21945627.101
        36.400          44.000
 109725176.700 8  85341816.843 7  20490405.912    20490405.796    20490413.340
        48.700          47.500
 106454753.485 8                  19970592.141    19970591.734
        48.300
 145300281.711 6                  27649679.896
        38.800
 117091877.569 8  91071620.992 7  21912099.285    21912099.491    21912105.600
        48.400          43.700
 125129093.413 6  97503273.09742  23811271.904    23811270.5634   23811292.0394
        37.700          17.2004
 146064248.821 6                  27795069.992
        38.700
 132009144.936 6 102673907.876 5  24669066.612    24669066.264    24669094.687
        36.800          35.000
 113811924.218 8  88520473.025 7  21313297.797    21313298.630    21313306.034
        48.700          47.000
 128915546.583 7                  24531810.785
        47.400
 126991102.578 6  98954235.66943  24165564.575    24165564.1554   24165573.4144
        40.300          22.3004
 131128587.632 6 102178193.82343  24952939.105    24952937.8984   24952959.7244
        38.100          19.7004
 25  1  1 19  2 45.0000000  0 35G09E05E19R18G08S31S35G07E13E33S48S33
                                R19G30E04E31G16G27E21R01G04E06R07R20
                                R08R10E26R11G21E24R21R09E09G14G02
 110924293.118 8  86434514.99748  21108197.774    21108197.2114   21108202.9404
        48.100          48.7004
 140406071.438 6                  26718391.101
        37.700
 145834740.572 5                  27751494.240
        32.000
 129870628.886 6 101010690.280 6  24329094.539    24329094.833    24329109.583
        41.100          38.000
 106008083.944 8  82603842.93948  20172615.486    20172614.7444   20172619.1164
        50.200          49.5004
 198977610.515 7                  37864186.301
        46.200
 200900906.258 7                  38230193.929
        44.500
 110257503.905 8  85914985.96947  20981285.436    20981284.7574   20981285.7154
        49.100          47.5004
 148213198.646 6                  28204001.534
        37.500
 149851483.223 5                  28515789.179
        35.000
 412900729.614 5                  78572093.902
        33.300
 202122679.787 7                  38462656.205
        45.500
 118450705.659 6  92128540.766 7  22143045.049    22143044.540    22143052.982
        39.400          42.400
 120438236.212 7  93848010.65846  22918626.046    22918625.2104   22918629.7864
        44.300          40.1004
 126845755.359 7                  24137952.393
        47.500
 125028731.709 8                  23792122.557
        48.200
 127306669.810 6  99200053.08243  24225643.984    24225642.9164   24225649.5154
        39.600          22.4004
 113832434.586 7  88700765.51847  21661527.658    21661526.9074   21661531.1474
        47.300          46.5004
 148523473.467 6                  28263094.771
        38.300
 118637973.936 7  92274010.549 6  22193686.792    22193686.062    22193695.584
        45.500          38.100
 118062309.737 7  91996570.75744  22466539.531    22466539.1694   22466550.3554
        44.000          29.0004
 124612628.462 8                  23712995.623
        48.800
 120244366.614 7  93523354.155 7  22462700.918    22462701.771    22462723.923
        46.300          43.200
 117302945.118 6  91235776.607 7  21936198.132    21936197.609    21936214.148
        36.100          44.500
 109751258.156 8  85362102.363 7  20495277.018    20495276.466    20495283.746
        48.600          47.400
 106457239.829 8                  19971058.567    19971058.366
        48.300
 145269696.920 6                  27643859.560
        39.000
 117058614.435 7  91045749.712 7  21905874.331    21905874.407    21905880.923
        47.900          43.900
 125085455.710 6  97469269.72143  23802967.636    23802966.2864   23802987.9814
        38.200          18.0004
 146030914.819 6                  27788727.081
        38.900
 131945453.659 6 102624370.061 6  24657163.974    24657163.941    24657192.198
        40.700          36.100
 113843631.118 8  88545133.915 7  21319236.226    21319236.332    21319243.602
        48.900          47.000
 128903066.128 7                  24529435.781
        47.200
 126949547.481 6  98921855.36643  24157656.913    24157656.4844   24157665.5864
        38.900          22.2004
 131084720.916 6 102144012.08543  24944591.250    24944590.0524   24944611.9384
        39.100          19.2004
 25  1  1 19  3  0.0000000  0 35G09E05E19R18G08S31S35G07E13E33S48S33
                                R19G30E04E31G16G27E21R01G04E06R07R20
                                R08R10E26R11G21E24R21R09E09G14G02
 110960157.927 8  86462461.55348  21115022.548    21115021.9724   21115027.8614
        48.400          48.8004
 140365299.580 6                  26710632.052
        38.400
 145881958.935 5                  27760480.164
        32.300
 129918244.361 6 101047724.841 6  24338013.587    24338014.518    24338028.651
        39.700          37.500
 106008264.180 8  82603983.41448  20172649.849    20172649.1124   20172653.3834
        50.100          49.6004
 198977599.898 7                  37864185.478
        46.200
 200900872.715 7                  38230185.004
        44.300
 110234959.202 8  85897418.66647  20976995.557    20976994.8824   20976995.5964
        48.900          47.7004
 148210718.472 6                  28203529.905
        37.600
 149811983.685 5                  28508272.643
        34.400
 412899746.015 5                  78572133.932
        33.500
 202122688.804 7                  38462657.524
        45.900
 118462382.565 6  92137622.788 7  22145227.404    22145227.215    22145235.755
        39.200          42.300
 120396477.299 7  93815471.26946  22910679.896    22910679.0514   22910683.2304
        44.100          40.3004
 126873890.977 7                  24143306.318
        47.100
 125017128.440 8                  23789914.804
        48.100
 127357008.632 6  99239277.97643  24235223.795    24235222.7404   24235228.7504
        39.200          22.4004
 113866657.826 7  88727432.96047  21668040.285    21668039.5394   21668043.6364
        47.000          46.6004
 148559278.247 6                  28269908.055
        37.500
 118604268.137 7  92247794.915 6  22187380.383    22187380.891    22187389.854
        44.600          38.600
 118114561.268 7  92037286.00244  22476482.815    22476482.4674   22476493.5634
        43.900          29.3004
 124620383.241 8                  23714471.425
        48.600
 120308787.548 7  93573458.930 7  22474736.146    22474736.522    22474758.812
        45.600          42.700
 117252709.673 6  91196704.985 7  21926802.832    21926802.815    21926819.631
        36.300          44.400
 109777520.377 8  85382528.493 7  20500180.432    20500180.696    20500188.101
        48.100          47.500
 106459780.484 8                  19971535.175    19971534.960
        48.400
 145239161.567 6                  27638048.189
        37.800
 117025380.696 8  91019901.266 7  21899655.041    21899655.471    21899661.790
        49.000          44.100
 125041841.138 6  97435284.38642  23794668.727    23794667.4224   23794688.4974
        38.000          17.3004
 145997604.484 6                  27782388.019
        38.600
 131881714.615 6 102574795.205 5  24645252.938    24645252.616    24645281.008
        37.600          35.100
 113875365.786 8  88569816.408 7  21325178.565    21325178.966    21325186.465
        48.400          47.000
 128890681.444 7                  24527079.004
        47.100
 126908019.178 6  98889495.90343  24149754.754    24149754.3434   24149762.5934
        40.000          22.0004
 131040827.964 6 102109809.91643  24936239.403    24936238.2364   24936258.8944
        38.800          19.7004
 25  1  1 19  3 15.0000000  0 35G09E05E19R18G08S31S35G07E13E33S48S33
                                R19G30E04E31G16G27E21R01G04E06R07R20
                                R08R10E26R11G21E24R21R09E09G14G02
 110996141.352 8  86490500.52948  21121870.102    21121869.5304   21121875.3864
        48.000          48.8004
 140324565.613 6                  26702880.177
        37.800
 145929182.271 4                  27769466.243
        29.400
 129965979.661 6 101084852.513 6  24346957.020    24346957.566    24346971.350
        41.500          38.200
 106008607.795 8  82604251.19748  20172714.993    20172714.2474   20172718.7404
        50.300          49.7004
 198977593.208 7                  37864177.854
        45.800
 200900842.570 7                  38230179.794
        44.400
 110212474.358 8  85879898.01447  20972716.712    20972716.0374   20972716.8524
        48.900          47.7004
 148208346.048 6                  28203078.251
        38.000
 149772461.100 5                  28500752.160
        35.700
 412900365.180 5                  78572169.848
        33.800
 202122701.256 7                  38462660.073
        45.500
 118474260.462 6  92146861.144 7  22147447.101    22147448.185    22147456.162
        39.500          42.400
 120354741.523 7  93782949.90446  22902737.855    22902737.0014   22902741.1184
        44.400          40.3004
 126902114.234 7                  24148677.292
        47.100
 125005579.735 8                  23787717.026
        48.000
 127407347.198 6  99278502.68743  24244803.806    24244802.7744   24244807.4934
        38.300          22.1004
 113901012.264 7  88754202.64647  21674577.811    21674577.0654   21674581.0814
        47.400          46.6004
 148595074.573 6                  28276720.337
        37.600
 118570734.323 7  92221713.083 6  22181108.376    22181107.732    22181116.458
        45.500          38.300
 118166876.535 7  92078050.91744  22486438.615    22486438.2534   22486449.2554
        43.500          29.2004
 124628245.661 8                  23715967.437
        48.600
 120373253.796 7  93623598.904 7  22486779.125    22486779.679    22486802.081
        46.500          43.100
 117202582.897 6  91157717.862 7  21917430.375    21917428.823    21917445.393
        36.600          44.600
 109803970.532 8  85403100.794 7  20505120.023    20505119.934    20505127.442
        48.100          47.500
 106462383.111 8                  19972023.450    19972023.100
        48.300
 145208683.398 6                  27632248.123
        38.900
 116992183.730 8  90994081.429 7  21893443.133    21893443.081    21893449.253
        48.500          44.000
 124998257.148 6  97401322.88942  23786374.667    23786373.4154   23786394.5904
        37.500          17.5004
 145964325.197 6                  27776054.943
        38.000
 131817936.109 6 102525189.565 5  24633334.561    24633334.320    24633362.600
        38.800          35.600
 113907135.451 8  88594526.121 7  21331128.900    21331128.966    21331135.802
        49.300          46.800
 128878400.030 7                  24524742.243
        47.000
 126866525.278 6  98857163.28443  24141858.029    24141857.6404   24141866.3294
        39.900          22.6004
 130996916.471 6 102075593.23543  24927882.382    24927881.1894   24927902.6474
        38.400          19.5004
 25  1  1 19  3 30.0000000  0 35G09E05E19R18G08S31S35G07E13E33S48S33
                                R19G30E04E31G16G27E21R01G04E06R07R20
                                R08R10E26R11G21E24R21R09E09G14G02
 111032236.823 8  86518626.80748  21128738.913    21128738.3284   21128744.2014
        48.000          48.9004
 140283863.358 6                  26695135.061
        37.500
 145976404.166 5                  27778453.474
        31.000
 130013827.981 6 101122068.021 6  24355919.191    24355919.029    24355934.749
        39.700          37.600
 106009108.426 8  82604641.32648  20172810.274    20172809.5194   20172813.9854
        50.000          49.8004
 198977583.822 7                  37864183.726
        46.200
 200900809.792 7                  38230170.314
        44.200
 110190043.270 8  85862419.25747  20968448.258    20968447.5884   20968448.3494
        48.800          47.9004
 148206075.093 6                  28202646.003
        37.100
 149732909.383 5                  28493225.364
        35.400
 412900980.959 5                  78572200.448
        33.200
 202122711.754 7                  38462662.903
        45.500
 118486332.878 6  92156250.803 7  22149704.920    22149704.749    22149712.967
        39.400          42.300
 120313022.793 7  93750441.82346  22894799.193    22894798.3484   22894802.3024
        43.700          40.6004
 126930418.673 7                  24154063.397
        47.600
 124994079.189 8                  23785528.522
        48.200
 127457678.972 6  99317722.11843  24254381.148    24254380.1164   24254385.4274
        39.100          22.3004
 113935491.200 7  88781069.34747  21681138.828    21681138.0684   21681142.1944
        46.700          46.7004
 148630856.023 6                  28283529.566
        37.900
 118537366.349 7  92195760.222 6  22174865.033    22174865.517    22174874.153
        44.900          37.500
 118219248.864 7  92118860.27344  22496404.691    22496404.3254   22496415.5804
        43.800          29.3004
 124636209.367 8                  23717482.851
        48.900
 120437758.711 7  93673768.986 7  22498829.975    22498830.009    22498852.912
        46.400          43.000
 117152558.809 6  91118810.611 7  21908073.094    21908073.688    21908089.543
        36.900          44.200
 109830601.900 8  85423814.005 7  20510093.499    20510093.755    20510100.977
        48.700          47.500
 106465040.918 8                  19972522.024    19972521.624
        48.400
 145178256.267 6                  27626456.941
        39.000
 116959017.217 8  90968285.305 7  21887236.605    21887236.326    21887242.525
        48.500          44.200
 124954698.003 6  97367380.79143  23778085.815    23778084.5284   23778105.5164
        38.300          18.1004
 145931070.693 6                  27769726.721
        38.500
 131754111.742 6 102475548.305 6  24621408.251    24621407.563    24621435.396
        40.000          36.500
 113938933.610 8  88619258.015 7  21337083.270    21337083.897    21337090.707
        49.000          46.900
 128866215.693 7                  24522423.519
        46.900
 126825059.349 6  98824852.43743  24133967.212    24133966.7924   24133975.5434
        39.400          22.8004
 130952980.465 6 102041357.49843  24919521.576    24919520.3964   24919541.5854
        38.300          19.6004
 25  1  1 19  3 45.0000000  0 35G09E05E19R18G08S31S35G07E13E33S48S33
                                R19G30E04E31G16G27E21R01G04E06R07R20
                                R08R10E26R11G21E24R21R09E09G14G02
 111068449.299 8  86546844.25548  21135629.844    21135629.2594   21135635.2674
        48.000          48.8004
 140243198.351 6                  26687396.399
        37.300
 146023629.692 5                  27787439.346
        31.900
 130061794.362 6 101159375.455 6  24364905.679    24364906.096    24364919.339
        41.100          38.100
 106009771.266 8  82605157.84448  20172936.456    20172935.7014   20172940.0904
        50.000          49.7004
 198977577.486 7                  37864180.336
        45.900
 200900779.764 7                  38230166.335
        44.100
 110167671.344 8  85844986.59447  20964191.008    20964190.3384   20964191.0964
        48.800          47.7004
 148203910.999 6                  28202234.115
        38.100
 149693334.110 5                  28485694.328
        35.900
 412899998.581 5                  78572239.557
        33.300
 202122724.447 7                  38462664.924
        45.000
 118498605.009 6  92165795.788 7  22151999.344    22151998.709    22152006.995
        38.700          42.200
 120271326.537 7  93717951.24946  22886864.579    22886863.7304   22886867.7794
        44.300          40.5004
 126958809.479 7                  24159465.897
        47.300
 124982632.044 8                  23783350.245
        48.100
 127508009.044 6  99356940.24043  24263958.419    24263957.4094   24263963.3214
        39.400          22.3004
 113970099.615 7  88808036.93247  21687724.657    21687723.8974   21687727.9554
        46.800          46.6004
 148666627.866 6                  28290337.268
        37.200
 118504170.170 7  92169941.029 6  22168655.979    22168655.238    22168663.776
        44.600          37.700
 118271683.210 7  92159717.96944  22506383.268    22506382.9024   22506393.6844
        43.600          29.1004
 124644279.643 8                  23719018.689
        48.900
 120502306.784 7  93723972.639 7  22510887.503    22510887.578    22510911.729
        45.200          43.400
 117102643.244 6  91079987.760 7  21898738.849    21898739.476    21898755.527
        37.000          44.400
 109857419.409 8  85444672.050 7  20515101.130    20515101.535    20515109.016
        48.100          47.200
 106467759.451 7                  19973031.894    19973031.501
        47.900
 145147885.704 6                  27620677.995
        38.500
 116925886.499 8  90942517.025 7  21881036.470    21881036.860    21881042.218
        48.000          44.000
 124911169.523 6  97333462.55842  23769802.757    23769801.4974   23769822.3274
        37.000          17.5004
 145897846.201 6                  27763404.212
        38.800
 131690247.569 6 102425876.077 5  24609472.864    24609471.899    24609501.128
        37.400          34.200
 113970765.784 8  88644016.350 7  21343044.356    21343044.771    21343051.965
        48.500          46.800
 128854133.797 7                  24520124.651
        47.000
 126783626.863 6  98792567.70043  24126082.469    24126082.0544   24126091.4824
        39.400          22.9004
 130909025.686 6 102007107.12343  24911157.451    24911156.2844   24911177.2594
        38.400          19.6004
 25  1  1 19  4  0.0000000  0 35G09E05E19R18G08S31S35G07E13E33S48S33
                                R19G30E04E31G16G27E21R01G04E06R07R20
                                R08R10E26R11G21E24R21R09E09G14G02
 111104779.925 7  86575153.76948  21142543.491    21142542.9104   21142548.7714
        47.600          48.7004
 140202572.276 6                  26679665.411
        38.900
 146070860.019 5                  27796427.566
        32.200
 130109879.959 6 101196775.659 6  24373912.543    24373913.039    24373927.172
        39.900          37.200
 106010597.720 8  82605801.85548  20173093.823    20173093.0724   20173097.3304
        49.900          49.7004
 198977574.965 7                  37864179.419
        46.100
 200900754.344 7                  38230156.251
        44.100
 110145360.152 8  85827601.25347  20959945.228    20959944.5624   20959945.3934
        48.400          47.7004
 148201855.176 6                  28201842.826
        38.200
 149653736.894 5                  28478158.951
        35.300
 412900621.073 5                  78572273.979
        33.200
 202122741.455 7                  38462667.920
        45.400
 118511078.403 6  92175497.305 7  22154331.096    22154330.357    22154339.062
        39.000          42.500
 120229654.358 7  93685479.43246  22878934.567    22878933.7134   22878937.7904
        44.100          40.6004
 126987287.924 7                  24164885.385
        47.500
 124971239.661 8                  23781182.307
        48.400
 127558338.634 6  99396157.98243  24273536.118    24273535.1304   24273540.9334
        39.100          21.9004
 114004838.592 7  88835106.24947  21694335.394    21694334.6434   21694338.5564
        46.500          46.5004
 148702391.512 6                  28297142.478
        37.900
 118471147.282 7  92144256.553 6  22162477.210    22162477.267    22162486.064
        45.000          37.700
 118324180.671 7  92200624.84144  22516373.047    22516372.6904   22516383.9104
        43.200          29.0004
 124652457.893 8                  23720574.947
        49.100
 120566899.061 7  93774210.645 7  22522954.581    22522955.477    22522977.655
        46.600          43.000
 117052838.792 6  91041251.317 7  21889424.452    21889425.233    21889441.227
        36.600          44.400
 109884423.985 8  85465675.534 7  20520143.890    20520144.344    20520151.879
        48.100          47.400
 106470540.026 8                  19973553.877    19973553.227
        48.300
 145117573.351 6                  27614908.821
        39.300
 116892792.866 8  90916777.559 7  21874842.906    21874843.385    21874848.958
        48.300          43.700
 124867673.634 6  97299569.71742  23761525.005    23761523.7274   23761544.9564
        37.100          17.9004
 145864653.210 6                  27757087.431
        38.700
 131626345.270 6 102376174.191 6  24597531.429    24597531.348    24597560.473
        39.600          37.100
 114002633.454 8  88668802.267 7  21349012.256    21349012.446    21349019.368
        48.600          46.500
 128842155.916 7                  24517845.121
        47.500
 126742229.118 6  98760309.97843  24118205.268    24118204.8444   24118212.8674
        38.700          22.4004
 130865053.755 6 101972843.37243  24902789.378    24902788.1984   24902810.1374
        38.900          20.1004
 25  1  1 19  4 15.0000000  0 35G09E05E19R18G08S31S35G07E13E33S48S33
                                R19G30E04E31G16G27E21R01G04E06R07R20
                                R08R10E26R11G21E24R21R09E09G14G02
 111141219.316 8  86603548.03748  21149477.935    21149477.3544   21149482.9964
        48.000          48.7004
 140161976.214 6                  26671940.482
        38.100
 146118086.050 5                  27805414.352
        31.800
 130158074.821 6 101234260.840 6  24382942.210    24382942.050    24382955.736
        40.200          36.900
 106011578.699 8  82606566.26748  20173280.503    20173279.7574   20173284.0074
        50.300          49.8004
 198977567.332 7                  37864184.030
        46.300
 200900723.689 7                  38230154.512
        44.100
 110123100.984 8  85810256.43747  20955709.733    20955709.0674   20955709.6084
        48.900          47.7004
 148199898.632 6                  28201470.283
        37.400
 149614108.960 5                  28470618.176
        35.800
 412901238.379 5                  78572306.546
        33.300
 202122753.299 7                  38462668.609
        45.400
 118523743.609 6  92185348.022 7  22156697.348    22156698.099    22156706.648
        39.500          42.400
 120187997.364 7  93653019.44746  22871007.665    22871006.8024   22871010.7894
        44.700          40.5004
 127015844.815 7                  24170319.597
        47.600
 124959892.908 8                  23779023.064
        48.600
 127608658.655 6  99435368.25543  24283111.843    24283110.8914   24283116.6354
        39.300          22.0004
 114039698.744 7  88862269.99147  21700968.855    21700968.1094   21700972.2934
        47.200          46.5004
 148738137.741 6                  28303945.395
        38.600
 118438289.293 7  92118700.356 6  22156331.231    22156331.182    22156340.262
        45.600          38.600
 118376731.854 7  92241573.57344  22526373.622    22526373.2654   22526384.2744
        42.900          29.0004
 124660735.046 8                  23722150.063
        49.100
 120631525.680 7  93824475.375 7  22535027.320    22535027.771    22535051.054
        46.200          43.100
 117003136.426 6  91002594.291 7  21880128.434    21880129.946    21880146.110
        37.000          44.300
 109911606.311 8  85486817.303 7  20525220.139    20525220.450    20525227.614
        48.400          47.100
 106473373.450 8                  19974085.234    19974084.836
        48.000
 145087310.516 6                  27609148.789
        39.400
 116859727.305 8  90891059.930 7  21868655.343    21868655.482    21868661.207
        48.200          43.700
 124824201.641 6  97265695.52642  23753253.058    23753251.7894   23753272.5704
        38.300          17.6004
 145831482.701 6                  27750774.599
        38.900
 131562396.185 6 102326435.888 6  24585581.094    24585580.364    24585610.084
        38.800          37.200
 114034527.277 8  88693608.548 7  21354984.982    21354985.349    21354992.266
        49.300          46.500
 128830273.102 7                  24515583.920
        47.600
 126700857.268 6  98728072.43443  24110331.392    24110330.9864   24110339.7624
        39.700          22.4004
 130821056.057 6 101938559.53243  24894417.302    24894416.1354   24894437.0604
        38.600          20.2004
 25  1  1 19  4 30.0000000  0 35G09E05E19R18G08S31S35G07E13E33S48S33
                                R19G30E04E31G16G27E21R01G04E06R07R20
                                R08R10E26R11G21E24R21R09E09G14G02
 111177775.256 8  86632033.12448  21156434.124    21156433.5434   21156439.4154
        48.000          48.7004
 140121418.475 6                  26664222.669
        38.300
 146165315.415 5                  27814402.334
        31.700
 130206386.680 6 101271836.991 6  24391990.958    24391991.250    24392006.210
        39.600          38.200
 106012722.191 8  82607457.33348  20173498.007    20173497.2474   20173501.5924
        50.300          49.8004
 198977563.676 7                  37864178.646
        46.000
 200900696.047 7                  38230147.451
        44.100
 110100902.060 8  85792958.57747  20951485.301    20951484.6404   20951485.2984
        48.700          47.8004
 148198049.440 6                  28201118.903
        37.600
 149574458.578 5                  28463072.790
        35.300
 412901859.391 5                  78572344.582
        33.400
 202122768.655 7                  38462673.930
        45.400
 118536608.713 6  92195354.185 7  22159102.755    22159103.380    22159111.902
        39.500          42.500
 120146363.865 7  93620577.78146  22863084.694    22863083.8094   22863088.2274
        44.900          40.7004
 127044488.022 7                  24175770.011
        47.300
 124948599.802 8                  23776874.065
        48.400
 127658977.094 6  99474577.29543  24292686.576    24292685.6154   24292691.7384
        39.200          21.5004
 114074687.805 7  88889534.18347  21707627.010    21707626.2554   21707630.4814
        47.100          46.5004
 148773874.625 6                  28310745.771
        38.200
 118405604.360 7  92093278.744 6  22150216.146    22150215.970    22150225.336
        44.500          38.300
 118429344.455 7  92282570.16444  22536385.316    22536384.9544   22536396.1884
        43.700          28.9004
 124669119.161 8                  23723745.487
        48.800
 120696194.351 7  93874772.799 7  22547108.139    22547108.611    22547132.538
        46.300          43.200
 116953544.565 6  90964023.178 7  21870855.084    21870855.649    21870872.018
        36.800          44.700
 109938974.109 8  85508103.295 7  20530331.137    20530331.179    20530338.634
        48.100          47.400
 106476267.685 8                  19974628.248    19974627.794
        48.300
 145057105.420 6                  27603401.207
        38.800
 116826697.839 8  90865370.368 7  21862473.889    21862474.068    21862480.472
        48.100          43.800
 124780762.074 6  97231846.64543  23744986.154    23744984.8534   23745006.1144
        37.500          18.1004
 145798342.694 6                  27744468.259
        38.700
 131498408.714 6 102276667.727 6  24573622.860    24573622.749    24573652.679
        39.400          37.300
 114066455.319 8  88718441.416 7  21360964.084    21360964.539    21360971.461
        48.600          46.500
 128818493.534 7                  24513342.273
        47.500
 126659519.356 6  98695861.35943  24102464.664    24102464.2444   24102473.4804
        39.600          22.8004
 130777040.956 6 101904262.11543  24886041.466    24886040.2774   24886061.3764
        39.400          20.5004
 25  1  1 19  4 45.0000000  0 35G09E05E19R18G08S31S35G07E13E33S48S33
                                R19G30E04E31G16G27E21R01G04E06R07R20
                                R08R10E26R11G21E24R21R09E09G14G02
 111214440.378 7  86660603.28948  21163411.202    21163410.6174   21163416.5954
        47.900          48.7004
 140080892.253 6                  26656510.466
        38.200
 146212540.991 5                  27823388.640
        32.600
 130254807.905 6 101309498.147 6  24401062.592    24401063.810    24401077.143
        40.700          37.800
 106014021.084 8  82608469.48748  20173745.108    20173744.3534   20173748.7294
        50.000          49.9004
 198977554.954 7                  37864180.202
        46.000
 200900664.831 7                  38230137.886
        44.100
 110078756.499 8  85775702.30547  20947271.318    20947270.6614   20947271.1204
        48.900          47.8004
 148196300.692 6                  28200785.692
        37.600
 149534778.911 5                  28455521.925
        35.600
 412900875.806 5                  78572377.631
        33.900
 202122780.163 7                  38462675.352
        45.600
 118549666.375 6  92205510.150 7  22161544.064    22161544.537    22161552.371
        39.600          42.100
 120104746.884 7  93588148.98446  22855165.467    22855164.5824   22855168.7384
        44.300          40.9004
 127073210.418 7                  24181235.949
        47.400
 124937353.210 8                  23774733.710
        48.300
 127709286.617 6  99513779.38743  24302260.678    24302259.7224   24302265.7734
        39.300          22.0004
 114109798.406 7  88916893.08147  21714308.461    21714307.7194   21714311.7874
        47.000          46.5004
 148809595.097 6                  28317543.321
        38.400
 118373085.880 7  92067986.620 6  22144133.703    22144132.958    22144142.109
        45.400          38.100
 118482011.109 7  92323608.88544  22546407.743    22546407.3814   22546418.4584
        43.200          28.9004
 124677603.165 8                  23725359.925
        49.000
 120760897.361 7  93925096.923 7  22559196.746    22559196.605    22559220.018
        46.500          43.200
 116904057.286 6  90925533.425 7  21861599.685    21861600.790    21861617.123
        37.200          44.400
 109966519.871 8  85529527.756 7  20535475.152    20535475.320    20535483.106
        48.000          47.300
 106479215.676 8                  19975181.548    19975180.692
        48.400
 145026951.347 6                  27597662.171
        38.500
 116793697.347 8  90839703.350 7  21856298.923    21856298.775    21856304.978
        48.100          44.200
 124737348.252 6  97198017.79943  23736725.273    23736723.9724   23736744.2734
        38.000          18.0004
 145765226.135 6                  27738166.372
        38.900
 131434376.268 6 102226864.643 6  24561656.669    24561656.526    24561686.559
        38.700          36.300
 114098410.516 8  88743295.439 7  21366949.093    21366948.983    21366955.601
        49.200          46.500
 128806810.268 7                  24511119.052
        47.800
 126618208.402 6  98663671.30143  24094603.600    24094603.2034   24094611.5504
        39.500          23.0004
 130733001.724 6 101869945.90243  24877660.695    24877659.4844   24877681.0674
        38.100          20.4004
 25  1  1 19  5  0.0000000  0 35G09E05E19R18G08S31S35G07E13E33S48S33
                                R19G30E04E31G16G27E21R01G04E06R07R20
                                R08R10E26R11G21E24R21R09E09G14G02
 111251221.192 7  86689263.61048  21170410.632    21170410.0564   21170415.7754
        47.800          48.8004
 140040404.467 6                  26648806.462
        38.200
 146259769.511 5                  27832376.490
        32.200
 130303344.877 6 101347249.224 6  24410155.043    24410155.343    24410169.642
        40.500          37.700
 106015482.140 8  82609607.99448  20174023.302    20174022.5564   20174026.7484
        50.300          50.1004
 198977549.358 7                  37864177.617
        45.800
 200900636.689 7                  38230135.279
        44.200
 110056671.373 8  85758493.12447  20943068.431    20943067.7704   20943068.4484
        48.700          47.9004
 148194659.195 6                  28200473.474
        36.700
 149495077.055 5                  28447967.262
        35.900
 412901493.863 5                  78572406.120
        33.500
 202122794.150 7                  38462678.277
        45.800
 118562923.649 6  92215821.338 7  22164022.874    22164023.202    22164030.687
        40.500          42.200
 120063153.472 7  93555738.54946  22847250.688    22847249.8084   22847253.6704
        44.900          41.0004
 127102018.655 7                  24186717.776
        47.100
 124926159.905 8                  23772603.788
        48.100
 127759593.865 6  99552979.73043  24311834.316    24311833.3694   24311839.4014
        38.900          22.2004
 114145037.022 7  88944351.73047  21721014.160    21721013.4184   21721017.4914
        47.000          46.6004
 148845305.933 6                  28324338.263
        37.900
 118340740.927 7  92042829.426 6  22138081.872    22138082.491    22138090.618
        46.100          37.400
 118534738.261 7  92364694.74644  22556441.208    22556440.8464   22556452.3144
        43.400          29.0004
 124686193.848 8                  23726994.788
        48.800
 120825640.979 7  93975452.656 7  22571290.190    22571291.369    22571314.688
        46.800          43.100
 116854681.645 6  90887130.499 7  21852366.459    21852367.395    21852383.675
        36.500          44.800
 109994250.065 8  85551095.631 7  20540653.375    20540653.839    20540661.084
        48.300          47.400
 106482224.119 8                  19975745.404    19975745.181
        48.400
 144996855.284 6                  27591935.533
        38.300
 116760732.752 8  90814064.266 7  21850129.499    21850130.225    21850136.017
        49.100          44.100
 124693967.443 6  97164214.69143  23728469.508    23728468.1804   23728489.3454
        37.300          18.0004
 145732139.837 6                  27731870.474
        38.300
 131370306.346 6 102177032.401 6  24549683.635    24549685.152    24549713.960
        41.300          37.600
 114130399.472 8  88768175.709 7  21372938.996    21372939.473    21372946.242
        49.000          46.500
 128795230.240 7                  24508915.375
        47.300
 126576931.286 6  98631507.60943  24086748.818    24086748.4384   24086756.2684
        39.400          23.4004
 130688945.551 6 101835616.49043  24869277.468    24869276.2924   24869297.3124
        38.700          20.6004
 25  1  1 19  5 15.0000000  0 35G09E05E19R18G08S31S35G07E13E33S48S33
                                R19G30E04E31G16G27E21R01G04E06R07R20
                                R08R10E26R11G21E24R21R09E09G14G02
 111288111.521 8  86718009.25748  21177430.882    21177430.2974   21177435.7984
        48.000          48.7004
 139999949.582 6                  26641107.546
        38.100
 146306994.882 5                  27841363.145
        32.100
 130351991.230 6 101385085.385 6  24419267.961    24419268.130    24419282.554
        39.500          38.100
 106017099.437 8  82610868.25148  20174331.052    20174330.3064   20174334.4944
        50.200          50.1004
 198977541.346 7                  37864178.445
        46.000
 200900605.350 7                  38230131.487
        44.500
 110034640.937 8  85741326.56048  20938876.067    20938875.4194   20938876.1684
        48.500          48.0004
 148193119.145 6                  28200180.895
        37.100
 149455347.373 5                  28440406.640
        35.500
 412902108.977 5                  78572437.788
        34.000
 202122805.619 7                  38462689.107
        45.500
 118576374.297 6  92226282.951 7  22166536.767    22166537.023    22166545.483
        40.100          42.200
 120021577.904 7  93523342.01546  22839338.585    22839337.6644   22839342.0064
        44.700          41.1004
 127130906.707 7                  24192215.102
        46.900
 124915013.926 7                  23770482.718
        47.900
 127809892.871 6  99592173.66043  24321405.302    24321404.3504   24321410.6364
        39.300          22.0004
 114180397.452 7  88971905.30147  21727742.957    21727742.2154   21727746.3844
        47.100          46.6004
 148881001.278 6                  28331131.866
        38.100
 118308564.111 7  92017803.058 6  22132062.924    22132063.070    22132071.595
        45.800          37.500
 118587519.691 7  92405822.90544  22566485.894    22566485.5234   22566496.5174
        43.200          28.9004
 124694885.328 8                  23728648.383
        48.500
 120890418.870 7  94025835.077 7  22583392.422    22583392.783    22583416.106
        46.100          43.200
 116805412.346 6  90848810.281 7  21843154.195    21843155.052    21843169.387
        36.600          44.400
 110022158.400 8  85572802.064 7  20545865.228    20545865.529    20545872.572
        48.000          47.200
 106485287.327 7                  19976320.284    19976319.968
        47.600
 144966811.666 6                  27586217.592
        39.200
 116727797.994 8  90788448.395 7  21843966.310    21843966.214    21843972.525
        48.000          44.000
 124650614.215 6  97130433.08443  23720220.037    23720218.7184   23720239.3584
        38.200          18.5004
 145699078.072 6                  27725578.358
        38.400
 131306193.234 6 102127166.612 6  24537703.044    24537702.952    24537733.124
        39.200          36.900
 114162416.632 8  88793077.926 7  21378934.930    21378935.293    21378941.991
        49.100          46.600
 128783747.692 7                  24506730.590
        47.200
 126535682.093 6  98599365.66643  24078898.822    24078898.4744   24078906.6344
        40.000          23.2004
 130644866.966 6 101801269.60543  24860889.225    24860888.0234   24860909.7864
        39.500          20.9004
 25  1  1 19  5 30.0000000  0 36G09E05E19R18G08S31S35G07E13E33S48S33
                                R19G30E04E31G16G27E21R01G04E06R07R20
                                R08R10E26R11G21E24R21R09E09G05G14G02
 111325112.615 7  86746841.22148  21184471.672    21184471.0874   21184476.9274
        47.600          48.6004
 139959529.322 6                  26633415.882
        37.300
 146354218.382 5                  27850350.087
        31.200
 130400748.188 6 101423007.575 6  24428402.799    24428402.126    24428415.825
        40.000          38.000
 106018874.471 8  82612251.42148  20174668.840    20174668.0984   20174672.2494
        50.200          50.0004
 198977531.677 7                  37864176.365
        46.500
 200900572.510 7                  38230120.559
        44.300
 110012666.995 8  85724204.00647  20934694.762    20934694.1234   20934694.6504
        48.900          47.9004
 148191682.133 6                  28199907.131
        36.200
 149415591.686 6                  28432841.731
        36.300
 412902722.498 5                  78572478.668
        33.900
 202122815.637 7                  38462684.000
        45.800
 118590019.808 6  92236896.124 7  22169088.037    22169088.066    22169095.878
        39.600          42.100
 119980021.934 7  93490960.74646  22831430.795    22831429.8794   22831434.2504
        44.700          41.1004
 127159876.004 7                  24197727.877
        46.700
 124903916.824 7                  23768370.973
        47.700
 127860185.149 6  99631362.36543  24330975.292    24330974.3674   24330981.1204
        38.200          22.0004
 114215880.931 7  88999554.75147  21734495.367    21734494.6254   21734498.6954
        47.000          46.5004
 148916682.564 6                  28337921.780
        38.100
 118276557.131 7  91992908.751 6  22126075.247    22126075.997    22126084.177
        46.200          38.200
 118640356.600 7  92446994.28344  22576540.190    22576539.8194   22576551.4034
        43.800          28.9004
 124703679.126 8                  23730322.164
        48.500
 120955232.170 7  94076245.003 7  22595500.362    22595501.051    22595523.847
        46.500          42.600
 116756251.933 6  90810574.723 7  21833960.301    21833960.403    21833975.878
        36.400          44.700
 110050246.146 7  85594648.045 7  20551110.729    20551110.702    20551118.353
        47.700          47.400
 106488406.858 8                  19976905.777    19976905.138
        48.100
 144936822.296 6                  27580510.369
        38.800
 116694894.759 8  90762857.034 7  21837808.378    21837808.741    21837815.195
        48.100          43.900
 124607290.437 6  97096674.46343  23711975.554    23711974.2174   23711995.4214
        38.000          18.0004
 145666042.278 6                  27719291.962
        37.500
 131242039.113 6 102077268.936 6  24525714.358    24525714.349    24525743.125
        40.800          37.200
 114194463.522 8  88818003.270 7  21384935.372    21384936.331    21384943.471
        48.600          46.700
 128772364.297 7                  24504564.313
        47.300
 135271009.769 5                  25741217.196
        35.900
 126494462.466 6  98567246.77143  24071054.732    24071054.3574   24071062.9884
        40.300          23.8004
 130600767.866 6 101766906.73443  24852496.706    24852495.4994   24852517.9734
        38.700          21.5004
 25  1  1 19  5 45.0000000  0 36G09E05E19R18G08S31S35G07E13E33S48S33
                                R19G30E04E31G16G27E21R01G04E06R07R20
                                R08R10E26R11G21E24R21R09E09G05G14G02
 111362224.952 8  86775759.87148  21191534.259    21191533.6784   21191539.2464
        48.100          48.5004
 139919144.641 6                  26625731.332
        37.300
 146401440.595 5                  27859335.241
        30.300
 130449616.061 6 101461015.982 6  24437555.257    24437555.676    24437570.108
        38.700          38.300
 106020807.912 8  82613758.02848  20175036.587    20175035.8364   20175040.1214
        50.400          50.0004
 198977521.092 7                  37864170.060
        46.100
 200900539.822 7                  38230113.091
        44.000
 109990750.564 8  85707126.26747  20930524.063    20930523.4244   20930524.0894
        49.100          47.8004
 148190349.058 6                  28199653.501
        37.100
 149375810.940 6                  28425270.672
        36.100
 412901735.009 5                  78572513.144
        33.800
 202122824.444 7                  38462680.902
        45.300
 118603860.801 6  92247661.345 7  22171675.181    22171675.481    22171683.825
        39.700          42.100
 119938486.507 7  93458595.48346  22823526.880    22823525.9684   22823530.3984
        44.700          41.0004
 127188927.169 7                  24203256.075
        47.000
 124892869.250 8                  23766268.857
        48.100
 127910471.266 6  99670546.23943  24340545.517    24340544.6104   24340550.3614
        38.700          21.4004
 114251487.848 7  89027300.39047  21741270.919    21741270.1684   21741274.4734
        47.200          46.4004
 148952350.512 6                  28344708.986
        38.100
 118244721.210 7  91968147.519 6  22120119.204    22120120.032    22120128.374
        45.100          38.100
 118693249.397 7  92488209.20544  22586605.540    22586605.1604   22586616.8514
        43.200          28.8004
 124712575.999 8                  23732015.128
        49.000
 121020080.786 7  94126682.411 7  22607614.309    22607614.712    22607639.136
        45.400          42.900
 116707201.466 6  90772424.700 7  21824787.584    21824787.576    21824803.127
        36.400          44.800
 110078513.832 7  85616633.957 7  20556389.176    20556389.377    20556397.167
        47.600          47.300
 106491583.235 8                  19977501.266    19977500.963
        48.200
 144906888.177 6                  27574813.374
        38.500
 116662023.768 8  90737290.742 7  21831657.456    21831657.979    21831664.044
        48.200          44.200
 124563997.328 6  97062939.71942  23703736.767    23703735.4224   23703756.7604
        38.500          17.9004
 145633033.303 6                  27713010.182
        38.700
 131177844.925 7 102027340.108 5  24513719.234    24513719.471    24513746.844
        42.200          35.600
 114226540.809 8  88842952.235 7  21390942.853    21390943.455    21390950.680
        48.700          46.400
 128761080.931 7                  24502416.942
        47.400
 135273041.896 6 105407572.36243  25741604.263    25741604.5174   25741605.7214
        36.400          21.5004
 126453273.176 6  98535151.48543  24063215.805    24063215.4344   24063224.7974
        41.100          23.3004
 130556649.332 6 101732528.74443  24844102.266    24844101.0324   24844122.2734
        38.500          20.6004
 25  1  1 19  6  0.0000000  0 35G09E05E19R18G08S31S35G07E13E33S48S33
                                R19G30E04E31G16G27E21R01G04E06R07R20
                                R08R10E26R11G21E24R21R09E09G14G02
 111399451.768 8  86804767.72748  21198617.983    21198617.3984   21198623.3034
        48.200          48.5004
 139878799.383 6                  26618054.203
        37.300
 146448664.954 5                  27868322.650
        31.100
 130498597.680 6 101499112.772 6  24446732.766    24446733.502    24446746.374
        41.000          37.000
 106022903.317 8  82615390.83248  20175435.387    20175434.6454   20175438.8284
        50.100          50.0004
 198977513.254 7                  37864168.290
        46.000
 200900509.481 7                  38230113.485
        44.200
 109968895.379 8  85690096.26047  20926365.107    20926364.4644   20926365.1584
        49.100          47.9004
 148189123.459 6                  28199420.869
        37.200
 149336009.017 6                  28417697.403
        36.100
 412902350.767 5                  78572549.512
        33.700
 202122836.873 7                  38462686.348
        45.800
 118617900.865 6  92258581.386 7  22174300.536    22174299.514    22174308.497
        39.900          42.400
 119896975.402 7  93426249.18546  22815628.139    22815627.2364   22815631.0584
        44.600          41.1004
 127218063.644 7                  24208800.651
        46.800
 124881874.740 7                  23764176.540
        47.900
 127960754.737 6  99709728.06243  24350113.916    24350112.9954   24350119.1014
        38.900          21.8004
 114287221.513 7  89055144.79147  21748070.930    21748070.1754   21748074.3224
        47.000          46.3004
 148988008.669 6                  28351494.661
        38.100
 118213060.468 7  91943522.526 6  22114197.378    22114197.489    22114206.265
        45.300          37.400
 118746201.342 7  92529470.22444  22596682.249    22596681.8924   22596693.5414
        43.000          28.7004
 124721579.539 8                  23733728.375
        48.700
 121084968.035 7  94177149.887 7  22619736.509    22619736.798    22619761.320
        45.500          43.000
 116658265.275 6  90734363.540 7  21815636.208    21815635.171    21815651.589
        36.600          44.800
 110106964.468 8  85638762.192 7  20561701.798    20561702.523    20561710.179
        48.100          47.300
 106494820.183 8                  19978108.486    19978108.058
        48.000
 144877013.109 6                  27569128.361
        39.500
 116629188.605 8  90711752.305 7  21825512.974    21825513.174    21825518.966
        49.000          44.300
 124520739.005 6  97029232.10943  23695505.178    23695503.8374   23695524.9644
        38.100          18.6004
 145600054.645 6                  27706733.647
        38.300
 131113615.000 6 101977383.549 6  24501714.951    24501715.544    24501745.393
        39.900          37.600
 114258652.118 8  88867927.695 7  21396956.796    21396956.902    21396963.841
        48.700          46.200
 128749901.287 7                  24500289.744
        47.500
 126412117.858 6  98503082.65643  24055384.709    24055384.3254   24055392.6884
        40.700          23.7004
 130512515.335 6 101698138.67343  24835703.569    24835702.3174   24835723.3284
        40.100          20.5004
 25  1  1 19  6 15.0000000  0 35G09E05E19R18G08S31S35G07E13E33S48S33
                                R19G30E04E31G16G27E21R01G04E06R07R20
                                R08R10E26R11G21E24R21R09E09G14G02
 111436791.851 7  86833863.83548  21205723.665    21205723.0844   21205728.8854
        47.800          48.2004
 139838492.836 6                  26610383.721
        38.100
 146495890.280 5                  27877309.497
        31.900
 130547692.208 6 101537297.454 6  24455927.355    24455928.468    24455943.478
        38.100          37.200
 106025159.662 8  82617149.05448  20175864.808    20175864.0714   20175868.1674
        50.300          49.8004
 198977508.041 7                  37864165.137
        45.900
 200900481.371 7                  38230108.284
        44.300
 109947100.728 8  85673113.42347  20922217.710    20922217.0674   20922217.7684
        48.900          47.7004
 148188004.532 6                  28199207.605
        37.200
 149296185.175 6                  28410118.772
        36.500
 412902969.625 5                  78572579.310
        32.900
 202122851.689 7                  38462689.670
        45.600
 118632138.674 6  92269655.238 7  22176960.973    22176961.391    22176969.627
        40.000          42.000
 119855487.861 7  93393921.24146  22807732.510    22807731.6074   22807736.3284
        44.700          41.0004
 127247284.352 7                  24214361.133
        46.900
 124870932.299 7                  23762094.224
        47.900
 128011034.167 6  99748906.72943  24359681.926    24359681.0194   24359686.9604
        38.800          21.6004
 114323080.613 7  89083086.92747  21754894.847    21754894.0964   21754898.0904
        47.000          46.1004
 149023656.016 6                  28358278.400
        38.400
 118181574.052 7  91919033.054 6  22108306.963    22108307.200    22108315.143
        46.400          37.700
 118799211.153 7  92570776.32344  22606769.938    22606769.5724   22606781.0924
        43.700          28.4004
 124730688.738 8                  23735461.913
        48.600
 121149892.289 7  94227646.081 7  22631865.776    22631865.574    22631889.764
        45.600          43.000
 116609442.801 6  90696390.816 7  21806506.405    21806506.555    21806520.688
        37.300          44.400
 110135596.794 8  85661031.708 7  20567049.534    20567049.430    20567056.768
        48.000          47.200
 106498116.663 8                  19978727.219    19978726.631
        48.100
 144847196.445 6                  27563453.636
        39.400
 116596388.243 8  90686240.942 7  21819374.255    21819374.937    21819381.109
        48.500          44.600
 124477514.893 6  96995551.19443  23687279.723    23687278.3694   23687299.3114
        37.800          18.0004
 145567105.516 6                  27700463.874
        38.900
 131049348.786 6 101927398.718 6  24489705.734    24489706.979    24489736.238
        41.700          38.900
 114290796.276 8  88892928.658 7  21402976.145    21402976.681    21402983.472
        48.700          46.200
 128738824.543 7                  24498181.832
        47.500
 126370995.686 6  98471039.66243  24047558.507    24047558.0874   24047566.7454
        40.200          23.1004
 130468365.241 6 101663736.05943  24827301.699    24827300.4564   24827321.8784
        39.800          21.0004
 25  1  1 19  6 30.0000000  0 35G09E05E19R18G08S31S35G07E13E33S48S33
                                R19G30E04E31G16G27E21R01G04E06R07R20
                                R08R10E26R11G21E24R21R09E09G14G02
 111474243.499 8  86863046.87848  21212850.384    21212849.7764   21212855.7664
        48.100          48.3004
 139798223.799 6                  26602720.686
        37.900
 146543115.147 5                  27886296.344
        31.800
 130596897.244 6 101575567.978 6  24465148.463    24465148.185    24465161.026
        39.500          37.400
 106027575.522 8  82619031.56748  20176324.419    20176323.6824   20176327.8634
        49.900          49.9004
 198977503.162 7                  37864168.196
        46.000
 200900454.074 7                  38230101.147
        43.900
 109925365.414 8  85656176.81447  20918081.670    20918081.0314   20918081.6924
        48.800          47.7004
 148186990.824 6                  28199014.480
        37.400
 149256338.292 5                  28402535.666
        35.100
 412901988.563 5                  78572615.906
        33.300
 202122866.477 7                  38462688.280
        45.200
 118646573.171 6  92280882.045 7  22179659.680    22179659.997    22179668.381
        40.400          42.300
 119814022.684 7  93361610.73146  22799842.243    22799841.3224   22799845.7564
        44.800          41.1004
 127276587.744 7                  24219937.359
        46.800
 124860040.507 7                  23760021.539
        47.900
 128061308.385 6  99788081.32143  24369248.726    24369247.8374   24369253.5504
        37.900          21.1004
 114359063.453 7  89111125.49147  21761742.168    21761741.4174   21761745.3914
        46.700          46.1004
 149059291.208 6                  28365059.256
        38.400
 118150261.046 7  91894678.537 6  22102449.070    22102449.271    22102457.537
        45.800          37.300
 118852277.131 7  92612126.19844  22616868.013    22616867.6514   22616879.6344
        42.900          28.5004
 124739902.217 8                  23737215.241
        48.400
 121214851.612 7  94278169.551 7  22644001.014    22644000.909    22644024.974
        46.000          42.600
 116560733.459 6  90658506.080 7  21797396.665    21797396.491    21797411.586
        36.900          44.700
 110164409.262 8  85683441.353 7  20572430.063    20572430.223    20572437.494
        48.100          47.200
 106501471.087 8                  19979355.833    19979355.632
        48.000
 144817437.062 6                  27557790.239
        39.000
 116563621.517 8  90660755.724 7  21813243.134    21813243.127    21813249.030
        48.600          44.200
 124434323.915 6  96961896.06743  23679060.133    23679058.7704   23679079.4814
        36.900          18.2004
 145534184.450 6                  27694198.601
        38.500
 130985045.100 6 101877384.830 6  24477689.218    24477689.158    24477718.856
        40.600          38.400
 114322971.934 8  88917954.153 7  21409001.426    21409002.103    21409008.617
        48.500          46.300
 128727849.426 7                  24496093.238
        47.600
 126329905.335 6  98439021.48543  24039739.715    24039739.3044   24039747.5224
        41.000          23.6004
 130424197.975 6 101629320.06443  24818897.337    24818896.0994   24818916.9534
        39.500          21.0004
 25  1  1 19  6 45.0000000  0 35G09E05E19R18G08S31S35G07E13E33S48S33
                                R19G30E04E31G16G27E21R01G04E06R07R20
                                R08R10E26R11G21E24R21R09E09G14G02
 111511801.630 7  86892312.89548  21219997.775    21219997.1674   21220002.8864
        47.500          48.2004
 139757987.751 6                  26595064.503
        38.500
 146590334.492 5                  27895281.771
        31.200
 130646207.587 6 101613920.307 6  24474385.575    24474385.667    24474399.277
        40.000          36.900
 106030146.052 8  82621034.59748  20176813.624    20176812.8914   20176817.0054
        50.200          49.9004
 198977494.064 7                  37864167.020
        45.700
 200900422.775 7                  38230096.121
        44.100
 109903684.903 8  85639282.90847  20913955.828    20913955.1854   20913956.0124
        49.000          47.7004
 148186077.705 6                  28198841.074
        36.600
 149216463.882 5                  28394948.384
        35.400
 412902603.826 5                  78572642.772
        33.100
 202122877.527 7                  38462694.254
        45.300
 118661199.203 6  92292257.835 7  22182394.877    22182394.708    22182402.304
        40.300          42.100
 119772575.243 7  93329314.03046  22791955.035    22791954.1194   22791958.4134
        44.100          41.0004
 127305968.936 7                  24225528.494
        46.900
 124849194.507 8                  23757957.580
        48.100
 128111572.340 6  99827247.91143  24378814.364    24378813.4844   24378818.8604
        38.400          21.2004
 114395164.941 7  89139256.50247  21768612.034    21768611.2884   21768615.2934
        46.300          46.1004
 149094909.444 6                  28371837.796
        38.200
 118119117.005 7  91870455.425 6  22096624.136    22096623.731    22096630.941
        46.500          37.100
 118905394.141 7  92653515.84044  22626976.318    22626975.9524   22626987.8674
        43.500          28.5004
 124749215.188 8                  23738987.357
        48.600
 121279840.659 7  94328716.176 7  22656141.539    22656142.411    22656166.789
        45.800          42.800
 116512132.787 6  90620705.893 7  21788307.811    21788308.254    21788322.937
        36.200          44.700
 110193396.446 8  85705986.903 7  20577842.904    20577843.108    20577850.670
        48.200          47.100
 106504878.723 7                  19979995.502    19979994.832
        47.900
 144787730.436 6                  27552136.335
        38.700
 116530883.402 8  90635292.789 7  21807116.597    21807116.735    21807122.447
        49.200          44.300
 124391161.968 6  96928263.60343  23670846.725    23670845.3804   23670865.9954
        37.700          18.1004
 145501286.801 6                  27687938.501
        38.800
 130920699.787 6 101827338.532 6  24465664.735    24465665.323    24465694.023
        41.600          37.600
 114355174.496 8  88943000.571 7  21415032.489    21415032.716    21415039.182
        48.900          46.100
 128716971.293 7                  24494023.466
        47.700
 126288842.017 6  98407024.35343  24031924.664    24031924.2534   24031933.2464
        40.000          23.5004
 130380009.202 6 101594887.31843  24810488.367    24810487.1244   24810507.9464
        39.100          21.0004
 25  1  1 19  7  0.0000000  0 35G09E05E19R18G08S31S35G07E13E33S48S33
                                R19G30E04E31G16G27E21R01G04E06R07R20
                                R08R10E26R11G21E24R21R09E09G14G02
 111549468.739 7  86921663.83048  21227165.477    21227164.8834   21227170.7274
        47.400          48.2004
 139717787.653 6                  26587414.293
        38.500
 146637551.096 5                  27904267.461
        30.500
 130695626.091 6 101652356.911 6  24483641.447    24483641.895    24483657.338
        38.000          37.100
 106032873.942 8  82623160.25048  20177332.553    20177331.8164   20177336.0714
        50.000          50.0004
 198977483.707 7                  37864163.568
        46.000
 200900389.896 7                  38230092.781
        44.200
 109882062.257 8  85622434.09447  20909841.182    20909840.5254   20909841.3594
        48.600          47.9004
 148185267.998 6                  28198687.061
        37.900
 149176564.984 6                  28387355.465
        36.200
 412903218.348 5                  78572675.799
        33.100
 202122886.644 7                  38462697.898
        45.600
 118676019.349 6  92303784.606 6  22185163.151    22185164.426    22185172.461
        40.200          41.900
 119731148.573 7  93297033.52846  22784072.277    22784071.3744   22784075.2154
        43.700          41.3004
 127335430.557 7                  24231134.928
        47.100
 124838397.009 8                  23755902.831
        48.200
 128161828.729 6  99866408.60843  24388377.456    24388376.5934   24388382.4534
        38.500          21.5004
 114431387.496 7  89167481.85447  21775505.038    21775504.2924   21775508.1834
        46.500          46.1004
 149130513.473 6                  28378613.175
        37.700
 118088144.851 7  91846365.983 6  22090829.005    22090828.870    22090837.002
        45.200          37.800
 118958564.634 7  92694947.16344  22637094.212    22637093.8374   22637105.9914
        42.600          28.6004
 124758630.396 8                  23740779.068
        48.800
 121344861.674 7  94379287.643 7  22668288.877    22668288.491    22668312.338
        45.700          42.100
 116463644.661 6  90582993.192 7  21779240.222    21779240.107    21779254.956
        37.400          44.500
 110222560.722 8  85728670.182 7  20583288.895    20583289.478    20583297.366
        48.100          47.300
 106508342.572 7                  19980645.112    19980644.823
        47.900
 144758079.653 6                  27546494.313
        39.400
 116498176.719 8  90609854.276 7  21800995.402    21800995.956    21801001.806
        48.900          44.400
 124348032.402 6  96894656.35843  23662639.198    23662637.8754   23662658.6504
        37.500          18.7004
 145468415.243 6                  27681683.002
        38.400
 130856315.857 6 101777262.154 6  24453633.546    24453632.472    24453662.081
        40.500          38.200
 114387406.543 8  88968069.902 7  21421068.400    21421068.816    21421075.420
        48.900          46.300
 128706193.019 7                  24491972.260
        47.900
 126247808.584 6  98375050.51344  24024116.974    24024116.5814   24024124.9034
        40.600          24.0004
 130335802.087 6 101560440.27243  24802076.225    24802074.9784   24802095.6804
        38.600          21.5004
 25  1  1 19  7 15.0000000  0 35G09E05E19R18G08S31S35G07E13E33S48S33
                                R19G30E04E31G16G27E21R01G04E06R07R20
                                R08R10E26R11G21E24R21R09E09G14G02
 111587247.083 7  86951101.43548  21234354.767    21234354.1774   21234359.7554
        47.300          48.1004
 139677626.320 6                  26579771.806
        37.600
 146684767.088 5                  27913251.993
        31.700
 130745154.985 6 101690879.560 6  24492920.871    24492920.543    24492935.552
        38.900          38.400
 106035761.755 8  82625410.51448  20177882.163    20177881.4304   20177885.5624
        50.100          50.0004
 198977474.826 7                  37864159.847
        46.000
 200900358.388 7                  38230081.088
        44.100
 109860500.300 8  85605632.57147  20905738.170    20905737.5094   20905738.2614
        48.600          47.8004
 148184564.374 6                  28198552.984
        37.600
 149136644.393 6                  28379759.307
        36.400
 412903833.150 5                  78572715.431
        33.700
 202122897.796 7                  38462698.216
        45.300
 118691036.244 6  92315464.402 7  22187971.563    22187971.362    22187980.296
        39.700          42.000
 119689745.421 7  93264771.34646  22776193.264    22776192.3704   22776196.5384
        44.700          41.4004
 127364975.070 7                  24236756.999
        47.000
 124827650.574 8                  23753858.167
        48.100
 128212080.051 6  99905565.35643  24397939.886    24397939.0194   24397945.2284
        38.600          21.4004
 114467733.415 7  89195803.33647  21782421.300    21782420.5544   21782424.5894
        46.600          46.0004
 149166105.854 6                  28385386.594
        38.200
 118057347.769 7  91822412.714 6  22085067.932    22085067.757    22085075.817
        45.600          37.300
 119011790.821 7  92736421.87244  22647223.197    22647222.8134   22647234.8244
        43.400          28.6004
 124768150.452 8                  23742590.467
        48.800
 121409916.861 7  94429885.712 7  22680441.616    22680441.588    22680465.966
        44.800          42.300
 116415271.673 6  90545370.095 7  21770193.081    21770193.657    21770208.730
        36.200          44.700
 110251904.455 8  85751493.035 7  20588768.900    20588769.272    20588776.807
        48.300          47.300
 106511865.072 8                  19981306.005    19981305.563
        48.200
 144728487.564 6                  27540862.616
        39.200
 116465504.113 8  90584442.266 7  21794881.602    21794881.527    21794887.900
        48.600          44.200
 124304937.783 6  96861076.37143  23654438.455    23654437.1324   23654458.4094
        37.500          18.0004
 145435572.369 6                  27675433.211
        38.500
 130791896.420 7 101727158.202 6  24441594.015    24441595.316    24441624.348
        42.100          38.100
 114419670.700 8  88993164.231 7  21427110.172    21427110.466    21427117.446
        48.500          46.500
 128695517.296 8                  24489940.914
        48.000
 126206807.693 6  98343102.03743  24016313.380    24016312.9564   24016322.6144
        40.900          23.8004
 130291579.608 6 101525981.27243  24793660.815    24793659.5594   24793681.0834
        39.200          22.1004
 25  1  1 19  7 30.0000000  0 35G09E05E19R18G08S31S35G07E13E33S48S33
                                R19G30E04E31G16G27E21R01G04E06R07R20
                                R08R10E26R11G21E24R21R09E09G14G02
 111625139.210 7  86980627.71148  21241565.387    21241564.8114   21241570.4024
        47.300          48.2004
 139637506.860 6                  26572138.240
        38.400
 146731985.295 5                  27922237.085
        31.900
 130794796.461 6 101729489.896 6  24502219.262    24502220.176    24502233.970
        39.200          36.800
 106038812.244 8  82627787.54248  20178462.617    20178461.8844   20178466.0324
        49.900          50.1004
 198977469.565 7                  37864164.408
        45.900
 200900331.355 7                  38230085.953
        44.300
 109839001.987 8  85588880.64647  20901647.311    20901646.6634   20901647.2584
        48.400          47.9004
 148183969.597 6                  28198440.161
        36.700
 149096705.182 6                  28372158.855
        36.300
 412902851.952 5                  78572752.318
        33.500
 202122912.647 7                  38462702.567
        45.600
 118706252.506 6  92327299.271 7  22190816.268    22190816.352    22190824.767
        40.000          42.100
 119648368.825 7  93232529.86246  22768319.617    22768318.7324   22768322.7534
        44.500          41.3004
 127394605.175 7                  24242395.462
        46.900
 124816957.986 8                  23751823.216
        48.000
 128262329.037 6  99944720.29743  24407502.375    24407501.5044   24407507.5564
        38.300          21.3004
 114504205.162 7  89224222.85847  21789361.709    21789360.9544   21789364.9184
        46.700          46.0004
 149201689.472 6                  28392158.581
        38.100
 118026728.905 7  91798598.065 6  22079340.285    22079340.038    22079348.022
        45.900          37.600
 119065075.238 7  92777941.96244  22657362.522    22657362.1384   22657374.6444
        43.600          28.6004
 124777778.155 8                  23744422.692
        48.700
 121475008.511 7  94480512.128 7  22692601.642    22692601.749    22692626.383
        45.200          42.600
 116367017.740 6  90507839.568 7  21761170.213    21761169.100    21761184.754
        36.400          44.300
 110281430.216 8  85774457.469 7  20594282.869    20594283.261    20594290.832
        48.100          47.200
 106515448.865 7                  19981978.144    19981977.693
        47.800
 144698957.228 6                  27535242.706
        38.900
 116432868.403 8  90559059.001 7  21788774.386    21788774.497    21788780.258
        48.400          44.500
 124261881.632 6  96827526.34243  23646244.717    23646243.3854   23646265.1854
        37.700          18.5004
 145402761.136 6                  27669189.419
        38.500
 130727445.113 6 101677029.481 6  24429549.904    24429550.424    24429579.259
        41.600          37.300
 114451969.825 8  89018285.746 7  21433159.555    21433159.324    21433165.776
        48.800          46.000
 128684947.112 7                  24487929.308
        47.600
 126165842.189 6  98311181.13344  24008518.258    24008517.8114   24008526.7474
        40.100          24.0004
 130247344.948 6 101491512.78443  24785242.547    24785241.3224   24785263.2314
        39.400          21.3004
 25  1  1 19  7 45.0000000  0 35G09E05E19R18G08S31S35G07E13E33S48S33
                                R19G30E04E31G16G27E21R01G04E06R07R20
                                R08R10E26R11G21E24R21R09E09G14G02
 111663134.723 7  87010234.54448  21248795.790    21248795.2144   21248800.7794
        47.600          48.1004
 139597419.339 6                  26564508.845
        38.500
 146779195.274 5                  27931220.745
        31.000
 130844539.209 6 101768178.789 6  24511538.540    24511537.808    24511552.737
        37.500          37.100
 106042015.219 8  82630283.38848  20179072.322    20179071.5944   20179075.5054
        50.100          50.0004
 198977458.580 7                  37864159.570
        45.400
 200900297.970 7                  38230066.854
        43.800
 109817557.363 8  85572170.54147  20897566.509    20897565.8704   20897566.4874
        48.600          47.9004
 148183473.655 6                  28198345.556
        37.300
 149056737.506 6                  28364552.967
        36.000
 412903464.719 5                  78572785.707
        33.100
 202122921.709 7                  38462703.707
        45.400
 118721657.937 6  92339281.253 6  22193695.168    22193696.345    22193704.769
        39.600          41.800
 119607008.836 7  93200301.32346  22760448.913    22760448.0104   22760452.2244
        44.500          41.4004
 127424310.585 7                  24248048.218
        47.100
 124806309.057 8                  23749796.702
        48.200
 128312565.273 6  99983865.28043  24417061.646    24417060.7614   24417067.1654
        38.700          21.2004
 114540792.314 7  89252732.30447  21796324.002    21796323.2514   21796327.1864
        46.600          46.0004
 149237254.028 6                  28398925.951
        38.400
 117996278.368 7  91774914.345 6  22073643.606    22073643.696    22073652.002
        46.100          37.900
 119118407.406 7  92819499.24244  22667511.789    22667511.4054   22667523.7114
        43.000          28.6004
 124787503.349 8                  23746273.327
        48.800
 121540125.629 7  94531158.343 7  22704765.729    22704765.891    22704791.365
        44.400          42.400
 116318872.898 6  90470393.875 7  21752165.436    21752166.038    21752181.017
        36.500          44.400
 110311127.141 8  85797555.041 7  20599828.432    20599828.914    20599836.212
        48.100          47.300
 106519083.811 7                  19982659.950    19982659.691
        47.500
 144669478.777 6                  27529632.651
        38.800
 116400259.331 8  90533696.414 7  21782671.664    21782671.672    21782678.108
        48.200          44.500
 124218854.302 6  96793998.79543  23638057.173    23638055.8774   23638077.0314
        38.000          18.8004
 145369971.398 6                  27662949.341
        38.500
 130662951.842 7 101626868.066 6  24417498.669    24417499.750    24417527.744
        42.500          37.900
 114484293.396 8  89043426.289 7  21439212.227    21439212.581    21439219.284
        48.400          46.400
 128674472.457 8                  24485936.070
        48.100
 126124902.083 6  98279280.00444  24000727.681    24000727.2434   24000735.5944
        40.600          24.3004
 130203088.169 6 101457027.07443  24776821.202    24776819.9684   24776841.0734
        40.200          21.2004
 25  1  1 19  8  0.0000000  0 35G09E05E19R18G08S31S35G07E13E33S48S33
                                R19G30E04E31G16G27E21R01G04E06R07R20
                                R08R10E26R11G21E24R21R09E09G14G02
 111701244.232 7  87039930.21248  21256047.426    21256046.8454   21256052.8754
        47.900          48.3004
 139557374.953 6                  26556889.109
        38.600
 146826407.890 5                  27940205.606
        31.800
 130894394.599 6 101806955.357 6  24520879.021    24520878.294    24520892.029
        38.700          37.100
 106045381.551 8  82632906.52648  20179712.917    20179712.1934   20179716.0704
        50.100          50.2004
 198977452.516 7                  37864157.307
        46.100
 200900270.485 7                  38230069.524
        44.200
 109796177.709 8  85555511.03148  20893497.971    20893497.3284   20893498.0934
        48.900          48.1004
 148183087.727 6                  28198272.011
        37.100
 149016752.593 6                  28356944.008
        36.400
 412904082.728 5                  78572822.728
        33.800
 202122935.442 7                  38462705.384
        45.900
 118737263.243 6  92351418.700 7  22196613.594    22196613.815    22196621.997
        40.300          42.000
 119565676.618 7  93168094.41446  22752583.706    22752582.8034   22752586.9624
        44.700          41.6004
 127454102.144 7                  24253717.528
        46.800
 124795714.717 8                  23747780.820
        48.000
 128362799.799 6 100023008.94243  24426621.495    24426620.5744   24426626.3504
        38.100          21.4004
 114577505.503 7  89281339.96147  21803310.345    21803309.6124   21803313.5014
        46.400          46.1004
 149272810.529 6                  28405692.299
        38.100
 117966007.657 7  91751370.495 6  22067980.526    22067980.364    22067989.113
        45.000          37.700
 119171797.939 7  92861102.01344  22677672.204    22677671.8204   22677683.8554
        43.000          28.8004
 124797336.988 8                  23748144.687
        48.700
 121605279.131 7  94581832.846 6  22716937.913    22716937.446    22716962.187
        45.500          41.700
 116270848.551 6  90433041.862 7  21743184.960    21743184.686    21743200.000
        36.600          44.500
 110341006.121 7  85820794.184 7  20605408.147    20605408.399    20605416.189
        47.700          47.300
 106522781.160 7                  19983354.019    19983353.517
        47.800
 144640063.431 6                  27524034.882
        39.100
 116367688.113 8  90508363.271 7  21776576.960    21776576.958    21776582.714
        48.900          44.500
 124175867.362 6  96760502.71943  23629876.518    23629875.2044   23629896.6544
        36.900          19.1004
 145337214.109 6                  27656715.876
        38.800
 130598428.313 6 101576683.155 6  24405439.816    24405439.659    24405469.598
        40.000          38.400
 114516653.204 8  89068594.991 7  21445271.935    21445272.766    21445279.066
        49.100          46.300
 128664104.403 7                  24483963.153
        47.800
 126083998.298 6  98247407.19744  23992943.912    23992943.4794   23992951.3894
        39.600          24.2004
 130158820.709 6 101422533.04743  24768396.771    24768395.5514   24768417.1674
        39.400          21.5004
 25  1  1 19  8 15.0000000  0 35G09E05E19R18G08S31S35G07E13E33S48S33
                                R19G30E04E31G16G27E21R01G04E06R07R20
                                R08R10E26R11G21E24R21R09E09G14G02
 111739461.934 7  87069710.18548  21263320.206    21263319.6124   21263325.5264
        47.800          48.0004
 139517368.384 6                  26549275.920
        38.400
 146873617.464 5                  27949189.155
        31.100
 130944356.612 6 101845815.045 6  24530236.599    24530236.542    24530251.645
        36.900          36.700
 106048905.682 8  82635652.62148  20180383.348    20180382.6244   20180386.6484
        49.900          49.9004
 198977445.659 7                  37864157.321
        45.900
 200900241.217 7                  38230060.880
        44.100
 109774857.694 8  85538898.02347  20889441.052    20889440.4044   20889441.0344
        48.700          47.9004
 148182806.141 6                  28198218.350
        37.200
 148976745.122 6                  28349330.702
        36.300
 412904698.630 5                  78572849.741
        33.400
 202122949.318 7                  38462704.315
        45.400
 118753062.844 6  92363707.269 7  22199567.123    22199566.982    22199575.611
        39.600          42.100
 119524366.866 7  93135905.01246  22744722.696    22744721.7934   22744725.8714
        44.700          41.5004
 127483974.201 7                  24259401.939
        46.600
 124785169.357 7                  23745774.020
        47.900
 128413026.906 6 100062146.79743  24436178.758    24436177.8334   24436184.8414
        38.900          21.0004
 114614338.868 7  89310041.26947  21810319.558    21810318.8254   21810322.6714
        46.500          45.9004
 149308353.391 6                  28412456.093
        37.700
 117935911.370 7  91727962.293 6  22062350.575    22062350.663    22062358.539
        45.700          37.300
 119225241.000 7  92902745.70444  22687842.219    22687841.8084   22687854.1714
        42.900          28.6004
 124807273.529 8                  23750035.548
        48.500
 121670462.664 7  94632530.746 7  22729114.938    22729115.181    22729140.070
        44.600          42.300
 116222940.481 6  90395780.313 7  21734226.280    21734225.817    21734240.044
        36.600          44.000
 110371061.249 7  85844170.347 7  20611020.859    20611021.283    20611028.876
        47.900          47.300
 106526535.001 8                  19984057.987    19984057.453
        48.000
 144610705.977 6                  27518448.050
        38.100
 116335149.128 8  90483055.198 7  21770486.913    21770487.180    21770493.200
        48.000          44.300
 124132915.333 6  96727033.85043  23621702.907    23621701.5794   23621722.8814
        37.600          19.0004
 145304483.805 6                  27650487.020
        38.100
 130533869.268 7 101526470.586 6  24393375.351    24393376.522    24393405.308
        42.100          39.100
 114549043.228 8  89093787.205 7  21451337.995    21451338.186    21451344.540
        49.000          46.100
 128653837.529 7                  24482009.735
        47.700
 126043125.448 6  98215558.50043  23985166.303    23985165.8654   23985173.1984
        39.700          23.9004
 130114537.466 6 101388026.69943  24759969.769    24759968.5404   24759989.8264
        40.000          21.8004
 25  1  1 19  8 30.0000000  0 35G09E05E19R18G08S31S35G07E13E33S48S33
                                R19G30E04E31G16G27E21R01G04E06R07R20
                                R08R10E26R11G21E24R21R09E09G14G02
 111777785.115 7  87099572.34947  21270612.837    21270612.2384   21270618.2464
        47.400          47.9004
 139477397.515 6                  26541669.715
        38.600
 146920821.481 5                  27958171.799
        31.500
 130994421.668 6 101884754.595 6  24539616.107    24539616.504    24539629.858
        38.300          36.900
 106052585.140 8  82638519.75248  20181083.560    20181082.8454   20181086.8284
        50.200          49.8004
 198977436.478 7                  37864155.586
        46.200
 200900209.767 7                  38230056.364
        44.500
 109753595.127 8  85522329.79047  20885394.784    20885394.1364   20885394.9004
        48.600          47.8004
 148182626.689 6                  28198183.634
        36.800
 148936712.993 6                  28341712.824
        36.300
 412903711.644 5                  78572885.219
        33.700
 202122959.885 7                  38462709.650
        45.300
 118769054.133 6  92376144.938 7  22202556.452    22202556.293    22202565.133
        40.100          42.000
 119483077.351 7  93103731.38346  22736864.904    22736864.0104   22736868.6764
        44.400          41.3004
 127513924.206 7                  24265101.271
        46.800
 124774670.557 8                  23743776.024
        48.200
 128463244.001 6 100101276.86443  24445734.403    24445733.4694   24445741.0604
        38.500          21.0004
 114651289.691 7  89338834.09747  21817350.922    21817350.1944   21817354.1594
        46.800          45.6004
 149343880.223 6                  28419216.696
        38.400
 117905987.600 7  91704688.276 6  22056752.702    22056752.764    22056760.935
        45.400          37.700
 119278733.859 7  92944428.19044  22698021.974    22698021.5454   22698033.6414
        42.600          28.6004
 124817310.571 8                  23751945.484
        48.600
 121735673.489 7  94683249.810 7  22741297.677    22741298.117    22741322.209
        45.900          42.200
 116175146.376 6  90358607.399 7  21725287.803    21725287.925    21725302.232
        36.500          43.900
 110401289.489 8  85867681.138 7  20616665.748    20616666.107    20616673.893
        48.100          47.200
 106530342.850 7                  19984772.382    19984771.755
        47.600
 144581404.259 6                  27512872.097
        38.900
 116302639.870 8  90457770.230 7  21764403.444    21764403.542    21764409.763
        48.300          44.500
 124089996.330 6  96693590.71943  23613535.260    23613533.9594   23613554.9844
        38.000          18.9004
 145271778.106 6                  27644263.091
        38.600
 130469272.821 7 101476228.933 6  24381304.202    24381304.984    24381334.136
        42.300          38.800
 114581461.067 8  89119001.045 7  21457408.889    21457409.004    21457415.988
        49.100          46.500
 128643669.569 8                  24480074.620
        48.000
 126002281.090 6  98183731.97443  23977393.384    23977392.9694   23977400.7404
        40.400          23.8004
 130070236.449 6 101353506.52043  24751539.809    24751538.5664   24751559.9234
        39.500          21.7004
 25  1  1 19  8 45.0000000  0 35G09E05E19R18G08S31S35G07E13E33S48S33
                                R19G30E04E31G16G27E21R01G04E06R07R20
                                R08R10E26R11G21E24R21R09E09G14G02
 111816220.004 7  87129521.55647  21277926.580    21277925.9774   21277932.2514
        47.700          47.7004
 139437469.062 6                  26534071.522
        37.800
 146968026.272 5                  27967155.084
        31.800
 131044596.520 6 101923779.673 5  24549015.587    24549015.962    24549029.325
        37.400          35.800
 106056426.387 8  82641512.95448  20181814.279    20181813.5644   20181817.7644
        50.300          49.7004
 198977430.232 7                  37864150.273
        46.000
 200900182.195 7                  38230058.904
        44.400
 109732396.827 8  85505811.63847  20881360.952    20881360.3184   20881361.0094
        48.600          47.7004
 148182555.831 6                  28198170.345
        37.200
 148896663.010 6                  28334091.614
        37.500
 412904328.609 5                  78572912.415
        33.200
 202122973.431 7                  38462712.292
        45.400
 118785243.973 6  92388737.037 7  22205583.349    22205583.174    22205591.522
        39.500          42.300
 119441814.808 7  93071578.77346  22729013.451    22729012.5664   22729016.6504
        44.600          41.3004
 127543958.555 7                  24270816.611
        47.100
 124764224.792 8                  23741788.475
        48.300
 128513457.550 6 100140404.17543  24455290.606    24455289.6904   24455296.0684
        39.300          21.1004
 114688364.187 7  89367723.29947  21824406.000    21824405.2634   21824409.2624
        46.800          45.5004
 149379397.580 6                  28425975.260
        37.900
 117876243.190 7  91681553.749 6  22051188.349    22051187.937    22051196.600
        45.000          37.400
 119332282.706 7  92986154.31544  22708212.136    22708211.7254   22708223.7544
        43.400          28.1004
 124827454.603 8                  23753875.911
        49.000
 121800917.460 7  94733994.714 7  22753484.729    22753485.082    22753510.346
        43.400          42.100
 116127473.372 6  90321528.678 7  21716372.820    21716373.155    21716387.301
        36.900          44.100
 110431697.278 8  85891331.588 7  20622344.592    20622344.773    20622352.393
        48.400          47.300
 106534211.686 7                  19985497.956    19985497.808
        47.900
 144552165.144 6                  27507307.480
        39.200
 116270167.047 8  90432513.620 7  21758326.622    21758327.081    21758332.461
        48.500          44.300
 124047117.410 6  96660178.85343  23605376.162    23605374.8214   23605394.8324
        37.500          18.7004
 145239103.504 6                  27638045.298
        39.100
 130404646.045 6 101425963.666 6  24369226.366    24369227.140    24369256.104
        41.300          38.100
 114613913.246 8  89144241.607 7  21463485.929    21463486.382    21463493.102
        49.200          46.300
 128633607.167 8                  24478159.847
        48.400
 125961471.914 6  98151932.90044  23969627.832    23969627.4034   23969634.9854
        40.200          24.1004
 130025924.423 6 101318977.77443  24743107.332    24743106.0854   24743126.9404
        40.200          21.1004
 25  1  1 19  9  0.0000000  0 35G09E05E19R18G08S31S35G07E13E33S48S33
                                R19G30E04E31G16G27E21R01G04E06R07R20
                                R08R10E26R11G21E24R21R09E09G14G02
 111854760.896 7  87159553.36447  21285261.164    21285260.5614   21285266.3874
        47.500          47.7004
 139397577.860 6                  26526480.662
        38.200
 147015226.247 5                  27976136.800
        31.100
 131094874.496 6 101962884.550 6  24558435.127    24558435.636    24558448.454
        40.900          36.300
 106060423.946 8  82644627.95148  20182574.872    20182574.1534   20182578.4544
        50.000          49.7004
 198977422.629 7                  37864150.864
        46.000
 200900152.747 7                  38230044.635
        44.200
 109711257.550 8  85489339.46947  20877338.318    20877337.6844   20877338.3474
        48.700          47.9004
 148182588.252 6                  28198176.533
        37.600
 148856590.031 6                  28326465.786
        37.000
 412904943.505 5                  78572954.645
        32.500
 202122985.911 7                  38462717.041
        45.400
 118801626.460 6  92401478.962 7  22208645.081    22208645.677    22208653.618
        39.900          42.200
 119400574.041 7  93039443.12446  22721165.777    22721164.8884   22721168.8764
        44.600          41.5004
 127574071.712 7                  24276547.012
        47.000
 124753826.614 8                  23739809.672
        48.400
 128563661.984 6 100179524.39343  24464844.616    24464843.7004   24464849.6634
        38.700          20.9004
 114725556.607 7  89396704.38447  21831483.403    21831482.6754   21831486.8924
        46.400          45.5004
 149414899.983 6                  28432731.559
        37.600
 117846672.980 7  91658554.690 6  22045657.671    22045656.772    22045664.537
        46.000          37.200
 119385881.802 7  93027919.59644  22718411.463    22718411.0394   22718423.9004
        43.600          28.6004
 124837700.235 8                  23755825.378
        49.000
 121866188.631 7  94784760.743 6  22765678.242    22765678.222    22765704.116
        43.200          41.700
 116079916.933 6  90284540.598 7  21707479.085    21707479.102    21707493.347
        36.900          44.200
 110462278.664 8  85915117.048 7  20628054.952    20628055.442    20628063.200
        48.100          47.200
 106538135.577 7                  19986234.021    19986233.739
        47.700
 144522983.432 6                  27501753.949
        39.500
 116237725.156 8  90407281.058 7  21752255.740    21752256.093    21752262.149
        48.900          44.500
 124004273.603 6  96626794.32343  23597222.803    23597221.4894   23597241.8524
        38.200          18.5004
 145206454.715 6                  27631831.784
        38.900
 130339983.973 7 101375670.918 6  24357144.363    24357145.044    24357173.597
        42.900          38.400
 114646394.295 8  89169504.619 7  21469568.573    21469569.010    21469575.855
        48.600          46.500
 128623645.040 8                  24476264.062
        48.300
 125920692.487 6  98120156.96644  23961867.038    23961866.6144   23961874.3904
        40.600          24.0004
 129981596.345 6 101284436.50243  24734671.387    24734670.1274   24734691.5594
        38.500          21.2004
 25  1  1 19  9 15.0000000  0 35G09E05E19R18G08S31S35G07E13E33S48S33
                                R19G30E04E31G16G27E21R01G04E06R07R20
                                R08R10E26R11G21E24R21R09E09G14G02
 111893406.740 7  87189666.94947  21292615.381    21292614.7824   21292620.4854
        46.800          47.8004
 139357723.410 6                  26518896.511
        38.300
 147062420.602 5                  27985118.085
        31.600
 131145255.279 6 102002069.678 6  24567872.371    24567872.342    24567886.471
        39.200          37.900
 106064576.981 8  82647864.10048  20183365.421    20183364.7064   20183368.7204
        50.000          49.9004
 198977412.194 7                  37864153.372
        46.000
 200900121.041 7                  38230039.739
        44.100
 109690176.801 8  85472912.91748  20873327.038    20873326.4084   20873326.8004
        48.500          48.0004
 148182723.216 6                  28198203.379
        38.100
 148816493.472 6                  28318835.583
        37.000
 412903955.351 5                  78572993.271
        33.100
 202122996.309 7                  38462717.609
        45.300
 118818200.655 6  92414370.007 7  22211744.173    22211744.015    22211752.171
        40.100          42.300
 119359354.514 7  93007324.02546  22713321.688    22713320.7944   22713325.1724
        44.700          41.7004
 127604262.805 7                  24282292.353
        46.700
 124743475.198 8                  23737840.208
        48.100
 128613856.497 6 100218636.86543  24474396.555    24474395.6394   24474401.6574
        37.400          20.6004
 114762865.868 7  89425776.51747  21838583.253    21838582.5254   21838586.6354
        46.400          45.6004
 149450386.703 6                  28439484.338
        37.900
 117817276.456 7  91635690.752 6  22040157.331    22040157.119    22040165.439
        45.000          37.900
 119439530.083 7  93069723.19344  22728620.665    22728620.2454   22728632.9634
        43.200          28.6004
 124848046.693 8                  23757794.697
        48.600
 121931486.134 7  94835547.222 7  22777878.284    22777878.185    22777903.436
        45.200          42.300
 116032476.571 6  90247642.808 7  21698607.266    21698607.246    21698621.469
        36.700          44.200
 110493032.514 7  85939036.690 7  20633797.889    20633798.382    20633806.293
        47.600          47.200
 106542113.869 7                  19986980.541    19986979.936
        47.300
 144493858.604 6                  27496211.327
        38.300
 116205313.350 8  90382071.906 7  21746190.027    21746190.436    21746196.518
        48.700          44.800
 123961464.664 6  96593436.97243  23589076.478    23589075.1464   23589095.1554
        36.800          18.4004
 145173830.980 6                  27625623.902
        39.500
 130275286.074 6 101325350.367 6  24345053.354    24345053.580    24345083.210
        41.700          38.900
 114678903.716 8  89194789.694 7  21475656.714    21475657.092    21475664.059
        48.800          46.500
 128613782.542 8                  24474387.271
        48.100
 125879942.134 6  98088403.68544  23954112.817    23954112.4114   23954119.4924
        40.200          24.0004
 129937251.930 6 101249882.52843  24726234.257    24726233.0054   24726253.9784
        38.900          21.3004
 25  1  1 19  9 30.0000000  0 35G09E05E19R18G08S31S35G07E13E33S48S33
                                R19G30E04E31G16G27E21R01G04E06R07R20
                                R08R10E26R11G21E24R21R09E09G14G02
 111932161.087 7  87219865.08747  21299989.897    21299989.2984   21299995.2374
        47.700          47.9004
 139317909.781 6                  26511320.588
        38.200
 147109612.812 5                  27994097.787
        31.600
 131195741.285 6 102041336.240 6  24577330.509    24577329.256    24577344.789
        36.900          37.700
 106068889.294 8  82651224.36348  20184185.821    20184185.0934   20184189.2944
        49.900          49.9004
 198977403.517 7                  37864148.605
        45.900
 200900090.518 7                  38230035.195
        44.300
 109669158.636 8  85456535.12648  20869327.077    20869326.4474   20869327.1894
        48.700          48.0004
 148182964.638 6                  28198249.001
        38.200
 148776377.531 6                  28311201.347
        36.900
 412904569.984 5                  78573022.323
        32.600
 202123007.277 7                  38462719.098
        45.500
 118834970.428 6  92427413.172 7  22214879.693    22214878.582    22214887.422
        39.900          42.400
 119318160.275 7  92975224.64646  22705482.442    22705481.5394   22705486.1324
        44.600          41.7004
 127634535.543 7                  24288053.009
        46.800
 124733174.394 8                  23735879.749
        48.100
 128664044.779 6 100257744.50443  24483946.769    24483945.8624   24483952.3054
        38.400          20.4004
 114800295.489 7  89454942.43647  21845705.788    21845705.0554   21845709.2374
        46.500          45.7004
 149485861.536 6                  28446235.215
        37.800
 117788057.966 7  91612965.268 6  22034691.527    22034691.433    22034699.949
        45.400          37.500
 119493231.052 7  93111567.84744  22738840.055    22738839.6354   22738852.3164
        43.000          28.4004
 124858497.815 8                  23759783.149
        48.700
 121996812.830 7  94886356.467 7  22790082.352    22790082.048    22790106.614
        45.000          42.100
 115985156.804 6  90210838.802 7  21689757.363    21689757.955    21689772.678
        37.400          44.300
 110523962.382 8  85963093.190 7  20639574.029    20639574.623    20639582.274
        48.700          47.400
 106546150.953 7                  19987737.931    19987737.532
        47.800
 144464794.786 6                  27490680.343
        38.700
 116172935.640 8  90356889.287 7  21740130.821    21740131.293    21740137.304
        48.800          44.600
 123918694.926 6  96560110.17343  23580937.715    23580936.4144   23580956.3284
        37.800          19.4004
 145141236.165 6                  27619420.689
        39.200
 130210557.129 6 101275005.624 6  24332956.803    24332957.358    24332985.964
        41.700          39.000
 114711445.162 8  89220099.691 7  21481750.342    21481750.738    21481757.704
        48.800          46.200
 128604023.666 8                  24472530.384
        48.300
 125839224.841 6  98056676.18744  23946364.168    23946363.7534   23946371.1494
        41.600          24.6004
 129892895.410 6 101215319.11743  24717793.166    24717791.9324   24717813.2634
        40.100          21.9004
 25  1  1 19  9 45.0000000  0 35G09E05E19R18G08S31S35G07E13E33S48S33
                                R19G30E04E31G16G27E21R01G04E06R07R20
                                R08R10E26R11G21E24R21R09E09G14G02
 111971023.823 7  87250147.67647  21307385.106    21307384.4944   21307390.6524
        47.700          47.8004
 139278137.435 6                  26503752.163
        38.600
 147156803.002 5                  28003078.736
        30.800
 131246333.089 6 102080685.130 5  24586807.875    24586807.401    24586821.919
        38.100          35.700
 106073361.002 8  82654708.83348  20185036.774    20185036.0504   20185040.1994
        50.200          49.8004
 198977396.109 7                  37864148.042
        46.000
 200900061.641 7                  38230023.668
        44.100
 109648203.434 8  85440206.39748  20865339.452    20865338.8224   20865339.5434
        48.700          48.0004
 148183312.737 6                  28198314.764
        37.900
 148736242.654 6                  28303564.462
        37.300
 412905185.415 5                  78573060.426
        33.400
 202123020.619 7                  38462722.125
        45.400
 118851935.620 6  92440608.291 7  22218050.594    22218050.456    22218058.532
        40.200          42.300
 119276991.735 7  92943145.28346  22697648.597    22697647.6994   22697651.9024
        45.000          41.7004
 127664889.965 7                  24293829.259
        46.800
 124722924.325 8                  23733929.147
        48.200
 128714227.041 6 100296847.42243  24493495.957    24493495.0144   24493501.9064
        38.600          20.3004
 114837845.411 7  89484202.09647  21852851.403    21852850.6704   21852854.7784
        46.400          45.6004
 149521324.675 6                  28452983.555
        37.900
 117759018.184 7  91590378.787 6  22029259.346    22029259.775    22029267.594
        46.300          37.500
 119546984.615 7  93153453.48944  22749069.542    22749069.1184   22749081.4304
        43.300          28.3004
 124869053.799 8                  23761791.957
        48.700
 122062168.454 7  94937188.192 7  22802290.332    22802290.141    22802316.769
        44.200          42.500
 115937958.703 6  90174129.422 7  21680932.231    21680931.374    21680945.673
        36.700          44.100
 110555068.084 8  85987286.459 7  20645382.849    20645383.534    20645391.015
        48.100          47.700
 106550246.528 8                  19988506.327    19988505.985
        48.300
 144435792.544 6                  27485161.307
        39.000
 116140592.233 8  90331733.319 7  21734078.870    21734079.287    21734084.547
        49.300          44.600
 123875964.912 6  96526814.33743  23572805.566    23572804.2654   23572824.7054
        38.300          19.4004
 145108670.474 6                  27613224.004
        38.600
 130145797.586 7 101224637.054 6  24320855.994    24320857.751    24320885.168
        43.000          39.100
 114744018.993 8  89245434.854 7  21487850.222    21487850.885    21487857.762
        48.700          46.200
 128594368.718 8                  24470692.763
        48.300
 125798540.751 6  98024974.52444  23938621.613    23938621.1984   23938628.9374
        41.400          24.7004
 129848527.309 6 101180746.67543  24709350.391    24709349.1484   24709370.2944
        40.500          22.5004
 25  1  1 19 10  0.0000000  0 35G09E05E19R18G08S31S35G07E13E33S48S33
                                R19G30E04E31G16G27E21R01G04E06R07R20
                                R08R10E26R11G21E24R21R09E09G14G02
 112009991.092 7  87280511.72147  21314800.585    21314799.9734   21314805.9894
        47.500          47.8004
 139238403.011 6                  26496190.415
        38.200
 147203987.460 5                  28012057.752
        30.800
 131297026.288 6 102120112.833 6  24596305.421    24596306.299    24596319.681
        40.500          38.000
 106077988.478 8  82658314.67348  20185917.543    20185916.8284   20185920.7644
        49.900          49.8004
 198977386.964 7                  37864145.296
        46.000
 200900031.022 7                  38230024.110
        44.200
 109627307.942 8  85423924.19648  20861363.291    20861362.6574   20861363.2514
        48.400          48.0004
 148183763.943 6                  28198400.668
        37.100
 148696085.482 6                  28295922.527
        36.800
 412905797.547 5                  78573095.430
        33.800
 202123031.699 7                  38462720.949
        45.600
 118869092.508 6  92453952.544 7  22221257.671    22221257.589    22221265.906
        39.600          42.300
 119235845.495 7  92911083.29346  22689818.498    22689817.6004   22689822.0384
        44.100          41.8004
 127695322.408 7                  24299620.171
        46.500
 124712721.376 8                  23731987.501
        48.100
 128764399.826 6 100335942.96643  24503043.770    24503042.8234   24503049.9394
        38.000          20.9004
 114875511.669 7  89513552.41047  21860019.287    21860018.5594   21860022.4894
        46.500          45.5004
 149556772.465 6                  28459729.161
        37.300
 117730153.685 7  91567928.635 6  22023859.534    22023859.495    22023867.814
        45.800          37.900
 119600786.799 7  93195377.02044  22759307.499    22759307.0754   22759319.6434
        42.600          28.2004
 124879711.018 8                  23763819.833
        48.700
 122127548.862 7  94988039.183 6  22814504.985    22814504.928    22814530.053
        45.200          41.800
 115890879.209 6  90137512.292 7  21672126.844    21672127.760    21672141.549
        37.100          44.200
 110586345.552 8  86011613.317 7  20651223.808    20651224.197    20651232.206
        48.000          47.400
 106554396.718 8                  19989284.817    19989284.320
        48.000
 144406848.503 6                  27479652.894
        38.400
 116108279.411 8  90306601.158 7  21728031.315    21728031.570    21728037.478
        48.400          44.600
 123833271.706 6  96493547.17943  23564681.219    23564679.9184   23564700.2774
        38.400          19.2004
 145076130.375 6                  27607031.757
        38.600
 130081004.316 6 101174242.298 6  24308746.506    24308746.737    24308775.531
        40.600          38.300
 114776621.372 8  89270792.223 7  21493955.798    21493956.179    21493963.257
        49.100          45.900
 128584814.255 8                  24468874.951
        48.300
 125757886.390 6  97993296.01344  23930885.956    23930885.5324   23930892.1094
        39.700          24.2004
 129804144.461 6 101146162.76443  24700903.608    24700902.3434   24700924.8264
        39.400          22.2004
 25  1  1 19 10 15.0000000  0 35G09E05E19R18G08S31S35G07E13E33S48S33
                                R19G30E04E31G16G27E21R01G04E06R07R20
                                R08R10E26R11G21E24R21R09E09G14G02
 112049064.124 7  87310958.18047  21322235.860    21322235.2484   21322241.3984
        47.100          47.7004
 139198708.266 6                  26488636.738
        37.000
 147251167.493 5                  28021035.755
        31.300
 131347822.624 6 102159620.880 6  24605820.331    24605821.147    24605835.392
        38.300          39.300
 106082773.155 8  82662043.01348  20186827.871    20186827.1434   20186831.2094
        49.800          49.7004
 198977377.379 7                  37864139.126
        45.800
 200899999.940 7                  38230014.657
        44.300
 109606473.950 8  85407689.92448  20857398.768    20857398.1344   20857398.6844
        48.800          48.0004
 148184319.861 6                  28198506.557
        37.600
 148655907.943 6                  28288276.948
        36.500
 412904810.968 5                  78573127.840
        33.300
 202123041.674 7                  38462725.484
        45.200
 118886442.580 6  92467447.035 7  22224501.008    22224501.224    22224509.697
        39.900          42.400
 119194723.352 7  92879040.08846  22681993.544    22681992.6464   22681996.7304
        45.400          41.8004
 127725834.259 7                  24305426.653
        46.900
 124702567.064 8                  23730055.400
        48.200
 128814564.009 6 100375031.79643  24512590.175    24512589.2194   24512595.9144
        38.100          20.2004
 114913295.509 7  89542994.35547  21867209.258    21867208.5164   21867212.5634
        46.300          45.4004
 149592206.494 6                  28466472.895
        37.400
 117701466.214 7  91545616.178 6  22018492.070    22018492.238    22018500.834
        44.900          37.800
 119654638.874 7  93237339.41744  22769555.520    22769555.1004   22769567.8294
        43.200          28.2004
 124890471.017 8                  23765867.665
        48.600
 122192955.257 7  95038910.401 7  22826723.343    22826723.400    22826749.424
        44.700          42.200
 115843920.089 6  90100988.779 7  21663345.569    21663345.153    21663360.105
        36.600          44.300
 110617795.975 7  86036074.721 7  20657097.090    20657097.544    20657105.405
        47.800          47.400
 106558603.764 7                  19990074.079    19990073.369
        47.800
 144377964.472 6                  27474156.809
        38.800
 116075998.951 8  90281494.172 7  21721990.463    21721990.448    21721996.799
        48.500          44.800
 123790617.130 6  96460310.13043  23556564.971    23556563.6754   23556583.0564
        38.100          18.7004
 145043617.479 6                  27600844.554
        39.200
 130016179.460 7 101123822.983 6  24296633.713    24296634.345    24296662.335
        42.500          39.100
 114809254.039 8  89296173.159 7  21500067.189    21500067.698    21500074.123
        49.000          46.000
 128575361.929 8                  24467076.242
        48.100
 125717263.467 6  97961642.04344  23923155.072    23923154.6614   23923161.5684
        41.300          24.2004
 129759748.758 6 101111568.82443  24692455.540    24692454.3064   24692476.1514
        38.400          21.7004
 25  1  1 19 10 30.0000000  0 35G09E05E19R18G08S31S35G07E13E33S48S33
                                R19G30E04E31G16G27E21R01G04E06R07R20
                                R08R10E26R11G21E24R21R09E09G14G02
 112088243.155 7  87341487.24047  21329691.278    21329690.6794   21329696.9174
        47.500          47.5004
 139159053.985 6                  26481091.246
        37.800
 147298343.616 5                  28030013.847
        30.200
 131398721.641 6 102199208.696 6  24615356.442    24615356.114    24615370.506
        37.000          36.200
 106087715.530 8  82665894.23648  20187768.247    20187767.5234   20187771.6904
        49.900          49.6004
 198977367.688 7                  37864137.324
        45.800
 200899968.925 7                  38230012.184
        44.400
 109585701.934 8  85391503.95448  20853445.642    20853445.0124   20853445.8904
        48.600          48.0004
 148184981.147 6                  28198632.614
        37.400
 148615710.738 6                  28280627.338
        36.600
 412905424.196 5                  78573148.400
        32.700
 202123053.256 7                  38462725.654
        45.200
 118903986.518 6  92481092.312 7  22227780.481    22227780.788    22227788.809
        39.400          42.200
 119153626.027 7  92847016.21646  22674172.890    22674171.9654   22674176.2104
        44.900          41.8004
 127756425.938 7                  24311248.111
        46.900
 124692461.864 8                  23728132.477
        48.000
 128864720.218 6 100414114.41443  24522134.182    24522133.1944   24522140.2214
        39.000          20.3004
 114951197.129 7  89572528.08047  21874421.472    21874420.7304   21874425.0404
        46.300          45.3004
 149627627.292 6                  28473213.746
        38.000
 117672956.721 7  91523442.145 6  22013159.833    22013158.961    22013167.213
        44.800          37.100
 119708541.030 7  93279340.83244  22779812.578    22779812.1404   22779825.3244
        42.900          28.1004
 124901334.333 8                  23767934.652
        48.600
 122258387.644 7  95089801.843 7  22838947.527    22838947.859    22838972.966
        45.200          42.400
 115797082.910 6  90064560.103 7  21654586.412    21654587.105    21654600.411
        37.800          44.100
 110649419.547 7  86060670.775 7  20663002.502    20663003.176    20663010.599
        47.500          47.200
 106562867.649 7                  19990873.550    19990873.208
        47.700
 144349141.301 6                  27468671.660
        39.000
 116043751.247 8  90256412.658 7  21715956.198    21715956.078    21715961.750
        48.700          44.700
 123748002.203 6  96427103.98943  23548455.141    23548453.8454   23548473.7554
        37.700          19.1004
 145011132.283 6                  27594662.364
        39.500
 129951323.983 6 101073379.867 6  24284513.804    24284512.988    24284541.912
        41.000          38.400
 114841917.455 8  89321578.010 7  21506184.099    21506184.207    21506191.312
        48.800          46.100
 128566012.393 8                  24465296.893
        48.200
 125676672.483 6  97930012.96344  23915430.364    23915429.9674   23915437.1934
        41.100          24.5004
 129715341.175 6 101076965.62843  24684005.741    24684004.5124   24684025.2634
        39.400          20.6004
 25  1  1 19 10 45.0000000  0 35G09E05E19R18G08S31S35G07E13E33S48S33
                                R19G30E04E31G16G27E21R01G04E06R07R20
                                R08R10E26R11G21E24R21R09E09G14G02
 112127531.617 7  87372101.56947  21337168.047    21337167.4574   21337173.2954
        47.200          47.5004
 139119444.133 6                  26473553.675
        38.600
 147345519.260 5                  28038991.422
        31.500
 131449727.075 6 102238879.309 6  24624910.803    24624911.425    24624926.189
        37.200          36.900
 106092819.223 8  82669871.15648  20188739.506    20188738.7824   20188742.8504
        50.100          49.6004
 198977362.132 7                  37864138.517
        46.000
 200899942.307 7                  38230007.842
        44.400
 109564995.985 8  85375369.45248  20849505.796    20849505.1794   20849505.6674
        48.600          48.1004
 148185751.500 6                  28198779.392
        38.700
 148575497.920 6                  28272975.068
        37.400
 412906042.004 5                  78573196.886
        33.600
 202123068.109 7                  38462732.173
        45.600
 118921727.786 6  92494891.037 7  22231097.518    22231097.086    22231105.756
        39.300          42.300
 119112557.464 7  92815014.75946  22666357.354    22666356.4114   22666361.0084
        45.000          41.9004
 127787100.998 7                  24317085.261
        46.900
 124682409.453 8                  23726219.305
        48.400
 128914872.084 6 100453193.65043  24531678.381    24531677.4254   24531683.9154
        38.100          20.7004
 114989219.936 7  89602156.22947  21881657.071    21881656.3254   21881660.5904
        46.600          45.4004
 149663038.546 6                  28479951.979
        37.700
 117644629.380 7  91501409.756 6  22007860.951    22007859.632    22007868.586
        44.600          37.300
 119762496.677 7  93321383.93744  22790080.061    22790079.6014   22790092.8134
        43.100          28.1004
 124912304.653 8                  23770022.358
        48.800
 122323849.077 7  95140715.876 7  22851176.816    22851177.112    22851202.689
        45.100          42.600
 115750371.590 6  90028229.321 7  21645851.104    21645850.811    21645865.351
        36.800          44.400
 110681219.666 8  86085404.146 7  20668940.606    20668941.763    20668949.227
        48.400          47.200
 106567192.091 7                  19991684.853    19991684.682
        47.900
 144320382.930 6                  27463198.836
        38.800
 116011540.209 8  90231359.649 7  21709928.331    21709928.412    21709934.226
        48.800          44.800
 123705431.118 6  96393932.01943  23540353.293    23540351.9884   23540371.7254
        37.900          18.9004
 144978678.641 6                  27588486.034
        39.600
 129886442.180 7 101022916.262 6  24272388.419    24272388.752    24272417.761
        42.400          39.100
 114874615.327 8  89347009.656 7  21512306.978    21512307.311    21512314.653
        48.000          46.200
 128556769.497 8                  24463538.045
        48.500
 125636117.241 6  97898411.72644  23907713.208    23907712.7974   23907719.6834
        41.000          24.3004
 129670925.762 6 101042356.34043  24675553.102    24675551.8644   24675572.7784
        39.400          21.6004
 25  1  1 19 11  0.0000000  0 35G09E05E19R18G08S31S35G07E13E33S48S33
                                R19G30E04E31G16G27E21R01G04E06R07R20
                                R08R10E26R11G21E24R21R09E09G14G02
 112166923.401 8  87402796.42147  21344664.160    21344663.5664   21344669.3804
        48.100          47.3004
 139079873.158 6                  26466023.484
        38.100
 147392688.481 5                  28047966.777
        31.800
 131500832.687 6 102278628.035 6  24634485.540    24634485.451    24634499.562
        41.200          37.700
 106098078.384 8  82673969.23048  20189740.233    20189739.5054   20189743.5954
        50.400          49.5004
 198977355.153 7                  37864140.726
        46.200
 200899913.749 7                  38230001.573
        44.500
 109544350.878 8  85359282.36248  20845577.290    20845576.6824   20845577.0294
        49.200          48.0004
 148186625.164 6                  28198945.515
        38.400
 148535263.945 6                  28265318.711
        37.100
 412905057.024 5                  78573222.746
        33.800
 202123081.146 7                  38462734.588
        45.400
 118939660.493 6  92508838.748 7  22234449.787    22234449.502    22234457.743
        39.700          42.400
 119071512.085 7  92783031.37846  22658547.078    22658546.1534   22658550.2954
        45.300          41.7004
 127817853.569 7                  24322937.334
        46.800
 124672404.019 8                  23724315.316
        48.500
 128965013.669 6 100492264.87143  24541219.825    24541218.8694   24541225.9154
        39.000          20.5004
 115027357.796 7  89631874.03547  21888914.377    21888913.6314   21888917.9854
        46.600          45.1004
 149698434.507 6                  28486687.994
        38.700
 117616478.660 7  91479514.799 6  22002594.560    22002593.934    22002602.182
        45.800          37.800
 119816499.714 7  93363463.97944  22800357.269    22800356.8274   22800369.7554
        42.700          27.9004
 124923376.167 8                  23772129.197
        48.900
 122389333.371 7  95191647.674 7  22863408.917    22863409.463    22863435.774
        44.000          42.600
 115703781.100 6  89991992.521 7  21637137.395    21637138.539    21637152.685
        37.500          44.700
 110713190.085 7  86110270.001 7  20674911.595    20674911.768    20674919.643
        47.300          47.300
 106571571.564 7                  19992506.913    19992506.365
        47.900
 144291683.890 6                  27457737.465
        39.000
 115979359.847 8  90206330.519 7  21703906.124    21703906.607    21703912.243
        49.000          45.000
 123662898.445 6  96360790.00043  23532259.945    23532258.6534   23532277.8254
        38.400          18.9004
 144946250.641 6                  27582315.287
        39.700
 129821528.758 7 100972428.062 6  24260258.161    24260258.881    24260287.058
        43.100          39.200
 114907342.055 8  89372463.747 7  21518435.697    21518436.010    21518442.958
        48.100          45.900
 128547627.569 8                  24461798.446
        48.700
 125595591.920 6  97866833.78244  23900000.537    23900000.1314   23900007.6364
        41.900          24.3004
 129626497.096 6 101007736.70243  24667098.433    24667097.1994   24667117.9734
        39.500          21.5004
 25  1  1 19 11 15.0000000  0 35G09E05E19R18G08S31S35G07E13E33S48S33
                                R19G30E04E31G16G27E21R01G04E06R07R20
                                R08R10E26R11G21E24R21R09E09G14G02
 112206416.169 7  87433569.95847  21352179.260    21352178.6574   21352184.6664
        47.500          47.2004
 139040339.244 6                  26458500.763
        38.600
 147439849.122 5                  28056941.324
        30.200
 131552035.626 6 102318452.460 5  24644077.288    24644077.748    24644092.046
        36.700          34.900
 106103490.872 8  82678186.77848  20190770.104    20190769.3764   20190773.5214
        49.800          49.3004
 198977343.582 7                  37864134.788
        46.000
 200899880.882 7                  38229990.662
        43.800
 109523764.554 8  85343241.08647  20841659.347    20841658.7354   20841659.5884
        48.700          47.8004
 148187600.167 6                  28199130.964
        38.400
 148495007.020 6                  28257658.430
        37.800
 412905667.489 5                  78573255.549
        33.200
 202123090.026 7                  38462739.234
        45.100
 118957781.863 6  92522933.113 7  22237837.768    22237837.628    22237845.515
        40.000          42.200
 119030488.033 7  92751064.60946  22650740.041    22650739.1024   22650743.6744
        44.900          41.6004
 127848681.423 7                  24328803.771
        47.000
 124662443.433 8                  23722419.644
        48.600
 129015142.940 6 100531326.51443  24550758.709    24550757.7754   24550765.0714
        37.700          19.9004
 115065608.357 7  89661679.66747  21896193.377    21896192.6264   21896196.7224
        46.400          44.9004
 149733813.093 6                  28493419.933
        39.000
 117588502.738 7  91457755.768 6  21997360.304    21997360.432    21997368.523
        45.900          37.700
 119870547.681 7  93405579.01144  22810642.531    22810642.0984   22810655.0284
        42.600          27.6004
 124934546.815 8                  23774254.894
        49.000
 122454837.844 7  95242595.165 7  22875648.037    22875647.360    22875672.892
        46.200          42.700
 115657309.473 6  89955848.178 7  21628446.732    21628447.305    21628461.747
        36.800          44.600
 110745328.251 8  86135266.297 7  20680912.900    20680913.348    20680920.945
        48.000          47.000
 106576003.731 8                  19993338.126    19993337.698
        48.000
 144263042.397 6                  27452286.708
        39.400
 115947208.122 8  90181323.652 7  21697889.172    21697888.832    21697895.590
        48.600          44.800
 123620402.654 6  96327676.70043  23524172.001    23524170.7144   23524191.2084
        38.300          19.0004
 144913846.334 6                  27576148.851
        39.300
 129756581.880 7 100921913.894 6  24248121.757    24248121.931    24248150.037
        42.500          39.000
 114940095.528 8  89397938.643 7  21524569.841    21524569.569    21524576.732
        48.800          46.000
 128538584.663 8                  24460077.589
        48.800
 125555094.654 6  97835277.68044  23892294.100    23892293.6894   23892301.0364
        41.300          24.7004
 129582053.620 6 100973105.56043  24658640.796    24658639.5534   24658660.8384
        38.400          21.0004
 25  1  1 19 11 30.0000000  0 34G09E05E19G08S31S35G07E13E33S48S33R19
                                G30E04E31G16G27E21R01G04E06R07R20R08
                                R10E26R11G21E24R21R09E09G14G02
 112246020.223 7  87464430.19647  21359715.686    21359715.0874   21359721.1214
        47.100          47.1004
 139000853.243 6                  26450986.400
        37.900
 147487011.518 5                  28065916.317
        30.000
 106109067.256 8  82682532.03648  20191831.436    20191830.7084   20191834.6334
        50.000          49.4004
 198977339.110 7                  37864136.000
        46.100
 200899855.312 7                  38229983.217
        44.000
 109503247.900 8  85327254.10248  20837755.339    20837754.7274   20837755.3924
        48.700          48.1004
 148188687.193 6                  28199337.836
        37.300
 148454738.096 6                  28249995.323
        37.100
 412906286.037 5                  78573290.124
        33.200
 202123106.413 7                  38462739.609
        45.300
 118976102.809 6  92537182.775 7  22241262.735    22241261.581    22241270.568
        38.600          42.300
 118989496.153 7  92719122.90846  22642939.897    22642938.9634   22642943.1794
        44.700          41.9004
 127879595.049 7                  24334686.576
        47.000
 124652538.284 8                  23720535.086
        48.200
 129065270.391 6 100570386.72743  24560299.046    24560298.1434   24560304.4954
        38.400          20.3004
 115103981.899 7  89691581.12047  21903495.571    21903494.8164   21903498.9804
        46.200          45.0004
 149769184.944 6                  28500151.224
        38.600
 117560712.881 7  91436141.428 6  21992161.423    21992161.992    21992170.110
        45.800          37.800
 119924650.980 6  93447737.16244  22820937.992    22820937.5544   22820950.7874
        41.800          27.4004
 124945827.211 8                  23776401.561
        48.500
 122520372.915 7  95293566.477 7  22887888.541    22887889.437    22887915.729
        44.900          42.400
 115610968.838 6  89919805.696 7  21619781.294    21619781.708    21619795.600
        36.800          44.300
 110777644.568 7  86160401.153 7  20686947.963    20686948.379    20686956.245
        47.600          47.200
 106580499.518 8                  19994181.859    19994181.127
        48.100
 144234469.304 6                  27446849.306
        38.300
 115915095.968 8  90156347.542 7  21691879.902    21691880.080    21691885.809
        49.000          44.900
 123577954.761 6  96294600.73943  23516094.770    23516093.4964   23516113.1644
        38.500          18.8004
 144881476.404 6                  27569988.732
        39.900
 129691612.968 7 100871382.573 6  24235980.572    24235980.926    24236008.263
        43.000          38.800
 114972886.343 8  89423442.579 7  21530710.292    21530710.270    21530717.719
        48.500          46.100
 128529651.532 8                  24458377.784
        48.200
 125514636.080 6  97803751.73444  23884595.267    23884594.8614   23884601.8144
        41.800          24.7004
 129537606.233 6 100938471.33343  24650183.207    24650181.9824   24650202.4464
        39.600          21.5004
 25  1  1 19 11 45.0000000  0 34G09E05E19G08S31S35G07E13E33S48S33R19
                                G30E04E31G16G27E21R01G04E06R07R20R08
                                R10E26R11G21E24R21R09E09G14G02
 112285723.343 7  87495367.62747  21367270.973    21367270.3884   21367276.3934
        47.100          46.9004
 138961403.530 6                  26443479.319
        38.000
 147534163.703 5                  28074888.537
        30.400
 106114795.510 8  82686995.62548  20192921.486    20192920.7584   20192924.6584
        50.000          49.3004
 198977329.484 7                  37864133.724
        46.000
 200899824.845 7                  38229978.670
        43.900
 109482789.259 8  85311312.31148  20833862.181    20833861.5604   20833862.2414
        49.000          48.1004
 148189874.332 6                  28199564.225
        37.300
 148414445.495 6                  28242327.905
        37.600
 412906898.926 5                  78573323.514
        33.700
 202123116.915 7                  38462737.776
        45.500
 118994611.504 6  92551578.417 7  22244722.511    22244722.545    22244730.522
        39.800          42.600
 118948524.778 7  92687197.18246  22635143.277    22635142.3524   22635146.5254
        44.900          41.9004
 127910582.415 7                  24340583.243
        46.700
 124642676.666 8                  23718658.528
        48.200
 129115383.895 6 100609436.06943  24569834.937    24569834.0214   24569840.8574
        38.400          20.3004
 115142466.186 7  89721568.86547  21910818.780    21910818.0294   21910822.2644
        46.600          44.9004
 149804538.030 6                  28506878.783
        38.200
 117533097.098 7  91414662.511 6  21986995.803    21986995.569    21987003.776
        46.300          37.700
 119978797.285 7  93489928.80744  22831242.055    22831241.6134   22831254.6944
        42.700          27.3004
 124957205.419 8                  23778566.732
        48.500
 122585926.185 7  95344551.953 7  22900135.922    22900136.496    22900162.560
        45.300          42.900
 115564747.813 6  89883856.211 7  21611139.677    21611137.802    21611151.645
        36.600          44.600
 110810126.547 8  86185664.866 7  20693013.764    20693014.260    20693021.849
        48.000          47.000
 106585046.826 7                  19995034.889    19995034.111
        47.800
 144205952.999 6                  27441422.330
        38.800
 115883011.106 8  90131392.669 7  21685875.974    21685876.131    21685881.775
        48.700          45.000
 123535543.348 6  96261553.21643  23508024.277    23508022.9724   23508041.8364
        37.400          18.8004
 144849128.929 6                  27563832.921
        39.900
 129626610.468 7 100820825.173 6  24223833.213    24223832.864    24223861.797
        43.000          39.200
 115005702.416 8  89448966.157 7  21536855.446    21536856.139    21536862.891
        48.900          46.000
 128520816.387 8                  24456696.631
        48.200
 125474204.373 6  97772246.72244  23876901.577    23876901.1884   23876907.7264
        41.000          24.5004
 129493143.383 6 100903825.07643  24641722.182    24641720.9574   24641741.3854
        39.100          21.2004
 25  1  1 19 12  0.0000000  0 34G09E05E19G08S31S35G07E13E33S48S33R19
                                G30E04E31G16G27E21R01G04E06R07R20R08
                                R10E26R11G21E24R21R09E09G14G02
 112325530.950 7  87526386.47947  21374846.311    21374845.7174   21374851.5674
        46.900          46.8004
 138921996.015 6                  26435980.334
        37.100
 147581311.362 5                  28083861.496
        30.800
 106120681.293 8  82691581.96148  20194041.316    20194040.5794   20194044.6704
        49.900          49.3004
 198977320.597 7                  37864128.228
        46.100
 200899795.503 7                  38229982.985
        44.500
 109462394.536 8  85295420.35148  20829981.053    20829980.4324   20829981.2394
        48.800          48.1004
 148191167.168 6                  28199810.082
        37.500
 148374135.252 6                  28234656.675
        37.000
 412905911.990 5                  78573365.864
        34.100
 202123128.204 7                  38462743.254
        45.600
 119013313.010 6  92566124.046 7  22248218.651    22248217.878    22248226.141
        38.900          42.400
 118907579.794 7  92655292.01247  22627351.805    22627350.8844   22627354.9334
        44.700          42.0004
 127941649.122 7                  24346494.996
        46.400
 124632864.232 7                  23716791.229
        47.800
 129165489.120 6 100648478.93343  24579368.674    24579367.7624   24579375.9124
        38.100          20.6004
 115181066.599 7  89751647.09047  21918164.096    21918163.3274   21918167.6334
        46.400          44.9004
 149839878.057 6                  28513604.020
        38.000
 117505661.623 7  91393323.821 6  21981863.105    21981863.005    21981871.771
        45.300          38.000
 120032992.009 7  93532158.18744  22841554.992    22841554.5634   22841567.8654
        42.500          27.4004
 124968687.150 8                  23780751.649
        48.400
 122651502.331 7  95395555.193 7  22912385.906    22912386.313    22912412.695
        45.000          42.700
 115518652.298 6  89848004.340 7  21602517.534    21602517.820    21602531.228
        37.500          44.400
 110842779.552 8  86211061.599 7  20699112.022    20699112.038    20699119.439
        48.100          47.000
 106589651.857 8                  19995898.235    19995898.181
        48.100
 144177499.417 6                  27436007.354
        38.300
 115850959.501 8  90106463.662 7  21679877.505    21679877.811    21679883.952
        48.600          45.000
 123493174.634 6  96228538.95943  23499961.173    23499959.8594   23499978.9424
        38.400          18.9004
 144816809.634 6                  27557683.072
        39.100
 129561580.656 7 100770246.530 6  24211680.406    24211681.078    24211708.817
        44.400          39.200
 115038549.584 8  89474513.906 7  21543006.477    21543007.165    21543014.497
        48.300          46.100
 128512085.062 7                  24455034.973
        47.800
 125433805.290 6  97740767.14144  23869213.753    23869213.3784   23869220.0774
        40.800          24.8004
 129448671.152 6 100869171.49943  24633258.408    24633257.1564   24633278.3704
        39.000          21.1004
 25  1  1 19 12 15.0000000  0 34G09E05E19G08S31S35G07E13E33S48S33R19
                                G30E04E31G16G27E21R01G04E06R07R20R08
                                R10E26R11G21E24R21R09E09G14G02
 112365442.340 7  87557486.20947  21382441.144    21382440.5594   21382446.4664
        46.700          46.9004
 138882630.548 6                  26428489.279
        38.100
 147628453.674 5                  28092832.328
        31.300
 106126724.085 8  82696290.64648  20195191.404    20195190.6584   20195194.5614
        49.700          49.5004
 198977312.044 7                  37864126.444
        46.000
 200899765.200 7                  38229972.396
        44.600
 109442063.529 8  85279578.01548  20826112.357    20826111.7314   20826112.3874
        48.800          48.3004
 148192565.943 6                  28200076.585
        37.300
 148333807.203 6                  28226982.749
        37.600
 412906524.688 5                  78573394.702
        33.600
 202123140.476 7                  38462745.315
        45.600
 119032207.123 6  92580819.456 7  22251750.162    22251750.241    22251758.536
        39.200          42.400
 118866661.003 7  92623407.25447  22619565.048    22619564.1324   22619568.4034
        45.000          42.2004
 127972794.588 7                  24352421.799
        46.900
 124623100.472 8                  23714933.228
        48.100
 129215585.566 6 100687514.91143  24588902.702    24588901.7954   24588908.7364
        37.800          20.5004
 115219782.396 7  89781815.22847  21925531.644    21925530.8714   21925535.0154
        46.100          45.0004
 149875204.570 6                  28520326.769
        38.600
 117478406.377 7  91372125.284 6  21976764.726    21976764.993    21976773.187
        45.500          38.100
 120087234.440 6  93574424.74244  22851877.235    22851876.8114   22851890.0964
        41.900          27.4004
 124980271.948 8                  23782956.116
        48.500
 122717100.984 7  95446575.939 7  22924641.282    22924641.944    22924667.700
        44.900          42.600
 115472682.518 6  89812250.281 7  21593919.942    21593921.130    21593935.142
        37.800          44.500
 110875602.842 8  86236590.765 7  20705241.001    20705241.506    20705249.014
        48.400          46.800
 106594313.484 8                  19996773.250    19996772.709
        48.200
 144149108.495 6                  27430604.755
        38.800
 115818940.688 8  90081560.163 7  21673885.816    21673886.146    21673891.759
        49.100          44.900
 123450848.687 6  96195558.04443  23491906.411    23491905.1064   23491924.1324
        38.200          19.0004
 144784518.163 6                  27551537.962
        38.800
 129496523.511 7 100719646.680 6  24199522.252    24199523.971    24199553.011
        44.200          40.700
 115071427.370 8  89500085.455 7  21549163.698    21549164.289    21549171.112
        48.300          45.800
 128503457.234 8                  24453393.157
        48.400
 125393438.455 6  97709312.68344  23861532.119    23861531.7304   23861538.3614
        41.500          25.0004
 129404189.612 6 100834510.67543  24624794.313    24624793.0574   24624812.6584
        39.000          21.4004
 25  1  1 19 12 30.0000000  0 34G09E05E19G08S31S35G07E13E33S48S33R19
                                G30E04E31G16G27E21R01G04E06R07R20R08
                                R10E26R11G21E24R21R09E09G14G02
 112405457.217 7  87588666.57047  21390055.726    21390055.1414   21390061.1164
        46.900          46.8004
 138843307.388 6                  26421006.342
        38.300
 147675590.740 5                  28101801.594
        30.900
 106132923.886 8  82701121.68148  20196371.271    20196370.5294   20196374.3184
        49.600          49.3004
 198977303.367 7                  37864124.472
        45.500
 200899736.027 7                  38229959.826
        43.800
 109421796.581 8  85263785.59348  20822255.625    20822254.9994   20822255.7114
        48.600          48.3004
 148194070.411 6                  28200362.461
        37.100
 148293461.598 6                  28219304.758
        37.200
 412907137.962 5                  78573436.306
        33.700
 202123152.336 7                  38462743.482
        45.500
 119051293.621 6  92595664.478 7  22255318.941    22255318.180    22255326.506
        40.100          42.300
 118825768.726 7  92591543.16847  22611783.744    22611782.8284   22611786.8494
        44.800          42.1004
 128004018.737 7                  24358363.806
        46.600
 124613385.456 8                  23713084.496
        48.300
 129265673.199 6 100726544.03643  24598434.581    24598433.6424   24598439.7854
        38.300          19.7004
 115258613.312 7  89812073.06347  21932920.809    21932920.0314   21932924.3584
        46.300          44.9004
 149910517.724 6                  28527047.471
        38.800
 117451331.679 7  91351067.206 6  21971699.297    21971699.364    21971708.149
        44.800          37.600
 120141524.285 7  93616728.23444  22862208.437    22862208.0314   22862221.5524
        42.800          27.2004
 124991959.878 8                  23785180.388
        48.700
 122782721.177 7  95497613.508 7  22936898.192    22936899.180    22936926.381
        43.800          42.700
 115426839.194 6  89776594.590 7  21585346.267    21585347.934    21585361.405
        37.700          44.400
 110908596.099 7  86262252.136 7  20711402.505    20711402.816    20711410.391
        47.500          46.600
 106599032.018 8                  19997658.357    19997657.746
        48.200
 144120780.510 6                  27425214.164
        39.100
 115786954.735 8  90056682.235 7  21667899.793    21667900.293    21667905.902
        49.600          44.800
 123408565.949 6  96162610.79543  23483859.849    23483858.5394   23483877.3714
        38.200          18.3004
 144752254.580 6                  27545398.471
        39.100
 129431439.701 7 100669026.097 6  24187360.147    24187360.987    24187389.880
        43.000          40.000
 115104336.181 8  89525681.150 7  21555326.581    21555326.936    21555333.858
        48.200          45.900
 128494933.104 8                  24451771.012
        48.300
 125353104.110 7  97677883.53944  23853855.613    23853855.2244   23853862.7274
        42.200          25.1004
 129359699.163 6 100799842.92443  24616328.185    24616326.9424   24616346.8214
        39.200          21.5004
 25  1  1 19 12 45.0000000  0 34G09E05E19G08S31S35G07E13E33S48S33R19
                                G30E04E31G16G27E21R01G04E06R07R20R08
                                R10E26R11G21E24R21R09E09G14G02
 112445574.575 7  87619926.79347  21397689.859    21397689.2654   21397695.2584
        46.900          46.6004
 138804026.095 6                  26413531.369
        37.700
 147722721.352 5                  28110771.071
        30.100
 106139279.826 8  82706074.38248  20197580.719    20197579.9774   20197583.7764
        49.100          49.2004
 198977294.594 7                  37864118.435
        45.300
 200899706.455 7                  38229956.285
        44.200
 109401593.202 8  85248042.70348  20818411.108    20818410.4874   20818411.1444
        48.700          48.2004
 148195679.758 6                  28200668.894
        37.400
 148253098.024 6                  28211624.278
        37.800
 412907751.465 5                  78573462.080
        33.600
 202123163.886 7                  38462745.950
        45.600
 119070571.387 6  92610658.291 7  22258922.286    22258922.711    22258930.379
        39.900          42.400
 118784902.393 7  92559699.29347  22604006.844    22604005.9284   22604010.1614
        44.800          42.1004
 128035320.704 7                  24364320.102
        46.600
 124603718.370 8                  23711244.852
        48.200
 129315751.206 6 100765565.65443  24607963.908    24607962.9744   24607969.3454
        38.500          19.9004
 115297558.278 7  89842419.77247  21940332.212    21940331.4254   21940335.3574
        45.700          44.8004
 149945816.827 6                  28533764.638
        38.300
 117424437.116 7  91330149.209 6  21966668.348    21966668.530    21966676.576
        45.600          37.600
 120195860.495 7  93659067.86744  22872548.561    22872548.1414   22872561.6474
        42.500          27.1004
 125003750.125 8                  23787423.926
        48.300
 122848361.950 7  95548667.058 7  22949162.846    22949161.662    22949188.710
        42.800          42.700
 115381121.610 6  89741036.700 7  21576798.293    21576798.777    21576811.565
        37.700          44.700
 110941758.161 7  86288044.797 7  20717594.991    20717595.588    20717603.351
        47.500          47.000
 106603806.658 8                  19998554.041    19998553.578
        48.200
 144092515.005 6                  27419834.804
        38.800
 115755001.002 8  90031829.340 7  21661920.137    21661920.491    21661926.283
        49.400          45.100
 123366326.026 6  96129696.93343  23475821.605    23475820.2774   23475839.3444
        37.800          19.2004
 144720018.254 6                  27539262.985
        39.200
 129366328.845 7 100618384.458 6  24175192.622    24175193.304    24175221.938
        43.000          39.500
 115137275.171 8  89551300.316 7  21561494.795    21561495.450    21561502.256
        48.000          45.600
 128486512.018 8                  24450168.542
        48.400
 125312801.430 6  97646479.08544  23846186.780    23846186.3834   23846193.1664
        40.300          24.9004
 129315199.297 6 100765167.83243  24607860.250    24607858.9904   24607879.4244
        38.800          21.8004
 25  1  1 19 13  0.0000000  0 34G09E05E19G08S31S35G07E13E33S48S33R19
                                G30E04E31G16G27E21R01G04E06R07R20R08
                                R10E26R11G21E24R21R09E09G14G02
 112485792.359 7  87651265.26747  21405343.091    21405342.4924   21405348.4804
        46.800          46.5004
 138764785.064 6                  26406064.031
        38.100
 147769843.851 4                  28119738.260
        29.900
 106145790.100 8  82711147.34248  20198819.748    20198819.0154   20198822.6034
        49.900          49.3004
 198977283.424 7                  37864120.054
        45.700
 200899674.773 7                  38229955.739
        44.400
 109381451.843 8  85232348.13648  20814578.226    20814577.6054   20814578.3774
        48.800          48.3004
 148197392.367 6                  28200994.645
        37.200
 148212714.979 6                  28203939.054
        36.400
 412906761.517 5                  78573497.084
        33.700
 202123174.008 7                  38462750.234
        45.400
 119090038.869 6  92625799.628 7  22262561.685    22262560.943    22262569.734
        39.200          42.400
 118744060.482 7  92527874.45247  22596234.911    22596233.9954   22596238.1194
        44.500          42.3004
 128066698.615 7                  24370291.148
        46.800
 124594097.450 8                  23709414.119
        48.100
 129365817.798 6 100804578.41743  24617491.445    24617490.5064   24617497.6974
        39.000          20.5004
 115336615.261 7  89872853.77347  21947764.322    21947763.5404   21947767.6814
        46.500          44.8004
 149981100.169 6                  28540478.910
        38.500
 117397721.158 7  91309370.146 6  21961670.917    21961670.843    21961678.912
        45.500          37.800
 120250240.982 7  93701441.99544  22882896.862    22882896.4204   22882910.1174
        42.400          27.1004
 125015640.976 8                  23789686.614
        48.400
 122914020.971 7  95599734.781 7  22961427.903    22961428.315    22961455.046
        43.800          42.300
 115335529.247 6  89705576.158 7  21568270.846    21568272.520    21568285.705
        37.300          44.700
 110975086.746 7  86313966.974 7  20723819.198    20723819.336    20723827.242
        47.900          46.900
 106608635.472 8                  19999459.819    19999459.430
        48.400
 144064310.526 6                  27414467.586
        39.200
 115723077.601 8  90007000.063 7  21655945.837    21655946.416    21655952.360
        49.200          45.100
 123324127.650 6  96096815.41143  23467791.222    23467789.8944   23467809.1904
        37.000          18.8004
 144687807.324 6                  27533133.932
        38.700
 129301189.829 7 100567720.956 6  24163019.681    24163020.747    24163048.464
        43.800          40.000
 115170242.430 8  89576941.472 7  21567669.434    21567669.437    21567676.100
        48.300          45.500
 128478192.346 8                  24448585.540
        48.100
 125272528.740 6  97615097.97644  23838523.400    23838522.9804   23838529.1894
        41.600          24.9004
 129270688.678 6 100730484.33843  24599389.321    24599388.0654   24599409.1294
        39.100          21.0004
 25  1  1 19 13 15.0000000  0 34G09E05E19G08S31S35G07E13E33S48S33R19
                                G30E04E31G16G27E21R01G04E06R07R20R08
                                R10E26R11G21E24R21R09E09G14G02
 112526114.673 7  87682685.18947  21413016.088    21413015.4944   21413021.6064
        46.800          46.5004
 138725589.069 6                  26398605.497
        38.900
 147816962.378 5                  28128705.525
        30.800
 106152459.049 8  82716343.94248  20200088.448    20200087.7114   20200091.6414
        49.400          49.4004
 198977275.185 7                  37864119.527
        45.500
 200899645.230 7                  38229947.802
        44.100
 109361377.199 8  85216705.55948  20810758.294    20810757.6734   20810758.3204
        48.600          48.4004
 148199212.681 6                  28201341.178
        37.800
 148172317.138 6                  28196251.833
        36.900
 412907373.112 5                  78573529.105
        33.700
 202123185.670 7                  38462750.297
        45.200
 119109700.066 6  92641091.630 7  22266236.857    22266237.234    22266245.591
        39.300          42.500
 118703247.642 7  92496072.26047  22588468.674    22588467.7714   22588471.6574
        44.200          42.3004
 128098156.754 7                  24376277.528
        46.900
 124584527.078 8                  23707592.752
        48.200
 129415877.342 6 100843585.70143  24627017.507    24627016.5734   24627023.7474
        38.400          20.0004
 115375788.284 7  89903378.18847  21955218.734    21955217.9394   21955222.0734
        45.900          44.7004
 150016372.198 6                  28547190.910
        38.400
 117371188.751 7  91288733.828 6  21956706.767    21956707.624    21956715.791
        46.300          38.400
 120304669.884 6  93743853.85244  22893254.356    22893253.9094   22893267.9514
        41.900          27.0004
 125027636.794 8                  23791969.368
        48.500
 122979702.418 7  95650819.989 7  22973697.167    22973697.875    22973725.344
        43.500          43.000
 115290067.284 6  89670217.037 7  21559770.732    21559770.195    21559783.706
        37.400          44.600
 111008585.979 7  86340021.871 7  20730075.013    20730075.252    20730082.863
        47.400          46.700
 106613523.392 8                  20000376.721    20000376.314
        48.400
 144036171.777 6                  27409112.594
        39.400
 115691189.105 8  89982197.910 7  21649978.840    21649979.018    21649984.533
        49.200          45.000
 123281975.821 6  96063970.17143  23459769.611    23459768.2794   23459787.5604
        37.100          18.3004
 144655626.370 6                  27527009.772
        39.000
 129236027.508 6 100517039.342 6  24150842.415    24150841.733    24150870.854
        41.700          39.100
 115203242.268 8  89602607.970 7  21573848.793    21573849.077    21573855.980
        48.100          45.600
 128469978.653 8                  24447022.396
        48.200
 125232290.613 6  97583743.81744  23830865.446    23830865.0134   23830871.5984
        41.200          25.0004
 129226172.354 6 100695796.39443  24590918.182    24590916.9264   24590938.0654
        38.600          21.3004
 25  1  1 19 13 30.0000000  0 34G09E05E19G08S31S35G07E13E33S48S33R19
                                G30E04E31G16G27E21R01G04E06R07R20R08
                                R10E26R11G21E24R21R09E09G14G02
 112566537.428 7  87714183.37847  21420708.273    21420707.6704   21420713.8434
        46.900          46.3004
 138686434.528 6                  26391154.357
        38.700
 147864073.179 5                  28137669.373
        31.700
 106159282.787 8  82721661.16048  20201387.062    20201386.3254   20201390.1334
        49.500          49.3004
 198977264.658 7                  37864121.333
        45.800
 200899614.712 7                  38229944.878
        44.500
 109341365.681 8  85201112.17748  20806950.286    20806949.6654   20806950.2634
        48.900          48.4004
 148201137.073 6                  28201707.677
        38.000
 148131901.042 6                  28188560.959
        37.400
 412907983.571 5                  78573562.790
        33.500
 202123196.122 7                  38462752.112
        45.200
 119129551.218 6  92656531.402 7  22269947.644    22269948.118    22269956.027
        38.900          42.500
 118662460.309 7  92464289.93847  22580707.102    22580706.2084   22580710.1014
        45.400          42.3004
 128129691.190 7                  24382278.319
        46.900
 124575003.412 8                  23705780.681
        48.400
 129465925.871 6 100882584.43343  24636541.779    24636540.8544   24636548.0344
        39.200          20.2004
 115415073.281 7  89933989.85147  21962694.487    21962693.6964   21962697.8214
        46.100          44.6004
 150051628.927 6                  28553900.184
        38.200
 117344836.313 7  91268237.503 6  21951777.405    21951777.258    21951786.163
        45.600          38.400
 120359143.046 6  93786300.18044  22903621.061    22903620.6054   22903633.7984
        41.800          26.8004
 125039733.804 8                  23794271.369
        48.700
 123045401.589 7  95701918.975 7  22985971.368    22985970.892    22985999.344
        43.300          43.200
 115244732.095 6  89634956.542 7  21551292.191    21551292.580    21551305.913
        37.700          44.700
 111042251.623 8  86366206.204 7  20736361.782    20736362.134    20736369.513
        48.100          46.600
 106618466.062 8                  20001304.274    20001303.563
        48.300
 144008095.190 6                  27403769.308
        39.000
 115659331.599 8  89957419.884 7  21644017.409    21644018.251    21644022.577
        50.600          45.300
 123239867.208 6  96031158.61443  23451756.115    23451754.7964   23451774.5294
        36.900          18.8004
 144623471.555 6                  27520891.021
        40.000
 129170838.687 7 100466337.092 6  24138661.067    24138661.190    24138689.394
        43.000          39.600
 115236271.419 7  89628297.295 7  21580033.701    21580034.077    21580041.012
        47.900          45.600
 128461867.251 8                  24445478.904
        48.600
 125192083.229 7  97552413.57944  23823214.567    23823214.1434   23823220.4374
        42.100          25.1004
 129181646.806 6 100661101.24843  24582444.945    24582443.6894   24582465.0244
        39.100          21.0004
 25  1  1 19 13 45.0000000  0 34G09E05E19G08S31S35G07E13E33S48S33R19
                                G30E04E31G16G27E21R01G04E06R07R20R08
                                R10E26R11G21E24R21R09E09G14G02
 112607061.083 7  87745760.19247  21428419.878    21428419.2794   21428425.2554
        46.500          46.4004
 138647322.384 6                  26383711.302
        38.100
 147911176.668 5                  28146632.853
        30.800
 106166261.973 8  82727099.50548  20202715.122    20202714.3854   20202718.2274
        49.500          49.5004
 198977253.949 7                  37864119.442
        46.100
 200899583.505 7                  38229936.149
        44.200
 109321418.293 8  85185568.76748  20803154.372    20803153.7554   20803154.4014
        48.900          48.6004
 148203166.287 6                  28202093.832
        36.900
 148091467.728 6                  28180866.402
        36.800
 412908593.275 5                  78573592.088
        33.400
 202123206.724 7                  38462749.957
        45.300
 119149592.573 6  92672119.122 7  22273694.340    22273694.627    22273702.648
        39.900          42.500
 118621699.468 7  92432528.26147  22572950.255    22572949.3664   22572953.5844
        45.200          42.6004
 128161302.547 7                  24388293.860
        46.800
 124565527.181 8                  23703977.160
        48.400
 129515964.006 6 100921575.05043  24646063.262    24646062.3504   24646070.2164
        38.800          20.8004
 115454470.672 7  89964689.09647  21970191.389    21970190.5854   21970194.9524
        46.300          44.8004
 150086871.137 6                  28560606.816
        38.500
 117318664.863 7  91247881.933 6  21946881.771    21946881.743    21946890.157
        45.600          38.000
 120413660.849 6  93828781.29744  22913995.379    22913994.9284   22914008.7684
        41.700          27.2004
 125051932.730 8                  23796592.794
        48.800
 123111119.149 7  95753032.267 7  22998248.042    22998248.912    22998275.871
        44.300          42.900
 115199525.003 6  89599795.694 7  21542838.828    21542838.360    21542851.519
        37.800          44.800
 111076083.930 8  86392520.170 7  20742679.607    20742680.224    20742687.571
        48.100          46.500
 106623464.572 8                  20002241.915    20002241.374
        48.500
 143980081.789 6                  27398438.615
        38.900
 115627506.066 8  89932666.738 7  21638060.885    21638061.209    21638066.840
        49.500          45.200
 123197803.042 6  95998381.70943  23443751.707    23443750.3704   23443769.4934
        36.900          18.6004
 144591343.754 6                  27514776.649
        39.600
 129105624.386 6 100415615.106 6  24126473.611    24126472.217    24126501.629
        41.500          39.100
 115269330.069 8  89654009.540 7  21586225.198    21586225.066    21586232.180
        48.300          45.500
 128453859.016 8                  24443954.807
        48.500
 125151907.470 6  97521108.00344  23815568.891    23815568.4714   23815575.1794
        41.800          25.5004
 129137113.286 6 100626399.90343  24573969.995    24573968.7394   24573990.6914
        39.400          21.9004
 25  1  1 19 14  0.0000000  0 34G09E05E19G08S31S35G07E13E33S48S33R19
                                G30E04E31G16G27E21R01G04E06R07R20R08
                                R10E26R11G21E24R21R09E09G14G02
 112647689.111 7  87777418.33247  21436151.338    21436150.7394   21436156.5604
        46.200          46.3004
 138608256.743 6                  26376278.152
        37.500
 147958276.414 5                  28155596.601
        31.000
 106173400.309 8  82732661.86548  20204073.652    20204072.9154   20204076.5774
        49.300          49.4004
 198977246.260 7                  37864121.418
        46.100
 200899555.628 7                  38229930.622
        44.100
 109301539.032 8  85170078.44448  20799371.353    20799370.7324   20799371.4984
        48.700          48.7004
 148205304.242 6                  28202500.094
        37.200
 148051021.329 6                  28173169.939
        37.800
 412907606.351 5                  78573632.919
        33.500
 202123219.532 7                  38462753.427
        45.400
 119169828.419 6  92687858.075 7  22277477.003    22277477.154    22277486.016
        39.100          42.700
 118580969.108 7  92400790.33147  22565199.592    22565198.7074   22565202.8544
        45.100          42.6004
 128192994.494 7                  24394324.644
        46.800
 124556102.140 8                  23702183.863
        48.000
 129565995.392 6 100960560.38343  24655584.759    24655583.8344   24655591.1644
        38.800          20.7004
 115493983.915 7  89995478.61747  21977710.731    21977709.9274   21977714.0844
        45.600          44.7004
 150122102.547 6                  28567311.120
        38.800
 117292678.571 7  91227670.348 6  21942020.196    21942020.781    21942029.364
        45.500          38.500
 120468226.870 7  93871299.97444  22924379.445    22924379.0214   22924392.7964
        42.100          27.0004
 125064237.347 8                  23798934.345
        48.600
 123176858.145 7  95804162.252 7  23010529.022    23010528.783    23010557.110
        44.100          42.700
 115154450.688 6  89564738.046 7  21534409.261    21534409.311    21534422.465
        37.900          45.000
 111110086.517 8  86418966.563 7  20749029.342    20749030.129    20749037.566
        48.000          46.500
 106628522.900 8                  20003191.049    20003190.328
        48.500
 143952135.652 6                  27393120.655
        38.900
 115595716.187 8  89907941.291 7  21632111.656    21632111.975    21632118.205
        49.400          45.300
 123155787.501 6  95965642.70443  23435755.841    23435754.5314   23435773.8694
        37.700          18.5004
 144559246.651 6                  27508669.412
        39.600
 129040389.209 7 100364876.803 6  24114282.355    24114282.480    24114311.105
        42.600          39.600
 115302422.345 8  89679747.932 7  21592422.256    21592421.966    21592429.294
        48.300          45.500
 128445957.858 8                  24442451.378
        48.300
 125111767.182 6  97489830.05644  23807930.881    23807930.4704   23807936.5794
        40.800          25.5004
 129092575.822 6 100591695.45643  24565494.783    24565493.5144   24565515.4874
        39.400          21.8004
 25  1  1 19 14 15.0000000  0 34G09E05E19G08S31S35G07E13E33S48S33R19
                                G30E04E31G16G27E21R01G04E06R07R20R08
                                R10E26R11G21E24R21R09E09G14G02
 112688419.118 7  87809155.92147  21443901.849    21443901.2504   21443907.2644
        46.400          46.5004
 138569235.745 6                  26368852.165
        38.200
 148005370.464 5                  28164558.153
        30.100
 106180695.640 8  82738346.55648  20205461.894    20205461.1524   20205464.8104
        49.800          49.7004
 198977239.714 7                  37864116.835
        46.300
 200899528.704 7                  38229922.117
        44.200
 109281725.966 8  85154639.68648  20795601.052    20795600.4264   20795601.1964
        48.900          49.0004
 148207548.887 6                  28202927.855
        37.200
 148010559.987 6                  28165470.187
        37.000
 412908221.672 5                  78573661.506
        34.100
 202123233.485 7                  38462759.231
        45.500
 119190255.906 6  92703746.091 7  22281296.257    22281295.625    22281304.201
        38.900          42.400
 118540267.340 7  92369074.67547  22557454.677    22557453.7974   22557457.5564
        45.200          42.9004
 128224764.778 7                  24400370.311
        46.600
 124546726.131 8                  23700399.597
        48.000
 129616017.786 6 100999538.65743  24665104.003    24665103.0824   24665110.0324
        37.400          20.8004
 115533610.627 7  90026356.55847  21985251.578    21985250.7834   21985254.8414
        45.500          45.0004
 150157321.107 6                  28574013.402
        38.700
 117266875.551 7  91207601.346 6  21937192.809    21937193.343    21937202.029
        45.400          38.400
 120522838.668 7  93913854.34444  22934771.335    22934770.9204   22934785.2724
        42.100          27.3004
 125076645.521 8                  23801295.425
        48.400
 123242616.029 7  95855306.884 7  23022813.602    23022813.882    23022841.883
        44.600          43.100
 115109507.063 6  89529782.107 7  21526004.399    21526004.450    21526017.505
        38.200          45.000
 111144256.890 7  86445543.457 7  20755411.245    20755411.094    20755418.352
        47.600          46.300
 106633638.561 8                  20004150.383    20004149.983
        48.500
 143924254.958 6                  27387815.149
        39.000
 115563959.973 8  89883242.014 7  21626169.714    21626169.940    21626175.370
        49.500          45.300
 123113818.931 6  95932940.29043  23427769.006    23427767.7104   23427786.6794
        37.000          18.9004
 144527178.293 6                  27502566.436
        39.500
 128975131.398 7 100314120.931 6  24102086.900    24102087.190    24102115.939
        42.700          39.600
 115335546.242 8  89705510.925 7  21598624.731    21598625.573    21598632.669
        48.500          45.300
 128438161.790 8                  24440967.876
        48.200
 125071660.295 6  97458578.12844  23800298.190    23800297.7844   23800303.8814
        41.400          25.4004
 129048032.742 6 100556986.63543  24557019.698    24557018.4384   24557038.7174
        38.100          22.1004
 25  1  1 19 14 30.0000000  0 34G09E05E19G08S31S35G07E13E33S48S33R19
                                G30E04E31G16G27E21R01G04E06R07R20R08
                                R10E26R11G21E24R21R09E09G14G02
 112729249.066 7  87840971.40847  21451671.469    21451670.8754   21451676.9504
        46.200          46.2004
 138530257.905 6                  26361434.800
        38.100
 148052456.769 5                  28173518.360
        31.200
 106188146.096 8  82744152.12048  20206879.437    20206878.6954   20206882.5564
        49.600          49.6004
 198977232.583 7                  37864116.691
        46.000
 200899501.418 7                  38229917.596
        44.200
 109261977.753 8  85139251.45848  20791843.263    20791842.6374   20791843.2354
        48.800          48.9004
 148209898.552 6                  28203374.996
        38.200
 147970082.203 6                  28157767.550
        37.300
 412908834.821 5                  78573700.319
        33.400
 202123248.055 7                  38462764.297
        45.600
 119210873.236 6  92719781.791 7  22285150.380    22285149.801    22285158.471
        39.300          42.500
 118499592.781 7  92337380.23547  22549714.196    22549713.3114   22549717.3744
        45.300          42.8004
 128256611.577 7                  24406430.690
        46.900
 124537397.418 8                  23698624.367
        48.200
 129666029.525 6 101038508.62243  24674621.151    24674620.2484   24674626.9234
        38.400          20.5004
 115573348.741 7  90057321.30947  21992813.483    21992812.7014   21992816.7974
        45.500          44.7004
 150192525.193 6                  28580712.984
        38.800
 117241254.474 7  91187673.836 6  21932401.172    21932400.349    21932409.353
        46.000          38.500
 120577494.190 6  93956442.75844  22945172.585    22945172.1654   22945186.0074
        41.200          27.1004
 125089155.534 8                  23803676.043
        48.700
 123308390.658 7  95906464.573 7  23035100.925    23035101.217    23035128.873
        44.400          42.200
 115064693.581 6  89494927.357 7  21517623.583    21517623.824    21517636.688
        37.500          44.700
 111178592.650 8  86472248.974 7  20761822.882    20761823.477    20761830.681
        48.100          46.500
 106638810.051 8                  20005120.916    20005120.290
        48.700
 143896438.241 6                  27382521.215
        38.800
 115532235.593 8  89858567.521 7  21620232.311    21620233.195    21620238.897
        49.000          45.400
 123071896.201 6  95900273.62743  23419791.546    23419790.2684   23419808.4374
        37.200          18.6004
 144495136.979 6                  27496468.581
        40.200
 128909849.776 7 100263346.574 6  24089887.584    24089888.026    24089915.980
        42.100          39.400
 115368700.048 8  89731297.187 7  21604833.921    21604833.996    21604841.078
        48.300          45.400
 128430469.234 8                  24439503.974
        48.500
 125031585.256 6  97427351.01944  23792671.932    23792671.5124   23792677.7484
        41.000          25.5004
 129003482.736 6 100522272.42543  24548541.169    24548539.8734   24548560.5164
        38.600          21.5004
 25  1  1 19 14 45.0000000  0 34G09E05E19G08S31S35G07E13E33S48S33R19
                                G30E04E31G16G27E21R01G04E06R07R20R08
                                R10E26R11G21E24R21R09E09G14G02
 112770175.848 7  87872862.33847  21459459.748    21459459.1584   21459465.1524
        46.500          46.2004
 138491320.640 6                  26354025.654
        38.000
 148099532.428 5                  28182476.659
        30.600
 106195748.796 8  82750076.32048  20208326.261    20208325.5194   20208329.2964
        50.100          49.8004
 198977222.361 7                  37864107.431
        45.900
 200899471.240 7                  38229917.422
        44.600
 109242291.824 8  85123911.76748  20788097.130    20788096.5004   20788097.1434
        49.000          49.0004
 148212350.319 6                  28203841.112
        37.400
 147929585.447 6                  28150061.321
        37.300
 412907844.117 5                  78573729.846
        33.000
 202123257.688 7                  38462768.138
        45.800
 119231677.318 6  92735962.734 7  22289039.060    22289039.809    22289048.242
        39.500          42.900
 118458942.741 7  92305704.89147  22541978.979    22541978.0904   22541981.9644
        45.700          43.0004
 128288531.893 7                  24412505.069
        46.800
 124528113.148 8                  23696857.608
        48.300
 129716027.697 6 101077468.05043  24684135.631    24684134.7064   24684141.7314
        38.000          20.6004
 115613195.061 7  90088370.37447  22000396.001    22000395.2234   22000399.2924
        45.700          44.8004
 150227712.028 6                  28587408.933
        39.400
 117215812.556 7  91167885.688 6  21927641.676    21927641.148    21927649.869
        45.700          38.500
 120632190.281 6  93999062.79844  22955581.542    22955581.1274   22955594.8354
        41.600          27.1004
 125101764.526 8                  23806075.393
        48.700
 123374178.266 7  95957632.393 7  23047389.976    23047390.304    23047419.034
        43.600          42.700
 115020007.865 6  89460172.007 7  21509266.607    21509267.413    21509280.370
        38.100          44.700
 111213090.652 8  86499080.685 7  20768265.509    20768265.583    20768273.127
        48.000          46.400
 106644034.544 8                  20006100.501    20006100.344
        48.700
 143868682.964 6                  27377239.232
        39.100
 115500540.315 8  89833915.658 7  21614301.242    21614301.636    21614307.075
        49.000          45.400
 123030016.767 6  95867640.67143  23411821.801    23411820.5054   23411838.4054
        38.000          18.7004
 144463119.906 6                  27490375.598
        40.200
 128844541.776 6 100212551.666 6  24077682.719    24077682.491    24077711.603
        41.600          39.800
 115401880.767 8  89757104.375 7  21611047.574    21611047.785    21611054.800
        48.600          45.400
 128422877.452 8                  24438059.326
        48.700
 124991539.220 6  97396146.51644  23785051.740    23785051.3384   23785057.4464
        40.700          25.6004
 128958923.361 6 100487550.88243  24540062.389    24540061.1064   24540080.9334
        38.700          21.7004
 25  1  1 19 15  0.0000000  0 34G09E05E19G08S31S35G07E13E33S48S33R19
                                G30E04E31G16G27E21R01G04E06R07R20R08
                                R10E26R11G21E24R21R09E09G14G02
 112811206.831 7  87904834.47047  21467267.778    21467267.1794   21467273.1514
        46.700          46.2004
 138452431.890 6                  26346625.449
        38.200
 148146604.759 5                  28191434.943
        30.600
 106203511.313 8  82756125.04948  20209803.273    20209802.5364   20209806.4384
        50.000          49.8004
 198977216.115 7                  37864112.426
        45.600
 200899444.503 7                  38229911.367
        44.400
 109222676.019 8  85108626.72348  20784364.437    20784363.8074   20784364.4024
        48.900          49.0004
 148214911.961 6                  28204328.656
        37.500
 147889077.771 6                  28142353.086
        37.300
 412908457.528 5                  78573762.014
        33.600
 202123272.499 7                  38462766.149
        45.600
 119252676.048 6  92752295.030 7  22292964.911    22292964.803    22292973.513
        39.300          43.100
 118418325.141 7  92274054.82547  22534249.770    22534248.8634   22534252.6484
        45.600          43.1004
 128320533.304 7                  24418594.467
        46.500
 124518880.973 8                  23695100.618
        48.100
 129766019.999 6 101116422.91243  24693648.795    24693647.8614   24693655.2424
        40.000          20.3004
 115653156.987 7  90119509.51347  22008000.390    22007999.6124   22008003.7914
        45.800          44.8004
 150262889.285 6                  28594102.988
        38.900
 117190558.311 7  91148243.522 6  21922916.878    21922917.066    21922925.126
        46.300          38.500
 120686934.296 7  94041720.17944  22965998.561    22965998.1554   22966012.5264
        42.300          27.2004
 125114480.189 8                  23808495.202
        48.400
 123439986.633 7  96008816.308 7  23059685.061    23059684.579    23059712.602
        43.600          42.300
 114975458.603 6  89425522.747 7  21500936.491    21500936.386    21500949.026
        37.500          44.800
 111247758.423 7  86526044.431 7  20774739.064    20774739.607    20774746.793
        47.800          46.400
 106649319.473 8                  20007091.828    20007091.716
        48.500
 143840997.155 6                  27371970.817
        38.900
 115468881.954 8  89809292.512 7  21608376.694    21608377.139    21608382.368
        48.900          45.300
 122988188.863 6  95835047.87943  23403861.584    23403860.3064   23403878.8684
        37.500          18.8004
 144431134.781 6                  27484289.465
        39.200
 128779215.992 7 100161742.923 6  24065475.804    24065475.440    24065503.193
        43.000          39.000
 115435096.275 8  89782938.618 7  21617267.968    21617267.924    21617275.051
        48.900          45.500
 128415394.244 8                  24436635.206
        48.300
 124951529.941 6  97364970.63844  23777437.875    23777437.4824   23777443.6864
        40.800          26.1004
 128914362.719 6 100452828.37543  24531582.155    24531580.8724   24531602.0714
        38.900          21.9004
 25  1  1 19 15 15.0000000  0 34G09E05E19G08S31S35G07E13E33S48S33R19
                                G30E04E31G16G27E21R01G04E06R07R20R08
                                R10E26R11G21E24R21R09E09G14G02
 112852333.566 7  87936881.21047  21475093.852    21475093.2494   21475099.4034
        46.300          46.1004
 138413583.762 6                  26339232.801
        37.300
 148193665.756 5                  28200389.864
        30.200
 106211425.431 8  82762291.90448  20211309.199    20211308.4534   20211312.4364
        50.000          49.7004
 198977206.131 7                  37864107.337
        45.900
 200899414.475 7                  38229902.276
        44.200
 109203122.514 8  85093390.23048  20780643.332    20780642.7024   20780643.5114
        49.100          49.1004
 148217575.339 6                  28204835.261
        37.000
 147848551.215 6                  28134640.809
        37.000
 412909067.413 5                  78573793.741
        33.400
 202123283.909 7                  38462771.689
        45.700
 119273860.670 6  92768771.944 7  22296925.116    22296925.153    22296933.318
        39.600          42.700
 118377732.065 7  92242423.86447  22526524.940    22526524.0334   22526528.0454
        45.200          43.1004
 128352607.508 7                  24424698.273
        46.900
 124509692.705 8                  23693352.259
        48.000
 129815998.154 6 101155366.75543  24703158.724    24703157.7854   24703165.8964
        40.200          20.3004
 115693226.045 7  90150732.12947  22015624.793    22015624.0154   22015628.6814
        45.900          44.7004
 150298048.849 6                  28600793.291
        38.000
 117165483.499 7  91128740.886 6  21918225.274    21918225.994    21918234.215
        45.800          38.300
 120741717.798 7  94084408.32844  22976423.737    22976423.3174   22976437.4534
        42.400          26.7004
 125127294.309 8                  23810933.654
        48.600
 123505806.662 7  96060009.339 7  23071979.762    23071980.146    23072008.670
        42.300          42.300
 114931037.809 6  89390973.415 7  21492629.013    21492629.292    21492641.950
        37.600          44.500
 111282587.034 8  86553133.289 7  20781243.379    20781244.002    20781251.059
        48.400          46.300
 106654657.088 8                  20008093.558    20008093.293
        49.000
 143813372.858 6                  27366713.990
        38.200
 115437252.291 8  89784691.688 7  21602457.920    21602457.739    21602463.826
        48.700          45.300
 122946404.801 6  95802489.24943  23395910.763    23395909.4854   23395927.4554
        37.300          18.7004
 144399173.528 6                  27478206.995
        39.300
 128713864.526 7 100110914.197 6  24053263.501    24053262.951    24053290.190
        43.200          39.200
 115468338.390 8  89808793.552 7  21623492.708    21623492.861    21623500.269
        48.400          45.200
 128408011.570 8                  24435230.544
        48.400
 124911549.339 6  97333817.10144  23769829.568    23769829.1884   23769835.4624
        41.200          25.9004
 128869793.046 6 100418098.80343  24523101.468    24523100.1944   24523120.9944
        39.300          22.2004
 25  1  1 19 15 30.0000000  0 34G09E05E19G08S31S35G07E13E33S48S33R19
                                G30E04E31G16G27E21R01G04E06R07R20R08
                                R10E26R11G21E24R21R09E09G14G02
 112893560.284 7  87969005.86147  21482939.264    21482938.6794   21482944.6104
        46.500          46.0004
 138374781.014 6                  26331848.786
        38.200
 148240719.550 5                  28209344.416
        30.200
 106219495.572 8  82768580.33648  20212844.921    20212844.1704   20212848.1124
        49.900          49.7004
 198977196.981 7                  37864108.446
        45.900
 200899385.437 7                  38229903.555
        44.300
 109183636.099 8  85078206.00848  20776935.306    20776934.6764   20776935.3744
        49.200          49.1004
 148220345.062 6                  28205362.762
        37.300
 147808010.663 6                  28126926.455
        37.000
 412909678.657 5                  78573824.836
        33.600
 202123295.487 7                  38462769.243
        45.300
 119295235.619 6  92785396.899 7  22300921.431    22300920.973    22300929.558
        39.100          43.000
 118337168.293 7  92210815.73647  22518805.932    22518805.0294   22518809.0544
        45.900          43.0004
 128384758.925 7                  24430816.383
        46.500
 124500552.831 8                  23691613.030
        48.100
 129865966.597 6 101194303.05443  24712667.508    24712666.5614   24712674.6674
        39.200          20.9004
 115733406.356 7  90182041.43647  22023271.145    22023270.3544   22023274.7804
        46.000          44.6004
 150333195.135 6                  28607482.420
        38.700
 117140592.898 7  91109381.530 6  21913570.045    21913569.511    21913578.232
        46.000          38.300
 120796545.009 7  94127130.52644  22986856.994    22986856.5564   22986871.1744
        42.200          26.7004
 125140211.417 8                  23813391.436
        48.600
 123571642.811 7  96111214.901 6  23084279.860    23084279.442    23084307.698
        44.500          41.900
 114886750.247 6  89356527.731 7  21484346.533    21484346.935    21484359.713
        37.300          44.600
 111317580.653 7  86580350.485 7  20787777.821    20787778.474    20787785.812
        47.400          46.200
 106660051.747 8                  20009105.553    20009105.073
        48.700
 143785814.883 6                  27361469.471
        38.500
 115405655.948 8  89760116.785 7  21596544.694    21596545.418    21596550.857
        49.700          45.400
 122904669.511 6  95769968.59943  23387968.787    23387967.4914   23387985.3844
        38.000          18.7004
 144367240.685 6                  27472130.346
        39.600
 128648492.590 7 100060069.574 6  24041046.235    24041046.671    24041075.134
        43.600          40.100
 115501611.880 8  89834672.895 7  21629723.942    21629724.187    21629731.270
        48.500          45.200
 128400734.095 8                  24433845.590
        48.300
 124871602.077 6  97302689.56044  23762228.180    23762227.7914   23762233.7844
        40.800          25.7004
 128825219.308 6 100383366.03243  24514618.868    24514617.5994   24514638.5054
        40.000          22.4004
 25  1  1 19 15 45.0000000  0 34G09E05E19G08S31S35G07E13E33S48S33R19
                                G30E04E31G16G27E21R01G04E06R07R20R08
                                R10E26R11G21E24R21R09E09G14G02
 112934883.849 7  88001205.97747  21490803.049    21490802.4644   21490808.2714
        45.700          45.8004
 138336021.136 6                  26324472.669
        38.600
 148287763.303 4                  28218296.880
        29.500
 106227718.819 8  82774988.07048  20214409.943    20214409.1974   20214412.9434
        49.800          49.6004
 198977186.018 7                  37864105.038
        45.700
 200899354.479 7                  38229892.560
        44.100
 109164214.192 8  85063072.03748  20773239.338    20773238.7084   20773239.5194
        48.900          49.1004
 148223218.189 6                  28205909.350
        37.700
 147767453.574 6                  28119208.542
        37.300
 412908689.086 5                  78573863.194
        33.100
 202123305.343 7                  38462777.162
        45.600
 119316798.025 6  92802167.610 7  22304952.269    22304952.181    22304960.430
        39.700          42.900
 118296631.243 7  92179228.43547  22511091.940    22511091.0244   22511095.0674
        45.100          43.0004
 128416984.620 7                  24436948.803
        46.600
 124491458.515 8                  23689882.428
        48.000
 129915922.294 6 101233229.39643  24722174.361    24722173.4144   24722181.0464
        39.200          19.9004
 115773694.969 7  90213435.13547  22030938.119    22030937.3154   22030941.4534
        46.000          44.5004
 150368325.306 6                  28614167.338
        39.000
 117115884.299 7  91090163.715 6  21908947.918    21908947.440    21908955.724
        46.200          38.700
 120851412.773 6  94169884.33844  22997298.698    22997298.2654   22997312.5254
        41.400          26.6004
 125153228.696 8                  23815868.864
        48.600
 123637491.324 7  96162430.096 6  23096580.676    23096581.292    23096608.778
        44.400          41.700
 114842594.297 6  89322184.385 7  21476088.984    21476089.869    21476102.576
        38.300          44.800
 111352736.299 8  86607693.707 7  20794342.960    20794343.795    20794351.259
        48.200          46.400
 106665500.523 8                  20010127.876    20010127.474
        49.200
 143758320.712 6                  27356237.549
        38.300
 115374089.948 8  89735565.483 7  21590637.744    21590638.159    21590643.785
        49.100          45.600
 122862980.728 6  95737484.21843  23380034.724    23380033.4054   23380052.3284
        36.600          19.0004
 144335333.438 6                  27466058.143
        39.100
 128583097.634 6 100009207.057 6  24028825.234    24028824.541    24028853.448
        41.400          39.700
 115534913.669 8  89860574.248 7  21635960.072    21635960.661    21635967.569
        48.800          45.200
 128393559.115 8                  24432480.205
        48.400
 124831685.390 6  97271585.85344  23754631.548    23754631.1644   23754637.9064
        40.800          26.3004
 128780639.045 6 100348628.17643  24506134.739    24506133.4834   24506155.1134
        39.800          22.7004
 25  1  1 19 16  0.0000000  0 34G09E05E19G08S31S35G07E13E33S48S33R19
                                G30E04E31G16G27E21R01G04E06R07R20R08
                                R10E26R11G21E24R21R09E09G14G02
 112976307.567 7  88033484.13047  21498685.466    21498684.8814   21498691.0134
        46.000          45.7004
 138297307.848 6                  26317106.033
        37.200
 148334800.497 5                  28227248.181
        30.500
 106236098.656 8  82781517.81948  20216004.423    20216003.6774   20216007.5644
        49.800          49.5004
 198977176.592 7                  37864103.102
        45.900
 200899325.334 7                  38229885.986
        44.100
 109144860.524 8  85047991.26348  20769556.527    20769555.8974   20769556.6374
        49.100          49.0004
 148226198.413 6                  28206476.270
        37.800
 147726883.802 6                  28111488.444
        36.900
 412909299.762 5                  78573902.696
        33.100
 202123316.977 7                  38462781.768
        45.500
 119338551.337 6  92819086.824 7  22309018.893    22309018.880    22309026.709
        39.000          42.800
 118256124.723 7  92147664.93247  22503384.127    22503383.2154   22503386.9474
        45.100          43.0004
 128449288.001 7                  24443096.067
        46.400
 124482413.279 7                  23688161.140
        47.800
 129965868.786 6 101272148.54243  24731678.473    24731677.5084   24731685.5164
        39.800          20.2004
 115814095.015 7  90244915.66947  22038626.030    22038625.2264   22038629.3264
        45.200          44.3004
 150403442.917 6                  28620850.356
        37.900
 117091361.244 7  91071090.236 6  21904359.863    21904359.878    21904368.188
        45.600          38.500
 120906324.339 6  94212672.26744  23007748.038    23007747.6274   23007762.4564
        41.300          26.5004
 125166349.681 8                  23818365.576
        48.400
 123703355.701 7  96213657.602 7  23108885.324    23108885.520    23108913.780
        43.800          42.200
 114798573.694 6  89287946.329 7  21467857.633    21467856.991    21467869.519
        37.700          44.400
 111388056.996 7  86635165.276 7  20800938.946    20800939.877    20800946.804
        47.900          46.200
 106671007.321 8                  20011160.723    20011160.271
        48.800
 143730894.166 6                  27351018.577
        38.300
 115342558.134 8  89711040.769 7  21584737.679    21584737.169    21584742.867
        48.800          45.600
 122821342.444 6  95705039.19743  23372111.167    23372109.8574   23372128.3944
        36.800          18.9004
 144303455.456 6                  27459991.984
        39.300
 128517684.025 7  99958329.954 6  24016600.579    24016601.097    24016630.339
        43.000          40.100
 115568247.363 8  89886500.414 7  21642203.079    21642203.033    21642209.833
        48.600          45.200
 128386490.306 8                  24431135.131
        48.000
 124791802.845 6  97240508.72444  23747041.913    23747041.5384   23747048.3154
        41.000          26.1004
 128736056.175 6 100313888.26343  24497651.690    24497650.4474   24497671.5334
        39.900          22.3004
 25  1  1 19 16 15.0000000  0 34G09E05E19G08S31S35G07E13E33S48S33R19
                                G30E04E31G16G27E21R01G04E06R07R20R08
                                R10E26R11G21E24R21R09E09G14G02
 113017827.226 7  88065837.05147  21506586.369    21506585.7844   21506592.0124
        45.900          45.6004
 138258637.635 6                  26309747.474
        38.900
 148381827.054 5                  28236196.387
        30.500
 106244631.124 8  82788166.50648  20217628.093    20217627.3334   20217631.2414
        49.700          49.5004
 198977164.683 7                  37864102.995
        45.900
 200899293.533 7                  38229881.063
        44.300
 109125571.577 8  85032960.91648  20765885.909    20765885.2754   20765886.0664
        48.800          49.1004
 148229282.038 6                  28207063.337
        38.100
 147686297.781 6                  28103765.207
        37.300
 412909908.350 5                  78573929.906
        33.200
 202123325.906 7                  38462778.316
        45.300
 119360491.376 6  92836151.295 7  22313119.748    22313119.814    22313128.605
        38.500          42.800
 118215645.109 7  92116122.38747  22495680.914    22495680.0114   22495683.9204
        44.900          43.1004
 128481665.127 7                  24449257.248
        46.600
 124473413.277 7                  23686448.602
        47.900
 130015802.104 6 101311057.41043  24741180.860    24741179.9084   24741188.2464
        38.800          20.7004
 115854602.338 7  90276479.79047  22046334.369    22046333.5744   22046337.6524
        45.300          44.4004
 150438544.228 6                  28627530.078
        37.900
 117067020.363 7  91052158.441 6  21899806.777    21899806.742    21899815.052
        46.500          37.700
 120961275.555 6  94255491.09744  23018205.492    23018205.0994   23018219.4984
        41.100          26.4004
 125179570.509 8                  23820881.436
        48.500
 123769231.148 7  96264893.759 6  23121190.555    23121191.779    23121219.802
        43.700          41.400
 114754685.456 6  89253811.216 7  21459648.666    21459649.336    21459662.584
        38.100          44.800
 111423538.389 7  86662761.859 7  20807565.449    20807565.462    20807572.854
        47.600          46.200
 106676568.168 8                  20012203.742    20012203.514
        48.500
 143703531.669 6                  27345811.466
        38.500
 115311056.539 8  89686539.524 7  21578842.480    21578842.399    21578847.609
        49.700          45.400
 122779751.344 6  95672630.93143  23364196.609    23364195.3134   23364213.1924
        37.500          18.7004
 144271602.879 6                  27453930.664
        40.000
 128452248.148 7  99907435.533 6  24004371.553    24004372.301    24004400.290
        42.500          39.100
 115601609.164 8  89912448.438 7  21648450.582    21648450.699    21648457.701
        48.100          45.000
 128379523.943 8                  24429809.289
        48.300
 124751950.726 6  97209455.30244  23739458.497    23739458.1264   23739464.4204
        41.300          26.1004
 128691467.338 6 100279143.71343  24489166.683    24489165.4364   24489186.4284
        39.100          21.4004
 25  1  1 19 16 30.0000000  0 34G09E05E19G08S31S35G07E13E33S48S33R19
                                G30E04E31G16G27E21R01G04E06R07R20R08
                                R10E26R11G21E24R21R09E09G14G02
 113059451.778 7  88098271.70047  21514507.489    21514506.9044   21514512.9824
        45.800          45.8004
 138220019.930 6                  26302398.530
        37.800
 148428851.963 5                  28245146.222
        31.700
 106253325.361 8  82794941.24748  20219282.559    20219281.7994   20219285.6884
        49.800          49.8004
 198977160.305 7                  37864098.318
        45.800
 200899269.310 7                  38229875.845
        44.200
 109106356.887 8  85017988.45148  20762229.535    20762228.9014   20762229.6254
        49.000          49.4004
 148232478.264 6                  28207671.162
        36.900
 147645705.012 6                  28096040.315
        37.200
 412910523.214 5                  78573973.692
        33.700
 202123342.459 7                  38462779.331
        45.400
 119382627.481 6  92853368.240 7  22317258.650    22317257.975    22317266.318
        39.400          42.400
 118175201.858 7  92084608.17747  22487984.758    22487983.8604   22487987.7164
        44.600          43.2004
 128514125.023 7                  24455434.383
        46.500
 124464467.665 8                  23684746.200
        48.000
 130065731.427 6 101349963.16543  24750682.373    24750681.4084   24750689.3624
        39.100          20.8004
 115895225.829 7  90308134.44147  22054064.682    22054063.9044   22054068.0554
        45.600          44.5004
 150473638.439 6                  28634208.384
        38.000
 117042871.261 7  91033375.837 6  21895288.576    21895288.686    21895297.502
        45.600          38.500
 121016275.325 6  94298347.77244  23028671.499    23028671.1194   23028685.6394
        41.100          26.4004
 125192900.361 8                  23823418.158
        48.500
 123835126.927 7  96316145.710 7  23133500.940    23133501.029    23133530.022
        43.300          42.100
 114710939.357 6  89219786.683 7  21451468.209    21451468.682    21451481.456
        37.200          44.500
 111459189.428 8  86690490.378 7  20814223.161    20814223.708    20814230.698
        48.100          46.000
 106682192.103 8                  20013259.066    20013258.679
        48.600
 143676242.770 6                  27340618.146
        38.700
 115279594.505 8  89662069.082 7  21572954.567    21572954.720    21572960.034
        49.000          45.400
 122738217.199 6  95640267.05743  23356291.909    23356290.5904   23356308.7324
        37.500          18.9004
 144239784.974 6                  27447875.818
        39.600
 128386800.133 6  99856531.658 6  23992142.012    23992141.635    23992169.692
        41.600          39.100
 115635008.419 8  89938425.616 7  21654705.403    21654705.381    21654712.450
        48.100          45.000
 128372669.363 8                  24428505.264
        48.200
 124712138.301 6  97178432.82544  23731882.182    23731881.8074   23731888.0214
        40.800          26.2004
 128646882.158 6 100244402.02143  24480682.838    24480681.5954   24480701.5914
        39.100          22.1004
 25  1  1 19 16 45.0000000  0 34G09E05E19G08S31S35G07E13E33S48S33R19
                                G30E04E31G16G27E21R01G04E06R07R20R08
                                R10E26R11G21E24R21R09E09G14G02
 113101169.267 7  88130778.76947  21522446.215    21522445.6254   21522451.6544
        45.600          45.9004
 138181443.393 6                  26295057.781
        38.700
 148475863.485 4                  28254091.838
        29.800
 106262169.586 8  82801832.86148  20220965.480    20220964.7204   20220968.6774
        49.700          50.0004
 198977150.810 7                  37864101.041
        46.300
 200899240.168 7                  38229870.868
        44.200
 109087204.949 8  85003064.86748  20758585.029    20758584.3954   20758585.1454
        48.800          49.7004
 148235775.454 6                  28208299.012
        37.700
 147605094.128 6                  28088312.621
        36.500
 412909532.862 5                  78573995.876
        33.200
 202123354.529 7                  38462783.615
        45.800
 119404947.676 6  92870728.365 7  22321430.881    22321431.224    22321439.147
        39.400          42.800
 118134783.557 7  92053113.41547  22480293.417    22480292.5324   22480296.4184
        45.300          43.5004
 128546655.967 7                  24461624.381
        46.700
 124455564.759 7                  23683051.902
        47.800
 130115645.046 6 101388856.68643  24760180.579    24760179.6094   24760187.6164
        40.100          20.7004
 115935953.522 7  90339870.28747  22061815.142    22061814.3734   22061818.2844
        45.100          44.6004
 150508713.981 6                  28640883.422
        38.200
 117018902.333 7  91014733.335 6  21890805.166    21890804.963    21890812.947
        46.200          38.200
 121071311.688 6  94341232.94644  23039144.678    23039144.2764   23039158.9664
        41.700          26.5004
 125206327.584 8                  23825973.168
        48.500
 123901030.604 7  96367403.800 7  23145813.594    23145813.476    23145841.557
        44.100          42.100
 114667324.265 6  89185864.012 7  21443312.747    21443312.469    21443325.136
        37.300          44.600
 111494997.951 8  86718341.391 7  20820909.623    20820910.201    20820917.611
        48.200          46.100
 106687867.447 8                  20014323.506    20014323.090
        48.200
 143649016.048 6                  27335436.994
        38.700
 115248160.359 8  89637620.316 7  21567071.408    21567072.082    21567077.319
        48.900          45.400
 122696728.680 6  95607938.76343  23348397.125    23348395.8064   23348413.7384
        37.200          19.2004
 144207990.175 6                  27441825.521
        39.400
 128321328.421 7  99805609.330 6  23979907.222    23979906.180    23979935.466
        42.000          40.100
 115668433.342 8  89964422.725 7  21660965.116    21660965.263    21660971.501
        48.800          45.100
 128365915.039 8                  24427219.675
        48.300
 124672353.997 6  97147432.23744  23724311.522    23724311.1604   23724316.8754
        40.700          26.3004
 128602289.326 6 100209654.35643  24472197.126    24472195.8884   24472215.7884
        38.900          23.1004
 25  1  1 19 17  0.0000000  0 34G09E05E19G08S31S35G07E13E33S48S33R19
                                G30E04E31G16G27E21R01G04E06R07R20R08
                                R10E26R11G21E24R21R09E09G14G02
 113142983.625 7  88163361.31647  21530403.303    21530402.7134   21530408.7464
        45.600          45.8004
 138142912.428 6                  26287725.341
        38.600
 148522866.062 4                  28263036.141
        29.900
 106271167.982 8  82808844.60448  20222678.024    20222677.2604   20222681.0094
        49.700          49.9004
 198977141.033 7                  37864102.516
        46.200
 200899211.358 7                  38229869.146
        44.400
 109068120.225 8  84988193.65248  20754953.562    20754952.9364   20754953.4544
        49.000          49.6004
 148239177.985 6                  28208946.096
        38.400
 147564469.658 6                  28080581.755
        37.100
 412910142.187 5                  78574029.391
        34.100
 202123366.656 7                  38462789.383
        45.700
 119427455.886 6  92888234.752 7  22325637.879    22325638.314    22325646.577
        39.400          42.700
 118094394.698 7  92021641.59347  22472607.648    22472606.7634   22472610.6654
        44.900          43.3004
 128579262.052 7                  24467829.218
        46.400
 124446708.788 7                  23681366.724
        47.900
 130165547.154 6 101427741.23843  24769676.672    24769675.7074   24769683.8084
        39.100          20.2004
 115976789.375 7  90371690.40447  22069585.713    22069584.9354   22069589.1334
        45.700          44.4004
 150543775.094 6                  28647555.603
        38.200
 116995118.263 7  90996234.613 6  21886355.537    21886355.565    21886364.108
        45.700          38.800
 121126388.576 6  94384149.70444  23049625.506    23049625.0914   23049640.3114
        41.000          26.4004
 125219856.394 8                  23828547.668
        48.800
 123966945.800 7  96418670.876 6  23158126.979    23158127.189    23158155.055
        43.900          41.200
 114623844.674 6  89152046.777 7  21435180.760    21435181.852    21435193.973
        38.200          44.400
 111530967.838 7  86746317.900 7  20827626.662    20827627.482    20827634.735
        47.700          46.000
 106693599.060 8                  20015399.565    20015398.578
        48.600
 143621856.022 6                  27330268.362
        39.000
 115216758.394 8  89613196.565 7  21561195.846    21561195.789    21561201.303
        49.900          45.700
 122655290.475 6  95575649.63043  23340511.237    23340509.9144   23340528.3764
        37.600          19.0004
 144176222.674 6                  27435779.854
        39.400
 128255837.957 6  99754672.416 6  23967668.652    23967668.266    23967696.676
        41.700          39.600
 115701888.303 8  89990443.221 7  21667229.187    21667229.913    21667236.781
        48.400          45.100
 128359265.333 8                  24425954.473
        48.500
 124632602.147 6  97116456.96144  23716746.304    23716745.9604   23716752.2584
        41.700          26.5004
 128557693.537 6 100174904.39243  24463710.101    24463708.8764   24463730.0534
        39.800          23.0004
 25  1  1 19 17 15.0000000  0 34G09E05E19G08S31S35G07E13E33S48S33R19
                                G30E04E31G16G27E21R01G04E06R07R20R08
                                R10E26R11G21E24R21R09E09G14G02
 113184893.201 7  88196018.06147  21538378.245    21538377.6554   21538383.9654
        45.800          45.6004
 138104426.017 6                  26280401.852
        38.500
 148569857.709 4                  28271978.758
        29.700
 106280319.100 8  82815975.35348  20224419.401    20224418.6414   20224422.3974
        49.600          49.8004
 198977130.323 7                  37864099.038
        46.200
 200899181.209 7                  38229863.266
        44.400
 109049101.640 8  84973373.97548  20751334.360    20751333.7394   20751334.3284
        49.100          49.6004
 148242684.364 6                  28209613.133
        38.200
 147523830.633 6                  28072848.740
        37.500
 412910750.416 5                  78574058.116
        33.200
 202123377.087 7                  38462790.040
        45.600
 119450150.460 6  92905886.077 7  22329880.402    22329880.940    22329889.440
        39.300          42.900
 118054034.164 7  91990191.83747  22464927.235    22464926.3594   22464930.2594
        45.400          43.3004
 128611941.805 7                  24474047.959
        46.000
 124437898.383 7                  23679690.207
        47.500
 130215436.254 6 101466615.66643  24779171.229    24779170.2684   24779177.8374
        38.800          20.2004
 116017731.681 7  90403593.47447  22077376.862    22077376.0894   22077380.1794
        45.500          44.4004
 150578820.333 6                  28654224.732
        38.700
 116971517.923 7  90977878.796 6  21881940.998    21881940.446    21881949.351
        46.100          38.600
 121181504.356 6  94427096.74944  23060114.682    23060114.2624   23060128.8954
        40.700          26.2004
 125233485.424 8                  23831141.454
        48.600
 124032870.966 7  96469945.701 7  23170442.343    23170442.435    23170471.209
        43.800          42.100
 114580500.459 6  89118334.789 7  21427074.917    21427075.426    21427088.272
        37.400          44.500
 111567097.170 7  86774418.427 7  20834373.929    20834374.217    20834381.747
        47.500          45.700
 106699385.093 8                  20016484.724    20016484.100
        48.600
 143594761.693 6                  27325112.365
        38.800
 115185387.248 8  89588796.797 7  21555325.076    21555325.237    21555330.429
        49.800          45.600
 122613901.745 5  95543399.06943  23332635.185    23332633.8754   23332651.5914
        35.900          19.9004
 144144481.262 6                  27429739.438
        39.200
 128190327.993 6  99703720.346 6  23955426.056    23955425.795    23955454.831
        41.500          39.600
 115735371.949 8  90016486.002 7  21673500.326    21673500.362    21673507.355
        48.000          45.300
 128352718.996 8                  24424708.543
        48.100
 124592881.447 6  97085505.93944  23709187.697    23709187.3444   23709194.0314
        40.800          26.4004
 128513093.879 6 100140151.40543  24455222.912    24455221.6744   24455243.4014
        38.400          22.8004
 25  1  1 19 17 30.0000000  0 34G09E05E19G08S31S35G07E13E33S48S33R19
                                G30E04E31G16G27E21R01G04E06R07R20R08
                                R10E26R11G21E24R21R09E09G14G02
 113226902.627 7  88228752.60747  21546372.620    21546372.0174   21546378.1764
        45.800          45.6004
 138065989.317 6                  26273087.683
        38.000
 148616843.422 4                  28280919.004
        29.500
 106289627.740 8  82823228.84648  20226190.769    20226190.0184   20226193.7734
        49.800          49.8004
 198977122.599 7                  37864089.795
        46.100
 200899153.652 7                  38229854.528
        44.400
 109030154.291 8  84958609.80948  20747728.688    20747728.0674   20747728.7744
        49.200          49.5004
 148246299.646 6                  28210301.837
        37.800
 147483182.165 6                  28065113.481
        37.100
 412909762.499 5                  78574088.528
        34.000
 202123389.705 7                  38462793.953
        45.700
 119473036.552 6  92923686.327 7  22334158.496    22334159.045    22334167.594
        38.900          42.900
 118013707.104 7  91958768.16347  22457253.269    22457252.3934   22457256.2534
        45.800          43.2004
 128644699.994 7                  24480281.749
        46.400
 124429138.451 7                  23678023.321
        47.800
 130265317.329 6 101505483.82243  24788663.151    24788662.1364   24788670.1834
        38.900          20.3004
 116058785.005 7  90435583.05547  22085189.020    22085188.2474   22085192.4574
        46.100          44.3004
 150613854.681 6                  28660891.770
        38.400
 116948106.562 7  90959669.932 6  21877561.174    21877561.346    21877569.647
        46.800          38.500
 121236663.599 6  94470077.67844  23070610.848    23070610.4374   23070625.4614
        41.300          26.1004
 125247219.585 8                  23833754.782
        48.700
 124098810.330 7  96521231.583 6  23182759.987    23182760.861    23182789.376
        43.500          41.700
 114537296.674 6  89084731.995 7  21418994.897    21418996.121    21419008.524
        38.000          44.400
 111603390.741 7  86802646.663 7  20841151.334    20841151.954    20841159.614
        47.900          46.000
 106705230.271 8                  20017581.164    20017580.761
        48.300
 143567738.180 6                  27319969.803
        39.300
 115154052.150 8  89564425.070 7  21549460.712    21549460.664    21549466.634
        49.000          45.600
 122572567.924 6  95511191.29443  23324769.290    23324767.9854   23324785.2374
        37.500          19.4004
 144112770.824 6                  27423705.272
        39.500
 128124804.112 7  99652757.346 6  23943181.405    23943182.398    23943209.520
        43.600          40.200
 115768889.470 8  90042555.131 7  21679777.208    21679777.353    21679784.194
        48.700          45.300
 128346281.073 8                  24423483.486
        48.100
 124553196.862 6  97054583.03844  23701636.203    23701635.8234   23701641.7964
        41.900          25.8004
 128468495.720 6 100105399.56643  24446736.837    24446735.6174   24446756.0244
        40.000          23.0004
 25  1  1 19 17 45.0000000  0 34G09E05E19G08S31S35G07E13E33S48S33R19
                                G30E04E31G16G27E21R01G04E06R07R20R08
                                R10E26R11G21E24R21R09E09G14G02
 113269005.937 7  88261560.31347  21554384.734    21554384.1354   21554390.2774
        45.900          45.5004
 138027596.915 6                  26265781.517
        38.000
 148663817.448 4                  28289858.690
        28.700
 106299088.161 8  82830600.60848  20227991.194    20227990.4484   20227994.0254
        50.100          49.7004
 198977112.795 7                  37864088.136
        46.000
 200899125.015 7                  38229849.999
        44.300
 109011273.041 8  84943897.16448  20744135.799    20744135.1824   20744135.7814
        48.900          49.5004
 148250018.415 6                  28211008.973
        38.300
 147442519.030 6                  28057375.264
        36.600
 412910371.319 5                  78574131.630
        33.500
 202123401.614 7                  38462795.894
        45.900
 119496107.911 6  92941630.674 7  22338472.812    22338472.171    22338480.635
        38.800          42.700
 117973408.128 7  91927366.37247  22449584.797    22449583.9214   22449587.6314
        45.300          43.2004
 128677530.864 7                  24486529.279
        46.000
 124420423.280 7                  23676364.759
        47.700
 130315184.624 6 101544341.25043  24798152.598    24798151.6064   24798160.0444
        39.900          20.2004
 116099943.450 7  90467654.55447  22093021.071    22093020.2844   22093024.6614
        45.500          44.2004
 150648872.498 6                  28667555.559
        38.100
 116924878.777 7  90941603.915 6  21873215.418    21873215.572    21873224.540
        46.100          38.800
 121291860.340 6  94513087.80844  23081115.212    23081114.7974   23081129.4544
        41.100          26.1004
 125261053.190 8                  23836386.858
        48.200
 124164757.908 7  96572523.861 7  23195080.927    23195080.839    23195110.118
        44.100          42.700
 114494228.524 6  89051234.748 7  21410942.140    21410942.139    21410954.555
        37.100          44.500
 111639842.202 7  86830997.739 7  20847958.563    20847959.073    20847966.425
        47.500          45.900
 106711129.879 8                  20018687.716    20018687.358
        48.600
 143540780.148 6                  27314839.790
        38.500
 115122747.179 8  89540076.801 7  21543602.273    21543602.471    21543608.192
        49.100          45.600
 122531283.769 6  95479022.21543  23316912.790    23316911.4894   23316928.5074
        37.400          19.2004
 144081085.758 6                  27417675.358
        39.800
 128059260.834 6  99601779.391 6  23930932.117    23930932.456    23930960.664
        41.800          40.000
 115802435.095 8  90068646.150 7  21686058.254    21686058.829    21686066.519
        48.000          45.500
 128339946.052 8                  24422278.073
        48.200
 124513542.838 6  97023683.93044  23694089.865    23694089.4544   23694095.6204
        41.900          26.0004
 128423893.766 6 100070644.77943  24438249.732    24438248.4854   24438268.9964
        39.600          23.0004
 25  1  1 19 18  0.0000000  0 34G09E05E19G08S31S35G07E13E33S48S33R19
                                G30E04E31G16G27E21R01G04E06R07R20R08
                                R10E26R11G21E24R21R09E09G14G02
 113311206.393 7  88294443.71447  21562415.135    21562414.5414   21562420.8554
        46.100          45.5004
 137989252.626 6                  26258485.483
        38.200
 148710783.055 4                  28298795.975
        29.000
 106308703.781 8  82838093.30748  20229820.556    20229819.8104   20229823.8054
        49.900          49.7004
 198977104.372 7                  37864090.881
        45.900
 200899097.335 7                  38229836.526
        43.800
 108992461.402 8  84929238.75848  20740555.998    20740555.3864   20740556.0324
        49.300          49.6004
 148253844.172 6                  28211737.090
        36.600
 147401844.987 6                  28049635.662
        36.400
 412910981.897 5                  78574166.567
        34.000
 202123414.242 7                  38462796.274
        45.600
 119519367.751 6  92959721.631 7  22342819.786    22342820.126    22342828.966
        39.200          42.900
 117933141.049 7  91895989.43847  22441921.872    22441921.0014   22441925.0004
        45.400          43.3004
 128710437.824 7                  24492791.459
        46.100
 124411756.411 7                  23674715.299
        47.600
 130365041.535 6 101583190.57443  24807640.274    24807639.3044   24807647.5224
        38.700          19.7004
 116141210.191 7  90499810.42947  22100874.059    22100873.2774   22100877.4524
        45.600          44.2004
 150683877.342 6                  28674216.727
        38.000
 116901838.422 7  90923683.612 6  21868906.106    21868905.702    21868913.212
        46.200          38.200
 121347097.850 6  94556129.72244  23091626.197    23091625.7864   23091641.0454
        40.700          25.9004
 125274989.774 8                  23839039.227
        48.100
 124230716.675 7  96623824.836 6  23207402.142    23207402.211    23207431.173
        43.300          41.700
 114451300.101 6  89017846.168 7  21402913.797    21402914.208    21402926.830
        37.600          44.500
 111676454.665 7  86859474.022 7  20854795.057    20854795.983    20854803.321
        47.800          45.600
 106717086.477 8                  20019805.200    20019804.745
        48.600
 143513891.431 6                  27309722.861
        38.900
 115091476.144 8  89515754.900 7  21537750.708    21537750.280    21537756.072
        49.200          45.400
 122490053.388 6  95446895.06243  23309066.629    23309065.3464   23309082.1424
        37.400          19.4004
 144049429.706 6                  27411651.357
        39.200
 127993702.567 7  99550789.688 6  23918681.779    23918681.802    23918710.118
        42.600          40.000
 115836012.446 7  90094761.820 7  21692346.421    21692346.766    21692354.640
        47.700          45.400
 128333717.545 8                  24421092.588
        48.100
 124473923.128 6  96992811.61444  23686550.065    23686549.6364   23686556.3344
        41.800          26.3004
 128379291.957 6 100035890.11243  24429761.853    24429760.6424   24429781.7724
        40.300          23.4004
 25  1  1 19 18 15.0000000  0 34G09E05E19G08S31S35G07E13E33S48S33R19
                                G30E04E31G16G27E21R01G04E06R07R20R08
                                R10E26R11G21E24R21R09E09G14G02
 113353501.447 7  88327400.83147  21570463.441    21570462.8474   21570469.3694
        45.600          45.5004
 137950954.544 6                  26251196.903
        37.600
 148757738.085 4                  28307731.661
        29.400
 106318472.321 8  82845705.16448  20231679.647    20231678.9014   20231682.6944
        50.200          49.8004
 198977095.395 7                  37864091.588
        46.200
 200899068.946 7                  38229835.636
        44.300
 108973717.555 8  84914633.17748  20736989.234    20736988.6224   20736989.2024
        49.300          49.7004
 148257774.734 6                  28212484.958
        37.800
 147361158.160 6                  28041892.995
        36.700
 412911591.089 5                  78574191.035
        33.700
 202123426.919 7                  38462798.407
        46.000
 119542813.997 6  92977957.560 7  22347204.803    22347203.474    22347211.876
        38.500          42.900
 117892903.907 7  91864635.84147  22434265.022    22434264.1554   22434268.0934
        46.100          43.4004
 128743418.542 7                  24499067.447
        46.100
 124403135.618 7                  23673074.967
        47.700
 130414885.907 6 101622030.12743  24817125.795    24817124.8434   24817132.4954
        39.300          19.8004
 116182582.732 7  90532048.75347  22108746.821    22108746.0394   22108750.4274
        45.500          44.3004
 150718867.106 6                  28680875.341
        38.200
 116878983.730 7  90905907.735 6  21864630.540    21864630.223    21864638.609
        46.500          38.700
 121402373.584 6  94599201.41244  23102145.309    23102144.9124   23102159.8674
        41.300          26.1004
 125289027.119 8                  23841710.379
        48.400
 124296684.005 7  96675132.496 6  23219725.660    23219725.896    23219754.334
        43.200          41.500
 114408509.485 6  88984564.756 7  21394912.012    21394911.291    21394924.517
        37.900          44.400
 111713225.691 7  86888073.619 7  20861662.400    20861662.942    20861670.285
        47.800          45.900
 106723098.168 8                  20020933.134    20020932.582
        48.400
 143487070.040 6                  27304618.726
        38.400
 115060236.695 8  89491457.561 7  21531904.119    21531904.497    21531910.096
        49.100          45.600
 122448874.992 6  95414808.40243  23301230.249    23301228.9754   23301245.8564
        38.200          19.4004
 144017800.532 6                  27405632.058
        40.000
 127928127.564 7  99499786.984 6  23906427.927    23906428.062    23906455.421
        43.600          39.400
 115869619.288 7  90120900.427 7  21698640.733    21698640.870    21698647.698
        47.700          45.400
 128327593.500 8                  24419927.677
        48.100
 124434335.474 6  96961964.28044  23679016.815    23679016.3594   23679022.7734
        40.500          26.1004
 128334688.550 6 100001134.17143  24421274.189    24421273.0184   24421293.8634
        38.500          23.0004
 25  1  1 19 18 30.0000000  0 34G09E05E19G08S31S35G07E13E33S48S33R19
                                G30E04E31G16G27E21R01G04E06R07R20R08
                                R10E26R11G21E24R21R09E09G14G02
 113395890.896 7  88360431.49247  21578529.875    21578529.2814   21578535.8994
        45.700          45.2004
 137912702.914 6                  26243918.648
        37.800
 148804682.292 4                  28316664.911
        28.600
 106328393.733 8  82853436.13948  20233567.724    20233566.9734   20233570.6764
        49.900          49.6004
 198977084.812 7                  37864086.316
        46.300
 200899039.840 7                  38229831.705
        44.500
 108955041.827 8  84900080.66648  20733435.161    20733434.5494   20733435.3094
        49.400          49.5004
 148261810.205 6                  28213252.661
        37.700
 147320458.915 6                  28034148.209
        37.300
 412910598.758 5                  78574229.661
        34.000
 202123437.550 7                  38462799.042
        45.900
 119566446.501 6  92996338.356 7  22351620.524    22351621.353    22351629.826
        38.700          43.300
 117852696.990 7  91833305.79547  22426613.542    22426612.6574   22426616.9154
        45.700          43.2004
 128776472.954 7                  24505357.380
        46.300
 124394560.929 7                  23671443.173
        47.800
 130464717.725 6 101660859.90043  24826608.457    24826607.5054   24826615.8454
        40.000          19.6004
 116224060.819 7  90564369.32347  22116639.865    22116639.0964   22116643.3964
        45.500          44.0004
 150753841.817 6                  28687531.245
        38.300
 116856314.834 7  90888276.367 6  21860389.404    21860389.475    21860397.977
        46.500          38.500
 121457687.340 6  94642302.72544  23112671.347    23112670.9504   23112686.2094
        41.400          25.7004
 125303165.251 8                  23844400.952
        48.700
 124362659.541 7  96726446.530 7  23232049.986    23232050.931    23232079.436
        44.000          42.000
 114365857.251 6  88951390.997 7  21386936.152    21386935.630    21386948.073
        37.400          44.600
 111750154.863 7  86916796.258 7  20868558.475    20868559.262    20868566.734
        47.500          45.700
 106729165.226 8                  20022071.106    20022070.677
        48.500
 143460316.406 6                  27299527.512
        38.800
 115029028.943 8  89467184.878 7  21526063.920    21526064.361    21526069.692
        49.400          45.500
 122407749.098 6  95382762.67243  23293403.148    23293401.8884   23293419.8914
        38.600          19.5004
 143986198.295 6                  27399618.630
        39.500
 127862536.181 7  99448771.563 6  23894170.643    23894170.732    23894197.823
        43.600          39.100
 115903255.659 7  90147062.033 7  21704938.915    21704939.432    21704946.658
        47.600          45.100
 128321574.099 8                  24418781.764
        48.200
 124394780.035 6  96931142.03944  23671490.010    23671489.5684   23671495.2844
        41.300          26.2004
 128290084.036 6  99966377.38743  24412786.131    24412784.9694   24412805.2924
        40.400          23.2004
 25  1  1 19 18 45.0000000  0 34G09E05E19G08S31S35G07E13E33S48S33R19
                                G30E04E31G16G27E21R01G04E06R07R20R08
                                R10E26R11G21E24R21R09E09G14G02
 113438373.327 7  88393534.63047  21586614.354    21586613.7644   21586620.1634
        46.200          45.2004
 137874496.894 6                  26236647.874
        38.600
 148851614.405 4                  28325595.447
        29.200
 106338466.811 8  82861285.30248  20235484.451    20235483.7054   20235487.5314
        50.000          49.5004
 198977073.438 7                  37864080.923
        46.000
 200899009.299 7                  38229823.375
        44.200
 108936433.440 8  84885580.62448  20729894.116    20729893.5044   20729894.2494
        49.400          49.6004
 148265949.519 6                  28214040.399
        37.000
 147279746.410 6                  28026400.494
        37.700
 412911204.631 5                  78574266.181
        34.200
 202123447.563 7                  38462800.620
        45.900
 119590263.696 6  93014862.837 7  22356073.641    22356073.756    22356082.551
        38.900          43.100
 117812519.427 7  91801998.62647  22418968.330    22418967.4364   22418971.3974
        45.900          43.2004
 128809599.834 7                  24511661.309
        46.100
 124386031.218 7                  23669820.001
        47.700
 130514535.722 6 101699678.91643  24836088.268    24836087.3034   24836095.8724
        40.300          20.0004
 116265642.995 7  90596771.00447  22124553.002    22124552.2384   22124556.1644
        45.400          44.0004
 150788800.455 6                  28694183.891
        38.900
 116833830.938 7  90870788.913 6  21856183.898    21856183.502    21856191.902
        46.200          38.400
 121513037.708 6  94685432.61544  23123203.949    23123203.5474   23123219.3804
        41.300          25.4004
 125317403.052 8                  23847110.093
        48.600
 124428641.371 7  96777765.453 7  23244376.668    23244376.390    23244405.925
        43.600          42.200
 114323343.629 6  88918325.050 7  21378984.724    21378984.615    21378997.510
        37.700          44.500
 111787240.537 7  86945640.598 7  20875484.053    20875484.880    20875492.477
        47.300          46.000
 106735286.635 8                  20023219.491    20023219.308
        48.300
 143433629.629 6                  27294449.110
        39.300
 114997851.943 8  89442936.114 7  21520229.887    21520230.069    21520235.794
        49.400          45.800
 122366675.075 6  95350757.37243  23285587.196    23285585.9004   23285603.4594
        38.500          19.2004
 143954621.882 6                  27393609.500
        39.900
 127796928.120 7  99397743.131 6  23881910.284    23881910.366    23881937.068
        42.700          39.000
 115936920.541 8  90173245.768 7  21711244.268    21711244.438    21711251.091
        48.000          45.100
 128315658.328 8                  24417656.393
        48.400
 124355255.768 6  96900344.07344  23663968.767    23663968.3474   23663973.9964
        41.000          25.9004
 128245477.716 6  99931619.22643  24404297.680    24404296.5314   24404317.1244
        40.000          23.0004
 25  1  1 19 19  0.0000000  0 34G09E05E19G08S31S35G07E13E33S48S33R19
                                G30E04E31G16G27E21R01G04E06R07R20R08
                                R10E26R11G21E24R21R09E09G14G02
 113480951.971 7  88426712.74347  21594716.504    21594715.9234   21594722.6894
        45.300          45.3004
 137836340.342 6                  26229386.797
        39.000
 148898538.041 4                  28334525.343
        28.600
 106348694.955 8  82869255.30648  20237430.931    20237430.1854   20237433.8534
        49.700          49.6004
 198977063.974 7                  37864081.200
        46.100
 200898979.983 7                  38229819.954
        44.400
 108917896.135 8  84871135.98848  20726366.622    20726366.0104   20726366.7164
        49.200          49.7004
 148270196.177 6                  28214848.353
        37.200
 147239024.405 6                  28018651.546
        36.500
 412911813.211 5                  78574299.432
        33.900
 202123459.072 7                  38462800.517
        45.700
 119614269.066 6  93033533.645 7  22360561.447    22360561.012    22360569.905
        39.300          42.800
 117772375.012 7  91770717.28547  22411328.878    22411327.9844   22411332.2294
        45.500          43.2004
 128842802.552 7                  24517979.750
        46.200
 124377549.973 7                  23668206.205
        47.600
 130564343.416 6 101738489.90343  24845567.258    24845566.3024   24845574.4654
        38.300          19.1004
 116307332.482 7  90629256.30847  22132486.117    22132485.3484   22132489.4854
        45.400          44.1004
 150823746.543 6                  28700833.454
        38.400
 116811536.036 7  90853448.434 6  21852012.836    21852012.918    21852020.911
        46.800          38.800
 121568427.828 6  94728593.45744  23133744.575    23133744.1644   23133759.8574
        41.800          25.5004
 125331744.032 8                  23849839.207
        48.600
 124494632.786 7  96829091.797 6  23256705.902    23256706.031    23256733.397
        43.200          41.700
 114280971.934 6  88885369.499 7  21371061.310    21371061.383    21371073.522
        37.900          44.300
 111824486.098 7  86974609.304 7  20882439.213    20882440.046    20882447.952
        47.200          45.900
 106741465.722 8                  20024378.476    20024378.209
        48.200
 143407013.620 6                  27289383.812
        39.400
 114966709.166 8  89418713.989 7  21514402.731    21514402.146    21514407.589
        49.900          45.400
 122325656.924 6  95318795.62743  23277781.366    23277780.0794   23277797.1244
        38.100          19.8004
 143923074.898 6                  27387605.600
        39.900
 127731307.310 7  99346704.797 6  23869647.049    23869646.633    23869675.346
        42.500          40.300
 115970617.596 8  90199454.575 7  21717554.210    21717554.447    21717561.409
        48.000          45.100
 128309849.839 8                  24416550.807
        48.200
 124315766.275 6  96869573.22044  23656453.864    23656453.4584   23656459.0954
        41.300          26.1004
 128200873.413 6  99896862.62543  24395809.957    24395808.8224   24395829.4394
        39.200          23.1004
 25  1  1 19 19 15.0000000  0 34G09E05E19G08S31S35G07E13E33S48S33R19
                                G30E04E31G16G27E21R01G04E06R07R20R08
                                R10E26R11G21E24R21R09E09G14G02
 113523622.885 7  88459962.73447  21602836.720    21602836.1354   21602842.7364
        45.500          45.5004
 137798229.845 6                  26222134.369
        39.000
 148945449.381 4                  28343452.341
        29.600
 106359074.477 8  82877343.26948  20239406.107    20239405.3564   20239408.9964
        50.000          49.7004
 198977051.970 7                  37864078.307
        46.100
 200898949.696 7                  38229807.491
        44.200
 108899426.463 8  84856744.05548  20722852.147    20722851.5354   20722852.0434
        49.000          49.8004
 148274546.613 6                  28215676.661
        37.400
 147198289.753 6                  28010900.201
        38.000
 412912419.736 5                  78574342.556
        34.300
 202123468.652 7                  38462809.139
        45.800
 119638458.997 6  93052348.030 7  22365082.993    22365083.199    22365091.757
        38.700          43.200
 117732260.369 7  91739459.14747  22403695.570    22403694.6854   22403698.6014
        45.500          43.4004
 128876077.327 7                  24524311.634
        46.200
 124369113.544 7                  23666600.536
        47.700
 130614137.209 6 101777290.17143  24855042.394    24855041.4424   24855050.1104
        38.800          19.2004
 116349125.394 7  90661822.21447  22140439.084    22140438.3064   22140442.4314
        45.200          44.2004
 150858676.628 6                  28707480.601
        38.400
 116789426.561 7  90836252.179 6  21847876.552    21847876.667    21847884.973
        46.000          39.000
 121623853.813 6  94771782.23244  23144292.323    23144291.9034   23144307.4634
        41.900          26.0004
 125346184.513 8                  23852587.154
        48.300
 124560629.425 7  96880422.291 6  23269033.851    23269033.579    23269062.688
        43.500          41.500
 114238739.815 6  88852522.499 7  21363162.289    21363163.348    21363175.630
        37.300          44.500
 111861887.119 7  87003698.894 7  20889423.785    20889424.640    20889432.340
        47.600          45.600
 106747699.073 8                  20025547.771    20025547.453
        48.300
 143380465.094 6                  27284331.648
        39.100
 114935597.095 8  89394515.725 7  21508579.057    21508579.592    21508585.478
        49.200          45.500
 122284691.541 6  95286874.99543  23269985.564    23269984.2274   23270001.5434
        38.300          19.8004
 143891553.716 6                  27381607.578
        40.100
 127665670.715 7  99295654.174 6  23857381.408    23857381.584    23857408.975
        42.700          39.700
 116004343.025 8  90225685.444 7  21723870.376    21723870.413    21723877.585
        48.600          45.800
 128304145.114 8                  24415465.233
        48.200
 124276307.921 6  96838826.58644  23648945.311    23648944.9004   23648950.3334
        40.500          26.4004
 128156268.243 6  99862105.36643  24387321.924    24387320.8294   24387341.5624
        39.400          23.6004
 25  1  1 19 19 30.0000000  0 34G09E05E19G08S31S35G07E13E33S48S33R19
                                G30E04E31G16G27E21R01G04E06R07R20R08
                                R10E26R11G21E24R21R09E09G14G02
 113566390.355 7  88493287.95547  21610975.152    21610974.5714   21610981.2274
        45.900          45.6004
 137760170.361 6                  26214891.853
        38.300
 148992352.963 4                  28352377.670
        28.700
 106369609.848 8  82885552.65748  20241410.591    20241409.8364   20241413.8084
        49.500          49.7004
 198977043.557 7                  37864079.376
        45.800
 200898922.213 7                  38229811.489
        44.200
 108881029.406 8  84842408.69048  20719351.047    20719350.4394   20719351.1874
        49.300          49.9004
 148279005.615 6                  28216524.750
        36.600
 147157547.312 6                  28003146.506
        37.400
 412911429.474 5                  78574363.662
        33.400
 202123481.418 7                  38462806.715
        45.400
 119662837.768 6  93071309.336 7  22369639.792    22369640.342    22369648.833
        39.000          42.900
 117692180.358 7  91708227.97147  22396068.464    22396067.5704   22396071.5924
        45.300          43.4004
 128909428.730 7                  24530658.171
        45.800
 124360726.569 7                  23665004.720
        47.300
 130663921.598 6 101816083.06843  24864515.843    24864514.8464   24864523.8694
        39.500          19.3004
 116391025.973 7  90694472.01047  22148412.504    22148411.7314   22148415.7814
        45.500          44.2004
 150893595.096 6                  28714125.810
        38.400
 116767507.633 7  90819204.150 6  21843777.308    21843776.677    21843784.200
        46.600          38.700
 121679319.983 6  94815002.31044  23154847.079    23154846.6374   23154862.6924
        41.400          25.5004
 125360729.116 8                  23855355.023
        48.100
 124626635.799 7  96931760.349 7  23281364.664    23281364.655    23281393.827
        42.500          42.100
 114196652.474 6  88819788.066 7  21355292.317    21355292.926    21355305.163
        38.200          44.600
 111899448.071 7  87032912.896 7  20896438.085    20896438.796    20896446.684
        47.700          45.900
 106753991.176 8                  20026728.688    20026727.948
        48.300
 143353988.631 6                  27279293.601
        38.600
 114904520.419 8  89370344.994 7  21502763.909    21502764.462    21502769.525
        49.900          45.500
 122243783.914 6  95254999.35943  23262200.744    23262199.3944   23262216.6714
        37.400          19.8004
 143860063.037 6                  27375615.369
        39.000
 127600023.731 7  99244595.507 6  23845114.259    23845114.095    23845141.096
        43.700          40.500
 116038101.646 8  90251942.119 7  21730191.939    21730192.272    21730199.145
        48.200          45.200
 128298548.909 8                  24414400.350
        48.100
 124236885.530 6  96808107.96744  23641442.974    23641442.5634   23641448.5564
        40.700          26.5004
 128111666.963 6  99827351.15143  24378834.884    24378833.8114   24378854.4314
        38.900          23.7004
 25  1  1 19 19 45.0000000  0 34G09E05E19G08S31S35G07E13E33S48S33R19
                                G30E04E31G16G27E21R01G04E06R07R20R08
                                R10E26R11G21E24R21R09E09G14G02
 113609251.939 7  88526686.52447  21619131.138    21619130.5714   21619137.5974
        46.100          45.7004
 137722159.852 6                  26207658.586
        38.300
 149039246.292 4                  28361301.020
        29.000
 106380298.722 8  82893881.64348  20243444.770    20243444.0104   20243447.8014
        49.900          49.7004
 198977036.141 7                  37864077.538
        45.700
 200898895.052 7                  38229802.787
        44.100
 108862703.053 8  84828128.40848  20715863.603    20715862.9914   20715863.7734
        49.300          49.9004
 148283571.161 6                  28217393.289
        37.400
 147116795.190 6                  27995391.745
        37.700
 412912038.155 5                  78574401.881
        33.600
 202123494.896 7                  38462810.078
        45.400
 119687403.329 6  93090415.865 7  22374232.013    22374232.873    22374241.404
        38.800          42.900
 117652133.012 7  91677022.24747  22388448.097    22388447.2344   22388450.8074
        45.300          43.5004
 128942854.402 7                  24537018.879
        46.300
 124352386.767 7                  23663417.725
        47.800
 130713694.074 6 101854866.61443  24873987.821    24873986.8114   24873995.2124
        39.500          18.8004
 116433031.674 7  90727203.69747  22156405.727    22156404.9584   22156409.2544
        45.200          44.3004
 150928499.592 6                  28720768.207
        38.000
 116745777.005 7  90802302.534 6  21839711.643    21839710.997    21839719.598
        45.900          39.100
 121734823.822 6  94858251.73344  23165409.946    23165409.4864   23165424.8574
        40.800          25.4004
 125375375.636 8                  23858141.871
        48.400
 124692649.324 7  96983103.951 6  23293697.324    23293696.616    23293725.757
        43.500          41.300
 114154707.586 6  88787164.447 7  21347448.673    21347449.079    21347460.918
        37.900          44.400
 111937166.215 7  87062249.127 7  20903482.317    20903482.554    20903490.223
        46.800          45.700
 106760340.027 8                  20027919.406    20027918.840
        48.200
 143327582.424 6                  27274268.751
        39.800
 114873476.935 8  89346200.053 7  21496955.186    21496954.657    21496960.516
        49.400          45.300
 122202932.412 6  95223167.42543  23254426.655    23254425.3104   23254442.8674
        38.200          19.6004
 143828600.699 6                  27369628.218
        40.000
 127534364.506 7  99193527.366 6  23832843.485    23832842.903    23832870.932
        42.600          40.300
 116071891.236 7  90278222.848 7  21736519.661    21736520.249    21736527.215
        47.900          45.600
 128293059.101 8                  24413355.804
        48.400
 124197496.969 6  96777415.71644  23633947.413    23633947.0074   23633953.3474
        40.900          26.8004
 128067067.801 6  99792598.58843  24370347.423    24370346.3234   24370367.3904
        40.400          23.5004
 25  1  1 19 20  0.0000000  0 34G09E05E19G08S31S35G07E13E33S48S33R19
                                G30E04E31G16G27E21R01G04E06R07R20R08
                                R10E26R11G21E24R21R09E09G14G02
 113652205.515 7  88560156.75847  21627305.473    21627304.9064   21627311.4684
        45.800          45.6004
 137684196.848 6                  26200434.690
        39.300
 149086127.481 4                  28370222.803
        28.300
 106391139.283 8  82902328.83148  20245507.755    20245507.0004   20245510.6914
        49.700          49.7004
 198977027.262 7                  37864075.119
        45.900
 200898867.681 7                  38229795.516
        43.800
 108844445.754 8  84813901.93948  20712389.619    20712389.0074   20712389.5284
        49.100          50.0004
 148288241.304 6                  28218281.616
        37.100
 147076031.941 6                  27987634.401
        37.800
 412912646.424 5                  78574429.824
        32.700
 202123507.711 7                  38462814.921
        45.400
 119712153.046 6  93109665.639 7  22378859.581    22378860.412    22378867.861
        40.000          42.600
 117612116.870 7  91645840.84447  22380833.060    22380832.1934   22380835.9644
        45.400          43.6004
 128976352.417 7                  24543393.360
        46.400
 124344092.377 8                  23661839.397
        48.100
 130763452.856 6 101893639.39743  24883456.859    24883455.8354   24883464.0564
        38.700          19.0004
 116475140.401 7  90760015.65647  22164418.932    22164418.1724   22164422.3434
        44.500          44.3004
 150963388.426 6                  28727407.842
        38.200
 116724233.234 7  90785546.272 6  21835681.632    21835680.621    21835689.508
        46.300          39.000
 121790363.203 6  94901528.82944  23175979.017    23175978.5754   23175994.3374
        40.300          25.7004
 125390122.236 8                  23860948.222
        48.600
 124758667.470 7  97034451.209 6  23306029.501    23306029.821    23306058.917
        43.100          41.500
 114112904.290 6  88754650.924 7  21339630.853    21339631.202    21339643.127
        38.200          44.400
 111975039.362 7  87091705.964 7  20910554.256    20910554.957    20910562.787
        47.300          45.700
 106766743.704 7                  20029120.933    20029120.034
        47.900
 143301245.093 6                  27269256.240
        40.200
 114842464.982 8  89322079.664 7  21491151.602    21491151.072    21491156.654
        49.000          45.400
 122162135.731 6  95191378.22843  23246663.139    23246661.8114   23246678.7854
        37.200          19.7004
 143797164.967 6                  27363645.504
        39.900
 127468691.769 7  99142448.728 6  23820569.803    23820570.602    23820598.909
        44.000          40.900
 116105710.078 8  90304526.308 7  21742852.706    21742853.372    21742860.316
        48.300          45.700
 128287674.065 8                  24412331.063
        48.700
 124158140.533 6  96746748.48844  23626458.490    23626458.1154   23626463.8584
        40.000          26.8004
 128022469.546 6  99757846.75243  24361860.338    24361859.2124   24361880.5944
        40.000          23.6004
 25  1  1 19 20 15.0000000  0 34G09E05E19G08S31S35G07E13E33S48S33R19
                                G30E04E31G16G27E21R01G04E06R07R20R08
                                R10E26R11G21E24R21R09E09G14G02
 113695249.346 7  88593697.30747  21635496.350    21635495.7834   21635502.5194
        45.900          45.4004
 137646280.170 6                  26193219.332
        38.400
 149132995.063 4                  28379141.626
        29.100
 106402129.988 8  82910893.02148  20247599.047    20247598.2874   20247602.1624
        50.000          49.4004
 198977016.626 7                  37864075.356
        45.800
 200898837.673 7                  38229791.666
        44.100
 108826256.290 8  84799728.32248  20708928.196    20708927.5844   20708928.2064
        49.200          49.8004
 148293014.622 6                  28219190.164
        37.000
 147035256.465 6                  27979875.245
        38.000
 412911552.754 5                  78574457.571
        32.600
 202123517.792 7                  38462811.366
        45.300
 119737085.486 6  93129057.511 7  22383520.509    22383520.124    22383529.129
        38.300          42.700
 117572130.722 7  91614682.80447  22373223.903    22373223.0364   22373226.9134
        45.700          43.4004
 129009921.204 7                  24549781.478
        46.300
 124335841.960 8                  23660269.399
        48.000
 130813196.335 6 101932400.18443  24892922.743    24892921.7154   24892930.0434
        39.800          18.8004
 116517350.461 7  90792906.56747  22172451.218    22172450.4814   22172454.7054
        45.200          44.1004
 150998260.253 6                  28734043.892
        38.500
 116702875.393 7  90768934.594 6  21831685.724    21831685.419    21831694.270
        46.600          38.300
 121845936.462 6  94944832.32244  23186554.460    23186554.0364   23186569.4384
        41.800          25.1004
 125404967.520 8                  23863773.237
        48.800
 124824688.656 7  97085800.806 6  23318361.655    23318362.784    23318392.511
        42.200          41.700
 114071241.715 6  88722246.858 7  21331839.014    21331840.120    21331852.196
        37.800          44.500
 112013065.751 7  87121281.957 7  20917656.728    20917656.551    20917664.287
        47.500          45.800
 106773201.029 8                  20030332.690    20030331.696
        48.100
 143274975.525 6                  27264257.262
        39.500
 114811483.114 8  89297982.637 7  21485353.036    21485353.444    21485359.137
        49.700          45.800
 122121392.793 6  95159630.93243  23238909.692    23238908.3694   23238925.1304
        37.800          19.3004
 143765754.462 6                  27357667.965
        40.000
 127403004.754 7  99091358.996 6  23808294.959    23808295.130    23808323.160
        43.000          40.300
 116139556.760 8  90330851.420 7  21749191.281    21749191.647    21749198.255
        48.000          45.400
 128282392.487 8                  24411325.977
        48.500
 124118814.843 6  96716105.24544  23618975.305    23618974.9614   23618980.3874
        41.000          26.6004
 127977871.146 6  99723094.84943  24353373.784    24353372.6714   24353393.4774
        39.800          23.5004
 25  1  1 19 20 30.0000000  0 34G09E05E19G08S31S35G07E13E33S48S33R19
                                G30E04E31G16G27E21R01G04E06R07R20R08
                                R10E26R11G21E24R21R09E09G14G02
 113738387.855 7  88627311.63847  21643705.282    21643704.7194   21643711.6314
        45.200          45.3004
 137608414.731 6                  26186013.612
        38.900
 149179853.301 4                  28388058.276
        29.300
 106413275.373 8  82919577.73448  20249719.890    20249719.1264   20249723.0624
        49.400          49.3004
 198977008.448 7                  37864077.650
        46.200
 200898810.314 7                  38229783.461
        44.000
 108808139.802 8  84785611.59348  20705480.726    20705480.1184   20705480.7554
        49.000          49.7004
 148297895.810 6                  28220118.298
        37.700
 146994473.616 6                  27972113.491
        37.700
 412912160.465 5                  78574491.072
        33.900
 202123530.451 7                  38462815.833
        45.600
 119762205.108 6  93148594.953 7  22388215.696    22388215.793    22388224.923
        38.700          42.700
 117532179.506 7  91583551.99747  22365621.337    22365620.4704   22365624.4394
        45.600          43.3004
 129043565.368 7                  24556183.585
        46.500
 124327640.178 8                  23658708.530
        48.100
 130862929.336 6 101971152.76743  24902386.947    24902385.9154   24902394.2374
        39.100          19.1004
 116559666.179 7  90825879.81547  22180503.787    22180503.0504   22180507.2174
        45.100          44.1004
 151033119.804 6                  28740677.658
        39.000
 116681708.288 7  90752471.317 6  21827725.618    21827725.936    21827734.170
        46.300          38.600
 121901547.942 6  94988165.59244  23197136.943    23197136.5194   23197152.4544
        41.400          25.2004
 125419916.111 8                  23866617.889
        48.700
 124890716.780 6  97137155.819 6  23330697.949    23330697.258    23330726.842
        41.700          41.600
 114029724.980 6  88689956.179 7  21324075.831    21324076.189    21324088.234
        38.800          44.600
 112051249.499 7  87150980.355 7  20924786.074    20924787.050    20924794.978
        47.500          46.100
 106779716.560 8                  20031554.547    20031553.978
        48.000
 143248778.631 6                  27259272.339
        40.000
 114780536.049 8  89273912.702 7  21479562.005    21479561.968    21479568.055
        48.800          45.700
 122080708.890 6  95127929.61143  23231167.650    23231166.3724   23231182.6764
        38.100          20.1004
 143734373.941 6                  27351696.655
        40.000
 127337308.620 7  99040262.136 6  23796018.845    23796018.729    23796045.565
        43.300          40.000
 116173436.154 7  90357201.972 7  21755535.526    21755536.248    21755543.322
        47.900          45.600
 128277219.115 8                  24410341.649
        48.700
 124079524.730 6  96685489.70844  23611497.543    23611497.1814   23611503.2624
        40.700          26.3004
 127933277.569 6  99688346.71443  24344887.466    24344886.3624   24344907.7734
        39.000          23.2004
 25  1  1 19 20 45.0000000  0 34G09E05E19G08S31S35G07E13E33S48S33R19
                                G30E04E31G16G27E21R01G04E06R07R20R08
                                R10E26R11G21E24R21R09E09G14G02
 113781615.520 7  88660995.45147  21651931.603    21651931.0454   21651937.7044
        46.000          45.2004
 137570595.633 6                  26178817.122
        38.300
 149226697.299 4                  28396972.474
        28.500
 106424570.117 8  82928378.82048  20251869.568    20251868.8084   20251872.3834
        49.400          49.1004
 198976997.180 7                  37864069.248
        46.200
 200898779.990 7                  38229782.186
        44.400
 108790091.174 8  84771547.74448  20702046.220    20702045.6214   20702046.1914
        49.200          49.6004
 148302879.543 6                  28221066.515
        37.200
 146953678.500 6                  27964351.132
        37.200
 412912765.614 5                  78574531.156
        33.300
 202123540.619 7                  38462823.609
        45.900
 119787506.419 6  93168273.675 7  22392946.103    22392945.638    22392954.639
        38.600          42.700
 117492258.292 7  91552444.56247  22358024.548    22358023.6774   22358027.6224
        46.100          43.1004
 129077279.542 7                  24562599.513
        46.300
 124319481.768 8                  23657156.030
        48.100
 130912646.737 6 102009893.23943  24911848.373    24911847.3454   24911855.5734
        39.600          18.7004
 116602082.066 7  90858931.11447  22188575.254    22188574.5264   22188578.7284
        45.600          43.9004
 151067962.068 6                  28747308.330
        38.600
 116660726.989 7  90736152.523 6  21823800.883    21823800.969    21823809.199
        46.600          38.800
 121957192.213 6  95031524.42144  23207725.937    23207725.5134   23207741.5384
        41.000          24.6004
 125434962.773 8                  23869481.060
        48.500
 124956746.457 7  97188512.008 6  23343032.963    23343033.052    23343062.586
        42.200          41.600
 113988349.825 6  88657775.667 7  21316338.794    21316338.391    21316350.852
        38.100          44.700
 112089584.853 7  87180796.629 7  20931945.340    20931945.934    20931953.603
        47.100          45.800
 106786284.847 8                  20032786.347    20032786.129
        48.000
 143222649.372 6                  27254300.122
        40.300
 114749618.668 8  89249865.855 7  21473776.474    21473776.332    21473782.151
        49.500          45.600
 122040079.268 6  95096270.56343  23223435.813    23223434.5264   23223450.8884
        37.400          19.0004
 143703018.209 6                  27345730.122
        40.300
 127271598.525 7  98989154.458 6  23783738.312    23783738.754    23783767.030
        43.100          41.100
 116207343.156 7  90383574.028 7  21761885.440    21761885.908    21761892.995
        47.800          45.500
 128272148.903 8                  24409376.631
        48.700
 124040265.017 6  96654897.88144  23604027.133    23604026.7714   23604032.2184
        41.400          26.3004
 127888684.225 6  99653598.80143  24336402.349    24336401.2414   24336422.0784
        40.100          23.5004
 25  1  1 19 21  0.0000000  0 34G09E05E19G08S31S35G07E13E33S48S33R19
                                G30E04E31G16G27E21R01G04E06R07R20R08
                                R10E26R11G21E24R21R09E09G14G02
 113824940.222 7  88694754.86247  21660175.714    21660175.1644   21660182.2314
        46.000          45.3004
 137532831.366 6                  26171630.775
        39.400
 149273534.859 4                  28405885.503
        29.000
 106436022.342 8  82937302.62348  20254048.882    20254048.1274   20254051.6694
        49.700          49.2004
 198976991.673 7                  37864065.751
        46.300
 200898755.398 7                  38229771.508
        44.000
 108772118.946 8  84757543.40548  20698626.237    20698625.6384   20698626.1824
        49.800          49.7004
 148307974.049 6                  28222036.926
        37.700
 146912879.670 6                  27956587.406
        36.900
 412913375.481 5                  78574553.259
        33.200
 202123555.830 7                  38462821.440
        45.800
 119812997.679 6  93188100.133 7  22397711.411    22397711.726    22397720.043
        38.500          42.800
 117452375.536 7  91521367.09547  22350435.174    22350434.3034   22350438.1744
        45.400          43.3004
 129111071.830 7                  24569030.078
        46.400
 124311374.972 8                  23655613.300
        48.100
 130962356.754 6 102048628.03743  24921307.437    24921306.4224   24921315.3934
        39.700          18.8004
 116644606.030 7  90892066.62547  22196666.997    22196666.2604   22196670.8674
        45.800          44.1004
 151102795.407 6                  28753937.528
        38.700
 116639940.095 7  90719984.952 6  21819912.563    21819912.392    21819920.484
        46.200          38.600
 122012877.105 6  95074914.89844  23218322.912    23218322.4884   23218338.0854
        41.800          24.7004
 125450115.732 8                  23872364.729
        48.600
 125022785.260 6  97239875.326 6  23355369.036    23355369.695    23355398.215
        41.500          40.700
 113947124.995 6  88625712.082 7  21308629.393    21308629.390    21308641.533
        38.600          44.800
 112128079.786 7  87210737.045 7  20939133.930    20939134.251    20939142.644
        46.800          45.900
 106792914.792 7                  20034030.465    20034029.996
        47.900
 143196596.243 6                  27249342.538
        39.900
 114718739.260 8  89225848.549 7  21467997.403    21467997.950    21468003.428
        49.100          45.500
 121999512.765 6  95064660.74443  23215715.590    23215714.2714   23215730.7124
        38.100          19.6004
 143671695.536 6                  27339768.992
        40.500
 127205883.517 7  98938042.942 6  23771458.574    23771458.159    23771485.661
        42.400          40.500
 116241285.946 7  90409973.924 7  21768242.241    21768242.082    21768249.482
        47.700          45.600
 128267190.178 8                  24408433.262
        48.700
 124001043.980 7  96624336.17844  23596563.490    23596563.1244   23596568.8164
        42.000          26.6004
 127844099.660 6  99618857.74143  24327918.348    24327917.2404   24327937.5854
        39.500          23.2004
 25  1  1 19 21 15.0000000  0 34G09E05E19G08S31S35G07E13E33S48S33R19
                                G30E04E31G16G27E21R01G04E06R07R20R08
                                R10E26R11G21E24R21R09E09G14G02
 113868351.008 7  88728581.34947  21668437.029    21668436.4794   21668443.1654
        46.300          45.5004
 137495111.507 6                  26164452.473
        38.200
 149320355.372 4                  28414795.719
        28.600
 106447621.253 8  82946340.72448  20256255.846    20256255.0914   20256258.8844
        49.800          49.2004
 198976980.819 7                  37864068.532
        46.400
 200898725.797 7                  38229763.929
        44.100
 108754212.802 8  84743590.56148  20695218.647    20695218.0304   20695218.7434
        49.800          49.9004
 148313168.862 6                  28223024.609
        38.100
 146872066.771 6                  27948820.505
        37.500
 412912380.792 5                  78574592.006
        33.700
 202123566.457 7                  38462821.395
        45.600
 119838667.856 6  93208065.770 7  22402510.049    22402510.515    22402519.055
        39.000          43.000
 117412520.832 7  91490311.49147  22342851.041    22342850.1744   22342854.0604
        45.300          43.3004
 129144931.381 7                  24575473.173
        46.600
 124303309.070 8                  23654078.619
        48.200
 131012048.635 6 102087348.73843  24930764.047    24930763.0374   24930772.0084
        39.600          19.4004
 116687227.017 7  90925277.73847  22204777.705    22204776.9594   22204781.4384
        45.900          44.2004
 151137609.188 6                  28760562.076
        38.200
 116619337.001 7  90703960.317 6  21816058.460    21816058.019    21816066.316
        46.400          38.200
 122068591.685 6  95118328.51044  23228925.312    23228924.8884   23228940.2714
        41.100          24.8004
 125465364.271 8                  23875266.574
        48.900
 125088821.773 7  97291236.873 6  23367704.685    23367705.516    23367735.350
        42.200          40.400
 113906039.772 6  88593757.072 7  21300946.065    21300946.315    21300957.877
        38.200          44.700
 112166723.160 7  87240792.928 7  20946349.970    20946350.891    20946359.025
        46.700          45.700
 106799595.192 8                  20035283.653    20035283.119
        48.400
 143170609.124 6                  27244396.770
        40.200
 114687887.175 8  89201852.482 7  21462223.903    21462223.842    21462229.652
        49.500          45.400
 121958999.106 6  95033092.07843  23208005.560    23208004.2284   23208021.2814
        38.800          19.7004
 143640395.270 6                  27333812.293
        40.600
 127140153.315 7  98886919.647 6  23759174.206    23759174.522    23759202.073
        43.200          39.800
 116275253.755 7  90436393.286 7  21774603.534    21774603.381    21774610.321
        47.700          45.600
 128262332.389 8                  24407508.689
        48.800
 123961850.962 6  96593796.27144  23589105.061    23589104.6864   23589110.3024
        40.800          26.6004
 127799513.645 6  99584115.53843  24319432.937    24319431.8064   24319452.1764
        40.300          23.0004
 25  1  1 19 21 30.0000000  0 34G09E05E19G08S31S35G07E13E33S48S33R19
                                G30E04E31G16G27E21R01G04E06R07R20R08
                                R10E26R11G21E24R21R09E09G14G02
 113911854.072 7  88762479.74447  21676715.366    21676714.8124   21676721.6414
        45.900          45.5004
 137457442.809 6                  26157284.596
        38.500
 149367165.206 4                  28423703.085
        28.300
 106459373.209 8  82955498.08648  20258492.095    20258491.3404   20258495.2194
        50.200          49.2004
 198976971.718 7                  37864068.398
        46.200
 200898697.804 7                  38229763.352
        44.100
 108736379.322 8  84729694.34048  20691825.126    20691824.5054   20691825.1534
        49.700          49.9004
 148318470.304 6                  28224033.712
        37.000
 146831246.623 6                  27941052.891
        37.800
 412912986.578 5                  78574620.745
        33.800
 202123578.277 7                  38462827.021
        45.800
 119864522.956 6  93228175.184 7  22407343.523    22407343.628    22407352.405
        38.700          42.700
 117372700.869 7  91459282.95447  22335273.903    22335273.0494   22335276.5884
        45.900          43.6004
 129178864.611 7                  24581930.514
        46.800
 124295290.494 8                  23652552.607
        48.200
 131061728.585 6 102126060.14143  24940218.194    24940217.1884   24940225.7784
        39.700          19.3004
 116729951.231 7  90958569.28547  22212908.046    22212907.2954   22212911.6844
        45.800          44.4004
 151172409.639 6                  28767184.690
        37.400
 116598924.574 7  90688083.996 6  21812240.295    21812239.603    21812247.788
        46.500          38.300
 122124342.107 6  95161770.06044  23239534.375    23239533.9424   23239549.7284
        40.900          24.7004
 125480714.830 8                  23878187.652
        48.800
 125154862.374 7  97342601.578 6  23380043.204    23380043.921    23380072.480
        43.000          41.200
 113865101.954 6  88561916.652 7  21293290.475    21293290.919    21293302.253
        38.700          44.500
 112205520.887 7  87270968.839 7  20953595.527    20953596.256    20953604.149
        46.600          45.600
 106806332.910 8                  20036547.647    20036547.149
        48.200
 143144694.532 6                  27239465.360
        39.700
 114657068.932 8  89177882.730 7  21456457.069    21456457.049    21456462.488
        49.100          45.400
 121918545.210 6  95001569.97643  23200306.994    23200305.6444   23200322.7804
        38.400          19.9004
 143609123.968 6                  27327862.121
        40.800
 127074414.942 7  98835789.962 6  23746889.699    23746890.054    23746917.493
        42.900          40.700
 116309253.141 7  90462837.196 7  21780969.661    21780970.475    21780977.840
        47.600          45.400
 128257582.078 8                  24406604.561
        48.800
 123922692.690 7  96563283.46144  23581652.976    23581652.5924   23581658.4374
        42.100          26.9004
 127754933.005 6  99549377.49843  24310949.425    24310948.2994   24310968.7664
        40.400          23.6004
 25  1  1 19 21 45.0000000  0 34G09E05E19G08S31S35G07E13E33S48S33R19
                                G30E04E31G16G27E21R01G04E06R07R20R08
                                R10E26R11G21E24R21R09E09G14G02
 113955448.540 7  88796449.37647  21685011.262    21685010.7084   21685017.4084
        46.300          45.6004
 137419824.942 6                  26150126.434
        38.100
 149413963.661 5                  28432608.543
        30.800
 106471277.559 8  82964774.20548  20260757.441    20260756.6774   20260760.5344
        49.500          49.4004
 198976963.330 7                  37864069.301
        46.100
 200898670.596 7                  38229762.042
        44.200
 108718618.456 8  84715854.71648  20688445.431    20688444.8054   20688445.3714
        49.400          50.1004
 148323878.163 6                  28225062.875
        37.100
 146790418.949 6                  27933283.473
        37.900
 412913593.363 5                  78574660.556
        33.600
 202123590.799 7                  38462827.817
        45.500
 119890562.678 6  93248428.171 7  22412211.486    22412211.987    22412220.272
        39.100          42.700
 117332915.416 7  91428281.30147  22327702.600    22327701.7464   22327705.7374
        45.800          43.6004
 129212870.797 7                  24588401.719
        46.300
 124287318.696 7                  23651035.607
        47.900
 131111396.166 6 102164761.86743  24949669.721    24949668.7204   24949677.9704
        39.100          19.4004
 116772777.828 7  90991940.61847  22221057.547    22221056.8054   22221061.4224
        45.500          44.5004
 151207196.077 6                  28773804.955
        37.300
 116578702.306 7  90672355.577 6  21808456.865    21808456.516    21808464.522
        46.500          38.300
 122180127.523 6  95205238.85244  23250150.388    23250149.9824   23250165.7844
        41.800          24.8004
 125496166.848 8                  23881127.926
        48.400
 125220905.717 7  97393968.398 6  23392381.870    23392382.196    23392409.544
        43.800          40.700
 113824311.340 6  88530190.770 7  21285661.531    21285662.296    21285674.028
        38.600          44.700
 112244472.141 7  87301264.190 7  20960869.985    20960870.540    20960878.254
        47.300          45.500
 106813127.479 8                  20037822.045    20037821.807
        48.100
 143118852.218 6                  27234547.971
        40.300
 114626284.101 8  89153938.987 7  21450696.031    21450695.847    21450701.733
        49.300          45.600
 121878150.869 6  94970094.28043  23192619.988    23192618.6744   23192635.3144
        38.500          19.7004
 143577881.116 6                  27321916.748
        40.100
 127008668.443 7  98784653.966 6  23734602.965    23734603.591    23734631.272
        43.000          41.200
 116343283.857 7  90489305.457 7  21787342.863    21787343.155    21787350.953
        47.500          45.700
 128252938.844 8                  24405721.387
        48.500
 123883568.600 6  96532797.30944  23574207.987    23574207.6034   23574213.2884
        41.400          26.8004
 127710357.521 6  99514643.49243  24302467.254    24302466.1104   24302486.5634
        39.100          23.3004
 25  1  1 19 22  0.0000000  0 34G09E05E19G08S31S35G07E13E33S48S33R19
                                G30E04E31G16G27E21R01G04E06R07R20R08
                                R10E26R11G21E24R21R09E09G14G02
 113999128.773 7  88830485.81547  21693322.905    21693322.3474   21693329.5644
        46.000          45.6004
 137382252.888 6                  26142976.459
        38.500
 149460745.052 4                  28441511.200
        28.300
 106483328.853 8  82974164.81948  20263050.817    20263050.0534   20263053.8144
        49.800          49.4004
 198976950.629 7                  37864057.679
        46.000
 200898639.006 7                  38229752.790
        44.100
 108700924.938 8  84702067.56648  20685078.405    20685077.7884   20685078.4004
        49.200          50.1004
 148329387.169 6                  28226111.468
        37.300
 146749578.702 6                  27925511.113
        38.000
 412914194.351 5                  78574693.181
        33.200
 202123599.184 7                  38462828.394
        45.600
 119916781.104 6  93268820.231 7  22417112.319    22417113.274    22417121.296
        39.200          42.500
 117293159.382 7  91397302.58347  22320136.980    22320136.1174   22320140.3824
        46.100          43.8004
 129246944.502 7                  24594885.770
        46.100
 124279388.349 8                  23649526.460
        48.000
 131161045.816 6 102203449.55243  24959118.135    24959117.1294   24959125.6674
        39.600          19.6004
 116815701.155 7  91025387.33447  22229225.754    22229225.0084   22229229.5334
        45.500          44.5004
 151241963.294 6                  28780421.405
        37.900
 116558665.294 7  90656771.249 6  21804708.004    21804708.330    21804715.997
        46.300          37.600
 122235942.313 6  95248730.54644  23260771.838    23260771.4454   23260787.3814
        41.400          24.8004
 125511714.937 8                  23884086.472
        48.500
 125286946.365 7  97445333.146 6  23404717.943    23404719.286    23404747.202
        44.800          40.800
 113783663.284 6  88498575.757 7  21278061.363    21278060.868    21278071.853
        38.600          44.200
 112283571.088 7  87331674.405 7  20968171.616    20968171.796    20968179.796
        47.400          45.600
 106819973.244 8                  20039106.607    20039105.945
        48.300
 143093077.271 6                  27229642.714
        40.500
 114595527.278 8  89130017.010 7  21444940.347    21444940.627    21444945.909
        49.500          45.800
 121837811.408 6  94938661.36243  23184944.393    23184943.0434   23184957.8784
        37.600          19.7004
 143546661.470 6                  27315975.558
        40.400
 126942908.961 7  98733507.882 6  23722314.562    23722314.150    23722341.903
        43.400          40.900
 116377340.233 8  90515793.675 7  21793720.997    21793721.124    21793728.564
        48.200          45.800
 128248397.461 8                  24404856.924
        48.600
 123844473.400 6  96502333.64544  23566768.687    23566768.3124   23566773.5144
        41.600          26.8004
 127665782.606 6  99479909.98143  24293985.012    24293983.8414   24294003.7834
        39.500          23.4004
 25  1  1 19 22 15.0000000  0 34G09E05E19G08S31S35G07E13E33S48S33R19
                                G30E04E31G16G27E21R01G04E06R07R20R08
                                R10E26R11G21E24R21R09E09G14G02
 114042906.073 7  88864597.88547  21701654.046    21701653.4964   21701660.2604
        45.300          45.6004
 137344738.434 6                  26135837.702
        39.200
 149507521.087 4                  28450411.473
        28.400
 106495538.557 8  82983678.87548  20265374.354    20265373.5854   20265377.2344
        49.600          49.4004
 198976945.179 7                  37864061.999
        46.000
 200898614.865 7                  38229752.388
        44.500
 108683310.694 8  84688342.19248  20681726.649    20681726.0414   20681726.4994
        49.200          50.1004
 148335009.108 6                  28227181.152
        37.300
 146708737.781 5                  27917738.626
        35.600
 412913201.994 5                  78574726.288
        32.700
 202123615.085 7                  38462832.579
        45.300
 119943190.067 6  93289360.441 7  22422050.435    22422049.458    22422058.633
        38.800          42.700
 117253444.651 7  91366356.04847  22312579.870    22312579.0164   22312582.8304
        45.600          43.9004
 129281097.201 7                  24601385.072
        46.400
 124271511.049 7                  23648027.571
        47.900
 131210689.131 6 102242132.25043  24968564.722    24968563.7214   24968572.7884
        40.100          19.5004
 116858732.507 7  91058918.22947  22237414.436    22237413.6854   22237418.1834
        45.000          44.6004
 151276723.013 6                  28787036.905
        38.700
 116538825.508 7  90641340.299 6  21800996.476    21800996.835    21801004.801
        46.400          38.000
 122291797.757 6  95292253.91744  23271401.127    23271400.7304   23271416.2904
        40.800          24.4004
 125527370.727 8                  23887065.891
        48.300
 125352995.232 7  97496704.322 6  23417054.266    23417056.515    23417085.723
        43.300          40.300
 113743169.424 6  88467080.665 7  21270488.305    21270488.189    21270499.733
        38.600          44.700
 112322828.838 7  87362208.048 7  20975502.223    20975502.968    20975510.928
        46.900          45.600
 106826882.103 8                  20040401.986    20040401.929
        48.100
 143067381.470 6                  27224752.673
        39.800
 114564810.296 8  89106126.039 7  21439191.289    21439191.882    21439197.786
        49.500          45.900
 121797538.896 6  94907280.61543  23177280.619    23177279.2604   23177293.9414
        38.200          20.1004
 143515476.649 6                  27310040.963
        40.600
 126877148.856 7  98682361.260 6  23710025.245    23710026.181    23710053.379
        44.300          41.200
 116411434.140 7  90542311.091 7  21800105.443    21800105.264    21800113.098
        47.600          45.600
 128243969.627 8                  24404014.465
        48.400
 123805418.831 6  96471901.65544  23559336.807    23559336.4274   23559341.7184
        41.400          27.1004
 127621220.139 6  99445186.18143  24285505.024    24285503.8664   24285523.7584
        39.600          23.8004
 25  1  1 19 22 30.0000000  0 34G09E05E19G08S31S35G07E13E33S48S33R19
                                G30E04E31G16G27E21R01G04E06R07R20R08
                                R10E26R11G21E24R21R09E09G14G02
 114086769.550 7  88898777.12747  21710000.839    21710000.2944   21710007.3444
        45.700          45.5004
 137307271.344 6                  26128706.979
        38.300
 149554280.937 4                  28459310.577
        29.500
 106507895.962 8  82993308.02248  20267725.780    20267725.0164   20267728.7534
        49.200          49.2004
 198976936.702 7                  37864058.359
        46.000
 200898587.282 7                  38229743.324
        44.000
 108665765.411 8  84674670.54148  20678387.593    20678386.9904   20678387.7314
        49.500          50.1004
 148340733.292 6                  28228270.029
        37.700
 146667885.945 6                  27909965.161
        36.600
 412913806.747 5                  78574758.739
        33.000
 202123627.017 7                  38462831.278
        45.000
 119969778.174 6  93310040.033 7  22427020.213    22427020.771    22427029.240
        39.700          42.600
 117213760.859 7  91335433.61647  22305028.276    22305027.4224   22305031.2084
        45.700          43.8004
 129315318.156 7                  24607897.019
        46.100
 124263676.155 7                  23646536.398
        47.800
 131260315.447 6 102280801.73543  24978009.225    24978008.2194   24978016.8194
        39.600          19.2004
 116901860.958 7  91092524.80047  22245621.873    22245621.1494   22245625.2964
        45.100          44.5004
 151311464.930 6                  28793647.744
        37.900
 116519172.570 7  90626054.716 6  21797320.361    21797320.437    21797328.367
        46.600          37.900
 122347682.983 6  95335800.50644  23282035.677    23282035.2664   23282051.3064
        41.700          24.6004
 125543123.579 8                  23890063.707
        48.300
 125419041.102 7  97548073.163 6  23429394.199    23429394.505    23429424.169
        42.400          40.800
 113702820.351 6  88435698.201 7  21262942.797    21262942.634    21262954.259
        38.700          44.600
 112362234.415 7  87392856.752 7  20982861.129    20982861.363    20982869.591
        46.500          45.500
 106833843.584 8                  20041708.519    20041707.960
        48.000
 143041754.448 6                  27219876.308
        40.300
 114534122.566 8  89082257.829 7  21433449.423    21433449.116    21433455.060
        49.300          45.900
 121757323.275 6  94875944.18343  23169626.673    23169625.2834   23169640.9204
        38.000          20.1004
 143484316.074 6                  27304111.218
        40.600
 126811377.751 7  98631206.178 6  23697733.666    23697734.101    23697762.154
        42.800          40.800
 116445555.241 8  90568849.669 7  21806495.529    21806495.695    21806503.230
        48.000          45.700
 128239644.886 8                  24403191.476
        48.500
 123766394.367 6  96441493.11344  23551910.552    23551910.1594   23551915.5424
        41.200          27.3004
 127576659.935 6  99410464.15944  24277025.283    24277024.1074   24277044.5204
        39.500          24.0004
