     2.11           OBSERVATION DATA    M (MIXED)           RINEX VERSION / TYPE
teqc  2019Feb25                         20260317 16:20:09UTCPGM / RUN BY / DATE
Linux 2.4.21-27.ELsmp|Opteron|gcc -static|Linux 64|=+       COMMENT
BIT 2 OF LLI FLAGS DATA COLLECTED UNDER A/S CONDITION       COMMENT
-Unknown-                                                   MARKER NAME
-Unknown-           -Unknown-                               OBSERVER / AGENCY
-Unknown-           -Unknown-           -Unknown-           REC # / TYPE / VERS
-Unknown-           -Unknown-                               ANT # / TYPE
        0.0000        0.0000        0.0000                  APPROX POSITION XYZ
        0.0000        0.0000        0.0000                  ANTENNA: DELTA H/E/N
     1     1                                                WAVELENGTH FACT L1/2
     7    L1    L2    C1    P1    P2    S1    S2            # / TYPES OF OBSERV
 SNR is mapped to RINEX snr flag value [0-9]                COMMENT
  L1 & L2: min(max(int(snr_dBHz/6), 0), 9)                  COMMENT
  2025     1     1    14     0    0.0000000     GPS         TIME OF FIRST OBS
    18                                                      LEAP SECONDS
                                                            END OF HEADER
 25  1  1 14  0  0.0000000  0 34G10G26E19E10R04S31S35G21G03R06S48S33
                                E27E11E29E04G16R22E07E21E30G04R15E33
                                R14R05G32R16E12G28G31G25R21G02
 127613729.142 6  99439247.12645  24284111.257    24284110.5964   24284122.6054
        39.900          34.5004
 112533039.313 7  87688109.10247  21414322.728    21414322.0624   21414326.6794
        46.600          45.1004
 122826731.531 7                  23373148.367
        44.600
 140022697.467 7                  26645429.514
        42.700
 119913509.470 7  93266092.147 7  22393016.485    22393017.485    22393028.803
        46.500          42.500
 198980287.445 7                  37864686.381
        45.900
 200942226.782 7                  38238049.014
        44.400
 130951881.726 5 102040425.28542  24919318.002    24919316.6614   24919320.7814
        35.900          17.2004
 113611119.175 7  88528160.33747  21619472.979    21619472.7344   21619475.5934
        46.200          45.1004
 115332474.519 6                  21613257.406    21613256.870
        37.300
 412705993.991 5                  78535086.933
        33.000
 202099475.660 7                  38458219.774
        44.800
 132537015.692 7                  25220952.147
        45.000
 144499370.561 6                  27497313.536
        36.700
 127418048.055 7                  24246844.970
        47.500
 144627794.392 6                  27521756.258
        38.800
 125848081.713 6  98063485.05143  23948088.970    23948087.8884   23948094.8154
        39.500          22.5004
 127987474.881 7  99545825.955 6  23976364.471    23976365.592    23976370.223
        42.700          39.300
 149308205.013 6                  28412450.551
        36.200
 131575640.677 7                  25038005.778
        45.400
 150911423.282 6                  28717483.030
        38.500
 128523086.387 6 100147861.19943  24457131.994    24457131.5744   24457134.7724
        38.200          20.7004
 104539332.821 8  81308419.667 8  19563104.796    19563104.691    19563110.872
        52.700          48.200
 144152153.472 6                  27431256.356
        38.600
 123406118.206 7  95982581.292 7  23150668.251    23150668.156    23150674.202
        47.600          43.100
 104727159.010 8  81454465.518 7  19591376.834    19591377.368    19591383.322
        52.900          47.800
 117121569.237 7  91263566.56447  22287492.318    22287491.8184   22287495.5304
        47.600          45.7004
 107822741.977 8  83862176.036 8  20184638.567    20184638.631    20184645.638
        51.500          48.300
 139417950.002 6                  26530351.898
        39.800
 109751549.941 8  85520692.45346  20885024.026    20885023.6734   20885024.5004
        48.500          39.5004
 105034647.861 8  81845181.76648  19987428.351    19987427.8374   19987427.4314
        51.000          51.4004
 122055467.876 7  95108185.14446  23226380.087    23226379.0954   23226383.4634
        42.200          36.6004
 127735883.318 6  99350178.137 6  23870500.072    23870499.796    23870507.421
        41.800          40.100
 128172211.070 6  99874455.38244  24390362.454    24390361.2704   24390362.5394
        40.800          24.4004
 25  1  1 14  0 15.0000000  0 34G10G26E19E10R04S31S35G21G03R06S48S33
                                E27E11E29E04G16R22E07E21E30G04R15E33
                                R14R05G32R16E12G28G31G25R21G02
 127670725.873 6  99483659.90445  24294956.886    24294956.2294   24294968.8434
        40.200          35.0004
 112492135.988 7  87656236.37347  21406539.111    21406538.4504   21406543.0424
        46.500          45.4004
 122815415.044 7                  23370995.015
        44.700
 140030966.461 7                  26647003.243
        42.800
 119957083.650 7  93299982.992 7  22401155.083    22401154.863    22401165.175
        47.100          42.100
 198980293.993 7                  37864689.175
        45.700
 200942202.600 7                  38238044.073
        44.500
 130987257.458 5 102067990.63342  24926049.734    24926048.3624   24926052.5144
        35.700          17.4004
 113575401.515 7  88500328.37747  21612676.173    21612675.9194   21612678.7094
        46.400          45.4004
 115284755.354 6                  21604314.459    21604314.036
        37.500
 412706311.743 5                  78535095.585
        33.000
 202099499.307 7                  38458226.356
        45.000
 132542939.410 7                  25222079.299
        45.100
 144488344.982 6                  27495215.655
        36.700
 127433494.344 7                  24249784.342
        47.600
 144596280.970 6                  27515760.184
        39.500
 125788336.048 6  98016930.15843  23936719.843    23936718.7704   23936725.8664
        40.100          22.8004
 127986888.577 7  99545369.978 6  23976255.695    23976255.523    23976260.123
        42.500          39.200
 149339374.121 5                  28418382.874
        35.800
 131541949.120 7                  25031594.469
        45.200
 150947593.346 6                  28724365.804
        37.300
 128480532.691 6 100114702.48443  24449034.619    24449034.1724   24449037.1694
        39.700          21.0004
 104559141.812 8  81323826.674 8  19566811.585    19566811.805    19566817.910
        52.800          48.000
 144196337.197 6                  27439663.690
        38.200
 123466832.817 7  96029803.748 7  23162057.162    23162057.678    23162064.006
        47.500          43.000
 104733316.961 8  81459255.016 7  19592529.439    19592529.486    19592535.350
        52.700          47.800
 117149662.569 7  91285457.42747  22292838.476    22292837.9854   22292841.4944
        47.200          45.7004
 107778865.783 8  83828050.118 8  20176424.867    20176425.150    20176432.019
        51.500          48.300
 139442309.318 6                  26534986.991
        40.200
 109775719.431 8  85539525.83546  20889623.251    20889622.8894   20889623.7744
        48.500          39.5004
 105033851.145 8  81844560.94748  19987276.735    19987276.2174   19987275.7984
        50.800          51.5004
 122095380.408 7  95139285.84846  23233974.958    23233973.9614   23233978.6354
        43.000          36.9004
 127777247.271 7  99382350.041 6  23878230.985    23878230.771    23878237.305
        42.000          40.200
 128201974.785 6  99897647.82344  24396026.607    24396025.4274   24396026.0054
        41.300          24.3004
 25  1  1 14  0 30.0000000  0 34G10G26E19E10R04S31S35G21G03R06S48S33
                                E27E11E29E04G16R22E07E21E30G04R15E33
                                R14R05G32R16E12G28G31G25R21G02
 127727750.933 6  99528094.75445  24305808.893    24305808.2234   24305820.7734
        40.400          35.0004
 112451333.791 7  87624442.44147  21398774.144    21398773.4604   21398778.6604
        46.800          45.4004
 122804121.436 7                  23368845.890
        44.400
 140039337.975 7                  26648596.233
        42.300
 120000727.709 7  93333928.225 7  22409304.345    22409305.044    22409315.740
        46.600          42.000
 198980295.936 7                  37864688.684
        46.000
 200942175.658 7                  38238036.511
        44.300
 131022637.546 5 102095559.43942  24932783.194    24932781.8314   24932785.3964
        35.600          17.5004
 113539787.951 7  88472577.52747  21605899.049    21605898.7814   21605901.6884
        46.000          45.5004
 115237060.366 6                  21595375.844    21595375.920
        36.900
 412705026.114 5                  78535117.662
        33.100
 202099518.483 7                  38458229.003
        45.000
 132548967.032 7                  25223226.546
        45.000
 144477421.691 5                  27493136.553
        35.900
 127448968.628 7                  24252729.108
        47.400
 144564759.903 6                  27509761.736
        39.500
 125728595.537 6  97970379.28143  23925351.180    23925350.1034   23925357.3794
        40.000          22.2004
 127986472.279 7  99545046.355 6  23976176.111    23976176.134    23976181.807
        42.600          40.100
 149370550.583 6                  28424315.504
        36.100
 131508324.329 7                  25025195.709
        45.300
 150983816.028 6                  28731258.958
        37.300
 128437971.104 6 100081537.61143  24440935.115    24440934.6644   24440937.4554
        39.700          21.1004
 104579128.690 8  81339372.012 8  19570551.841    19570552.112    19570558.141
        53.200          48.100
 144240511.432 6                  27448070.403
        38.600
 123527592.681 7  96077061.357 7  23173456.084    23173456.117    23173462.011
        47.300          42.500
 104739586.545 8  81464131.343 7  19593701.913    19593702.258    19593708.163
        52.600          47.900
 117177805.967 7  91307387.29847  22298193.915    22298193.4334   22298197.0674
        47.300          45.7004
 107735132.966 8  83794035.721 8  20168237.816    20168238.352    20168244.800
        51.800          48.300
 139466748.753 6                  26539638.151
        39.600
 109799961.277 8  85558415.57446  20894236.375    20894236.0184   20894236.8114
        48.500          39.5004
 105033168.336 8  81844028.86648  19987146.842    19987146.3194   19987145.8674
        50.800          51.6004
 122135400.432 7  95170470.25646  23241590.441    23241589.4444   23241594.6134
        42.300          36.8004
 127818698.869 7  99414590.077 6  23885977.597    23885976.909    23885983.340
        42.800          40.000
 128231790.198 6  99920880.53844  24401699.679    24401698.5084   24401699.6454
        39.900          24.1004
 25  1  1 14  0 45.0000000  0 34G10G26E19E10R04S31S35G21G03R06S48S33
                                E27E11E29E04G16R22E07E21E30G04R15E33
                                R14R05G32R16E12G28G31G25R21G02
 127784809.613 6  99572555.80445  24316667.272    24316666.6114   24316679.1744
        39.200          34.6004
 112410638.673 7  87592731.95147  21391030.383    21391029.7044   21391034.6374
        46.700          45.5004
 122792856.376 7                  23366702.119
        44.500
 140047817.537 7                  26650209.364
        42.500
 120044447.495 7  93367932.324 7  22417468.868    22417469.305    22417480.534
        46.200          42.400
 198980301.073 7                  37864689.864
        45.800
 200942150.063 7                  38238030.926
        44.200
 131058027.262 5 102123135.78642  24939517.242    24939515.9194   24939519.7714
        34.500          16.7004
 113504284.388 7  88444912.38747  21599143.227    21599142.9734   21599145.6704
        46.100          45.4004
 115189395.211 6                  21586444.103    21586443.152
        37.000
 412705343.197 5                  78535122.558
        32.400
 202099540.523 7                  38458232.563
        44.800
 132555104.112 7                  25224394.300
        45.200
 144466605.984 5                  27491079.262
        35.900
 127464476.584 7                  24255680.034
        47.600
 144533236.760 6                  27503763.187
        39.000
 125668866.087 6  97923836.98743  23913985.447    23913984.3704   23913990.3664
        39.700          22.6004
 127986231.390 7  99544859.082 6  23976131.476    23976131.785    23976136.165
        42.200          39.400
 149401740.083 5                  28430250.377
        35.100
 131474772.203 7                  25018811.025
        45.100
 151020096.970 6                  28738163.373
        39.200
 128395407.169 6 100048370.92243  24432836.059    24432835.6034   24432837.7824
        39.000          21.6004
 104599298.970 8  81355060.028 8  19574326.302    19574326.573    19574332.660
        53.100          48.200
 144284681.537 6                  27456475.650
        38.900
 123588402.767 8  96124358.018 7  23184864.643    23184864.943    23184870.528
        48.100          42.700
 104745973.934 8  81469099.303 7  19594896.729    19594897.134    19594903.048
        52.700          47.900
 117206005.105 7  91329360.61047  22303559.904    22303559.4174   22303563.3224
        47.100          45.7004
 107691549.528 8  83760137.490 8  20160078.885    20160079.103    20160086.029
        51.200          48.200
 139491273.667 6                  26544304.693
        39.800
 109824280.925 8  85577365.93946  20898864.315    20898863.9534   20898864.6684
        48.400          39.4004
 105032605.009 8  81843589.89248  19987039.737    19987039.2104   19987038.7004
        51.100          51.5004
 122175533.453 6  95201742.76746  23249227.774    23249226.7914   23249231.3584
        41.800          36.4004
 127860243.687 6  99446902.651 6  23893739.050    23893739.109    23893748.170
        41.400          40.700
 128261662.650 6  99944157.67444  24407384.812    24407383.6364   24407384.7764
        41.100          24.6004
 25  1  1 14  1  0.0000000  0 34G10G26E19E10R04S31S35G21G03R06S48S33
                                E27E11E29E04G16R22E07E21E30G04R15E33
                                R14R05G32R16E12G28G31G25R21G02
 127841900.798 6  99617042.18445  24327530.927    24327530.2614   24327543.3084
        40.300          34.6004
 112370050.177 7  87561104.54447  21383306.651    21383305.9724   21383310.8974
        46.600          45.7004
 122781618.917 7                  23364563.617
        44.600
 140056404.153 7                  26651843.727
        42.600
 120088241.929 7  93401994.480 7  22425647.570    22425647.724    22425658.765
        47.400          42.400
 198980307.294 7                  37864692.109
        46.000
 200942125.547 7                  38238024.947
        44.200
 131093425.370 5 102150718.58142  24946253.170    24946251.8834   24946256.2084
        35.100          17.2004
 113468890.433 7  88417332.70947  21592407.973    21592407.7194   21592410.4454
        46.500          45.5004
 115141759.849 6                  21577517.419    21577516.411
        37.700
 412705661.798 5                  78535142.743
        32.800
 202099563.365 7                  38458238.492
        44.800
 132561349.726 7                  25225582.842
        45.200
 144455897.329 5                  27489041.106
        35.700
 127480017.357 7                  24258637.358
        47.400
 144501710.704 6                  27497764.066
        39.800
 125609147.184 6  97877302.95243  23902620.754    23902619.6814   23902626.1894
        40.800          22.6004
 127986165.150 7  99544807.681 6  23976118.705    23976119.304    23976123.886
        42.800          39.000
 149432941.708 5                  28436188.522
        35.600
 131441292.156 7                  25012439.848
        45.100
 151056434.965 6                  28745078.011
        38.000
 128352840.259 6 100015201.89243  24424735.348    24424734.8974   24424737.2544
        39.200          20.8004
 104619651.428 8  81370889.699 8  19578134.632    19578135.143    19578141.338
        52.400          48.100
 144328846.520 6                  27464880.423
        39.400
 123649261.843 7  96171692.731 7  23196280.502    23196281.085    23196287.614
        47.500          43.000
 104752478.329 8  81474158.248 7  19596113.529    19596114.010    19596119.852
        52.800          47.900
 117234259.126 7  91351376.68947  22308936.609    22308936.1134   22308939.9754
        47.500          45.7004
 107648114.923 8  83726355.036 8  20151948.445    20151948.539    20151955.095
        52.300          48.400
 139515883.070 6                  26548988.060
        40.000
 109848677.281 8  85596376.07646  20903506.927    20903506.5654   20903507.1294
        48.600          39.5004
 105032160.237 8  81843243.32648  19986955.098    19986954.5664   19986954.0834
        51.200          51.6004
 122215778.195 7  95233102.33646  23256886.471    23256885.5014   23256889.4814
        42.300          36.6004
 127901880.452 7  99479286.673 6  23901521.459    23901521.709    23901528.963
        42.100          40.800
 128291590.911 6  99967478.29944  24413080.004    24413078.8374   24413080.0184
        40.800          24.4004
 25  1  1 14  1 15.0000000  0 34G10G26E19E10R04S31S35G21G03R06S48S33
                                E27E11E29E04G16R22E07E21E30G04R15E33
                                R14R05G32R16E12G28G31G25R21G02
 127899021.661 6  99661551.69845  24338400.929    24338400.2684   24338413.0224
        40.000          34.8004
 112329566.111 7  87529558.51947  21375603.031    21375602.3704   21375607.0744
        46.400          45.8004
 122770406.723 7                  23362430.016
        44.900
 140065095.295 7                  26653497.423
        42.700
 120132108.347 8  93436112.616 7  22433839.652    22433840.403    22433851.086
        48.200          42.400
 198980311.585 7                  37864691.434
        46.000
 200942099.996 7                  38238020.655
        44.400
 131128829.100 5 102178305.80942  24952989.795    24952988.5434   24952993.2754
        35.300          17.0004
 113433603.753 7  88389836.59747  21585692.651    21585692.3794   21585695.5844
        46.400          45.7004
 115094151.627 6                  21568595.441    21568595.225
        38.000
 412705980.030 5                  78535151.771
        32.700
 202099584.095 7                  38458242.217
        45.000
 132567701.442 7                  25226791.371
        45.300
 144445293.548 6                  27487023.048
        36.800
 127495588.544 7                  24261600.425
        47.400
 144470179.252 6                  27491763.911
        40.000
 125549436.745 6  97830775.50643  23891257.402    23891256.3074   23891263.8504
        40.400          22.9004
 127986270.735 7  99544889.846 6  23976139.734    23976139.141    23976144.236
        43.500          39.900
 149464153.058 6                  28442127.835
        36.100
 131407881.790 7                  25006082.169
        45.200
 151092827.306 6                  28752003.475
        38.900
 128310267.971 6  99982028.77243  24416633.886    24416633.4354   24416636.0164
        39.100          21.4004
 104640183.178 8  81386858.848 8  19581976.982    19581977.541    19581983.561
        52.800          48.100
 144373003.554 6                  27473282.692
        38.600
 123710167.523 7  96219063.747 7  23207706.288    23207706.219    23207712.967
        46.400          42.600
 104759097.419 8  81479306.400 7  19597351.942    19597352.310    19597358.165
        52.800          47.700
 117262565.587 7  91373433.62247  22314323.156    22314322.6564   22314326.5314
        47.200          45.6004
 107604826.901 8  83692686.591 8  20143843.808    20143844.546    20143851.285
        51.600          48.400
 139540574.259 6                  26553686.264
        39.800
 109873147.677 8  85615443.89146  20908163.501    20908163.1394   20908163.6984
        48.300          39.5004
 105031831.335 8  81842987.03348  19986892.580    19986892.0484   19986891.5034
        51.000          51.7004
 122256131.630 6  95264546.48246  23264564.734    23264563.7644   23264568.6474
        41.700          36.3004
 127943605.953 7  99511739.760 6  23909318.184    23909317.992    23909326.199
        42.600          40.600
 128321572.370 6  99990840.36644  24418785.205    24418784.0474   24418785.7864
        40.700          24.3004
 25  1  1 14  1 30.0000000  0 34G10G26E19E10R04S31S35G21G03R06S48S33
                                E27E11E29E04G16R22E07E21E30G04R15E33
                                R14R05G32R16E12G28G31G25R21G02
 127956175.747 6  99706087.09545  24349277.141    24349276.4714   24349289.7114
        39.500          34.9004
 112289190.615 7  87498097.08447  21367919.757    21367919.1004   21367923.8654
        46.500          45.9004
 122759223.615 7                  23360301.910
        44.900
 140073894.691 7                  26655172.075
        42.600
 120176050.568 7  93470289.714 7  22442045.464    22442045.406    22442056.835
        47.200          42.200
 198980318.727 7                  37864692.690
        45.600
 200942076.841 7                  38238017.288
        44.100
 131164242.051 6 102205900.18142  24959729.495    24959728.2394   24959732.1674
        36.000          17.9004
 113398428.529 7  88362427.33247  21578999.263    21578998.9824   21579001.9904
        46.400          45.8004
 115046574.961 6                  21559679.738    21559678.863
        37.400
 412706301.090 5                  78535173.061
        32.500
 202099608.850 7                  38458248.325
        44.800
 132574162.846 7                  25228020.880
        45.600
 144434798.038 6                  27485025.791
        37.000
 127511193.959 7                  24264570.303
        47.700
 144438646.226 6                  27485763.057
        39.200
 125489738.905 6  97784257.86243  23879897.687    23879896.5834   23879903.7514
        39.400          22.6004
 127986551.841 7  99545108.404 6  23976190.235    23976191.155    23976196.894
        42.100          39.200
 149495377.909 5                  28448070.005
        35.800
 131374545.146 7                  24999738.779
        45.600
 151129277.315 6                  28758939.140
        37.700
 128267693.742 6  99948853.99743  24408532.765    24408532.3004   24408534.8004
        38.400          21.2004
 104660897.964 8  81402970.359 8  19585853.766    19585853.924    19585860.042
        52.800          48.100
 144417156.204 6                  27481685.400
        38.700
 123771122.848 7  96266473.448 7  23219143.021    23219142.631    23219148.270
        47.700          42.700
 104765835.148 8  81484546.823 7  19598612.516    19598612.820    19598618.488
        52.900          47.800
 117290928.259 7  91395534.36247  22319720.373    22319719.8684   22319723.7534
        47.200          45.7004
 107561689.980 8  83659135.653 8  20135769.345    20135769.292    20135776.107
        51.700          48.400
 139565350.740 6                  26558401.152
        39.700
 109897695.632 8  85634572.13946  20912834.819    20912834.4574   20912835.1044
        48.200          39.5004
 105031622.015 8  81842823.92348  19986852.472    19986851.9364   19986851.6744
        50.700          51.8004
 122296597.727 6  95296078.52846  23272265.778    23272264.8224   23272269.3944
        41.900          36.7004
 127985423.379 7  99544264.235 6  23917133.941    23917133.015    23917140.001
        42.000          39.100
 128351610.407 6 100014246.53444  24424501.802    24424500.6444   24424501.9374
        40.300          24.5004
 25  1  1 14  1 45.0000000  0 34G10G26E19E10R04S31S35G21G03R06S48S33
                                E27E11E29E04G16R22E07E21E30G04R15E33
                                R14R05G32R16E12G28G31G25R21G02
 128013361.028 6  99750646.79445  24360159.204    24360158.5294   24360172.2504
        39.500          34.9004
 112248922.368 7  87466719.22847  21360256.917    21360256.2654   21360261.0654
        47.400          46.0004
 122748067.946 7                  23358179.217
        44.700
 140082800.472 7                  26656867.000
        42.600
 120220066.849 7  93504524.414 7  22450265.099    22450265.522    22450277.247
        46.100          42.400
 198980326.934 7                  37864693.052
        45.600
 200942054.268 7                  38238011.202
        44.300
 131199662.107 5 102233500.12042  24966469.541    24966468.2634   24966472.7264
        35.500          17.3004
 113363363.387 7  88335103.84947  21572326.720    21572326.4304   21572329.3144
        46.500          45.9004
 114999028.277 6                  21550768.292    21550767.814
        36.700
 412706623.470 5                  78535189.615
        33.100
 202099632.676 7                  38458254.263
        45.100
 132580732.296 7                  25229271.052
        45.400
 144424409.407 6                  27483048.570
        36.100
 127526831.927 7                  24267546.060
        47.700
 144407109.991 6                  27479762.138
        38.700
 125430052.476 6  97737749.10643  23868540.293    23868539.1984   23868545.5664
        40.100          22.7004
 127987007.093 6  99545462.542 6  23976276.127    23976275.686    23976281.408
        41.900          39.400
 149526614.640 5                  28454014.373
        35.100
 131341280.768 7                  24993408.338
        45.700
 151165783.375 6                  28765886.325
        38.600
 128225116.343 6  99915676.79543  24400430.023    24400429.5364   24400432.7294
        38.900          21.3004
 104681793.409 8  81419222.361 8  19589763.852    19589764.255    19589770.418
        52.400          48.000
 144461302.565 6                  27490086.165
        38.900
 123832125.436 7  96313919.859 7  23230584.868    23230585.446    23230591.483
        46.400          42.200
 104772689.863 8  81489878.248 7  19599894.686    19599894.960    19599900.949
        52.600          47.900
 117319345.475 7  91417677.60047  22325128.258    22325127.7494   22325131.3584
        46.900          45.7004
 107518702.573 8  83625701.019 8  20127721.401    20127722.053    20127728.667
        52.100          48.400
 139590210.651 6                  26563132.037
        39.700
 109922319.286 8  85653759.38146  20917520.524    20917520.1674   20917520.8324
        48.400          39.5004
 105031530.563 8  81842752.66948  19986835.241    19986834.7144   19986834.2714
        51.000          51.8004
 122337173.970 6  95327696.34046  23279987.394    23279986.4514   23279990.6574
        40.700          36.2004
 128027330.801 6  99576858.874 6  23924963.751    23924964.114    23924972.585
        41.700          40.300
 128381702.989 6 100037695.21844  24430227.905    24430226.7434   24430227.8414
        41.000          24.6004
 25  1  1 14  2  0.0000000  0 34G10G26E19E10R04S31S35G21G03R06S48S33
                                E27E11E29E04G16R22E07E21E30G04R15E33
                                R14R05G32R16E12G28G31G25R21G02
 128070570.046 6  99795224.98645  24371046.799    24371046.1474   24371059.0864
        39.800          34.8004
 112208754.504 7  87435419.60347  21352613.071    21352612.4144   21352617.3634
        47.200          45.9004
 122736932.763 7                  23356060.163
        44.600
 140091805.329 7                  26658580.305
        42.300
 120264149.763 7  93538810.932 7  22458497.568    22458497.967    22458508.919
        46.500          42.300
 198980328.417 7                  37864695.011
        45.900
 200942025.640 7                  38238006.770
        44.500
 131235081.691 5 102261099.65942  24973209.156    24973207.8644   24973212.9284
        35.700          16.1004
 113328401.457 7  88307860.79747  21565673.712    21565673.4224   21565676.2824
        46.600          45.9004
 114951504.718 6                  21541863.376    21541862.693
        37.600
 412705340.758 5                  78535209.352
        33.200
 202099650.861 7                  38458255.234
        45.100
 132587402.481 7                  25230540.165
        45.300
 144414120.252 6                  27481091.250
        36.000
 127542495.329 7                  24270526.586
        47.400
 144375563.350 6                  27473759.220
        39.000
 125370370.664 6  97691243.98343  23857182.657    23857181.5844   23857188.1194
        40.700          22.7004
 127987628.913 6  99545946.151 6  23976392.811    23976392.874    23976398.985
        41.200          40.500
 149557856.055 5                  28459959.461
        35.600
 131308081.661 7                  24987091.104
        45.300
 151202338.109 6                  28772842.438
        38.000
 128182528.624 6  99882491.59643  24392326.003    24392325.5124   24392328.3024
        39.100          20.5004
 104702862.304 8  81435609.339 8  19593706.834    19593706.979    19593713.035
        52.800          48.100
 144505435.135 6                  27498484.537
        38.700
 123893167.584 7  96361397.052 7  23242038.130    23242037.124    23242043.255
        46.900          42.500
 104779654.430 8  81495295.119 7  19601197.828    19601198.004    19601203.886
        52.900          47.800
 117347810.070 7  91439857.76147  22330544.900    22330544.4044   22330548.0624
        47.500          45.6004
 107475857.612 8  83592377.223 8  20119701.153    20119701.161    20119707.855
        51.600          48.300
 139615146.602 6                  26567877.149
        39.600
 109947011.262 8  85672999.88346  20922219.387    20922219.0344   20922219.5864
        48.300          39.3004
 105031549.508 8  81842767.44748  19986838.998    19986838.4714   19986837.8484
        51.400          51.7004
 122377852.901 7  95359394.10046  23287728.226    23287727.2874   23287731.5414
        42.200          36.1004
 128069320.071 6  99609517.154 6  23932812.398    23932811.235    23932819.469
        41.900          40.500
 128411842.519 6 100061180.48644  24435963.077    24435961.9154   24435963.3994
        41.500          24.3004
 25  1  1 14  2 15.0000000  0 34G10G26E19E10R04S31S35G21G03R06S48S33
                                E27E11E29E04G16R22E07E21E30G04R15E33
                                R14R05G32R16E12G28G31G25R21G02
 128127810.810 6  99839827.93145  24381938.764    24381938.1034   24381951.5294
        39.900          34.5004
 112168695.668 7  87404204.92647  21344990.164    21344989.4984   21344994.3964
        46.500          45.9004
 122725826.165 7                  23353946.723
        44.600
 140100917.642 7                  26660314.502
        42.600
 120308307.652 7  93573155.735 7  22466744.351    22466744.744    22466755.440
        47.700          42.700
 198980331.475 7                  37864693.316
        46.000
 200941998.478 7                  38238001.427
        44.300
 131270508.802 5 102288705.10442  24979950.928    24979949.6364   24979954.5574
        34.800          16.6004
 113293551.400 7  88280704.91447  21559041.883    21559041.5934   21559044.5394
        46.200          46.0004
 114904012.682 6                  21532962.934    21532963.100
        36.900
 412705660.355 5                  78535216.391
        32.300
 202099670.875 7                  38458258.628
        45.000
 132594181.708 7                  25231830.494
        45.200
 144403939.150 6                  27479153.333
        36.200
 127558192.517 7                  24273513.870
        47.300
 144344014.576 6                  27467755.423
        40.200
 125310702.059 6  97644749.17943  23845827.928    23845826.8514   23845833.4844
        39.400          22.3004
 127988425.834 6  99546565.981 6  23976542.214    23976541.269    23976547.090
        41.400          38.600
 149589110.497 5                  28465907.102
        35.100
 131274956.381 7                  24980787.646
        45.400
 151238949.466 6                  28779809.332
        37.300
 128139938.853 6  99849304.78043  24384221.411    24384220.9114   24384223.7104
        38.500          21.2004
 104724112.579 8  81452137.365 8  19597683.450    19597683.624    19597689.778
        52.800          48.100
 144549561.998 6                  27506881.518
        39.700
 123954257.461 7  96408911.410 7  23253497.395    23253497.275    23253503.518
        46.900          42.800
 104786737.763 8  81500804.352 7  19602522.136    19602522.959    19602528.935
        52.600          47.800
 117376330.400 7  91462081.34947  22335972.093    22335971.5974   22335975.3424
        46.600          45.5004
 107433164.059 8  83559171.184 8  20111708.698    20111708.842    20111715.590
        51.900          48.500
 139640166.676 6                  26572638.147
        40.000
 109971779.570 8  85692299.85246  20926932.616    20926932.2684   20926932.8284
        48.200          39.2004
 105031687.034 8  81842874.62248  19986865.086    19986864.5504   19986864.0124
        50.900          51.7004
 122418642.981 6  95391178.61446  23295490.252    23295489.2914   23295493.6024
        41.800          36.0004
 128111399.200 7  99642245.348 6  23940673.151    23940674.190    23940682.558
        42.200          40.200
 128442037.232 6 100084708.76743  24441709.304    24441708.1424   24441709.0094
        40.600          23.5004
 25  1  1 14  2 30.0000000  0 34G10G26E19E10R04S31S35G21G03R06S48S33
                                E27E11E29E04G16R22E07E21E30G04R15E33
                                R14R05G32R16E12G28G31G25R21G02
 128185081.737 6  99884454.36745  24392837.313    24392836.6434   24392849.6114
        40.000          34.2004
 112128744.918 7  87373074.46947  21337387.789    21337387.1284   21337392.0694
        47.100          46.1004
 122714747.107 7                  23351838.294
        44.700
 140110135.891 7                  26662068.838
        42.800
 120352539.167 7  93607557.838 7  22475003.902    22475004.054    22475015.972
        46.700          42.700
 198980335.688 7                  37864697.068
        45.700
 200941972.114 7                  38237996.168
        44.200
 131305941.987 6 102316315.29942  24986694.265    24986692.9964   24986697.2764
        36.700          17.3004
 113258812.166 7  88253635.38447  21552431.416    21552431.1394   21552433.8854
        45.700          46.0004
 114856551.591 6                  21524068.286    21524068.667
        37.400
 412705981.496 5                  78535230.901
        32.700
 202099691.740 7                  38458262.898
        44.900
 132601068.754 7                  25233141.055
        45.100
 144393864.791 6                  27477236.191
        36.200
 127573922.253 7                  24276506.899
        47.500
 144312462.376 6                  27461751.065
        40.000
 125251045.784 6  97598263.94843  23834475.770    23834474.7154   23834480.6784
        40.000          22.4004
 127989396.264 7  99547320.768 6  23976723.594    23976723.962    23976730.462
        42.400          39.400
 149620376.684 5                  28471857.864
        34.700
 131241903.810 7                  24974497.738
        45.400
 151275615.969 6                  28786787.028
        38.500
 128097345.704 6  99816115.34643  24376115.928    24376115.3964   24376118.3714
        39.500          20.9004
 104745542.428 8  81468805.035 8  19601693.787    19601693.860    19601700.046
        52.400          48.100
 144593681.640 6                  27515277.369
        38.800
 124015393.214 7  96456461.463 7  23264966.061    23264966.191    23264972.930
        47.000          42.600
 104793938.247 8  81506404.713 7  19603869.730    19603869.995    19603875.824
        52.800          47.700
 117404905.119 7  91484347.31647  22341409.828    22341409.3324   22341413.0054
        47.200          45.6004
 107390620.802 8  83526081.997 8  20103743.483    20103744.440    20103751.411
        51.400          48.300
 139665269.358 6                  26577415.123
        39.500
 109996622.775 8  85711658.21146  20931660.089    20931659.7364   20931660.2864
        48.300          39.2004
 105031941.706 8  81843073.07248  19986913.564    19986913.0284   19986912.4714
        51.000          51.8004
 122459542.078 6  95423048.05145  23303272.926    23303271.9564   23303276.6404
        40.800          35.9004
 128153566.302 7  99675041.900 6  23948554.760    23948555.380    23948562.370
        43.200          39.900
 128472285.159 6 100108278.50743  24447465.779    24447464.6534   24447464.8244
        40.500          23.8004
 25  1  1 14  2 45.0000000  0 34G10G26E19E10R04S31S35G21G03R06S48S33
                                E27E11E29E04G16R22E07E21E30G04R15E33
                                R14R05G32R16E12G28G31G25R21G02
 128242388.075 6  99929108.41445  24403742.780    24403742.0874   24403754.9864
        39.800          34.5004
 112088908.130 7  87342032.81647  21329807.251    21329806.5944   21329811.3684
        46.600          46.1004
 122703701.010 7                  23349736.395
        44.700
 140119465.546 7                  26663843.959
        42.100
 120396849.980 7  93642021.593 7  22483278.271    22483279.288    22483291.009
        46.800          42.800
 198980346.124 7                  37864698.387
        45.900
 200941952.345 7                  38237993.315
        44.500
 131341386.367 5 102343934.21642  24993438.517    24993437.2034   24993442.4064
        34.800          17.2004
 113224189.666 7  88226656.78547  21545843.162    21545842.8904   21545845.4594
        46.500          46.2004
 114809127.283 6                  21515181.304    21515181.291
        37.200
 412706308.347 5                  78535248.891
        32.400
 202099718.832 7                  38458270.934
        45.200
 132608069.083 7                  25234473.024
        45.400
 144383902.869 6                  27475340.751
        36.400
 127589690.091 7                  24279507.619
        47.700
 144280912.297 6                  27455747.172
        40.300
 125191407.776 6  97551792.96643  23823126.841    23823125.8004   23823132.1974
        40.300          22.9004
 127990545.701 7  99548214.681 6  23976939.908    23976940.044    23976944.393
        44.000          39.300
 149651660.191 5                  28477811.422
        35.700
 131208929.693 7                  24968222.936
        45.400
 151312342.898 6                  28793776.130
        38.600
 128054754.926 6  99782927.73643  24368011.793    24368011.2524   24368013.4434
        38.500          20.7004
 104767157.306 8  81485616.570 8  19605738.748    19605738.877    19605744.995
        52.500          48.100
 144637799.349 6                  27523672.865
        38.500
 124076580.056 7  96504051.292 7  23276444.873    23276444.426    23276450.691
        45.800          42.700
 104801262.170 8  81512101.068 7  19605239.593    19605239.859    19605245.987
        52.200          47.800
 117433539.856 7  91506660.04347  22346858.768    22346858.2594   22346862.0934
        47.500          45.5004
 107348233.842 8  83493114.389 8  20095809.481    20095809.545    20095816.445
        51.700          48.500
 139690460.034 6                  26582208.849
        39.300
 110021546.139 8  85731078.99646  20936402.732    20936402.3754   20936403.0504
        48.400          39.1004
 105032319.005 8  81843367.08948  19986985.316    19986984.7804   19986984.2454
        50.800          51.8004
 122500555.782 6  95455006.78945  23311077.898    23311076.9154   23311081.3434
        41.400          35.7004
 128195826.573 7  99707910.980 6  23956451.915    23956452.422    23956460.195
        42.000          40.300
 128502591.651 6 100131893.89244  24453232.440    24453231.3094   24453232.3144
        40.400          24.0004
 25  1  1 14  3  0.0000000  0 34G10G26E19E10R04S31S35G21G03R06S48S33
                                E27E11E29E04G16R22E07E21E30G04R15E33
                                R14R05G32R16E12G28G31G25R21G02
 128299719.246 6  99973781.80345  24414652.765    24414652.0464   24414665.3074
        39.200          34.3004
 112049175.353 7  87311072.20847  21322246.450    21322245.7984   21322250.4624
        46.700          46.1004
 122692677.804 7                  23347638.691
        45.200
 140128896.210 7                  26665638.776
        42.300
 120441229.276 7  93676538.609 7  22491566.695    22491567.476    22491578.620
        46.900          42.800
 198980351.818 7                  37864700.574
        45.900
 200941927.765 7                  38237988.629
        44.500
 131376831.315 5 102371553.51042  25000185.346    25000184.0634   25000187.2134
        34.800          16.6004
 113189674.013 7  88199761.49247  21539274.588    21539274.3164   21539277.3564
        46.800          46.2004
 114761729.420 6                  21506298.992    21506299.048
        38.000
 412706631.481 5                  78535265.462
        32.300
 202099741.413 7                  38458276.689
        45.300
 132615171.962 7                  25235824.704
        45.600
 144374043.047 6                  27473464.133
        36.700
 127605485.767 7                  24282513.333
        47.900
 144249354.094 6                  27449742.016
        40.300
 125131778.068 6  97505328.39343  23811779.459    23811778.4224   23811784.6004
        40.000          22.9004
 127991863.814 7  99549239.897 6  23977185.317    23977186.498    23977192.135
        42.300          40.100
 149682950.722 5                  28483765.186
        35.900
 131176023.940 7                  24961961.487
        46.000
 151349120.256 6                  28800774.268
        38.000
 128012156.189 6  99749733.95943  24359904.976    24359904.4134   24359907.1434
        39.300          20.9004
 104788946.433 8  81502563.687 8  19609816.555    19609816.487    19609822.466
        53.100          48.000
 144681904.525 6                  27532065.560
        39.300
 124137806.992 7  96551672.260 7  23287930.852    23287931.345    23287937.775
        47.200          42.700
 104808699.003 8  81517885.241 7  19606631.368    19606631.361    19606637.350
        52.400          47.900
 117462224.288 7  91529011.49947  22352317.015    22352316.5014   22352320.5714
        47.200          45.5004
 107305993.321 8  83460260.723 8  20087901.674    20087902.196    20087909.136
        51.700          48.600
 139715728.134 6                  26587017.114
        39.900
 110046539.119 8  85750554.03446  20941158.667    20941158.3014   20941159.0004
        48.300          39.1004
 105032808.375 8  81843748.40048  19987078.606    19987078.0834   19987077.3894
        51.200          51.9004
 122541673.446 6  95487046.73045  23318901.949    23318900.9754   23318905.4534
        41.500          35.8004
 128238168.910 7  99740843.883 6  23964366.031    23964365.087    23964373.008
        42.800          40.500
 128532945.998 6 100155546.53443  24459009.063    24459007.9054   24459008.8054
        40.500          23.9004
 25  1  1 14  3 15.0000000  0 34G10G26E19E10R04S31S35G21G03R06S48S33
                                E27E11E29E04G16R22E07E21E30G04R15E33
                                R14R05G32R16E12G28G31G25R21G02
 128357073.941 6 100018473.52245  24425566.773    24425566.0364   24425579.8854
        39.000          33.9004
 112009545.939 7  87280192.15447  21314705.237    21314704.5854   21314709.2194
        46.900          46.1004
 122681676.385 7                  23345545.216
        44.800
 140138426.818 6                  26667452.600
        41.800
 120485676.135 7  93711108.188 7  22499866.944    22499867.367    22499878.792
        47.000          42.500
 198980353.153 7                  37864699.478
        45.900
 200941898.292 7                  38237984.180
        44.500
 131412275.630 6 102399172.34442  25006929.205    25006927.9004   25006931.8784
        36.100          16.9004
 113155264.333 7  88172948.72947  21532726.537    21532726.2604   21532729.4304
        47.000          46.2004
 114714357.646 6                  21497422.671    21497421.974
        38.100
 412706950.656 5                  78535279.866
        32.400
 202099759.487 7                  38458277.091
        45.200
 132622376.824 7                  25237196.040
        45.500
 144364284.300 6                  27471607.746
        37.000
 127621308.360 7                  24285524.366
        47.700
 144217786.723 6                  27443734.977
        40.500
 125072156.065 6  97458869.84243  23800433.821    23800432.7754   23800438.8514
        40.000          22.4004
 127993349.538 7  99550395.426 6  23977464.798    23977465.442    23977469.890
        42.800          39.800
 149714247.326 5                  28489721.601
        34.800
 131143185.775 7                  24955712.363
        45.900
 151385946.126 6                  28807781.932
        37.900
 127969548.688 6  99716533.36243  24351797.585    24351797.0094   24351799.2954
        38.400          21.5004
 104810908.405 8  81519645.263 8  19613925.931    19613926.359    19613932.308
        52.700          48.100
 144725995.910 6                  27540456.563
        38.900
 124199072.349 7  96599323.119 7  23299423.843    23299423.643    23299430.426
        47.200          42.500
 104816247.797 8  81523756.505 7  19608043.162    19608043.472    19608049.480
        52.600          47.700
 117490957.452 7  91551400.93047  22357785.222    22357784.7134   22357788.3644
        47.200          45.3004
 107263898.208 8  83427520.165 8  20080021.307    20080021.682    20080028.550
        51.700          48.400
 139741072.438 6                  26591840.342
        39.600
 110071600.619 8  85770082.48446  20945927.815    20945927.4494   20945928.0404
        48.400          38.9004
 105033408.794 8  81844216.26148  19987192.800    19987192.2824   19987191.6614
        51.100          51.8004
 122582893.302 6  95519166.15645  23326745.477    23326744.5074   23326749.1844
        40.800          35.5004
 128280591.702 7  99773839.329 6  23972293.628    23972294.057    23972300.086
        42.900          40.000
 128563347.034 6 100179235.58943  24464794.484    24464793.3264   24464794.1324
        40.200          23.6004
 25  1  1 14  3 30.0000000  0 34G10G26E19E10R04S31S35G21G03R06S48S33
                                E27E11E29E04G16R22E07E21E30G04R15E33
                                R14R05G32R16E12G28G31G25R21G02
 128414461.818 6 100063191.10745  24436488.044    24436487.3164   24436500.7774
        38.200          34.4004
 111970030.157 7  87249400.64747  21307185.432    21307184.7754   21307189.5994
        46.700          46.1004
 122670706.799 7                  23343457.784
        44.800
 140148067.162 6                  26669287.142
        41.800
 120530200.530 7  93745738.051 7  22508181.299    22508181.938    22508193.412
        46.800          42.700
 198980359.060 7                  37864699.769
        46.000
 200941874.126 7                  38237980.486
        44.500
 131447728.852 5 102426798.10042  25013675.496    25013674.1514   25013678.8184
        35.600          17.1004
 113120970.989 7  88146226.60047  21526200.673    21526200.4014   21526203.6384
        46.200          46.3004
 114667022.000 6                  21488550.451    21488550.449
        37.100
 412707275.464 5                  78535299.688
        33.100
 202099781.617 7                  38458281.384
        45.200
 132629693.303 7                  25238588.237
        45.100
 144354636.690 6                  27469771.633
        36.500
 127637167.836 7                  24288542.277
        47.500
 144186220.179 6                  27437728.415
        39.800
 125012551.998 6  97412425.29743  23789091.251    23789090.1964   23789096.9024
        39.800          22.8004
 127995012.618 7  99551688.926 6  23977776.420    23977776.658    23977780.761
        42.400          38.900
 149745559.961 5                  28495680.639
        35.100
 131110425.365 7                  24949478.291
        45.700
 151422830.784 6                  28814801.479
        38.800
 127926942.226 6  99683333.58543  24343690.460    24343689.8704   24343691.6134
        37.200          21.1004
 104833052.951 8  81536868.797 7  19618070.295    19618070.387    19618076.313
        52.800          47.900
 144770083.224 6                  27548846.161
        38.700
 124260385.981 7  96647011.512 7  23310926.350    23310926.154    23310932.745
        47.000          42.600
 104823918.806 8  81529722.815 7  19609478.115    19609478.573    19609484.392
        52.800          47.900
 117519749.296 7  91573836.09547  22363264.059    22363263.5454   22363267.3634
        46.700          45.6004
 107221959.010 8  83394900.869 8  20072170.128    20072170.487    20072177.414
        51.600          48.400
 139766502.769 6                  26596679.328
        39.300
 110096740.176 8  85789671.70646  20950712.017    20950711.6554   20950711.9204
        48.100          38.8004
 105034130.155 8  81844778.36448  19987329.922    19987329.4084   19987328.9444
        50.900          51.9004
 122624225.584 6  95551373.35445  23334610.982    23334610.0264   23334614.1834
        40.500          35.4004
 128323104.457 7  99806904.754 6  23980237.325    23980237.094    23980244.706
        42.600          39.800
 128593804.188 6 100202968.36744  24470590.096    24470588.9434   24470590.1644
        40.900          24.2004
 25  1  1 14  3 45.0000000  0 34G10G26E19E10R04S31S35G21G03R06S48S33
                                E27E11E29E04G16R22E07E21E30G04R15E33
                                R14R05G32R16E12G28G31G25R21G02
 128471881.338 6 100107933.34445  24447413.941    24447413.1904   24447427.8044
        39.100          34.5004
 111930627.190 7  87218697.04847  21299687.361    21299686.7134   21299691.4714
        46.800          46.2004
 122659768.084 7                  23341376.423
        44.600
 140157816.002 6                  26671142.301
        41.900
 120574801.200 7  93780427.251 7  22516510.580    22516510.876    22516522.350
        47.900          42.800
 198980367.680 7                  37864700.851
        46.000
 200941852.117 7                  38237973.546
        44.500
 131483189.502 5 102454429.64942  25020423.985    25020422.6664   25020426.6944
        35.300          16.5004
 113086793.226 7  88119594.58047  21519697.274    21519697.0024   21519699.8824
        46.800          46.4004
 114619721.734 6                  21479686.337    21479687.156
        37.600
 412706004.636 5                  78535311.551
        33.100
 202099808.463 7                  38458285.838
        45.000
 132637120.384 7                  25240001.616
        45.100
 144345099.226 6                  27467956.113
        36.000
 127653063.066 7                  24291567.137
        47.500
 144154653.147 6                  27431721.404
        40.100
 124952965.134 6  97365994.15243  23777751.980    23777750.9394   23777757.7844
        40.400          22.9004
 127996852.196 7  99553119.777 6  23978121.969    23978122.002    23978125.926
        43.300          39.300
 149776887.496 5                  28501641.251
        34.600
 131077741.746 7                  24943258.718
        45.900
 151459772.449 6                  28821831.266
        39.200
 127884335.776 6  99650133.77143  24335582.144    24335581.5634   24335584.1104
        39.600          21.5004
 104855378.630 8  81554233.180 7  19622248.430    19622248.470    19622254.378
        52.900          47.900
 144814165.051 6                  27557234.278
        39.200
 124321746.254 7  96694736.171 7  23322437.438    23322438.056    23322443.475
        46.900          42.900
 104831711.284 8  81535783.596 7  19610935.963    19610936.299    19610942.155
        52.600          47.800
 117548598.660 7  91596316.07247  22368753.964    22368753.4594   22368757.2724
        47.000          45.7004
 107180174.931 8  83362402.181 8  20064348.405    20064348.452    20064355.334
        51.900          48.700
 139792017.612 6                  26601534.915
        39.200
 110121956.529 7  85809320.79546  20955510.291    20955509.9294   20955510.4324
        47.900          38.8004
 105034971.079 8  81845433.65648  19987490.082    19987489.5684   19987488.9434
        50.900          52.0004
 122665668.178 6  95583666.42545  23342496.826    23342495.8704   23342500.3994
        41.000          35.6004
 128365705.686 7  99840038.938 6  23988198.812    23988198.621    23988205.192
        42.900          39.100
 128624315.987 6 100226743.68744  24476396.098    24476394.9494   24476396.4104
        40.000          24.0004
 25  1  1 14  4  0.0000000  0 34G10G26E19E10R04S31S35G21G03R06S48S33
                                E27E11E29E04G16R22E07E21E30G04R15E33
                                R14R05G32R16E12G28G31G25R21G02
 128529325.868 6 100152695.07245  24458345.745    24458344.9854   24458358.7304
        39.000          33.3004
 111891330.889 7  87188076.56547  21292209.519    21292208.8624   21292213.6534
        46.500          46.3004
 122648853.643 7                  23339299.517
        44.500
 140167666.742 7                  26673016.636
        42.200
 120619471.420 7  93815170.532 7  22524852.975    22524853.117    22524864.198
        46.900          42.400
 198980374.464 7                  37864704.840
        45.800
 200941828.114 7                  38237972.138
        44.300
 131518650.745 6 102482061.60142  25027171.555    25027170.2144   25027175.0654
        36.300          17.4004
 113052724.815 7  88093047.76247  21513214.321    21513214.0494   21513216.9324
        46.600          46.5004
 114572450.571 6                  21470828.843    21470828.188
        37.600
 412706331.165 5                  78535327.949
        32.900
 202099831.785 7                  38458289.366
        44.900
 132644651.499 7                  25241434.667
        45.200
 144335665.521 6                  27466161.921
        36.000
 127668987.641 7                  24294597.440
        47.600
 144123079.368 6                  27425712.674
        40.000
 124893389.467 6  97319571.68443  23766414.806    23766413.7694   23766420.3924
        40.000          22.6004
 127998861.129 7  99554682.235 6  23978497.875    23978498.669    23978502.325
        44.400          39.000
 149808223.411 5                  28507604.724
        35.000
 131045128.631 7                  24937052.688
        45.900
 151496764.517 6                  28828869.981
        37.400
 127841722.970 6  99616929.02343  24327472.227    24327471.6334   24327474.9924
        39.800          21.6004
 104877878.519 8  81571733.082 8  19626458.941    19626458.954    19626465.072
        52.800          48.100
 144858234.735 6                  27565620.884
        38.600
 124383146.073 7  96742491.581 7  23333955.367    23333955.797    23333962.630
        46.400          42.800
 104839618.437 8  81541933.577 7  19612415.018    19612415.463    19612421.376
        52.600          47.500
 117577499.105 7  91618835.84547  22374253.435    22374252.9354   22374256.8274
        47.200          45.6004
 107138539.648 8  83330019.210 8  20056554.075    20056554.200    20056560.911
        52.100          48.400
 139817610.377 6                  26606404.943
        39.100
 110147243.107 8  85829024.65046  20960322.240    20960321.8784   20960322.2464
        48.100          38.7004
 105035924.957 8  81846176.94448  19987671.462    19987670.9534   19987670.4474
        51.000          52.0004
 122707214.283 6  95616040.03145  23350402.988    23350402.0414   23350406.4244
        40.500          35.3004
 128408388.062 7  99873236.237 6  23996175.486    23996176.586    23996182.714
        44.300          39.900
 128654875.796 6 100250556.43243  24482212.578    24482211.4254   24482211.8944
        39.600          23.7004
 25  1  1 14  4 15.0000000  0 34G10G26E19E10R04S31S35G21G03R06S48S33
                                E27E11E29E04G16R22E07E21E30G04R15E33
                                R14R05G32R16E12G28G31G25R21G02
 128586795.641 6 100197476.49345  24469282.102    24469281.3424   24469294.8294
        39.300          33.9004
 111852142.205 7  87157539.92847  21284751.974    21284751.2954   21284756.3104
        46.700          46.3004
 122637964.321 7                  23337227.230
        44.600
 140177619.930 7                  26674910.760
        42.200
 120664211.701 7  93849968.308 7  22533208.030    22533207.923    22533220.194
        46.300          42.800
 198980378.876 7                  37864702.899
        45.600
 200941802.632 7                  38237964.970
        44.300
 131554113.108 5 102509694.53442  25033920.201    25033918.8964   25033923.6564
        35.400          16.8004
 113018766.747 7  88066586.94847  21506752.250    21506751.9874   21506754.9374
        46.600          46.6004
 114525209.474 6                  21461975.330    21461975.028
        36.900
 412706655.870 5                  78535348.728
        32.100
 202099852.939 7                  38458295.063
        44.900
 132652286.983 7                  25242887.463
        45.200
 144326336.277 6                  27464386.061
        36.000
 127684942.231 7                  24297633.340
        47.500
 144091499.348 6                  27419703.357
        39.900
 124833825.968 6  97273158.71143  23755080.244    23755079.1894   23755085.7324
        40.300          22.9004
 128001040.226 7  99556377.092 6  23978905.033    23978906.123    23978910.852
        43.600          39.700
 149839568.450 5                  28513569.928
        34.600
 131012586.906 7                  24930860.238
        45.600
 151533807.629 6                  28835918.850
        37.200
 127799104.380 6  99583719.74043  24319362.682    24319362.0924   24319364.7974
        38.500          21.4004
 104900552.845 8  81589368.668 8  19630702.023    19630702.099    19630708.150
        52.700          48.000
 144902292.560 6                  27574005.044
        39.100
 124444585.708 7  96790277.946 7  23345481.427    23345482.080    23345487.857
        45.900          42.500
 104847641.138 8  81548173.460 8  19613915.911    19613916.162    19613922.317
        52.100          48.000
 117606451.268 7  91641395.91947  22379762.967    22379762.4624   22379766.2154
        47.200          45.5004
 107097054.442 8  83297752.985 8  20048787.704    20048788.190    20048794.870
        51.900          48.600
 139843281.477 6                  26611289.985
        39.600
 110172600.138 7  85848783.39146  20965147.392    20965147.0304   20965147.4854
        47.800          38.5004
 105036992.230 8  81847008.60048  19987874.642    19987874.1334   19987873.5434
        51.100          52.0004
 122748864.598 6  95648494.92545  23358329.101    23358328.1764   23358332.0624
        40.500          35.3004
 128451151.676 7  99906496.729 6  24004165.823    24004166.374    24004173.709
        43.100          39.200
 128685483.973 6 100274406.88544  24488035.737    24488034.5614   24488036.5894
        40.900          24.0004
 25  1  1 14  4 30.0000000  0 34G10G26E19E10R04S31S35G21G03R06S48S33
                                E27E11E29E04G16R22E07E21E30G04R15E33
                                R14R05G32R16E12G28G31G25R21G02
 128644294.009 6 100242280.17745  24480224.166    24480223.4114   24480237.0334
        37.600          33.4004
 111813065.051 7  87127090.19747  21277315.960    21277315.2724   21277320.1494
        46.600          46.3004
 122627103.473 7                  23335160.426
        44.800
 140187678.950 6                  26676824.518
        41.800
 120709025.667 7  93884823.367 7  22541576.642    22541577.312    22541588.254
        47.300          42.200
 198980384.116 7                  37864707.057
        45.400
 200941777.646 7                  38237959.514
        44.000
 131589579.514 6 102537330.57042  25040668.968    25040667.6814   25040672.7834
        36.200          17.1004
 112984922.764 7  88040214.99547  21500311.874    21500311.6204   21500314.5934
        46.700          46.7004
 114478002.473 6                  21453128.376    21453128.567
        36.800
 412706982.842 5                  78535358.110
        32.700
 202099875.472 7                  38458301.108
        44.700
 132660030.448 7                  25244361.370
        45.600
 144317115.256 6                  27462631.388
        36.600
 127700930.383 7                  24300676.126
        47.800
 144059916.722 6                  27413693.410
        40.400
 124774278.720 6  97226758.40043  23743749.284    23743748.2204   23743754.2294
        40.300          22.2004
 128003393.131 7  99558207.136 6  23979345.503    23979346.189    23979351.625
        42.600          39.800
 149870926.175 5                  28519537.363
        34.600
 130980120.286 7                  24924682.190
        46.300
 151570904.999 6                  28842978.698
        37.800
 127756483.633 6  99550508.75443  24311252.533    24311251.9664   24311254.3874
        38.400          21.2004
 104923404.994 8  81607142.540 7  19634978.414    19634978.754    19634984.761
        53.000          47.800
 144946341.903 6                  27582387.052
        37.500
 124506068.173 7  96838097.628 7  23357014.782    23357015.467    23357021.536
        45.400          42.400
 104855783.526 8  81554506.376 7  19615439.494    19615439.335    19615445.629
        52.500          47.800
 117635458.728 7  91663999.08547  22385282.713    22385282.2224   22385286.1824
        47.000          45.5004
 107055722.888 8  83265606.247 8  20041050.734    20041050.901    20041057.702
        52.100          48.600
 139869034.224 6                  26616190.306
        39.700
 110198030.912 8  85868599.54046  20969986.778    20969986.4124   20969986.7114
        48.100          38.5004
 105038176.334 8  81847931.28348  19988099.762    19988099.2574   19988098.8774
        50.800          52.0004
 122790622.317 6  95681033.57145  23366274.839    23366273.9054   23366278.2614
        41.700          35.4004
 128493999.606 7  99939822.780 6  24012174.237    24012173.708    24012180.440
        42.100          39.100
 128716143.510 6 100298297.34643  24493870.578    24493869.4114   24493870.6794
        39.600          23.7004
 25  1  1 14  4 45.0000000  0 34G10G26E19E10R04S31S35G21G03R06S48S33
                                E27E11E29E04G16R22E07E21E30G04R15E33
                                R14R05G32R16E12G28G31G25R21G02
 128701815.716 6 100287102.05345  24491170.109    24491169.3544   24491183.3284
        38.700          33.7004
 111774094.938 7  87096723.88847  21269900.490    21269899.8024   21269904.3394
        46.800          46.2004
 122616266.434 7                  23333098.417
        44.900
 140197838.915 6                  26678758.486
        41.900
 120753908.331 7  93919731.887 7  22549958.009    22549958.639    22549970.539
        47.100          42.500
 198980386.361 7                  37864704.187
        45.600
 200941749.077 7                  38237957.202
        44.300
 131625045.046 5 102564965.94642  25047418.003    25047416.6844   25047422.0674
        35.600          16.4004
 112951188.427 7  88013928.47347  21493892.639    21493892.3894   21493895.1184
        46.700          46.6004
 114430824.894 6                  21444287.211    21444287.342
        36.700
 412707307.389 5                  78535379.055
        32.600
 202099894.952 7                  38458303.035
        44.800
 132667877.092 7                  25245854.335
        45.800
 144307997.146 5                  27460896.085
        35.700
 127716947.358 7                  24303723.900
        47.800
 144028326.623 6                  27407682.183
        40.200
 124714743.057 6  97180367.10343  23732419.494    23732418.4214   23732424.2964
        40.700          22.9004
 128005914.905 7  99560168.668 6  23979819.103    23979818.875    23979823.014
        42.900          38.900
 149902291.672 5                  28525506.079
        35.300
 130947724.137 7                  24918517.061
        46.200
 151608051.545 6                  28850047.303
        38.000
 127713856.098 6  99517292.48843  24303141.020    24303140.4394   24303142.4974
        39.100          21.0004
 104946429.639 8  81625050.591 7  19639287.311    19639287.574    19639293.330
        53.000          47.900
 144990377.527 6                  27590767.311
        38.400
 124567588.016 7  96885946.346 7  23368554.896    23368555.737    23368563.585
        45.500          43.300
 104864040.544 8  81560928.487 7  19616983.769    19616984.138    19616990.127
        52.100          47.500
 117664516.647 7  91686641.56747  22390812.577    22390812.0904   22390815.8404
        47.300          45.5004
 107014540.806 8  83233575.751 8  20033341.282    20033341.488    20033348.012
        52.100          48.700
 139894863.553 6                  26621105.729
        39.700
 110223530.412 8  85888469.22746  20974839.061    20974838.6864   20974839.1284
        48.000          38.3004
 105039472.320 8  81848941.12648  19988346.639    19988346.1394   19988345.5054
        51.200          52.0004
 122832481.778 6  95713651.38045  23374240.188    23374239.2544   23374243.6694
        41.300          35.1004
 128536926.657 7  99973210.414 6  24020194.459    24020195.223    24020202.835
        42.200          39.300
 128746849.252 6 100322223.81443  24499713.804    24499712.6244   24499713.6954
        40.200          23.1004
 25  1  1 14  5  0.0000000  0 34G10G26E19E10R04S31S35G21G03R06S48S33
                                E27E11E29E04G16R22E07E21E30G04R15E33
                                R14R05G32R16E12G28G31G25R21G02
 128759365.920 6 100331946.13545  24502121.747    24502121.0054   24502134.8684
        39.000          33.3004
 111735237.570 7  87066445.43847  21262505.985    21262505.3064   21262510.0014
        46.400          46.1004
 122605458.685 7                  23331041.421
        44.900
 140208105.107 6                  26680712.059
        41.700
 120798865.007 7  93954697.943 7  22558353.229    22558354.021    22558366.323
        46.400          42.300
 198980390.983 7                  37864706.664
        45.500
 200941723.193 7                  38237949.350
        44.200
 131660514.696 5 102592604.51142  25054167.607    25054166.2884   25054171.8564
        35.800          16.1004
 112917569.481 7  87987731.88147  21487494.999    21487494.7494   21487497.6844
        46.700          46.5004
 114383682.533 6                  21435453.682    21435453.267
        36.700
 412707634.919 5                  78535389.648
        32.500
 202099916.119 7                  38458308.057
        44.800
 132675832.256 7                  25247368.210
        45.600
 144298987.618 6                  27459181.701
        37.000
 127732998.534 7                  24306778.572
        47.600
 143996734.499 6                  27401670.488
        40.200
 124655224.967 6  97133989.51443  23721093.419    23721092.3464   23721098.3734
        40.100          22.6004
 128008610.141 7  99562264.872 6  23980323.645    23980323.762    23980328.898
        43.200          39.300
 149933670.463 5                  28531477.509
        33.700
 130915404.083 7                  24912367.074
        45.900
 151645252.356 6                  28857126.774
        37.300
 127671227.137 6  99484075.13743  24295028.693    24295028.1084   24295030.4014
        38.900          21.6004
 104969632.130 8  81643096.976 7  19643629.167    19643629.631    19643635.294
        52.700          47.900
 145034404.764 6                  27599145.685
        38.700
 124629150.458 7  96933828.199 7  23380105.498    23380105.231    23380111.921
        46.000          42.800
 104872417.946 8  81567444.209 7  19618551.062    19618551.276    19618557.292
        52.000          47.600
 117693630.420 7  91709327.57147  22396352.729    22396352.2424   22396356.0734
        46.900          45.3004
 106973513.529 8  83201665.678 8  20025660.596    20025660.989    20025667.773
        52.000          48.700
 139920774.669 6                  26626036.669
        39.600
 110249103.905 7  85908396.57246  20979705.877    20979705.5024   20979705.5814
        47.500          38.1004
 105040885.426 8  81850042.25048  19988615.430    19988614.9304   19988614.4204
        51.100          51.9004
 122874448.266 6  95746352.52545  23382225.854    23382224.9114   23382229.4014
        40.900          34.7004
 128579937.395 7 100006663.104 6  24028233.993    24028233.747    24028240.684
        43.100          39.400
 128777606.364 6 100346190.31843  24505566.666    24505565.4904   24505566.5664
        40.300          23.7004
 25  1  1 14  5 15.0000000  0 34G10G26E19E10R04S31S35G21G03R06S48S33
                                E27E11E29E04G16R22E07E21E30G04R15E33
                                R14R05G32R16E12G28G31G25R21G02
 128816944.000 6 100376811.95345  24513078.495    24513077.7534   24513091.4934
        37.100          32.5004
 111696492.924 7  87036254.83247  21255133.002    21255132.3364   21255137.1814
        46.600          46.2004
 122594679.915 7                  23328990.702
        44.700
 140218477.100 6                  26682685.684
        41.400
 120843895.345 7  93989721.308 7  22566763.383    22566763.963    22566775.402
        47.300          42.000
 198980396.496 7                  37864707.795
        45.800
 200941697.864 7                  38237942.486
        44.100
 131695987.707 5 102620245.65342  25060918.692    25060917.3784   25060922.0704
        35.300          16.5004
 112884065.840 7  87961625.13747  21481119.565    21481119.3154   21481122.1974
        46.900          46.6004
 114336575.366 6                  21426625.726    21426625.390
        37.400
 412706363.957 5                  78535408.921
        32.700
 202099938.710 7                  38458313.521
        45.100
 132683895.529 7                  25248902.834
        45.200
 144290086.257 5                  27457487.498
        35.900
 127749083.638 7                  24309839.399
        47.500
 143965140.086 6                  27395657.563
        40.000
 124595724.209 6  97087625.40943  23709771.150    23709770.1044   23709775.4744
        40.600          22.4004
 128011479.196 7  99564496.395 6  23980861.375    23980861.788    23980865.537
        42.700          39.000
 149965062.160 5                  28537451.943
        33.200
 130883159.969 7                  24906231.189
        45.700
 151682506.906 6                  28864215.480
        37.100
 127628596.270 6  99450856.23643  24286916.203    24286915.6274   24286917.7914
        38.500          21.5004
 104993011.431 8  81661280.836 7  19648004.513    19648004.676    19648010.615
        52.800          47.900
 145078422.891 6                  27607522.033
        38.600
 124690754.669 7  96981742.548 7  23391662.040    23391661.966    23391668.995
        44.800          42.700
 104880915.519 8  81574053.397 7  19620140.780    19620141.023    19620146.807
        52.100          47.600
 117722799.724 7  91732056.84447  22401903.672    22401903.1904   22401906.8234
        46.800          45.4004
 106932641.296 8  83169876.170 8  20018009.430    20018009.475    20018016.379
        51.700          48.700
 139946766.945 6                  26630982.798
        39.400
 110274750.784 7  85928381.11946  20984586.253    20984585.8784   20984586.0534
        47.700          38.0004
 105042415.247 8  81851234.31748  19988906.648    19988906.1484   19988905.5634
        50.600          51.9004
 122916521.211 6  95779136.59845  23390232.030    23390231.0744   23390235.9764
        40.800          34.9004
 128623031.108 7 100040180.291 6  24036286.660    24036287.769    24036293.182
        43.700          38.200
 128808414.119 6 100370196.24744  24511429.105    24511427.9074   24511429.8644
        40.100          24.0004
 25  1  1 14  5 30.0000000  0 34G10G26E19E10R04S31S35G21G03R06S48S33
                                E27E11E29E04G16R22E07E21E30G04R15E33
                                R14R05G32R16E12G28G31G25R21G02
 128874547.849 6 100421697.84545  24524040.760    24524040.0414   24524053.7514
        38.700          33.5004
 111657859.607 7  87006150.97247  21247780.999    21247780.3334   21247785.5074
        46.600          46.2004
 122583928.569 7                  23326944.603
        44.800
 140228952.924 6                  26684679.249
        41.600
 120888997.457 7  94024800.502 7  22575185.901    22575185.996    22575198.803
        46.900          42.300
 198980401.899 7                  37864708.551
        46.000
 200941673.207 7                  38237941.476
        44.500
 131731462.205 5 102647887.97942  25067669.225    25067667.9604   25067672.7624
        35.200          16.6004
 112850676.147 7  87935607.21447  21474765.467    21474765.2224   21474768.3794
        46.800          46.6004
 114289501.805 6                  21417803.636    21417803.299
        37.300
 412706693.121 5                  78535423.485
        32.700
 202099961.680 7                  38458314.841
        45.100
 132692065.036 7                  25250457.426
        45.200
 144281291.540 5                  27455814.013
        35.700
 127765200.982 7                  24312906.366
        47.400
 143933541.483 6                  27389644.776
        40.300
 124536239.526 6  97041273.82443  23698451.108    23698450.0624   23698455.7624
        40.300          22.4004
 128014520.299 7  99566861.915 6  23981431.141    23981431.651    23981436.273
        44.400          39.900
 149996465.077 5                  28543427.531
        33.700
 130850990.234 7                  24900109.328
        45.800
 151719813.518 6                  28871314.775
        36.500
 127585962.136 6  99417634.78843  24278802.671    24278802.0994   24278804.7744
        39.400          21.8004
 105016565.638 8  81679600.765 8  19652412.418    19652412.605    19652418.477
        53.000          48.000
 145122429.958 6                  27615895.998
        38.800
 124752398.431 7  97029687.650 7  23403226.069    23403225.510    23403232.924
        44.600          42.400
 104889531.421 8  81580754.647 7  19621752.039    19621752.663    19621758.759
        52.200          47.500
 117752022.824 7  91754828.03047  22407464.427    22407463.9454   22407467.8674
        47.100          45.3004
 106891922.604 8  83138206.088 8  20010386.653    20010387.112    20010393.573
        52.000          48.900
 139972838.450 6                  26635943.946
        39.100
 110300469.061 7  85948421.28646  20989480.371    20989480.0004   20989480.1284
        47.500          37.8004
 105044059.895 8  81852515.84848  19989219.613    19989219.1224   19989218.5494
        50.700          51.9004
 122958698.620 6  95812002.15845  23398258.409    23398257.4484   23398261.9174
        40.500          34.7004
 128666205.478 7 100073760.305 6  24044354.581    24044354.465    24044362.175
        42.200          39.500
 128839270.458 6 100394240.06343  24517301.045    24517299.8564   24517301.8744
        39.500          23.5004
 25  1  1 14  5 45.0000000  0 34G10G26E19E10R04S31S35G21G03R06S48S33
                                E27E11E29E04G16R22E07E21E30G04R15E33
                                R14R05G32R16E12G28G31G25R21G02
 128932178.773 6 100466604.83545  24535007.228    24535006.4734   24535020.9514
        39.500          33.4004
 111619339.514 7  86976135.34647  21240451.028    21240450.3674   21240455.3334
        47.000          46.2004
 122573206.171 7                  23324904.391
        44.800
 140239534.068 6                  26686692.860
        41.700
 120934172.565 7  94059936.429 7  22583622.740    22583623.178    22583634.716
        47.900          42.200
 198980409.371 7                  37864709.110
        45.900
 200941650.157 7                  38237937.241
        44.500
 131766939.498 5 102675532.50342  25074420.031    25074418.7884   25074424.0634
        35.900          16.5004
 112817402.164 7  87909679.42247  21468433.959    21468433.7144   21468436.5394
        46.900          46.6004
 114242464.034 6                  21408988.271    21408988.935
        37.100
 412707024.608 5                  78535440.571
        32.800
 202099985.869 7                  38458321.150
        45.100
 132700342.274 7                  25252032.244
        45.300
 144272605.056 5                  27454161.147
        35.500
 127781352.118 7                  24315980.060
        47.300
 143901940.196 6                  27383631.324
        39.600
 124476772.978 6  96994936.40543  23687134.961    23687133.9204   23687139.7004
        40.500          22.6004
 128017734.282 7  99569361.733 6  23982032.272    23982033.219    23982037.308
        43.800          39.200
 150027880.759 5                  28549405.442
        33.000
 130818896.635 7                  24894002.235
        45.800
 151757172.935 6                  28878424.062
        37.500
 127543326.264 6  99384412.05043  24270689.590    24270689.0184   24270691.7804
        38.800          21.4004
 105040295.774 8  81698057.522 7  19656853.159    19656853.498    19656859.326
        53.300          47.900
 145166427.319 6                  27624269.078
        38.700
 124814083.059 7  97077664.588 7  23414799.439    23414798.610    23414804.714
        46.400          42.700
 104898267.311 8  81587549.181 7  19623386.737    19623386.871    19623393.075
        52.300          47.600
 117781301.300 7  91777642.36947  22413035.702    22413035.2204   22413039.4204
        47.300          45.2004
 106851359.104 8  83106656.694 8  20002793.345    20002793.492    20002800.221
        52.100          48.900
 139998990.456 6                  26640920.629
        39.600
 110326260.167 7  85968518.24146  20994388.169    20994387.8034   20994388.0424
        47.500          37.7004
 105045820.625 8  81853887.83548  19989554.841    19989554.3594   19989553.6264
        50.800          51.9004
 123000981.599 6  95844949.96745  23406304.421    23406303.4604   23406308.1954
        41.200          34.9004
 128709461.436 7 100107403.725 6  24052439.473    24052439.042    24052445.608
        43.100          39.200
 128870176.598 6 100418322.66843  24523182.960    24523181.7844   24523183.0414
        39.700          23.6004
 25  1  1 14  6  0.0000000  0 34G10G26E19E10R04S31S35G21G03R06S48S33
                                E27E11E29E04G16R22E07E21E30G04R15E33
                                R14R05G32R16E12G28G31G25R21G02
 128989832.690 6 100511529.75345  24545978.094    24545977.3704   24545992.0824
        38.800          33.0004
 111580929.105 7  86946205.17447  21233141.831    21233141.1704   21233146.0324
        47.100          46.2004
 122562508.925 7                  23322868.616
        45.000
 140250216.708 6                  26688725.202
        41.800
 120979416.888 7  94095126.218 7  22592071.684    22592072.010    22592084.097
        47.100          42.400
 198980413.584 7                  37864709.588
        46.000
 200941623.933 7                  38237930.927
        44.600
 131802415.275 5 102703175.80542  25081171.180    25081169.9514   25081174.7104
        35.700          15.8004
 112784240.497 7  87883839.16947  21462123.285    21462123.0404   21462126.0654
        47.200          46.7004
 114195458.109 6                  21400179.453    21400179.717
        37.500
 412707354.279 5                  78535456.463
        32.500
 202100007.563 7                  38458324.777
        45.100
 132708723.396 7                  25253627.268
        45.900
 144264022.893 5                  27452528.604
        35.700
 127797533.334 7                  24319059.091
        47.700
 143870332.542 6                  27377616.955
        38.800
 124417321.028 6  96948610.36243  23675821.612    23675820.5884   23675826.3744
        40.800          22.4004
 128021117.405 7  99571993.094 6  23982666.029    23982666.633    23982671.595
        42.600          39.700
 150059305.406 5                  28555386.404
        34.600
 130786875.593 7                  24887908.917
        46.200
 151794581.607 6                  28885542.766
        37.200
 127500684.785 6  99351184.88643  24262576.400    24262575.8424   24262577.5694
        39.200          21.3004
 105064197.813 8  81716647.953 7  19661325.890    19661326.328    19661332.219
        53.000          47.900
 145210410.855 6                  27632638.712
        38.200
 124875804.248 7  97125669.956 7  23426376.586    23426377.336    23426383.704
        45.900          43.100
 104907119.914 8  81594434.516 7  19625042.337    19625042.811    19625049.055
        51.900          47.600
 117810631.360 7  91800496.90447  22418617.477    22418616.9994   22418620.7874
        47.100          45.1004
 106810947.719 8  83075225.617 8  19995228.202    19995228.454    19995235.028
        52.200          48.800
 140025219.069 6                  26645911.704
        39.200
 110352119.990 7  85988668.72746  20999309.163    20999308.8014   20999308.9964
        47.700          37.6004
 105047693.641 8  81855347.31648  19989911.158    19989910.6804   19989910.0774
        50.900          51.8004
 123043366.011 6  95877976.84245  23414369.453    23414368.4704   23414373.5134
        41.000          34.4004
 128752794.728 7 100141107.265 6  24060536.519    24060536.663    24060543.614
        44.100          39.700
 128901128.349 6 100442440.80643  24529071.986    24529070.8064   24529072.9694
        39.400          23.6004
 25  1  1 14  6 15.0000000  0 34G10G26E19E10R04S31S35G21G03R06S48S33
                                E27E11E29E04G16R22E07E21E30G04R15E33
                                R14R05G32R16E12G28G31G25R21G02
 129047515.973 6 100556477.54845  24556955.743    24556955.0104   24556969.1684
        38.500          32.8004
 111542635.460 7  86916365.99647  21225854.596    21225853.9354   21225858.9514
        47.200          46.3004
 122551843.702 7                  23320839.079
        44.900
 140261007.322 6                  26690778.847
        41.800
 121024737.313 7  94130375.212 7  22600534.666    22600535.163    22600547.242
        46.800          42.100
 198980422.383 7                  37864712.245
        45.700
 200941602.223 7                  38237927.171
        44.300
 131837895.984 5 102730822.97042  25087923.044    25087921.7794   25087926.5834
        35.200          15.9004
 112751198.070 7  87858091.81547  21455835.691    21455835.4464   21455838.2394
        47.100          46.7004
 114148491.517 6                  21391379.088    21391378.214
        37.400
 412707689.166 5                  78535473.616
        32.500
 202100033.887 7                  38458328.099
        45.100
 132717214.997 7                  25255243.298
        45.500
 144255552.119 5                  27450916.258
        35.900
 127813751.353 7                  24322145.267
        47.300
 143838725.271 6                  27371602.503
        39.800
 124357890.755 6  96902301.19343  23664511.889    23664510.8704   23664516.8894
        41.100          22.3004
 128024676.233 7  99574761.072 6  23983332.958    23983332.717    23983337.620
        42.500          39.300
 150090745.804 5                  28561369.643
        34.600
 130754934.016 7                  24881830.377
        46.100
 151832045.863 6                  28892672.153
        37.600
 127458044.550 6  99317958.68843  24254460.904    24254460.3504   24254463.1174
        39.900          22.2004
 105088278.389 8  81735377.337 7  19665832.622    19665832.843    19665838.613
        53.200          47.900
 145254386.970 6                  27641007.271
        38.800
 124937568.056 7  97173708.468 7  23437963.256    23437963.668    23437970.572
        45.600          42.700
 104916095.938 8  81601415.877 7  19626721.318    19626721.932    19626728.186
        52.100          47.600
 117840019.706 7  91823396.85447  22424209.935    22424209.4624   22424213.2534
        47.100          45.1004
 106770695.240 8  83043918.146 8  19987693.102    19987693.229    19987699.633
        52.400          48.800
 140051530.729 6                  26650918.574
        39.600
 110378055.000 7  86008877.80246  21004244.452    21004244.0864   21004244.2364
        47.400          37.7004
 105049685.440 8  81856899.35848  19990290.129    19990289.6564   19990289.1194
        50.800          51.9004
 123085858.066 6  95911087.51045  23422455.670    23422454.7094   23422459.5794
        38.900          34.6004
 128796211.430 7 100174875.723 6  24068648.822    24068649.559    24068657.328
        43.200          39.300
 128932131.958 6 100466599.33643  24534972.431    24534971.2824   24534972.9444
        40.800          23.4004
 25  1  1 14  6 30.0000000  0 34G10G26E19E10R04S31S35G21G03R06S48S33
                                E27E11E29E04G16R22E07E21E30G04R15E33
                                R14R05G32R16E12G28G31G25R21G02
 129105219.505 6 100601441.13545  24567936.442    24567935.7184   24567949.7474
        39.400          33.2004
 111504450.054 7  86886611.14347  21218588.484    21218587.8184   21218592.4484
        47.200          46.4004
 122541201.587 7                  23318814.369
        45.200
 140271896.959 6                  26692850.733
        41.800
 121070124.710 7  94165676.248 7  22609011.605    22609011.285    22609023.480
        47.000          42.300
 198980426.917 7                  37864713.577
        45.600
 200941575.928 7                  38237922.614
        44.300
 131873372.526 5 102758466.89542  25094674.505    25094673.2404   25094677.7454
        34.500          16.1004
 112718266.590 7  87832430.99047  21449568.919    21449568.6654   21449571.5464
        47.300          46.8004
 114101555.329 6                  21382582.156    21382582.362
        37.500
 412708019.806 5                  78535494.034
        33.000
 202100055.711 7                  38458334.882
        44.900
 132725808.287 7                  25256878.052
        45.700
 144247183.645 5                  27449323.094
        35.700
 127829997.384 7                  24325236.823
        47.900
 143807109.402 6                  27365585.668
        39.800
 124298473.671 6  96856002.26243  23653205.229    23653204.2144   23653209.7704
        41.200          22.6004
 128028401.861 7  99577658.747 6  23984031.715    23984032.034    23984036.508
        44.400          40.300
 150122193.104 5                  28567353.868
        34.200
 130723063.283 7                  24875765.742
        46.500
 151869556.479 6                  28899810.483
        37.400
 127415396.929 6  99284726.79043  24246346.059    24246345.4964   24246347.3994
        39.100          21.5004
 105112527.812 8  81754237.977 8  19670370.312    19670370.713    19670376.590
        52.800          48.000
 145298346.719 6                  27649372.316
        38.300
 124999365.099 7  97221772.849 7  23449557.473    23449557.297    23449563.491
        46.200          42.900
 104925186.676 8  81608486.444 7  19628422.467    19628422.602    19628428.829
        52.100          47.500
 117869457.526 7  91846335.35847  22429811.611    22429811.1424   22429815.1504
        46.900          45.1004
 106730593.057 8  83012727.548 8  19980185.482    19980185.854    19980192.409
        52.200          48.800
 140077916.375 6                  26655939.550
        39.700
 110404056.165 7  86029138.41146  21009192.453    21009192.0914   21009192.1444
        47.800          37.6004
 105051787.061 8  81858536.94648  19990690.222    19990689.7624   19990689.0834
        50.800          52.0004
 123128448.817 6  95944275.11545  23430561.350    23430560.4034   23430564.4404
        40.200          34.7004
 128839702.050 7 100208701.604 6  24076777.503    24076777.587    24076784.274
        43.700          38.600
 128963178.427 6 100490791.27043  24540880.045    24540878.8834   24540881.3084
        40.500          23.4004
 25  1  1 14  6 45.0000000  0 34G10G26E19E10R04S31S35G21G03R06S48S33
                                E27E11E29E04G16R22E07E21E30G04R15E33
                                R14R05G32R16E12G28G31G25R21G02
 129162947.318 6 100646423.65245  24578921.612    24578920.8934   24578935.5044
        39.200          33.6004
 111466377.582 7  86856944.30847  21211343.430    21211342.7644   21211347.4894
        47.400          46.6004
 122530587.085 7                  23316794.384
        45.200
 140282889.960 6                  26694943.045
        41.300
 121115583.306 7  94201032.679 7  22617500.438    22617501.497    22617512.944
        47.600          42.000
 198980431.218 7                  37864713.921
        46.000
 200941549.601 7                  38237918.532
        44.500
 131908848.637 6 102786110.41242  25101425.082    25101423.8304   25101428.6524
        36.400          15.5004
 112685450.409 7  87806859.95947  21443323.948    21443323.6854   21443326.7554
        47.500          46.9004
 114054654.700 6                  21373793.737    21373793.585
        38.100
 412708351.369 5                  78535502.239
        32.600
 202100077.443 7                  38458336.743
        45.100
 132734507.404 7                  25258533.780
        46.000
 144238921.779 5                  27447751.862
        34.700
 127846275.770 7                  24328334.369
        47.900
 143775489.494 6                  27359569.091
        40.300
 124239074.501 6  96809717.28243  23641902.106    23641901.0824   23641906.2464
        40.600          22.8004
 128032298.598 7  99580689.513 6  23984761.627    23984762.738    23984766.559
        44.500          39.000
 150153651.667 5                  28573340.716
        34.000
 130691267.887 7                  24869714.822
        46.600
 151907118.545 6                  28906957.833
        38.000
 127372746.100 6  99251492.41943  24238230.069    24238229.5154   24238231.3014
        38.900          22.2004
 105136950.192 8  81773233.098 8  19674940.899    19674941.131    19674947.040
        53.400          48.100
 145342294.081 6                  27657736.151
        38.800
 125061199.720 7  97269866.573 7  23461156.604    23461156.574    23461163.474
        45.500          42.400
 104934396.600 8  81615649.699 7  19630145.465    19630145.639    19630151.736
        52.300          47.600
 117898949.146 7  91869315.77547  22435423.948    22435423.4974   22435427.2784
        47.600          45.3004
 106690646.014 8  82981657.652 8  19972707.100    19972707.704    19972714.215
        52.300          48.800
 140104380.100 6                  26660975.623
        39.300
 110430127.583 7  86049453.74246  21014153.526    21014153.1644   21014153.4054
        47.600          37.6004
 105054002.742 8  81860263.43248  19991111.752    19991111.2964   19991110.7574
        50.900          52.1004
 123171141.838 6  95977542.26345  23438684.954    23438684.0244   23438688.7744
        41.400          34.8004
 128883270.811 7 100242588.343 6  24084918.986    24084920.050    24084926.410
        43.700          39.100
 128994271.736 6 100515019.70344  24546797.801    24546796.6254   24546797.9894
        41.200          24.0004
 25  1  1 14  7  0.0000000  0 34G10G26E19E10R04S31S35G21G03R06S48S33
                                E27E11E29E04G16R22E07E21E30G04R15E33
                                R14R05G32R16E12G28G31G25R21G02
 129220700.771 6 100691426.13445  24589912.291    24589911.5894   24589926.0554
        39.800          33.7004
 111428419.984 7  86827366.97347  21204120.693    21204120.0274   21204124.3654
        47.500          46.6004
 122520001.752 7                  23314779.919
        44.900
 140293987.755 7                  26697054.685
        42.300
 121161114.608 7  94236445.659 7  22626002.865    22626003.160    22626015.480
        46.600          42.000
 198980436.324 7                  37864717.856
        46.000
 200941524.629 7                  38237910.335
        44.600
 131944325.923 5 102813754.88842  25108176.219    25108174.9364   25108179.8004
        35.600          16.8004
 112652751.605 7  87781380.38947  21437101.525    21437101.2664   21437104.3674
        47.100          47.0004
 114007791.028 6                  21365010.618    21365010.540
        38.100
 412707084.557 5                  78535523.350
        33.200
 202100100.613 7                  38458344.626
        45.300
 132743314.052 7                  25260210.042
        45.800
 144230768.557 5                  27446200.620
        35.700
 127862588.238 7                  24331438.622
        47.900
 143743867.095 6                  27353551.350
        40.800
 124179695.394 6  96763447.95543  23630602.602    23630601.6014   23630606.8144
        40.700          22.5004
 128036367.487 7  99583853.957 6  23985522.382    23985523.200    23985528.456
        42.600          39.300
 150185123.204 5                  28579329.658
        34.700
 130659549.742 7                  24863679.270
        46.200
 151944731.840 6                  28914115.793
        37.400
 127330093.907 6  99218256.97243  24230112.999    24230112.4324   24230115.0964
        39.700          22.6004
 105161547.134 8  81792364.016 8  19679543.553    19679543.916    19679549.980
        53.000          48.100
 145386230.476 6                  27666096.207
        38.600
 125123072.408 7  97317989.709 7  23472763.813    23472763.614    23472770.613
        44.900          42.700
 104943727.604 8  81622907.126 7  19631890.742    19631891.235    19631897.328
        52.100          47.700
 117928496.247 7  91892339.42147  22441046.368    22441045.9084   22441049.9544
        47.700          45.3004
 106650856.037 8  82950709.899 8  19965258.180    19965258.831    19965265.587
        52.100          48.800
 140130923.320 6                  26666026.487
        39.700
 110456270.710 7  86069824.95146  21019128.464    21019128.1074   21019128.3314
        47.400          37.6004
 105056333.890 8  81862079.87048  19991555.309    19991554.8534   19991554.3874
        50.700          52.1004
 123213938.911 6  96010890.53445  23446828.732    23446827.7764   23446832.8114
        40.000          34.7004
 128926918.430 7 100276536.388 6  24093076.389    24093076.504    24093083.549
        43.500          39.200
 129025413.232 6 100539285.68243  24552723.685    24552722.4744   24552724.0564
        39.800          23.6004
 25  1  1 14  7 15.0000000  0 34G10G26E19E10R04S31S35G21G03R06S48S33
                                E27E11E29E04G16R22E07E21E30G04R15E33
                                R14R05G32R16E12G28G31G25R21G02
 129278474.149 6 100736444.16745  24600906.317    24600905.5894   24600919.3744
        38.300          33.0004
 111390572.141 7  86797875.16347  21196918.126    21196917.4514   21196922.0974
        47.200          46.5004
 122509440.328 7                  23312770.511
        44.900
 140305184.829 6                  26699185.745
        41.600
 121206712.993 7  94271910.786 7  22634518.287    22634518.672    22634531.591
        46.900          42.000
 198980438.163 7                  37864716.694
        46.000
 200941495.672 7                  38237905.846
        44.400
 131979798.667 6 102841395.85942  25114926.721    25114925.4434   25114930.3054
        36.300          16.9004
 112620164.958 7  87755988.17847  21430900.645    21430900.3824   21430903.3544
        46.400          46.8004
 113960959.650 6                  21356234.215    21356234.641
        37.400
 412707414.082 5                  78535543.356
        33.300
 202100119.330 7                  38458346.160
        45.300
 132752222.475 7                  25261904.762
        45.800
 144222718.416 5                  27444668.293
        35.800
 127878929.326 7                  24334548.003
        47.700
 143712236.733 6                  27347531.798
        40.000
 124120331.232 6  96717190.28143  23619305.546    23619304.5454   23619309.9444
        41.000          22.6004
 128040603.590 7  99587148.591 6  23986317.851    23986318.098    23986322.697
        42.900          39.100
 150216602.259 5                  28585319.985
        34.100
 130627903.551 7                  24857657.144
        46.200
 151982391.771 6                  28921282.751
        37.200
 127287434.870 6  99185016.16443  24221995.634    24221995.0934   24221997.3224
        39.300          22.1004
 105186312.384 8  81811625.814 8  19684178.792    19684178.712    19684184.451
        53.000          48.300
 145430150.239 6                  27674454.640
        38.000
 125184977.859 7  97366138.378 7  23484378.175    23484378.077    23484383.980
        46.600          43.000
 104953174.036 8  81630254.352 7  19633657.949    19633658.201    19633664.419
        52.100          47.900
 117958093.414 7  91915402.06847  22446678.611    22446678.1424   22446682.2314
        46.900          45.0004
 106611217.903 8  82919880.262 8  19957838.397    19957838.343    19957845.059
        52.600          48.800
 140157540.381 6                  26671091.620
        39.100
 110482479.952 7  86090247.70946  21024115.837    21024115.4754   21024115.8234
        47.800          37.5004
 105058774.991 8  81863981.99448  19992019.943    19992019.4924   19992018.9794
        50.700          52.0004
 123256833.994 6  96044315.13045  23454991.670    23454990.7184   23454995.4814
        41.800          34.6004
 128970639.117 7 100310541.385 6  24101245.931    24101246.829    24101253.328
        44.900          39.200
 129056597.087 6 100563584.65643  24558657.538    24558656.3004   24558658.3954
        40.600          23.6004
 25  1  1 14  7 30.0000000  0 34G10G26E19E10R04S31S35G21G03R06S48S33
                                E27E11E29E04G16R22E07E21E30G04R15E33
                                R14R05G32R16E12G28G31G25R21G02
 129336276.719 6 100781484.93745  24611905.746    24611905.0314   24611919.5344
        39.700          33.8004
 111352844.063 7  86768476.66947  21189738.876    21189738.2064   21189742.6174
        47.200          46.6004
 122498912.448 7                  23310767.068
        44.700
 140316490.737 6                  26701336.956
        41.100
 121252388.412 7  94307435.824 6  22643048.890    22643049.164    22643060.831
        47.500          41.700
 198980445.149 7                  37864717.297
        46.000
 200941471.885 7                  38237903.494
        44.500
 132015276.233 5 102869040.55542  25121678.476    25121677.1754   25121681.7484
        35.200          16.2004
 112587700.519 7  87730691.17947  21424723.247    21424723.0024   21424725.5754
        47.100          46.7004
 113914170.258 6                  21347468.260    21347466.496
        38.100
 412707750.150 5                  78535556.189
        32.800
 202100144.539 7                  38458352.250
        45.300
 132761242.542 7                  25263621.567
        45.400
 144214781.104 5                  27443157.296
        35.500
 127895308.765 7                  24337665.211
        47.300
 143680608.218 6                  27341513.106
        40.400
 124060992.097 7  96670952.06843  23608013.737    23608012.7494   23608018.0284
        42.000          22.7004
 128045016.658 7  99590580.929 6  23987145.019    23987144.972    23987148.825
        43.800          40.000
 150248098.505 5                  28591313.634
        33.400
 130596339.181 7                  24851650.630
        46.100
 152020108.875 6                  28928459.488
        37.200
 127244778.711 6  99151777.60843  24213878.059    24213877.5274   24213880.0124
        38.800          22.0004
 105211255.531 8  81831026.034 8  19688845.706    19688846.290    19688852.270
        52.900          48.100
 145474062.724 6                  27682811.510
        38.400
 125246925.203 7  97414319.598 7  23495998.351    23495998.617    23496005.128
        45.700          42.400
 104962746.209 8  81637699.363 7  19635448.622    19635448.778    19635455.170
        51.800          47.800
 117987750.284 7  91938511.24947  22452321.900    22452321.4274   22452325.8704
        47.900          45.1004
 106571741.783 8  82889176.617 8  19950447.902    19950448.419    19950454.858
        52.300          48.700
 140184240.737 6                  26676172.830
        39.600
 110508764.660 7  86110729.25446  21029117.625    21029117.2634   21029117.6814
        47.800          37.4004
 105061335.657 8  81865977.31348  19992507.192    19992506.7454   19992506.2884
        50.800          52.0004
 123299836.754 6  96077823.71145  23463174.493    23463173.5464   23463179.0064
        40.800          34.7004
 129014441.943 7 100344610.258 6  24109431.674    24109431.906    24109440.046
        43.300          40.000
 129087832.622 6 100587923.92643  24564601.683    24564600.4274   24564602.7024
        39.700          23.8004
 25  1  1 14  7 45.0000000  0 34G10G26E19E10R04S31S35G21G03R06S48S33
                                E27E11E29E04G16R22E07E21E30G04R15E33
                                R14R05G32R16E12G28G31G25R21G02
 129394099.010 6 100826541.07345  24622909.300    24622908.5764   24622923.1954
        40.600          33.4004
 111315226.809 7  86739164.52947  21182580.347    21182579.6904   21182584.2334
        47.000          46.5004
 122488409.067 7                  23308768.307
        44.800
 140327896.035 6                  26703507.437
        40.900
 121298131.250 7  94343013.336 6  22651591.225    22651591.922    22651603.106
        46.900          41.600
 198980448.490 7                  37864717.463
        45.900
 200941445.077 7                  38237895.315
        44.300
 132050748.994 5 102896681.50842  25128428.401    25128427.0734   25128432.2714
        35.300          15.9004
 112555349.412 7  87705482.52347  21418566.645    21418566.3914   21418569.3494
        47.100          46.7004
 113867414.052 6                  21338704.368    21338704.816
        37.300
 412708082.837 5                  78535572.462
        32.900
 202100165.449 7                  38458355.738
        45.100
 132770365.015 7                  25265357.547
        45.300
 144206947.358 5                  27441667.053
        35.600
 127911717.379 7                  24340787.536
        47.300
 143648972.110 6                  27335493.214
        40.300
 124001669.038 6  96624726.37943  23596724.608    23596723.6114   23596728.8494
        40.700          22.1004
 128049596.963 7  99594143.408 6  23988000.826    23988001.579    23988007.095
        43.000          38.600
 150279602.677 5                  28597308.992
        34.200
 130564847.578 7                  24845658.014
        46.200
 152057872.189 6                  28935645.498
        36.500
 127202116.309 6  99118534.15743  24205759.691    24205759.1734   24205761.4154
        39.400          22.4004
 105236366.974 8  81850557.169 8  19693545.136    19693545.715    19693551.489
        53.000          48.200
 145517958.546 6                  27691164.232
        37.200
 125308904.783 7  97462526.049 7  23507626.023    23507626.105    23507632.352
        45.300          42.400
 104972434.614 8  81645234.783 7  19637261.326    19637261.453    19637267.720
        51.900          47.700
 118017457.678 7  91961659.80247  22457975.231    22457974.7444   22457979.0394
        47.100          44.9004
 106532418.555 8  82858591.887 8  19943086.805    19943087.283    19943093.839
        52.600          48.600
 140211014.934 6                  26681267.563
        39.400
 110535115.503 7  86131262.37546  21034132.057    21034131.7004   21034132.1774
        47.400          37.2004
 105064006.440 8  81868058.40348  19993015.622    19993015.1804   19993014.5464
        50.500          51.9004
 123342937.534 6  96111408.77545  23471376.680    23471375.7334   23471380.8834
        41.200          34.5004
 129058316.899 7 100378735.186 6  24117630.118    24117630.939    24117638.570
        43.800          39.500
 129119110.200 6 100612295.94443  24570553.761    24570552.4964   24570554.7404
        39.800          23.2004
 25  1  1 14  8  0.0000000  0 34G10G26E19E10R04S31S35G21G03R06S48S33
                                E27E11E29E04G16R22E07E21E30G04R15E33
                                R14R05G32R16E12G28G31G25R21G02
 129451949.376 6 100871619.10245  24633917.330    24633916.5934   24633931.5484
        40.000          33.3004
 111277729.325 7  86709945.71547  21175444.806    21175444.1544   21175448.7134
        47.500          46.6004
 122477938.874 7                  23306776.069
        45.300
 140339409.278 6                  26705698.653
        41.200
 121343949.986 7  94378649.851 6  22660146.754    22660147.084    22660160.186
        46.200          41.800
 198980457.467 7                  37864718.728
        46.000
 200941423.391 7                  38237893.348
        44.500
 132086224.945 5 102924324.94242  25135179.256    25135177.9554   25135183.2804
        34.500          16.0004
 112523120.549 7  87680369.12747  21412433.924    21412433.6474   21412436.3674
        47.300          46.8004
 113820700.072 6                  21329951.389    21329949.836
        37.800
 412708421.493 5                  78535589.101
        33.200
 202100192.115 7                  38458359.177
        45.300
 132779598.323 7                  25267114.394
        45.900
 144199225.766 5                  27440197.660
        35.100
 127928163.849 7                  24343917.451
        47.700
 143617337.191 6                  27329473.110
        40.400
 123942371.210 6  96578520.35243  23585441.449    23585440.4434   23585444.9514
        40.700          22.6004
 128054353.111 7  99597842.660 6  23988893.028    23988893.059    23988897.985
        43.600          38.900
 150311123.462 5                  28603306.744
        34.300
 130533437.583 7                  24839681.033
        46.400
 152095690.604 6                  28942842.170
        36.700
 127159456.329 6  99085292.62643  24197642.113    24197641.5994   24197643.5374
        38.900          22.2004
 105261655.009 8  81870225.574 8  19698277.453    19698277.908    19698283.960
        52.800          48.100
 145561845.959 6                  27699515.759
        39.100
 125370924.626 7  97510763.746 7  23519259.634    23519260.203    23519267.116
        45.400          42.500
 104982248.380 8  81652867.676 7  19639096.961    19639097.291    19639103.629
        51.800          47.800
 118047224.175 7  91984854.40347  22463640.041    22463639.5544   22463643.4674
        46.900          44.9004
 106493257.245 8  82828133.101 8  19935755.767    19935755.875    19935762.457
        52.300          48.700
 140237871.287 6                  26686378.378
        39.600
 110561540.687 7  86151853.38646  21039160.447    21039160.0854   21039160.7494
        47.700          37.3004
 105066795.859 8  81870231.95848  19993546.273    19993545.8354   19993545.3904
        50.600          51.9004
 123386144.532 6  96145076.64745  23479598.337    23479597.3814   23479602.6454
        41.000          34.6004
 129102272.337 7 100412922.665 6  24125846.179    24125845.739    24125852.985
        43.600          39.300
 129150438.255 6 100636707.30643  24576515.359    24576514.1074   24576516.2454
        39.300          23.8004
 25  1  1 14  8 15.0000000  0 34G10G26E19E10R04S31S35G21G03R06S48S33
                                E27E11E29E04G16R22E07E21E30G04R15E33
                                R14R05G32R16E12G28G31G25R21G02
 129509815.400 6 100916709.32845  24644929.230    24644928.5114   24644943.4464
        39.300          33.6004
 111240339.917 7  86680811.11047  21168329.821    21168329.1604   21168333.7364
        47.500          46.7004
 122467489.997 7                  23304787.464
        45.200
 140351018.301 6                  26707907.146
        41.400
 121389832.433 7  94414335.935 6  22668716.259    22668715.925    22668728.477
        46.800          41.700
 198980459.389 7                  37864720.835
        46.300
 200941394.693 7                  38237887.472
        44.700
 132121692.173 5 102951961.61142  25141929.477    25141928.2304   25141931.9254
        35.800          16.1004
 112491002.107 7  87655341.76747  21406321.395    21406321.1004   21406324.4554
        47.300          46.8004
 113774016.467 6                  21321202.438    21321201.553
        38.200
 412708753.575 5                  78535605.324
        32.900
 202100211.360 7                  38458363.975
        45.200
 132788930.096 7                  25268890.268
        46.100
 144191604.505 5                  27438747.391
        35.300
 127944636.165 7                  24347052.007
        47.800
 143585691.318 6                  27323451.305
        39.900
 123883086.826 6  96532324.77243  23574159.601    23574158.5954   23574163.8794
        40.800          22.7004
 128059272.792 7  99601669.154 6  23989814.707    23989814.938    23989819.770
        42.800          39.000
 150342648.842 5                  28609306.672
        33.200
 130502097.329 7                  24833716.924
        46.400
 152133551.698 6                  28950046.831
        37.500
 127116786.791 6  99052043.63043  24189522.090    24189521.5814   24189524.0864
        39.100          22.4004
 105287106.905 8  81890021.453 8  19703040.466    19703040.960    19703046.868
        52.800          48.100
 145605712.774 6                  27707863.901
        39.100
 125432971.929 7  97559022.678 7  23530899.767    23530899.421    23530906.947
        44.700          42.500
 104992175.102 8  81660588.439 7  19640954.138    19640954.360    19640960.654
        52.000          47.800
 118077037.797 7  92008085.74347  22469313.479    22469312.9884   22469316.9414
        46.900          44.9004
 106454245.898 8  82797790.961 8  19928452.659    19928452.986    19928459.412
        52.300          48.600
 140264797.611 6                  26691502.089
        39.600
 110588028.028 7  86172492.82846  21044201.206    21044200.8444   21044201.1534
        47.400          37.2004
 105069691.574 8  81872488.33148  19994097.353    19994096.9154   19994096.4644
        50.600          52.0004
 123429444.862 6  96178817.06245  23487838.866    23487837.9054   23487842.4554
        40.700          34.4004
 129146295.360 7 100447162.748 6  24134071.131    24134071.486    24134079.438
        44.200          39.600
 129181804.313 6 100661148.24443  24582483.690    24582482.4214   24582485.0834
        40.300          23.8004
 25  1  1 14  8 30.0000000  0 34G10G26E19E10R04S31S35G21G03R06S48S33
                                E27E11E29E04G16R22E07E21E30G04R15E33
                                R14R05G32R16E12G28G31G25R21G02
 129567710.168 6 100961821.94545  24655947.082    24655946.3804   24655960.8624
        38.800          33.4004
 111203072.232 7  86651771.38347  21161238.030    21161237.3734   21161241.9354
        47.600          46.8004
 122457075.367 7                  23302805.710
        45.400
 140362736.339 6                  26710137.410
        41.800
 121435792.176 7  94450082.085 6  22677298.491    22677299.146    22677311.434
        47.500          41.900
 198980466.865 7                  37864723.746
        45.900
 200941372.024 7                  38237884.449
        44.300
 132157163.520 5 102979601.43842  25148678.590    25148677.3744   25148681.9734
        34.900          15.5004
 112459007.805 7  87630411.13647  21400233.461    21400233.1664   21400236.1714
        46.800          46.9004
 113727376.929 6                  21312462.147    21312461.431
        38.300
 412707493.250 5                  78535620.062
        32.700
 202100237.561 7                  38458369.175
        44.900
 132798373.908 7                  25270687.361
        45.900
 144184096.756 5                  27437318.402
        35.300
 127961147.680 7                  24350194.104
        47.800
 143554048.037 6                  27317429.914
        40.400
 123823829.737 6  96486150.50243  23562882.965    23562881.9154   23562887.3194
        40.400          22.7004
 128064368.772 7  99605632.525 6  23990769.284    23990769.308    23990773.388
        42.500          38.700
 150374192.112 5                  28615309.500
        34.400
 130470840.377 7                  24827768.922
        46.600
 152171468.191 6                  28957261.829
        37.200
 127074121.090 6  99018797.61643  24181403.173    24181402.6644   24181405.3544
        38.500          22.1004
 105312736.006 8  81909955.187 8  19707836.738    19707837.111    19707843.157
        52.800          48.200
 145649572.064 6                  27716209.840
        38.300
 125495060.003 7  97607313.351 6  23542548.231    23542548.498    23542553.909
        45.200          41.900
 105002228.737 8  81668407.899 8  19642834.478    19642834.816    19642841.418
        51.600          48.000
 118106911.847 7  92031364.17447  22474998.155    22474997.6644   22475001.8404
        46.600          44.9004
 106415398.304 8  82767576.144 8  19921180.517    19921180.653    19921187.069
        52.600          48.600
 140291806.932 6                  26696641.995
        39.800
 110614590.688 7  86193190.94646  21049255.947    21049255.5904   21049255.9694
        47.400          37.4004
 105072706.816 8  81874837.84348  19994671.168    19994670.7264   19994670.2854
        50.600          52.0004
 123472852.200 6  96212640.94645  23496099.107    23496098.1554   23496102.8344
        40.700          34.6004
 129190398.990 7 100481465.517 6  24142313.840    24142313.979    24142321.452
        44.500          39.000
 129213221.399 6 100685628.95043  24588462.517    24588461.2434   24588463.5574
        39.100          23.6004
 25  1  1 14  8 45.0000000  0 34G10G26E19E10R04S31S35G21G03R06S48S33
                                E27E11E29E04G16R22E07E21E30G04R15E33
                                R14R05G32R16E12G28G31G25R21G02
 129625621.030 6 101006947.10745  24666966.946    24666966.2314   24666980.4874
        40.300          33.0004
 111165914.217 7  86622817.09647  21154167.066    21154166.4054   21154170.9404
        47.700          46.9004
 122446683.092 7                  23300828.079
        45.200
 140374550.860 6                  26712385.426
        41.200
 121481816.292 7  94485878.346 6  22685893.142    22685893.171    22685905.589
        46.700          41.300
 198980469.354 7                  37864720.987
        45.700
 200941343.137 7                  38237878.211
        44.500
 132192626.375 5 103007234.60742  25155427.660    25155426.4804   25155430.3314
        34.700          15.2004
 112427125.381 7  87605567.58747  21394166.778    21394166.4794   21394169.2074
        46.900          46.8004
 113680769.207 6                  21303727.464    21303726.935
        38.100
 412707827.021 5                  78535635.458
        32.200
 202100257.082 7                  38458372.761
        44.900
 132807917.307 7                  25272503.412
        45.900
 144176690.203 5                  27435909.308
        34.000
 127977686.073 7                  24353341.241
        47.900
 143522394.855 6                  27311406.617
        40.200
 123764587.835 6  96439988.03143  23551609.539    23551608.4844   23551614.1484
        40.400          22.9004
 128069628.915 6  99609723.560 6  23991753.853    23991753.758    23991759.578
        41.800          39.400
 150405741.025 5                  28621313.165
        33.900
 130439654.552 7                  24821834.559
        46.300
 152209427.516 6                  28964485.853
        38.900
 127031447.033 6  98985545.13743  24173282.524    24173282.0014   24173284.6334
        39.100          22.1004
 105338529.228 8  81930016.537 8  19712663.796    19712663.892    19712670.024
        52.800          48.300
 145693411.210 6                  27724552.626
        38.400
 125557176.086 7  97655625.841 7  23554200.110    23554199.588    23554207.633
        44.100          42.500
 105012396.829 8  81676316.402 8  19644737.130    19644737.094    19644743.401
        51.700          48.000
 118136833.986 7  92054680.06447  22480692.350    22480691.8594   22480695.8114
        46.700          44.8004
 106376702.443 8  82737479.374 8  19913936.525    19913936.848    19913943.264
        52.600          48.700
 140318886.767 6                  26701795.257
        39.200
 110641216.189 7  86213938.11046  21054322.342    21054321.9854   21054322.6754
        47.900          37.4004
 105075829.141 8  81877270.78348  19995265.276    19995264.8344   19995264.4794
        50.300          52.0004
 123516353.563 6  96246538.13045  23504376.725    23504375.7734   23504380.6574
        40.600          34.4004
 129234570.169 7 100515820.798 6  24150568.509    24150568.701    24150576.497
        44.500          39.300
 129244676.879 6 100710139.57143  24594448.191    24594446.9224   24594449.7054
        39.900          23.6004
 25  1  1 14  9  0.0000000  0 34G10G26E19E10R04S31S35G21G03R06S48S33
                                E27E11E29E04G16R22E07E21E30G04R15E33
                                R14R05G32R16E12G28G31G25R21G02
 129683558.464 6 101052092.99545  24677992.237    24677991.5094   24678005.9264
        39.400          33.8004
 111128876.991 7  86593956.92247  21147118.933    21147118.2634   21147122.9524
        47.500          47.1004
 122436323.828 7                  23298856.821
        45.000
 140386472.630 6                  26714654.021
        41.200
 121527915.793 7  94521733.223 6  22694502.188    22694502.958    22694515.345
        47.200          41.600
 198980476.114 7                  37864724.658
        46.000
 200941319.494 7                  38237869.737
        44.300
 132228091.312 5 103034869.47042  25162176.268    25162175.0574   25162179.6824
        34.800          16.3004
 112395366.341 7  87580820.28047  21388123.344    21388123.0404   21388125.7334
        46.800          47.0004
 113634204.854 6                  21295001.753    21295000.796
        38.200
 412708165.940 5                  78535652.463
        33.000
 202100281.725 7                  38458378.324
        45.200
 132817570.929 7                  25274340.178
        45.600
 144169396.048 5                  27434521.519
        34.500
 127994262.225 7                  24356495.563
        47.300
 143490742.643 6                  27305383.068
        40.300
 123705372.338 6  96393846.12743  23540341.041    23540340.0004   23540345.7804
        40.100          23.0004
 128075064.820 7  99613951.691 6  23992773.544    23992773.493    23992777.547
        43.400          38.800
 150437306.420 5                  28627320.184
        33.500
 130408550.851 7                  24815915.635
        46.000
 152247440.787 6                  28971719.044
        37.600
 126988775.439 6  98952294.60943  24165162.402    24165161.8794   24165163.8754
        38.400          22.3004
 105364497.223 8  81950213.797 8  19717522.950    19717523.736    19717529.636
        52.900          48.400
 145737240.739 6                  27732892.468
        38.400
 125619330.720 7  97703968.377 7  23565861.297    23565861.289    23565867.626
        46.000          43.100
 105022690.422 8  81684322.489 7  19646662.464    19646662.753    19646669.199
        51.800          47.900
 118166815.047 7  92078041.87447  22486397.746    22486397.2554   22486401.0794
        47.000          44.9004
 106338169.579 8  82707509.377 8  19906723.181    19906723.208    19906729.844
        52.500          48.800
 140346047.691 6                  26706963.875
        38.700
 110667914.928 7  86234742.29646  21059403.080    21059402.7144   21059403.3104
        47.600          37.5004
 105079069.268 8  81879795.57048  19995881.870    19995881.4324   19995881.0844
        50.600          52.1004
 123559959.823 6  96280517.21445  23512674.773    23512673.8214   23512678.7064
        41.200          34.8004
 129278819.364 7 100550236.788 6  24158837.510    24158837.603    24158845.135
        44.200          39.000
 129276181.202 6 100734688.26143  24600443.802    24600442.5554   24600444.5014
        39.600          23.9004
 25  1  1 14  9 15.0000000  0 34G10G26E19E10R04S31S35G21G03R06S48S33
                                E27E11E29E04G16R22E07E21E30G04R15E33
                                R14R05G32R16E12G28G31G25R21G02
 129741514.853 6 101097253.64545  24689021.430    24689020.7064   24689034.8294
        39.300          33.4004
 111091953.513 8  86565185.37247  21140092.643    21140091.9644   21140096.6694
        48.000          47.2004
 122425990.313 7                  23296890.266
        44.900
 140398494.131 6                  26716941.642
        40.900
 121574082.904 7  94557640.691 6  22703123.904    22703124.425    22703136.781
        47.100          41.800
 198980480.484 7                  37864723.620
        45.900
 200941292.787 7                  38237866.920
        44.500
 132263550.636 5 103062499.92242  25168924.129    25168922.9134   25168927.8704
        35.500          16.3004
 112363723.315 7  87556163.34247  21382101.578    21382101.2744   21382104.2514
        47.000          47.1004
 113587676.736 6                  21286280.606    21286281.052
        37.900
 412708503.445 5                  78535671.356
        32.600
 202100303.552 7                  38458380.645
        45.100
 132827327.327 7                  25276197.029
        45.900
 144162206.234 5                  27433153.028
        35.100
 128010868.835 7                  24359655.764
        47.300
 143459084.035 6                  27299358.859
        40.300
 123646176.395 6  96347719.47743  23529076.655    23529075.6494   23529081.2804
        40.400          23.1004
 128080667.877 7  99618309.707 6  23993823.138    23993822.380    23993827.533
        43.400          39.000
 150468880.864 5                  28633328.163
        34.500
 130377522.120 7                  24810011.214
        46.400
 152285500.272 6                  28978961.455
        37.600
 126946098.973 6  98919040.24943  24157041.540    24157041.0134   24157042.7834
        39.700          22.2004
 105390632.328 8  81970541.051 8  19722414.085    19722414.457    19722420.593
        53.000          48.300
 145781053.063 6                  27741229.977
        38.300
 125681515.467 7  97752334.341 7  23577525.329    23577526.053    23577532.671
        44.000          42.400
 105033102.177 8  81692420.488 7  19648610.436    19648610.516    19648616.971
        51.600          47.900
 118196847.643 7  92101443.83447  22492112.530    22492112.0254   22492116.2284
        47.000          45.1004
 106299792.211 8  82677660.303 8  19899538.697    19899539.046    19899545.462
        52.700          48.600
 140373282.063 6                  26712146.171
        39.300
 110694679.462 7  86255597.79746  21064495.935    21064495.5734   21064496.4754
        47.500          37.6004
 105082419.530 8  81882406.13948  19996519.381    19996518.9434   19996518.6264
        50.600          52.2004
 123603662.500 6  96314571.26645  23520990.885    23520989.9334   23520994.4434
        40.500          34.2004
 129323138.457 7 100584707.126 6  24167120.071    24167120.931    24167127.148
        45.300          39.600
 129307726.534 6 100759268.92643  24606447.171    24606445.9154   24606447.5834
        39.800          23.5004
 25  1  1 14  9 30.0000000  0 34G10G26E19E10R04S31S35G21G03R06S48S33
                                E27E11E29E04G16R22E07E21E30G04R15E33
                                R14R05G32R16E12G28G31G25R21G02
 129799493.583 6 101142431.70445  24700054.596    24700053.8684   24700067.8924
        38.200          32.4004
 111055147.821 8  86536505.61647  21133088.649    21133087.9704   21133092.8024
        48.000          47.1004
 122415686.395 7                  23294929.582
        44.900
 140410618.846 6                  26719249.225
        41.100
 121620321.414 8  94593603.670 6  22711759.561    22711759.661    22711771.328
        48.200          41.400
 198980485.565 7                  37864725.132
        46.100
 200941267.923 7                  38237862.923
        44.500
 132299007.564 5 103090128.50142  25175672.435    25175671.1754   25175675.4374
        35.200          15.0004
 112332200.505 7  87531600.09747  21376103.076    21376102.7724   21376105.6864
        47.500          46.9004
 113541188.732 6                  21277569.922    21277570.018
        38.200
 412708842.176 5                  78535685.701
        32.900
 202100327.078 7                  38458384.356
        45.200
 132837190.207 7                  25278073.704
        45.600
 144155124.965 5                  27431805.178
        35.300
 128027509.555 7                  24362822.298
        47.500
 143427422.706 6                  27293333.328
        40.600
 123587004.042 6  96301611.22343  23517816.445    23517815.4264   23517821.0054
        40.500          23.2004
 128086441.695 7  99622800.385 6  23994904.396    23994904.830    23994908.978
        43.200          39.600
 150500468.103 5                  28639339.501
        34.400
 130346572.231 7                  24804121.272
        46.200
 152323609.725 6                  28986213.816
        37.100
 126903421.351 6  98885785.00943  24148919.672    24148919.1454   24148921.7624
        40.200          22.8004
 105416937.809 8  81991000.870 8  19727336.821    19727337.182    19727343.287
        52.900          48.200
 145824851.596 6                  27749564.834
        37.800
 125743734.097 7  97800726.650 7  23589198.712    23589198.177    23589205.520
        44.200          42.600
 105043635.989 8  81700613.405 7  19650580.773    19650581.133    19650587.561
        51.900          47.900
 118226935.483 7  92124888.84447  22497838.114    22497837.6054   22497841.9314
        46.700          44.8004
 106261574.554 8  82647935.437 8  19892384.442    19892384.794    19892391.032
        52.900          48.700
 140400593.357 6                  26717343.311
        39.000
 110721513.204 7  86276507.22346  21069602.649    21069602.2874   21069602.7824
        47.300          37.5004
 105085883.547 8  81885105.32148  19997178.573    19997178.1404   19997177.8414
        50.500          52.0004
 123647465.363 6  96348703.45145  23529326.579    23529325.6324   23529329.4504
        40.900          34.3004
 129367530.696 7 100619234.345 6  24175415.157    24175415.925    24175422.616
        44.300          39.200
 129339316.288 6 100783884.20243  24612458.091    24612456.8224   24612458.9684
        39.700          23.2004
 25  1  1 14  9 45.0000000  0 34G10G26E19E10R04S31S35G21G03R06S48S33
                                E27E11E29E04G16R22E07E21E30G04R15E33
                                R14R05G32R16E12G28G31G25R21G02
 129857492.386 6 101187625.40345  24711091.585    24711090.8704   24711105.5294
        39.200          33.1004
 111018458.304 7  86507916.40447  21126107.003    21126106.3244   21126111.0704
        47.500          47.0004
 122405410.176 7                  23292973.942
        45.000
 140422844.803 6                  26721575.717
        40.200
 121666629.336 7  94629620.636 6  22720406.747    22720407.627    22720419.463
        47.300          41.600
 198980490.723 7                  37864724.175
        46.100
 200941241.866 7                  38237859.238
        44.600
 132334460.077 5 103117753.68042  25182418.015    25182416.7774   25182421.6934
        34.600          15.3004
 112300796.254 7  87507129.30047  21370126.561    21370126.2444   21370129.6174
        46.700          46.7004
 113494739.234 6                  21268865.367    21268865.294
        37.700
 412709180.424 5                  78535708.801
        33.100
 202100349.462 7                  38458389.941
        45.300
 132847157.502 7                  25279970.452
        45.800
 144148150.353 5                  27430477.974
        34.900
 128044182.529 7                  24365995.275
        47.300
 143395756.715 6                  27287307.716
        39.900
 123527853.622 6  96255520.01543  23506560.803    23506559.8064   23506564.7374
        40.300          22.6004
 128092384.529 7  99627422.588 6  23996017.157    23996017.803    23996022.971
        42.800          39.100
 150532066.230 5                  28645352.829
        34.300
 130315699.458 7                  24798246.747
        46.300
 152361766.468 6                  28993474.710
        37.400
 126860740.670 6  98852527.32343  24140798.015    24140797.4834   24140799.5784
        39.800          22.6004
 105443411.165 8  82011591.242 8  19732290.836    19732291.216    19732297.496
        52.900          48.400
 145868634.163 6                  27757897.003
        37.800
 125805984.285 7  97849143.584 7  23600876.292    23600876.186    23600882.948
        45.000          42.100
 105054290.078 8  81708899.878 7  19652573.829    19652574.382    19652580.724
        51.700          47.900
 118257076.656 7  92148375.40547  22503574.050    22503573.5414   22503577.7354
        46.800          44.6004
 106223515.098 8  82618333.635 8  19885259.477    19885259.496    19885266.436
        52.700          48.800
 140427979.425 6                  26722554.908
        38.900
 110748413.898 7  86297468.78046  21074721.611    21074721.2494   21074721.8554
        47.300          37.2004
 105089459.234 8  81887891.51448  19997859.017    19997858.5934   19997858.3244
        50.400          51.7004
 123691366.060 6  96382911.81345  23537680.523    23537679.5894   23537683.7554
        40.600          34.2004
 129411993.316 7 100653816.286 6  24183724.284    24183723.972    24183732.751
        43.200          40.400
 129370948.232 6 100808532.34043  24618477.304    24618475.9944   24618478.8234
        39.100          23.4004
 25  1  1 14 10  0.0000000  0 34G10G26E19E10R04S31S35G21G03R06S48S33
                                E27E11E29E04G16R22E07E21E30G04R15E33
                                R14R05G32R16E12G28G31G25R21G02
 129915508.708 6 101232832.77045  24722131.597    24722130.8954   24722145.6384
        40.400          33.0004
 110981882.965 8  86479416.15347  21119147.061    21119146.3774   21119151.0664
        48.100          47.1004
 122395159.338 7                  23291023.302
        45.000
 140435169.615 6                  26723921.175
        41.300
 121713004.285 7  94665689.745 7  22729067.148    22729067.890    22729080.317
        47.200          42.100
 198980492.316 7                  37864726.478
        45.900
 200941212.316 7                  38237852.598
        44.500
 132369905.482 5 103145373.32642  25189163.234    25189161.9564   25189166.9484
        35.400          16.3004
 112269508.539 7  87482749.30547  21364173.355    21364173.0424   21364175.7104
        47.000          46.8004
 113448326.392 6                  21260167.678    21260167.755
        38.100
 412709517.200 5                  78535726.487
        33.000
 202100368.413 7                  38458392.495
        45.200
 132857226.920 7                  25281886.766
        45.900
 144141280.269 5                  27429171.079
        34.600
 128060885.545 7                  24369173.734
        47.500
 143364083.860 6                  27281280.596
        40.500
 123468723.281 6  96209444.45843  23495308.946    23495307.9674   23495312.4894
        40.900          23.0004
 128098494.009 7  99632174.543 6  23997161.263    23997161.694    23997167.688
        42.900          40.000
 150563672.977 5                  28651368.187
        33.600
 130284901.729 7                  24792386.125
        46.100
 152399968.440 6                  29000744.770
        38.200
 126818054.792 6  98819265.59143  24132675.653    24132675.1174   24132677.0994
        40.100          22.6004
 105470050.090 8  82032310.395 8  19737275.982    19737276.266    19737282.447
        53.000          48.500
 145912398.259 6                  27766224.584
        37.900
 125868262.704 7  97897582.297 7  23612559.369    23612559.400    23612566.135
        44.400          42.600
 105065062.304 8  81717278.240 7  19654588.890    19654589.398    19654595.986
        51.000          47.800
 118287268.886 7  92171901.75247  22509319.504    22509318.9994   22509323.1484
        46.800          44.5004
 106185611.620 8  82588853.146 8  19878163.567    19878164.163    19878170.736
        52.700          48.800
 140455437.746 6                  26727780.075
        39.000
 110775379.196 7  86318480.69946  21079852.972    21079852.6194   21079853.1724
        47.600          37.3004
 105093144.256 8  81890762.90948  19998560.320    19998559.8914   19998559.6224
        50.800          51.8004
 123735361.785 7  96417194.15345  23546052.196    23546051.2624   23546055.7464
        42.100          34.1004
 129456523.878 7 100688451.062 6  24192045.949    24192046.135    24192053.895
        44.300          40.000
 129402619.876 6 100833211.42043  24624505.123    24624503.8224   24624505.9804
        40.400          23.3004
 25  1  1 14 10 15.0000000  0 34G10G26E19E10R04S31S35G21G03R06S48S33
                                E27E11E29E04G16R22E07E21E30G04R15E33
                                R14R05G32R16E12G28G31G25R21G02
 129973550.869 6 101278060.27345  24733176.465    24733175.7774   24733190.4884
        39.200          32.7004
 110945430.729 7  86451011.83347  21112210.237    21112209.5444   21112214.4394
        47.600          47.2004
 122384942.618 7                  23289079.206
        45.100
 140447601.744 6                  26726286.642
        41.400
 121759454.785 7  94701817.596 6  22737741.048    22737741.554    22737755.211
        46.100          41.400
 198980498.949 7                  37864728.289
        45.800
 200941188.821 7                  38237847.312
        44.200
 132405352.041 5 103172993.82942  25195908.880    25195907.6374   25195912.2664
        35.000          15.1004
 112238346.100 7  87458466.88647  21358243.519    21358243.2244   21358245.6454
        46.800          46.9004
 113401959.074 6                  21251478.902    21251478.118
        38.300
 412708259.723 5                  78535744.065
        32.900
 202100393.640 7                  38458395.911
        45.100
 132867406.812 7                  25283823.881
        45.900
 144134523.075 5                  27427884.896
        34.700
 128077627.192 7                  24372359.539
        47.600
 143332412.705 6                  27275253.557
        40.300
 123409622.145 6  96163391.65943  23484061.487    23484060.5134   23484066.0864
        41.300          22.9004
 128104778.180 7  99637062.177 6  23998339.726    23998339.662    23998344.624
        43.700          39.800
 150595296.939 5                  28657385.650
        33.300
 130254187.775 7                  24786541.440
        46.300
 152438223.955 6                  29008024.578
        38.100
 126775372.376 6  98786006.56043  24124553.380    24124552.8484   24124555.2964
        39.500          22.6004
 105496862.764 8  82053164.756 8  19742293.467    19742293.838    19742300.059
        52.700          48.500
 145956152.271 6                  27774551.323
        37.200
 125930578.004 7  97946049.703 7  23624250.046    23624249.617    23624257.291
        44.600          43.000
 105075961.544 8  81725755.398 7  19656628.306    19656628.176    19656634.841
        51.400          47.800
 118317520.786 7  92195474.59547  22515076.120    22515075.6154   22515079.8884
        46.800          44.5004
 106147873.410 8  82559501.181 8  19871099.302    19871099.352    19871106.082
        52.600          48.900
 140482976.750 6                  26733020.213
        39.200
 110802417.474 7  86339549.50346  21084998.062    21084997.7184   21084998.3684
        47.400          37.4004
 105096946.999 8  81893726.06248  19999283.923    19999283.4944   19999283.3234
        50.600          51.8004
 123779461.180 6  96451557.34445  23554444.234    23554443.2874   23554447.6224
        41.000          34.2004
 129501130.414 7 100723144.962 6  24200381.564    24200382.058    24200389.688
        43.300          39.500
 129434339.356 6 100857927.79643  24630541.052    24630539.7694   24630541.7904
        40.200          23.1004
 25  1  1 14 10 30.0000000  0 34G10G26E19E10R04S31S35G21G03R06S48S33
                                E27E11E29E04G16R22E07E21E30G04R15E33
                                R14R05G32R16E12G28G31G25R21G02
 130031611.526 6 101323302.19245  24744225.665    24744224.9774   24744239.2554
        40.300          33.0004
 110909094.902 7  86422698.19947  21105295.937    21105295.2444   21105299.9384
        47.900          47.3004
 122374753.249 7                  23287140.234
        45.000
 140460133.960 6                  26728671.517
        40.700
 121805973.676 7  94737998.662 6  22746428.908    22746429.139    22746442.514
        47.200          41.800
 198980505.499 7                  37864729.581
        46.200
 200941163.295 7                  38237842.143
        44.500
 132440791.882 5 103200609.11942  25202653.140    25202651.8804   25202656.3944
        35.300          15.2004
 112207302.375 7  87434276.94647  21352335.772    21352335.4864   21352338.2024
        47.800          47.1004
 113355630.684 6                  21242797.470    21242796.271
        38.400
 412708600.850 5                  78535760.180
        33.500
 202100417.288 7                  38458403.719
        45.300
 132877690.431 7                  25285781.004
        45.800
 144127871.573 5                  27426619.178
        34.800
 128094400.581 7                  24375551.431
        47.200
 143300736.296 6                  27269226.221
        40.300
 123350543.599 6  96117356.46243  23472819.367    23472818.3704   23472823.4434
        41.000          23.4004
 128111230.402 7  99642080.727 6  23999547.070    23999547.957    23999553.800
        43.900          39.600
 150626931.215 5                  28663405.693
        34.100
 130223550.858 7                  24780711.598
        46.500
 152476525.756 6                  29015313.015
        38.000
 126732686.574 6  98752744.91643  24116430.403    24116429.8854   24116432.1284
        39.700          23.1004
 105523841.580 8  82074148.326 8  19747342.264    19747342.577    19747348.678
        52.800          48.500
 145999888.923 6                  27782873.858
        38.300
 125992922.620 7  97994539.901 7  23635945.282    23635945.995    23635951.925
        45.000          42.300
 105086980.609 8  81734325.768 7  19658689.424    19658689.652    19658696.223
        51.000          47.900
 118347825.384 7  92219088.50247  22520842.925    22520842.4204   22520846.7744
        46.800          44.7004
 106110293.319 8  82530272.187 8  19864063.868    19864064.502    19864071.039
        52.600          48.700
 140510589.083 6                  26738274.932
        38.900
 110829521.475 7  86360669.51646  21090155.557    21090155.2134   21090156.0764
        47.800          37.5004
 105100860.266 8  81896775.33848  20000028.639    20000028.2014   20000028.0224
        50.800          52.0004
 123823656.580 6  96485995.29645  23562854.541    23562853.5804   23562857.9664
        40.800          34.2004
 129545805.313 7 100757892.071 6  24208730.484    24208731.588    24208737.908
        44.600          39.200
 129466099.310 6 100882675.67743  24636584.979    24636583.6514   24636585.4784
        40.100          22.6004
 25  1  1 14 10 45.0000000  0 34G10G26E19E10R04S31S35G21G03R06S48S33
                                E27E11E29E04G16R22E07E21E30G04R15E33
                                R14R05G32R16E12G28G31G25R21G02
 130089690.674 6 101368558.52145  24755277.412    24755276.7284   24755291.6394
        39.100          32.6004
 110872875.980 8  86394475.66047  21098403.826    21098403.1384   21098407.7724
        48.000          47.3004
 122364591.190 7                  23285206.259
        45.200
 140472766.471 6                  26731075.309
        41.000
 121852561.055 7  94774232.970 6  22755128.568    22755129.776    22755141.796
        46.800          41.400
 198980509.622 7                  37864726.666
        45.700
 200941136.305 7                  38237837.081
        44.400
 132476225.817 5 103228219.81042  25209395.839    25209394.5434   25209399.5964
        34.800          15.3004
 112176377.959 7  87410180.01347  21346450.658    21346450.3684   21346453.4804
        47.600          47.1004
 113309341.649 6                  21234122.944    21234121.855
        38.200
 412708941.014 5                  78535769.298
        33.000
 202100439.344 7                  38458407.358
        45.100
 132888077.576 7                  25287757.390
        45.900
 144121326.358 5                  27425373.717
        34.900
 128111205.918 7                  24378749.412
        47.500
 143269054.795 6                  27263197.093
        40.100
 123291488.080 6  96071339.21843  23461581.317    23461580.3474   23461585.8404
        40.700          23.4004
 128117850.446 7  99647229.717 6  24000787.670    24000788.667    24000793.365
        44.200          39.500
 150658576.003 5                  28669427.396
        34.200
 130192991.368 7                  24774895.917
        46.400
 152514873.947 6                  29022610.927
        38.400
 126689997.590 6  98719480.77943  24108306.403    24108305.8944   24108308.8584
        40.200          23.1004
 105550986.381 8  82095260.905 8  19752422.235    19752422.394    19752428.575
        53.000          48.400
 146043608.268 6                  27791193.810
        37.300
 126055296.371 7  98043052.800 7  23647647.418    23647647.400    23647653.365
        45.300          42.900
 105098120.304 8  81742989.931 8  19660773.600    19660773.540    19660780.106
        51.700          48.000
 118378182.880 7  92242743.61747  22526620.011    22526619.5064   22526623.7494
        46.500          44.6004
 106072871.962 8  82501166.656 8  19857058.834    19857059.079    19857065.764
        52.600          49.200
 140538274.838 6                  26743543.307
        39.300
 110856691.177 7  86381840.71246  21095325.995    21095325.6564   21095326.3274
        47.700          37.6004
 105104884.060 8  81899910.74048  20000794.412    20000793.9744   20000793.7344
        50.600          51.9004
 123867948.219 6  96520508.34645  23571282.487    23571281.5354   23571286.3804
        41.100          34.2004
 129590547.993 7 100792691.848 6  24217092.196    24217091.309    24217100.535
        42.700          40.000
 129497899.546 6 100907454.94543  24642635.596    24642634.2554   24642637.1754
        39.300          23.2004
 25  1  1 14 11  0.0000000  0 34G10G26E19E10R04S31S35G21G03R06S48S33
                                E27E11E29E04G16R22E07E21E30G04R15E33
                                R14R05G32R16E12G28G31G25R21G02
 130147791.420 6 101413831.69545  24766334.495    24766333.8164   24766347.9094
        39.300          32.2004
 110836777.847 8  86366347.24947  21091534.281    21091533.5884   21091538.6184
        48.000          47.4004
 122354460.059 7                  23283278.381
        45.400
 140485502.654 6                  26733499.088
        41.400
 121899220.312 7  94810523.182 6  22763842.942    22763843.224    22763856.063
        47.400          41.600
 198980515.550 7                  37864731.401
        45.800
 200941112.424 7                  38237835.628
        44.300
 132511656.841 5 103255828.22942  25216138.631    25216137.3034   25216142.2894
        35.000          15.1004
 112145576.518 7  87386178.87147  21340589.319    21340589.0154   21340592.1764
        47.200          47.0004
 113263096.080 6                  21225455.212    21225455.377
        38.200
 412709283.571 5                  78535792.783
        32.700
 202100463.877 7                  38458412.156
        45.000
 132898571.790 7                  25289754.397
        46.200
 144114890.923 5                  27424149.224
        34.900
 128128046.760 7                  24381954.057
        47.700
 143237371.765 6                  27257168.387
        40.100
 123232459.527 6  96025342.98843  23450348.916    23450347.9554   23450353.2584
        41.100          23.7004
 128124641.656 7  99652511.881 6  24002059.342    24002059.851    24002065.488
        44.100          38.800
 150690234.751 5                  28675451.737
        34.500
 130162512.977 7                  24769096.302
        46.800
 152553271.861 6                  29029917.569
        38.000
 126647309.001 6  98686216.97443  24100183.099    24100182.5904   24100185.6904
        39.800          23.1004
 105578300.578 8  82116505.288 8  19757533.360    19757533.700    19757539.980
        53.100          48.600
 146087313.396 6                  27799510.904
        37.600
 126117702.483 7  98091590.835 7  23659354.332    23659355.172    23659361.374
        44.900          42.900
 105109383.857 8  81751750.444 8  19662880.895    19662880.770    19662887.300
        51.500          48.100
 118408596.722 7  92266442.64247  22532407.579    22532407.0794   22532411.4104
        46.600          44.5004
 106035613.321 8  82472187.663 8  19850083.771    19850084.260    19850090.976
        52.500          49.200
 140566037.229 6                  26748826.549
        39.500
 110883929.848 7  86403065.64446  21100509.113    21100508.7834   21100509.7254
        47.900          37.5004
 105109021.786 8  81903134.92848  20001581.767    20001581.3294   20001581.1244
        50.600          51.9004
 123912338.808 6  96555098.42645  23579730.170    23579729.1914   23579733.4544
        41.700          34.0004
 129635361.710 7 100827546.888 6  24225467.447    24225466.631    24225473.550
        43.400          39.400
 129529743.292 6 100932268.11443  24648696.237    24648694.9414   24648696.9894
        39.800          22.3004
 25  1  1 14 11 15.0000000  0 35G10G26E19E10R04S31S35G21G03R06S48S33
                                E27E11E29E04G16R22E07E21E30G04R15E33
                                R14R05G32R16E12G29G28G31G25R21G02
 130205909.576 6 101459118.43045  24777393.397    24777392.7044   24777407.8104
        39.900          32.4004
 110800796.789 8  86338310.06347  21084687.281    21084686.5844   21084691.6964
        48.000          47.3004
 122344355.901 7                  23281355.654
        45.300
 140498338.431 6                  26735941.589
        41.700
 121945947.287 7  94846866.059 6  22772568.233    22772568.795    22772582.153
        47.200          41.300
 198980521.231 7                  37864730.864
        45.900
 200941086.758 7                  38237830.204
        44.600
 132547080.801 5 103283431.17242  25222879.222    25222877.9034   25222883.4744
        35.200          15.5004
 112114894.493 7  87362270.81047  21334751.232    21334750.9464   21334753.6014
        47.600          47.0004
 113216890.168 6                  21216796.141    21216796.750
        38.300
 412709625.113 5                  78535803.586
        32.500
 202100487.553 7                  38458416.709
        45.200
 132909169.136 7                  25291770.962
        46.300
 144108561.353 5                  27422945.089
        35.400
 128144919.204 7                  24385165.001
        47.600
 143205683.339 6                  27251138.113
        40.300
 123173454.470 6  95979365.01843  23439120.613    23439119.6704   23439125.1704
        41.100          23.5004
 128131600.065 7  99657924.103 6  24003363.448    24003363.190    24003368.818
        42.700          39.800
 150721903.628 5                  28681478.956
        34.300
 130132111.930 7                  24763311.126
        46.500
 152591714.980 6                  29037233.002
        38.200
 126604616.921 6  98652950.42543  24092058.843    24092058.3474   24092061.3874
        40.900          22.7004
 105605779.469 8  82137877.814 8  19762675.920    19762676.352    19762682.301
        53.200          48.400
 146131000.226 6                  27807823.998
        38.100
 126180136.318 7  98140150.477 7  23671066.096    23671066.517    23671073.336
        43.400          42.400
 105120767.730 8  81760604.558 8  19665010.015    19665010.550    19665017.031
        52.000          48.300
 118439063.076 7  92290182.58447  22538205.131    22538204.6354   22538209.0434
        46.500          44.4004
 105998513.403 8  82443332.112 8  19843139.035    19843139.245    19843145.840
        52.400          49.000
 140593872.154 6                  26754123.038
        39.000
 136388994.458 6 106277207.49344  25953961.862    25953961.6844   25953980.1384
        39.300          24.7004
 110911233.462 7  86424341.20646  21105705.043    21105704.7084   21105705.3884
        47.600          37.5004
 105113269.600 8  81906444.92048  20002390.073    20002389.6354   20002389.4734
        50.600          51.7004
 123956824.128 6  96589762.25145  23588195.476    23588194.4754   23588198.8534
        40.700          33.7004
 129680241.696 7 100862453.464 6  24233853.095    24233853.499    24233861.089
        43.600          39.200
 129561626.189 6 100957111.80543  24654763.096    24654761.7824   24654764.3544
        40.000          22.7004
 25  1  1 14 11 30.0000000  0 35G10G26E19E10R04S31S35G21G03R06S48S33
                                E27E11E29E04G16R22E07E21E30G04R15E33
                                R14R05G32R16E12G29G28G31G25R21G02
 130264046.643 6 101504419.89245  24788456.205    24788455.5034   24788470.7394
        38.900          32.3004
 110764934.968 7  86310365.77447  21077863.127    21077862.4304   21077867.4554
        47.500          47.4004
 122334280.797 7                  23279438.280
        45.100
 140511275.374 6                  26738403.411
        41.300
 121992743.825 7  94883263.027 6  22781307.966    22781308.394    22781321.255
        47.100          41.300
 198980526.065 7                  37864733.096
        46.000
 200941060.468 7                  38237823.868
        44.400
 132582498.929 5 103311029.60242  25229619.200    25229617.8684   25229623.4304
        35.900          15.6004
 112084333.957 7  87338457.40547  21328935.596    21328935.3064   21328938.1484
        47.400          47.1004
 113170725.749 6                  21208145.747    21208145.748
        38.400
 412709967.115 5                  78535831.306
        33.200
 202100509.508 7                  38458422.347
        45.200
 132919871.196 7                  25293807.454
        46.100
 144102339.217 5                  27421761.026
        35.800
 128161825.102 7                  24388381.949
        47.700
 143173991.253 6                  27245107.167
        40.600
 123114475.130 6  95933407.08443  23427896.781    23427895.8204   23427901.6534
        40.600          23.7004
 128138727.223 7  99663467.577 6  24004699.203    24004698.471    24004704.327
        42.700          39.300
 150753584.483 5                  28687507.663
        34.100
 130101790.254 7                  24757541.139
        46.900
 152630205.170 6                  29044557.685
        37.900
 126561923.267 6  98619682.65343  24083934.505    24083934.0274   24083936.6734
        39.600          23.1004
 105633424.559 8  82159379.581 8  19767849.186    19767849.564    19767855.673
        53.000          48.500
 146174670.278 6                  27816134.155
        37.100
 126242599.650 7  98188733.084 7  23682784.242    23682783.769    23682791.380
        44.300          42.900
 105132273.300 8  81769553.316 8  19667162.622    19667162.693    19667169.384
        51.700          48.300
 118469583.742 7  92313964.84947  22544012.962    22544012.4664   22544016.9884
        46.400          44.5004
 105961574.667 8  82414601.904 8  19836223.703    19836224.287    19836230.802
        52.800          49.200
 140621781.073 6                  26759433.950
        38.900
 136359816.716 6 106254471.99444  25948409.206    25948408.7734   25948428.9594
        36.300          24.2004
 110938603.557 7  86445668.61446  21110913.479    21110913.1404   21110913.7604
        47.700          37.7004
 105117628.906 8  81909841.78748  20003219.788    20003219.3554   20003218.9954
        50.400          51.8004
 124001406.026 6  96624501.45845  23596678.587    23596677.5864   23596682.2764
        41.300          34.2004
 129725189.371 7 100897412.680 6  24242253.106    24242252.914    24242261.130
        43.400          39.800
 129593549.776 6 100981987.21543  24660837.765    24660836.4514   24660839.2734
        39.600          22.7004
 25  1  1 14 11 45.0000000  0 35G10G26E19E10R04S31S35G21G03R06S48S33
                                E27E11E29E04G16R22E07E21E30G04R15E33
                                R14R05G32R16E12G29G28G31G25R21G02
 130322201.446 6 101549735.19545  24799523.651    24799522.9414   24799536.9894
        39.900          32.1004
 110729191.848 7  86282513.99047  21071061.263    21071060.5614   21071065.8044
        47.800          47.4004
 122324233.911 7                  23277526.568
        44.700
 140524312.587 6                  26740884.343
        41.100
 122039608.781 7  94919713.226 7  22790060.683    22790060.826    22790073.781
        47.600          42.300
 198980529.923 7                  37864735.188
        46.100
 200941034.015 7                  38237818.926
        44.500
 132617909.932 5 103338622.44042  25236357.371    25236356.0124   25236362.0944
        34.800          14.9004
 112053894.367 7  87314738.27947  21323143.018    21323142.7324   21323145.6804
        47.400          47.1004
 113124602.905 6                  21199500.656    21199501.842
        38.100
 412708708.834 5                  78535840.947
        33.500
 202100532.631 7                  38458424.261
        45.300
 132930677.204 7                  25295863.927
        45.700
 144096224.172 5                  27420597.309
        35.500
 128178763.626 7                  24391605.399
        47.200
 143142294.690 6                  27239075.437
        40.500
 123055521.000 6  95887468.79643  23416678.460    23416677.5044   23416683.0764
        40.400          23.7004
 128146021.816 7  99669141.184 6  24006065.531    24006065.544    24006070.439
        44.200          39.900
 150785276.335 5                  28693538.395
        34.300
 130071547.279 7                  24751785.905
        46.400
 152668741.651 6                  29051891.033
        37.700
 126519227.271 6  98586413.08543  24075810.842    24075810.4094   24075811.9454
        39.500          22.5004
 105661234.868 8  82181009.881 8  19773054.077    19773053.844    19773059.953
        53.000          48.500
 146218322.437 6                  27824440.684
        37.600
 126305090.526 7  98237337.029 7  23694506.854    23694506.740    23694514.736
        43.000          42.200
 105143900.351 8  81778596.564 8  19669337.807    19669337.793    19669344.560
        51.600          48.300
 118500157.810 7  92337788.72347  22549831.055    22549830.5684   22549835.1364
        46.800          44.4004
 105924796.673 8  82385996.888 8  19829339.073    19829339.276    19829345.809
        53.000          49.200
 140649762.936 6                  26764759.176
        38.500
 136330696.822 6 106231781.66143  25942867.546    25942867.0414   25942886.9684
        36.800          22.6004
 110966038.854 8  86467046.75746  21116133.891    21116133.5524   21116134.5454
        48.100          37.6004
 105122098.719 8  81913324.82148  20004070.240    20004069.8024   20004069.5334
        50.600          51.7004
 124046083.005 6  96659314.74345  23605180.388    23605179.3874   23605184.2134
        41.300          34.0004
 129770203.290 7 100932423.407 6  24250664.253    24250664.506    24250672.708
        42.300          39.600
 129625512.956 6 101006893.48043  24666919.753    24666918.4394   24666921.7754
        39.200          22.4004
 25  1  1 14 12  0.0000000  0 35G10G26E19E10R04S31S35G21G03R06S48S33
                                E27E11E29E04G16R22E07E21E30G04R15E33
                                R14R05G32R16E12G29G28G31G25R21G02
 130380373.024 6 101595063.54945  24810593.138    24810592.4414   24810607.2244
        39.500          31.8004
 110693567.038 7  86254754.39847  21064282.231    21064281.5294   21064286.6544
        47.300          47.5004
 122314214.640 7                  23275620.076
        44.900
 140537449.174 6                  26743383.590
        40.800
 122086541.539 7  94956216.148 6  22798824.093    22798824.822    22798838.416
        47.000          41.600
 198980533.348 7                  37864736.736
        46.100
 200941005.957 7                  38237812.993
        44.300
 132653312.956 5 103366209.04742  25243095.276    25243093.9394   25243099.1574
        35.000          14.0004
 112023575.381 7  87291113.14047  21317373.486    21317373.2094   21317376.1294
        47.300          47.1004
 113078520.842 6                  21190865.652    21190866.120
        38.700
 412709049.841 5                  78535857.461
        32.900
 202100553.589 7                  38458431.201
        45.100
 132941586.182 7                  25297939.752
        46.400
 144090215.339 5                  27419453.575
        35.600
 128195734.127 7                  24394834.637
        47.400
 143110592.873 6                  27233042.987
        40.100
 122996591.572 6  95841549.74544  23405464.658    23405463.7194   23405469.6154
        41.000          24.0004
 128153483.290 7  99674944.557 6  24007462.807    24007462.810    24007468.353
        44.100          40.200
 150816978.554 5                  28699571.556
        34.500
 130041382.481 7                  24746045.793
        46.500
 152707323.407 6                  29059232.610
        38.300
 126476528.234 6  98553141.17543  24067684.830    24067684.4194   24067686.3364
        40.200          22.7004
 105689209.006 8  82202767.562 8  19778288.414    19778288.781    19778294.819
        53.000          48.500
 146261955.807 6                  27832744.731
        37.300
 126367608.383 7  98285962.046 7  23706235.706    23706235.158    23706242.308
        44.100          42.100
 105155648.404 8  81787733.906 8  19671535.488    19671535.443    19671542.099
        51.800          48.400
 118530784.608 7  92361653.67747  22555659.103    22555658.6074   22555663.3824
        46.100          44.4004
 105888178.437 8  82357516.111 8  19822483.689    19822484.243    19822491.035
        52.900          49.300
 140677816.830 6                  26770097.376
        38.700
 136301634.739 6 106209136.36244  25937336.607    25937336.1024   25937356.1034
        38.300          27.6004
 110993538.646 7  86488475.15946  21121367.072    21121366.7334   21121367.5684
        47.500          37.5004
 105126678.065 8  81916893.15648  20004941.603    20004941.1614   20004940.9054
        50.200          51.6004
 124090854.038 6  96694201.32145  23613700.189    23613699.1654   23613703.5174
        40.900          33.5004
 129815282.368 7 100967484.900 6  24259088.726    24259088.363    24259096.221
        42.500          38.900
 129657514.601 6 101031829.68543  24673010.639    24673009.3344   24673011.7004
        37.900          21.9004
 25  1  1 14 12 15.0000000  0 35G10G26E19E10R04S31S35G21G03R06S48S33
                                E27E11E29E04G16R22E07E21E30G04R15E33
                                R14R05G32R16E12G29G28G31G25R21G02
 130438563.837 6 101640406.90145  24821665.930    24821665.2284   24821680.9254
        40.100          32.5004
 110658063.630 7  86227089.39347  21057526.121    21057525.4154   21057530.5874
        47.600          47.7004
 122304225.865 7                  23273719.223
        45.000
 140550687.856 6                  26745903.348
        41.300
 122133544.729 7  94992773.846 6  22807602.117    22807603.122    22807616.502
        47.100          41.600
 198980537.573 7                  37864733.708
        46.100
 200940978.807 7                  38237809.263
        44.700
 132688710.677 5 103393791.51742  25249830.749    25249829.4174   25249835.2184
        34.700          15.0004
 111993379.989 7  87267584.27647  21311627.389    21311627.0994   21311630.0854
        47.400          47.3004
 113032482.968 6                  21182239.128    21182239.014
        38.800
 412709392.746 5                  78535876.487
        33.000
 202100574.945 7                  38458431.841
        45.300
 132952600.973 7                  25300035.744
        46.000
 144084315.526 5                  27418330.941
        35.200
 128212739.475 7                  24398070.855
        47.300
 143078888.761 6                  27227009.899
        40.600
 122937690.220 6  95795652.59544  23394256.224    23394255.2944   23394261.2254
        41.500          24.4004
 128161114.473 7  99680880.045 6  24008892.367    24008892.692    24008898.414
        44.000          40.100
 150848694.006 5                  28705607.149
        33.700
 130011298.874 7                  24740321.092
        46.700
 152745952.457 6                  29066583.673
        36.800
 126433829.061 6  98519869.11943  24059558.864    24059558.4494   24059561.2864
        40.200          23.5004
 105717349.248 8  82224654.387 8  19783554.913    19783554.976    19783561.063
        52.900          48.600
 146305572.975 6                  27841044.503
        37.600
 126430155.450 7  98334609.760 7  23717971.287    23717970.350    23717976.472
        45.500          43.100
 105167520.001 8  81796967.347 8  19673756.214    19673756.579    19673763.056
        51.800          48.500
 118561466.991 7  92385561.94047  22561498.000    22561497.5184   22561502.1454
        46.100          44.4004
 105851723.267 8  82329162.090 8  19815659.340    19815659.720    19815666.365
        52.700          49.400
 140705945.370 6                  26775450.079
        38.700
 136272633.483 6 106186538.45644  25931817.533    25931817.0374   25931837.2634
        36.400          24.2004
 111021105.442 7  86509955.74846  21126613.115    21126612.7804   21126613.3814
        47.800          37.8004
 105131369.760 8  81920549.03148  20005834.208    20005833.7704   20005833.6734
        50.700          51.8004
 124135721.375 6  96729162.85245  23622238.088    23622237.0604   23622241.4144
        41.100          34.0004
 129860428.765 7 101002598.705 6  24267525.749    24267525.948    24267533.185
        43.600          39.400
 129689557.205 6 101056797.78743  24679107.828    24679106.5234   24679108.9594
        39.100          22.0004
 25  1  1 14 12 30.0000000  0 35G10G26E19E10R04S31S35G21G03R06S48S33
                                E27E11E29E04G16R22E07E21E30G04R15E33
                                R14R05G32R16E12G29G28G31G25R21G02
 130496774.787 6 101685765.94945  24832743.945    24832743.2434   24832758.1314
        38.400          31.9004
 110622683.078 7  86199520.12547  21050793.453    21050792.7514   21050797.9244
        47.100          47.8004
 122294268.690 7                  23271824.410
        45.300
 140564029.611 6                  26748442.074
        41.300
 122180619.236 7  95029387.024 6  22816392.869    22816393.076    22816406.732
        46.400          41.300
 198980543.900 7                  37864736.673
        45.800
 200940954.987 7                  38237804.349
        44.500
 132724103.548 5 103421370.19842  25256565.909    25256564.5234   25256570.7244
        35.500          15.4004
 111963309.693 7  87244152.92247  21305905.310    21305905.0294   21305907.8254
        47.300          47.3004
 112986490.648 6                  21173619.368    21173619.501
        38.800
 412709739.253 5                  78535891.677
        32.900
 202100600.723 7                  38458438.199
        45.200
 132963722.516 7                  25302152.231
        46.100
 144078525.869 5                  27417229.416
        34.900
 128229780.807 7                  24401313.543
        47.800
 143047183.410 6                  27220976.408
        40.300
 122878818.547 6  95749778.57744  23383053.119    23383052.1724   23383058.0894
        40.500          24.3004
 128168916.710 7  99686948.801 6  24010352.423    24010353.066    24010358.676
        42.800          39.700
 150880423.886 5                  28711645.440
        34.100
 129981297.754 7                  24734612.346
        47.000
 152784629.291 6                  29073943.532
        38.500
 126391130.822 6  98486597.76143  24051434.490    24051434.0704   24051436.0394
        39.700          22.7004
 105745656.782 8  82246671.344 8  19788851.872    19788852.006    19788858.487
        52.500          48.500
 146349174.768 6                  27849342.280
        37.500
 126492732.183 7  98383280.503 7  23729708.244    23729708.654    23729715.849
        44.400          42.600
 105179516.548 8  81806297.984 8  19676000.211    19676000.604    19676007.278
        51.400          48.400
 118592206.057 7  92409514.37847  22567347.416    22567346.9564   22567351.6944
        46.000          44.5004
 105815432.546 8  82300936.017 8  19808865.529    19808866.029    19808872.597
        52.800          49.200
 140734149.319 6                  26780817.156
        39.200
 136243694.551 6 106163989.08743  25926310.680    25926310.1844   25926329.5614
        36.500          23.4004
 111048740.095 7  86531489.17146  21131871.666    21131871.3274   21131872.1304
        47.600          37.8004
 105136174.711 8  81924293.16048  20006748.510    20006748.0684   20006748.0174
        50.700          51.8004
 124180686.067 6  96764200.27945  23630794.569    23630793.5374   23630798.2214
        41.100          34.1004
 129905643.093 7 101037765.385 6  24275974.028    24275974.985    24275983.089
        42.700          39.300
 129721641.566 6 101081798.46743  24685213.238    24685211.9334   24685214.3564
        39.700          22.5004
 25  1  1 14 12 45.0000000  0 35G10G26E19E10R04S31S35G21G03R06S48S33
                                E27E11E29E04G16R22E07E21E30G04R15E33
                                R14R05G32R16E12G29G28G31G25R21G02
 130555003.144 6 101731138.57445  24843824.187    24843823.4854   24843838.3204
        39.000          31.9004
 110587423.302 7  86172044.97647  21044083.764    21044083.0584   21044088.2594
        47.300          47.9004
 122284340.727 7                  23269935.311
        45.200
 140577471.865 6                  26750999.999
        41.300
 122227762.765 7  95066053.843 6  22825197.649    22825197.982    22825211.022
        46.900          41.600
 198980550.968 7                  37864739.794
        46.000
 200940930.519 7                  38237797.852
        44.400
 132759489.062 5 103448943.16242  25263299.384    25263298.0164   25263304.4294
        34.500          15.4004
 111933362.378 7  87220817.39847  21300206.504    21300206.2274   21300209.0424
        47.200          47.5004
 112940541.719 6                  21165009.260    21165008.497
        38.700
 412710086.998 5                  78535913.968
        32.900
 202100625.243 7                  38458445.005
        45.400
 132974948.604 7                  25304288.442
        46.200
 144072844.094 5                  27416148.367
        35.800
 128246855.791 7                  24404562.727
        47.500
 143015474.576 6                  27214942.501
        40.500
 122819974.546 6  95703926.13144  23371855.296    23371854.3664   23371860.3104
        40.900          24.5004
 128176886.245 7  99693147.403 6  24011846.097    24011846.802    24011851.035
        43.500          38.900
 150912165.727 5                  28717685.465
        34.000
 129951376.935 7                  24728918.371
        46.600
 152823352.653 6                  29081312.765
        37.800
 126348431.381 6  98453325.44243  24043308.737    24043308.3224   24043309.6834
        40.600          23.0004
 105774128.605 8  82268816.025 8  19794180.214    19794180.485    19794186.613
        52.800          48.400
 146392758.527 6                  27857635.988
        37.800
 126555336.236 7  98431972.623 7  23741453.299    23741453.026    23741459.685
        43.700          42.500
 105191635.894 8  81815724.106 8  19678267.396    19678267.668    19678274.476
        51.600          48.300
 118622999.416 7  92433509.10947  22573207.416    22573206.9514   22573211.5764
        46.400          44.5004
 105779304.263 8  82272836.229 8  19802102.302    19802102.507    19802109.295
        52.500          49.400
 140762426.185 6                  26786198.287
        38.900
 136214815.926 6 106141486.75544  25920815.000    25920814.4864   25920833.7714
        37.800          25.0004
 111076440.177 7  86553073.62146  21137143.012    21137142.6684   21137143.3364
        47.500          37.9004
 105141090.352 8  81928123.54248  20007683.812    20007683.3614   20007683.4054
        50.600          51.9004
 124225745.066 6  96799311.05945  23639369.247    23639368.2064   23639372.8174
        41.100          34.1004
 129950922.361 7 101072982.576 6  24284436.633    24284436.493    24284444.284
        42.400          38.800
 129753764.881 6 101106829.47743  24691325.858    24691324.5574   24691327.3324
        39.700          22.5004
 25  1  1 14 13  0.0000000  0 35G10G26E19E10R04S31S35G21G03R06S48S33
                                E27E11E29E04G16R22E07E21E30G04R15E33
                                R14R05G32R16E12G29G28G31G25R21G02
 130613247.142 6 101776523.36045  24854908.327    24854907.6254   24854921.9304
        38.500          31.4004
 110552283.090 7  86144662.98448  21037397.151    21037396.4634   21037401.3284
        47.400          48.0004
 122274440.701 7                  23268051.449
        45.400
 140591013.042 6                  26753576.984
        41.000
 122274973.486 7  95102772.946 6  22834014.536    22834014.837    22834027.948
        46.400          41.600
 198980556.609 7                  37864739.714
        46.000
 200940905.017 7                  38237791.466
        44.300
 132794865.448 5 103476509.05142  25270031.687    25270030.3824   25270036.4664
        35.000          15.2004
 111903536.919 7  87197576.86147  21294530.909    21294530.6414   21294533.4354
        47.600          47.5004
 112894634.818 6                  21156406.239    21156405.632
        38.200
 412710432.902 5                  78535934.654
        33.300
 202100648.627 7                  38458448.278
        45.000
 132986277.445 7                  25306444.275
        46.200
 144067268.541 5                  27415087.198
        35.100
 128263962.983 7                  24407818.067
        47.400
 142983760.581 6                  27208907.190
        40.600
 122761157.055 6  95658094.34244  23360662.728    23360661.7814   23360667.7714
        41.300          24.7004
 128185022.206 7  99699475.527 6  24013370.613    24013371.335    24013376.207
        44.700          39.700
 150943918.059 5                  28723728.066
        34.500
 129921535.105 7                  24723239.922
        46.900
 152862120.677 6                  29088690.024
        38.100
 126305729.237 6  98420051.03643  24035182.361    24035181.9324   24035183.6544
        40.200          23.7004
 105802762.784 8  82291087.059 8  19799538.648    19799538.884    19799545.137
        52.700          48.400
 146436322.626 6                  27865926.343
        37.400
 126617965.045 7  98480683.841 7  23753201.782    23753202.228    23753209.097
        43.900          42.500
 105203876.707 8  81825244.723 8  19680558.036    19680557.859    19680564.470
        51.900          48.400
 118653845.603 7  92457544.99847  22579076.977    22579076.5084   22579081.4574
        46.500          44.4004
 105743336.914 8  82244861.612 8  19795369.361    19795369.558    19795376.176
        52.500          49.300
 140790774.214 6                  26791592.453
        38.600
 136185996.359 6 106119030.43944  25915330.296    25915329.7824   25915349.3134
        37.500          25.8004
 111104204.006 7  86574707.78546  21142426.134    21142425.7904   21142426.6704
        47.600          37.9004
 105146115.165 8  81932039.01848  20008640.181    20008639.7214   20008639.5764
        50.800          51.9004
 124270896.701 6  96834493.98945  23647961.488    23647960.4334   23647964.9054
        41.100          34.0004
 129996264.520 7 101108248.740 6  24292908.989    24292909.404    24292917.821
        42.700          39.700
 129785925.359 6 101131889.46643  24697445.755    24697444.4504   24697447.6064
        39.800          21.9004
 25  1  1 14 13 15.0000000  0 35G10G26E19E10R04S31S35G21G03R06S48S33
                                E27E11E29E04G16R22E07E21E30G04R15E33
                                R14R05G32R16E12G29G28G31G25R21G02
 130671506.732 6 101821920.30845  24865994.688    24865993.9864   24866008.2404
        40.100          31.3004
 110517263.099 7  86117374.68248  21030732.664    21030731.9674   21030737.2964
        47.500          48.1004
 122264569.028 7                  23266172.780
        45.400
 140604653.328 6                  26756172.205
        41.500
 122322251.868 7  95139544.678 6  22842843.493    22842843.796    22842856.907
        46.800          41.200
 198980560.819 7                  37864740.845
        45.400
 200940878.570 7                  38237789.329
        44.000
 132830232.508 5 103504067.61242  25276761.446    25276760.1454   25276766.8704
        34.700          14.9004
 111873833.762 7  87174431.61147  21288878.395    21288878.1234   21288881.0234
        47.700          47.6004
 112848771.340 6                  21147810.508    21147811.589
        39.100
 412710778.307 5                  78535953.162
        33.300
 202100671.248 7                  38458452.432
        45.000
 132997709.346 7                  25308619.647
        46.200
 144061799.654 5                  27414046.048
        35.900
 128281102.734 7                  24411080.022
        47.400
 142952041.864 6                  27202871.278
        40.100
 122702366.829 6  95612283.78244  23349475.383    23349474.4364   23349480.5004
        41.300          25.2004
 128193324.099 7  99705932.510 6  24014925.700    24014926.628    24014930.414
        43.900          39.000
 150975681.275 5                  28729772.757
        34.300
 129891772.784 7                  24717576.190
        47.100
 152900932.909 6                  29096075.751
        39.200
 126263024.870 6  98386774.93343  24027056.478    24027056.0314   24027057.6784
        40.200          23.8004
 105831559.408 8  82313484.436 8  19804927.367    19804927.784    19804933.979
        52.400          48.600
 146479867.107 6                  27874212.192
        37.800
 126680618.793 7  98529414.432 7  23764956.141    23764956.322    23764962.793
        44.000          42.600
 105216239.214 8  81834859.975 8  19682870.274    19682870.479    19682877.063
        51.800          48.400
 118684744.952 7  92481622.32147  22584957.193    22584956.7284   22584961.5344
        45.700          44.4004
 105707531.619 8  82217013.009 8  19788666.604    19788666.784    19788673.496
        52.400          49.400
 140819193.528 6                  26797000.861
        38.700
 136157236.629 6 106096620.77444  25909857.260    25909856.7464   25909875.3184
        38.100          26.0004
 111132031.511 7  86596391.53646  21147721.692    21147721.3534   21147722.0914
        47.700          38.0004
 105151249.161 8  81936039.53448  20009617.076    20009616.6114   20009616.5104
        50.800          51.9004
 124316141.359 6  96869749.55745  23656571.081    23656570.0314   23656574.8184
        41.200          34.1004
 130041669.075 7 101143563.382 6  24301393.937    24301394.661    24301402.877
        42.100          39.300
 129818123.141 6 101156978.55343  24703573.265    24703571.9784   24703574.4894
        39.100          21.8004
 25  1  1 14 13 30.0000000  0 35G10G26E19E10R04S31S35G21G03R06S48S33
                                E27E11E29E04G16R22E07E21E30G04R15E33
                                R14R05G32R16E12G29G28G31G25R21G02
 130729781.672 6 101867329.19345  24877083.673    24877082.9584   24877098.1724
        38.300          31.8004
 110482363.595 7  86090180.26748  21024091.527    21024090.8344   21024096.1494
        47.600          48.2004
 122254725.581 7                  23264299.510
        45.400
 140618392.546 6                  26758787.195
        41.500
 122369597.479 7  95176368.694 6  22851685.117    22851685.531    22851699.027
        47.200          41.700
 198980564.343 7                  37864739.070
        45.800
 200940850.932 7                  38237783.632
        44.300
 132865589.868 6 103531618.65542  25283490.822    25283489.5534   25283495.2314
        36.200          16.2004
 111844253.174 7  87151381.81247  21283249.328    21283249.0564   21283251.9524
        47.900          47.8004
 112802951.280 6                  21139224.106    21139224.388
        38.700
 412709523.793 5                  78535963.237
        32.800
 202100692.808 7                  38458456.533
        45.000
 133009244.161 7                  25310814.555
        46.200
 144056437.434 6                  27413025.488
        36.100
 128298275.079 7                  24414347.833
        47.600
 142920318.389 6                  27196834.848
        40.700
 122643604.232 6  95566494.75744  23338293.592    23338292.6674   23338298.2604
        40.900          25.3004
 128201792.330 7  99712518.937 6  24016512.062    24016511.800    24016517.629
        43.500          39.200
 151007455.385 5                  28735818.635
        33.600
 129862090.136 7                  24711927.840
        47.400
 152939788.902 6                  29103470.061
        38.200
 126220318.202 6  98353496.99843  24018930.012    24018929.5564   24018930.9254
        39.400          23.4004
 105860517.818 8  82336007.584 8  19810346.838    19810347.221    19810353.111
        53.000          48.300
 146523391.730 6                  27882494.624
        37.300
 126743297.584 7  98578164.640 7  23776713.828    23776713.434    23776721.206
        43.800          43.400
 105228723.447 8  81844569.929 8  19685205.731    19685205.900    19685212.556
        51.400          48.500
 118715697.473 7  92505741.07947  22590847.547    22590847.0874   22590851.6534
        46.200          44.5004
 105671888.055 8  82189290.188 8  19781993.956    19781994.224    19782000.918
        52.400          49.300
 140847683.787 6                  26802422.401
        39.200
 136128537.056 6 106074257.96244  25904395.589    25904395.0804   25904413.3694
        38.000          26.9004
 111159922.385 7  86618124.61446  21153029.150    21153028.8024   21153029.5724
        47.800          38.1004
 105156492.218 8  81940125.02748  20010614.721    20010614.2484   20010614.2184
        50.600          51.9004
 124361478.408 6  96905077.19645  23665198.857    23665197.8114   23665202.0364
        40.700          34.4004
 130087135.794 7 101178926.367 6  24309891.423    24309891.317    24309898.983
        42.800          38.800
 129850357.565 6 101182096.16143  24709707.393    24709706.0794   24709708.9074
        39.200          22.1004
 25  1  1 14 13 45.0000000  0 35G10G26E19E10R04S31S35G21G03R06S48S33
                                E27E11E29E04G16R22E07E21E30G04R15E33
                                R14R05G32R16E12G29G28G31G25R21G02
 130788071.857 6 101912749.96445  24888176.050    24888175.3534   24888190.3544
        39.500          31.2004
 110447585.174 7  86063080.21048  21017473.535    21017472.8384   21017478.0054
        47.300          48.1004
 122244910.683 7                  23262431.599
        45.400
 140632230.889 6                  26761420.099
        41.500
 122417010.750 7  95213245.359 6  22860538.240    22860538.610    22860553.479
        45.900          41.400
 198980567.203 7                  37864743.497
        45.800
 200940822.083 7                  38237776.102
        44.200
 132900937.862 5 103559162.37942  25290216.778    25290215.4684   25290221.9334
        35.000          15.0004
 111814795.874 7  87128428.10647  21277643.765    21277643.4934   21277646.3624
        47.800          47.7004
 112757174.835 6                  21130645.980    21130646.099
        38.700
 412709869.070 5                  78535979.782
        32.800
 202100713.542 7                  38458460.803
        45.200
 133020882.031 7                  25313029.118
        46.300
 144051181.833 6                  27412025.609
        36.000
 128315480.356 7                  24417621.540
        47.100
 142888590.502 6                  27190797.112
        40.900
 122584869.875 6  95520727.72144  23327116.676    23327115.7554   23327121.5694
        41.300          24.8004
 128210426.904 7  99719234.729 6  24018130.435    24018131.288    24018135.181
        45.100          38.800
 151039240.664 5                  28741867.806
        33.400
 129832487.648 7                  24706294.773
        47.100
 152978689.479 6                  29110872.424
        37.000
 126177609.712 6  98320217.65443  24010802.946    24010802.4994   24010804.4444
        38.900          23.2004
 105889637.892 8  82358656.402 8  19815795.985    19815796.519    19815802.732
        52.500          48.300
 146566896.422 6                  27890773.742
        37.800
 126806000.471 7  98626933.377 7  23788477.858    23788477.785    23788484.211
        44.800          42.800
 105241330.260 8  81854375.195 8  19687564.083    19687564.207    19687571.060
        51.900          48.400
 118746703.412 7  92529901.47247  22596747.519    22596747.0594   22596752.0044
        46.400          44.4004
 105636406.924 8  82161693.713 8  19775351.459    19775351.991    19775358.667
        52.600          49.200
 140876245.072 6                  26807857.563
        38.800
 136099898.306 6 106051942.63244  25898945.315    25898944.7974   25898963.4724
        37.800          24.9004
 111187876.888 7  86639907.27046  21158348.593    21158348.2404   21158349.2244
        47.400          37.9004
 105161844.440 8  81944295.59648  20011633.327    20011632.8494   20011632.7294
        50.800          51.8004
 124406907.641 6  96940476.63845  23673843.538    23673842.5144   23673846.9484
        41.000          34.5004
 130132664.247 7 101214337.356 6  24318399.451    24318399.053    24318407.501
        42.600          39.500
 129882628.701 6 101207242.37243  24715848.505    24715847.1774   24715850.2074
        38.300          21.8004
 25  1  1 14 14  0.0000000  0 35G10G26E19E10R04S31S35G21G03R06S48S33
                                E27E11E29E04G16R22E07E21E30G04R15E33
                                R14R05G32R16E12G29G28G31G25R21G02
 130846380.518 6 101958185.12445  24899271.725    24899271.0234   24899286.4844
        39.600          31.7004
 110412931.575 7  86036077.41748  21010879.323    21010878.6304   21010883.5784
        47.500          48.3004
 122235127.857 7                  23260570.175
        45.100
 140646171.596 6                  26764073.419
        41.200
 122464494.854 7  95250177.066 6  22869407.017    22869406.866    22869421.225
        46.600          41.600
 198980572.391 7                  37864740.921
        45.900
 200940796.268 7                  38237774.639
        44.400
 132936279.616 5 103586701.21542  25296941.813    25296940.4994   25296947.4284
        34.800          15.4004
 111785465.532 7  87105573.31147  21272062.762    21272062.4764   21272064.9634
        47.800          47.9004
 112711446.125 6                  21122076.033    21122076.167
        38.500
 412710217.645 5                  78535992.056
        32.800
 202100737.096 7                  38458467.220
        45.300
 133032626.414 7                  25315264.454
        46.000
 144046037.130 5                  27411046.918
        35.800
 128332722.036 7                  24420902.846
        47.200
 142856861.690 6                  27184759.722
        40.700
 122526167.757 6  95474985.82944  23315945.866    23315944.9364   23315950.8844
        41.600          25.4004
 128219230.603 7  99726081.891 6  24019778.443    24019778.687    24019783.645
        43.300          38.500
 151071040.508 5                  28747919.494
        34.800
 129802968.947 7                  24700677.506
        47.100
 153017637.376 6                  29118284.247
        37.000
 126134902.849 6  98286939.56843  24002675.864    24002675.4354   24002677.5294
        39.500          23.5004
 105918923.090 8  82381433.734 8  19821276.440    19821276.779    19821283.040
        52.400          48.200
 146610384.533 6                  27899049.348
        37.500
 126868730.490 7  98675723.252 7  23800245.416    23800244.377    23800251.613
        44.400          42.400
 105254062.866 8  81864278.322 8  19689945.798    19689946.048    19689952.946
        51.600          48.600
 118777766.242 7  92554106.18047  22602658.705    22602658.2404   22602663.1094
        45.900          44.5004
 105601092.394 8  82134226.857 8  19768741.066    19768741.149    19768747.803
        52.600          49.200
 140904880.664 6                  26813306.446
        38.500
 136071324.050 6 106029677.52944  25893507.101    25893506.5784   25893525.3224
        39.000          27.7004
 111215898.193 8  86661741.93946  21163681.333    21163680.9804   21163681.5894
        48.000          38.1004
 105167309.102 8  81948553.76948  20012673.101    20012672.6234   20012672.6054
        50.600          51.9004
 124452431.946 6  96975950.02445  23682506.717    23682505.7164   23682510.2924
        39.500          34.0004
 130178257.500 7 101249798.746 6  24326918.729    24326918.880    24326928.120
        42.200          40.100
 129914939.772 6 101232419.70143  24721997.762    24721996.4524   24721998.3034
        39.500          20.8004
 25  1  1 14 14 15.0000000  0 35G10G26E19E10R04S31S35G21G03R06S48S33
                                E27E11E29E04G16R22E07E21E30G04R15E33
                                R14R05G32R16E12G29G28G31G25R21G02
 130904706.646 6 102003633.88045  24910371.221    24910370.5424   24910385.9954
        38.600          31.6004
 110378402.372 7  86009171.54248  21004308.537    21004307.8534   21004312.8684
        47.900          48.3004
 122225376.688 7                  23258714.453
        45.000
 140660213.878 6                  26766745.511
        41.500
 122512049.100 7  95287163.343 6  22878287.797    22878288.050    22878301.930
        46.700          41.900
 198980579.281 7                  37864743.622
        45.800
 200940772.266 7                  38237772.332
        44.400
 132971613.938 5 103614234.27642  25303666.570    25303665.2654   25303671.4434
        35.000          14.5004
 111756261.717 8  87082817.09647  21266505.492    21266505.1974   21266507.7024
        48.200          47.8004
 112665764.863 6                  21113516.869    21113515.680
        38.800
 412710568.649 5                  78536014.437
        32.800
 202100762.238 7                  38458472.340
        45.200
 133044476.480 7                  25317519.027
        46.100
 144041001.866 5                  27410087.764
        35.200
 128349999.481 7                  24424190.693
        47.300
 142825131.266 6                  27178721.101
        40.500
 122467497.408 6  95429268.68844  23304781.508    23304780.5924   23304786.4814
        41.200          25.5004
 128228203.278 7  99733060.522 6  24021459.759    24021460.353    24021465.744
        44.200          38.500
 151102854.320 5                  28753973.839
        34.700
 129773533.503 7                  24695076.109
        47.100
 153056632.442 6                  29125704.461
        38.100
 126092197.035 6  98253662.31244  23994549.232    23994548.8304   23994550.9144
        40.700          24.0004
 105948372.133 8  82404338.520 8  19826787.567    19826788.000    19826793.993
        52.700          48.100
 146653855.123 6                  27907321.945
        37.400
 126931487.242 7  98724533.952 7  23812018.780    23812018.705    23812026.119
        44.400          43.100
 105266920.779 8  81874278.900 8  19692351.649    19692351.558    19692358.218
        51.800          48.500
 118808885.267 7  92578354.68147  22608580.328    22608579.8634   22608585.0004
        46.000          44.3004
 105565943.677 8  82106889.028 8  19762160.774    19762161.112    19762167.891
        52.800          49.300
 140933589.601 6                  26818769.377
        38.800
 136042813.992 6 106007462.44344  25888081.368    25888080.8414   25888099.4464
        38.000          26.9004
 111243985.533 7  86683628.15846  21169025.790    21169025.4244   21169026.4934
        47.800          38.0004
 105172885.353 8  81952898.88948  20013734.269    20013733.7874   20013733.7304
        50.600          51.7004
 124498050.917 6  97011497.35445  23691187.823    23691186.8404   23691190.9684
        41.100          34.0004
 130223914.226 7 101285309.546 6  24335451.512    24335450.950    24335459.189
        42.500          39.000
 129947289.679 6 101257627.33243  24728153.067    24728151.7444   24728154.3054
        39.600          21.3004
 25  1  1 14 14 30.0000000  0 35G10G26E19E10R04S31S35G21G03R06S48S33
                                E27E11E29E04G16R22E07E21E30G04R15E33
                                R14R05G32R16E12G29G28G31G25R21G02
 130963044.615 6 102049091.83845  24921473.212    24921472.5334   24921487.9974
        38.600          32.2004
 110343992.594 7  85982358.73148  20997760.525    20997759.8414   20997764.9284
        47.600          48.4004
 122215651.921 7                  23256864.102
        44.700
 140674352.247 6                  26769435.938
        41.500
 122559667.981 7  95324199.867 7  22887180.444    22887180.542    22887195.259
        46.600          42.000
 198980583.866 7                  37864744.606
        46.000
 200940745.132 7                  38237764.793
        44.500
 133006935.422 5 103641757.34042  25310388.238    25310386.9284   25310392.7794
        35.300          15.5004
 111727179.525 7  87060155.67948  21260970.931    21260970.6324   21260973.5684
        47.500          48.0004
 112620126.162 6                  21104962.967    21104962.924
        38.500
 412710916.793 5                  78536025.746
        32.800
 202100784.747 7                  38458472.729
        45.100
 133056427.003 7                  25319793.166
        46.200
 144036070.959 5                  27409150.172
        35.500
 128367307.385 7                  24427484.222
        46.700
 142793393.861 6                  27172682.217
        40.100
 122408853.838 6  95383572.43044  23293621.890    23293620.9744   23293626.8904
        41.700          25.6004
 128237339.762 7  99740166.906 6  24023171.157    24023170.972    24023176.725
        43.200          39.000
 151134676.749 5                  28760029.390
        34.500
 129744176.201 7                  24689489.484
        46.700
 153095668.857 6                  29133132.570
        36.300
 126049486.954 6  98220381.70343  23986421.429    23986421.0274   23986423.1994
        39.700          23.4004
 105977979.313 8  82427366.342 8  19832328.112    19832328.461    19832334.669
        52.600          48.100
 146697302.546 6                  27915590.298
        36.600
 126994264.680 7  98773360.814 7  23823794.800    23823795.081    23823802.723
        43.800          42.700
 105279898.458 8  81884372.619 8  19694779.273    19694779.255    19694785.969
        51.700          48.500
 118840055.163 7  92602642.82447  22614512.069    22614511.6134   22614516.5674
        45.800          44.4004
 105530955.722 8  82079676.197 8  19755611.296    19755611.173    19755617.880
        52.700          49.300
 140962366.270 6                  26824245.568
        38.400
 136014363.105 6 105985293.47744  25882666.969    25882666.4464   25882684.8664
        37.100          25.5004
 111272133.253 7  86705561.40046  21174382.460    21174382.0944   21174382.8974
        47.400          38.1004
 105178567.907 8  81957326.86248  20014815.809    20014815.3224   20014815.1024
        50.500          51.8004
 124543758.252 6  97047113.47345  23699885.766    23699884.7834   23699888.9174
        40.400          34.3004
 130269628.353 7 101320864.929 6  24343994.674    24343994.674    24344001.852
        42.800          38.700
 129979672.707 6 101282860.72943  24734315.887    24734314.5734   24734316.9174
        38.400          21.5004
 25  1  1 14 14 45.0000000  0 35G10G26E19E10R04S31S35G21G03R06S48S33
                                E27E11E29E04G16R22E07E21E30G04R15E33
                                R14R05G32R16E12G29G28G31G25R21G02
 131021397.226 6 102094561.19745  24932577.848    24932577.1514   24932592.2924
        38.800          31.5004
 110309705.607 7  85955641.60748  20991235.875    20991235.1874   20991240.3394
        47.800          48.3004
 122205956.504 7                  23255019.050
        44.600
 140688589.685 6                  26772145.079
        41.300
 122607354.422 7  95361288.967 6  22896084.708    22896085.792    22896100.169
        46.100          41.300
 198980586.949 7                  37864744.396
        46.000
 200940717.718 7                  38237761.998
        44.300
 133042246.641 5 103669272.41142  25317107.829    25317106.5194   25317112.4254
        34.500          15.2004
 111698222.304 8  87037591.68548  21255460.666    21255460.3674   21255463.1344
        48.100          48.0004
 112574533.221 6                  21096419.319    21096419.343
        39.100
 412711264.902 5                  78536045.340
        32.600
 202100806.590 7                  38458478.296
        45.200
 133068480.643 7                  25322087.093
        45.800
 144031247.564 5                  27408232.306
        35.200
 128384648.920 7                  24430784.158
        46.600
 142761652.654 6                  27166642.091
        40.100
 122350240.686 6  95337899.84944  23282467.760    23282466.8354   23282473.1384
        41.500          25.5004
 128246641.820 7  99747401.812 6  24024914.607    24024914.717    24024919.115
        44.800          39.200
 151166510.966 5                  28766087.184
        33.600
 129714900.333 7                  24683918.474
        46.300
 153134749.243 5                  29140569.098
        33.600
 126006775.870 6  98187100.31143  23978293.907    23978293.4924   23978295.7974
        39.300          23.2004
 106007746.975 8  82450518.953 8  19837898.719    19837898.918    19837905.081
        52.500          48.000
 146740729.654 5                  27923854.166
        35.800
 127057065.355 7  98822205.726 7  23835575.534    23835575.968    23835584.205
        42.900          43.300
 105292999.556 8  81894562.342 8  19697229.770    19697230.093    19697236.821
        51.300          48.500
 118871279.048 7  92626973.02947  22620453.774    22620453.3234   22620458.3964
        45.900          44.3004
 105496131.787 8  82052590.915 8  19749091.853    19749092.241    19749098.827
        52.700          49.200
 140991213.583 6                  26829735.077
        37.600
 135985974.887 6 105963173.39244  25877264.854    25877264.3364   25877282.7254
        36.600          25.6004
 111300344.294 8  86727544.02446  21179750.671    21179750.3004   21179751.2904
        48.100          37.9004
 105184359.542 8  81961839.80048  20015917.833    20015917.3464   20015917.1924
        50.600          51.6004
 124589557.047 6  97082800.87845  23708600.326    23708599.3474   23708604.2804
        40.700          34.3004
 130315402.635 6 101356467.165 6  24352548.050    24352547.555    24352556.093
        41.700          39.000
 130012091.769 6 101308122.20343  24740485.353    24740484.0344   24740486.2494
        39.200          21.4004
 25  1  1 14 15  0.0000000  0 35G10G26E19E10R04S31S35G21G03R06S48S33
                                E27E11E29E04G16R22E07E21E30G04R15E33
                                R14R05G32R16E12G29G28G31G25R21G02
 131079763.342 6 102140041.09445  24943684.260    24943683.5364   24943698.2284
        39.400          30.4004
 110275540.865 7  85929019.72348  20984734.624    20984733.9404   20984738.9984
        47.900          48.3004
 122196289.655 7                  23253179.625
        44.600
 140702925.214 6                  26774872.902
        41.100
 122655107.619 7  95398429.983 7  22905003.745    22905003.477    22905018.185
        45.700          42.000
 198980589.526 7                  37864745.679
        46.000
 200940689.311 7                  38237751.767
        44.600
 133077546.609 5 103696778.69842  25323825.144    25323823.8574   25323830.0144
        35.300          15.2004
 111669389.508 8  87015124.64947  21249974.169    21249973.8704   21249976.3284
        48.300          47.9004
 112528985.688 6                  21087883.547    21087883.463
        38.500
 412710012.753 5                  78536059.596
        33.200
 202100827.690 7                  38458482.629
        45.300
 133080636.738 7                  25324400.125
        45.600
 144026530.863 5                  27407334.796
        35.000
 128402023.302 7                  24434090.333
        46.400
 142729906.770 6                  27160600.478
        39.800
 122291657.496 7  95292250.60344  23271320.303    23271319.3334   23271324.7304
        42.500          25.3004
 128256108.549 7  99754764.595 6  24026688.389    24026688.418    24026692.565
        45.100          38.600
 151198356.154 5                  28772147.790
        34.400
 129685705.219 7                  24678362.942
        46.500
 153173872.576 6                  29148013.921
        37.300
 125964063.006 6  98153817.56243  23970165.694    23970165.3104   23970167.6794
        40.500          23.8004
 106037674.193 8  82473795.646 8  19843499.235    19843499.760    19843505.556
        52.500          48.000
 146784135.407 6                  27932114.098
        36.800
 127119887.986 7  98871067.701 7  23847361.791    23847362.642    23847369.372
        44.200          42.500
 105306223.367 8  81904847.511 8  19699703.827    19699703.907    19699710.724
        52.000          48.500
 118902556.107 7  92651344.67247  22626405.643    22626405.1784   22626410.2564
        46.700          44.3004
 105461471.420 8  82025632.865 8  19742603.371    19742603.796    19742610.431
        52.700          49.200
 141020130.470 6                  26835237.712
        37.900
 135957648.871 6 105941101.73844  25871873.713    25871873.1864   25871891.2774
        38.600          27.1004
 111328617.630 7  86749575.22746  21185130.788    21185130.4084   21185131.4894
        47.700          37.9004
 105190259.327 8  81966437.03848  20017040.705    20017040.2234   20017039.9004
        50.600          51.6004
 124635445.986 6  97118558.54145  23717333.120    23717332.1414   23717336.6524
        40.600          34.4004
 130361235.737 6 101392115.156 6  24361112.807    24361112.376    24361121.643
        40.200          38.800
 130044545.458 6 101333410.63643  24746660.895    24746659.5944   24746662.2934
        39.000          21.8004
 25  1  1 14 15 15.0000000  0 35G10G26E19E10R04S31S35G21G03R06S48S33
                                E27E11E29E04G16R22E07E21E30G04R15E33
                                R14R05G32R16E12G29G28G31G25R21G02
 131138147.733 6 102185535.22445  24954794.360    24954793.6274   24954807.9614
        40.200          30.6004
 110241503.707 7  85902497.25748  20978257.592    20978256.9084   20978261.8934
        47.800          48.4004
 122186656.661 7                  23251346.517
        44.700
 140717363.714 6                  26777620.603
        40.900
 122702932.347 7  95435626.626 6  22913934.710    22913935.029    22913949.236
        46.000          41.500
 198980596.164 7                  37864744.704
        45.900
 200940664.531 7                  38237748.297
        44.400
 133112839.973 6 103724279.81142  25330541.484    25330540.2324   25330546.4004
        36.600          15.6004
 111640686.266 8  86992758.50847  21244511.732    21244511.4374   21244514.1884
        48.000          47.9004
 112483489.185 6                  21079357.654    21079357.429
        39.300
 412710365.262 5                  78536083.318
        32.900
 202100852.438 7                  38458488.357
        45.300
 133092900.137 7                  25326733.851
        45.700
 144021925.724 5                  27406458.576
        34.200
 128419435.597 7                  24437403.852
        46.700
 142698161.289 6                  27154560.062
        40.600
 122233109.694 7  95246628.94044  23260178.523    23260177.5494   23260183.3294
        42.300          25.4004
 128265745.664 7  99762260.093 6  24028491.892    24028492.556    24028498.005
        43.800          38.000
 151230217.408 5                  28778210.352
        34.400
 129656596.080 7                  24672823.513
        47.000
 153213043.631 6                  29155467.974
        37.700
 125921353.420 6  98120537.32243  23962038.616    23962038.2414   23962040.4034
        41.400          23.6004
 106067765.756 8  82497200.249 8  19849130.225    19849130.592    19849136.813
        52.400          48.000
 146827524.560 6                  27940371.085
        37.800
 127182737.087 7  98919950.202 7  23859153.162    23859152.867    23859159.583
        44.100          42.200
 105319575.070 8  81915232.149 8  19702201.237    19702201.715    19702208.407
        51.800          48.600
 118933891.372 7  92675761.68147  22632368.456    22632367.9744   22632373.2314
        46.400          44.2004
 105426980.014 8  81998806.244 8  19736146.481    19736146.867    19736153.489
        52.500          49.200
 141049121.665 6                  26840754.914
        37.800
 135929390.500 6 105919082.80544  25866496.050    25866495.5274   25866513.3144
        40.000          29.0004
 111356957.912 7  86771658.54346  21190524.293    21190523.9184   21190524.4004
        47.800          37.9004
 105196272.118 8  81971122.35248  20018184.972    20018184.4904   20018184.0944
        50.600          51.6004
 124681429.573 6  97154389.86045  23726083.545    23726082.5754   23726086.9064
        41.300          34.2004
 130407132.079 6 101427812.270 6  24369689.180    24369689.686    24369698.595
        41.500          39.200
 130077038.559 6 101358729.80743  24752843.816    24752842.5244   24752845.0314
        39.700          21.6004
 25  1  1 14 15 30.0000000  0 35G10G26E19E10R04S31S35G21G03R06S48S33
                                E27E11E29E04G16R22E07E21E30G04R15E33
                                R14R05G32R16E12G29G28G31G25R21G02
 131196545.418 6 102231039.70645  24965907.170    24965906.4374   24965921.5354
        40.100          31.1004
 110207589.776 8  85876070.82148  20971803.937    20971803.2534   20971808.2734
        48.500          48.4004
 122177052.813 7                  23249518.900
        44.700
 140731900.414 6                  26780387.119
        41.300
 122750823.741 7  95472875.131 6  22922878.561    22922878.127    22922892.454
        44.800          40.900
 198980602.064 7                  37864749.095
        46.000
 200940639.358 7                  38237745.225
        44.400
 133148121.826 6 103751771.97642  25337255.399    25337254.1034   25337260.2324
        36.200          15.3004
 111612108.378 8  86970490.05548  21239073.814    21239073.5374   21239075.9934
        48.300          48.0004
 112438038.994 6                  21070840.307    21070840.057
        38.900
 412710717.442 5                  78536101.030
        32.900
 202100876.585 7                  38458492.033
        45.200
 133105266.111 7                  25329086.901
        45.400
 144017427.682 5                  27405602.516
        34.300
 128436881.121 7                  24440723.722
        46.800
 142666411.561 6                  27148518.029
        40.300
 122174593.088 7  95201031.59244  23249043.789    23249042.8194   23249048.0194
        42.700          25.7004
 128275547.461 7  99769883.527 6  24030329.093    24030329.164    24030335.592
        43.500          39.000
 151262089.951 5                  28784275.532
        34.900
 129627568.387 7                  24667299.726
        46.600
 153252257.557 5                  29162929.850
        35.900
 125878642.558 6  98087256.12443  23953910.466    23953910.0604   23953912.7234
        41.200          23.3004
 106098016.445 8  82520728.527 8  19854791.639    19854791.809    19854797.776
        52.500          48.000
 146870892.196 6                  27948623.970
        37.100
 127245608.043 7  98968849.779 7  23870946.799    23870946.185    23870954.364
        44.100          43.000
 105333049.688 8  81925712.384 8  19704722.157    19704722.405    19704728.989
        51.300          48.600
 118965280.131 7  92700220.36347  22638341.665    22638341.1834   22638346.4164
        46.400          44.1004
 105392653.136 8  81972107.634 8  19729720.479    19729720.725    19729727.262
        52.600          49.300
 141078182.303 6                  26846284.554
        37.700
 135901195.236 6 105897113.08244  25861130.785    25861130.2624   25861147.4574
        38.900          28.5004
 111385360.353 8  86793790.30946  21195928.857    21195928.4774   21195929.2054
        48.100          38.0004
 105202392.965 8  81975891.87548  20019349.542    20019349.0644   20019348.8364
        51.100          51.5004
 124727502.919 6  97190291.04545  23734850.558    23734849.5704   23734854.5334
        41.500          34.3004
 130453086.386 7 101463554.514 6  24378277.142    24378277.464    24378286.543
        42.000          38.700
 130109566.065 6 101384075.74443  24759034.503    24759033.1934   24759035.1034
        38.600          21.2004
 25  1  1 14 15 45.0000000  0 35G10G26E19E10R04S31S35G21G03R06S48S33
                                E27E11E29E04G16R22E07E21E30G04R15E33
                                R14R05G32R16E12G29G28G31G25R21G02
 131254955.569 6 102276553.88545  24977022.463    24977021.7084   24977036.9514
        39.100          30.5004
 110173798.827 7  85849740.21748  20965373.796    20965373.1084   20965378.0484
        47.900          48.4004
 122167477.611 7                  23247696.761
        44.900
 140746534.613 6                  26783171.632
        41.300
 122798781.325 7  95510175.091 6  22931835.126    22931834.800    22931849.311
        45.800          41.600
 198980606.209 7                  37864748.903
        45.800
 200940612.925 7                  38237739.001
        44.300
 133183391.133 6 103779254.32842  25343967.080    25343965.7754   25343972.1294
        36.400          15.1004
 111583655.577 8  86948319.07048  21233658.978    21233658.6974   21233661.6004
        48.400          48.0004
 112392635.074 6                  21062331.074    21062331.458
        38.700
 412711068.481 5                  78536114.208
        33.000
 202100899.474 7                  38458494.595
        45.100
 133117733.905 7                  25331459.621
        45.800
 144013036.261 5                  27404767.096
        35.400
 128454359.450 7                  24444049.466
        46.800
 142634657.126 6                  27142475.265
        40.800
 122116107.406 7  95155458.35244  23237913.909    23237912.9124   23237918.8884
        42.400          25.9004
 128285513.382 7  99777634.480 6  24032196.323    24032197.063    24032201.609
        44.400          38.200
 151293973.310 5                  28790343.107
        34.600
 129598621.902 7                  24661791.565
        46.800
 153291513.515 6                  29170399.651
        36.300
 125835929.988 6  98053973.58243  23945782.608    23945782.1754   23945784.9374
        40.800          23.7004
 106128425.253 8  82544379.825 7  19860481.901    19860482.361    19860488.184
        52.700          47.900
 146914237.599 6                  27956872.085
        37.800
 127308499.486 7  99017765.268 7  23882746.029    23882746.033    23882752.615
        44.600          42.700
 105346647.317 8  81936288.314 8  19707265.944    19707266.190    19707272.944
        51.700          48.600
 118996721.922 7  92724720.37247  22644324.960    22644324.4694   22644329.5814
        46.100          44.1004
 105358490.350 8  81945536.631 8  19723325.029    19723325.424    19723331.974
        52.600          49.300
 141107311.579 6                  26851827.841
        37.700
 135873063.021 6 105875192.44644  25855776.320    25855775.7974   25855793.3464
        38.900          26.9004
 111413824.224 7  86815969.92846  21201345.368    21201344.9884   21201345.7444
        47.700          38.0004
 105208621.151 8  81980745.04348  20020534.685    20020534.2034   20020533.9774
        50.600          51.6004
 124773665.274 6  97226261.66345  23743634.736    23743633.7264   23743639.2014
        41.300          34.3004
 130499097.643 6 101499341.054 6  24386875.230    24386875.571    24386884.212
        41.500          38.900
 130142127.057 6 101409447.83943  24765230.694    24765229.3804   24765231.8194
        39.700          21.9004
 25  1  1 14 16  0.0000000  0 35G10G26E19E10R04S31S35G21G03R06S48S33
                                E27E11E29E04G16R22E07E21E30G04R15E33
                                R14R05G32R16E12G29G28G31G25R21G02
 131313377.596 6 102322077.32445  24988140.398    24988139.6344   24988154.6444
        39.000          30.5004
 110140130.865 8  85823505.45248  20958967.020    20958966.3504   20958971.2114
        48.100          48.5004
 122157930.905 7                  23245880.087
        44.900
 140761265.807 6                  26785975.071
        41.400
 122846804.578 7  95547526.120 6  22940802.870    22940803.140    22940817.669
        45.600          41.500
 198980609.469 7                  37864749.189
        45.900
 200940584.729 7                  38237732.195
        44.200
 133218647.432 5 103806726.53642  25350676.067    25350674.7714   25350681.7634
        35.300          15.1004
 111555327.823 8  86926245.53148  21228268.681    21228268.4004   21228271.0014
        48.400          48.1004
 112347277.507 6                  21053830.981    21053831.395
        39.200
 412711418.873 5                  78536136.646
        32.900
 202100921.006 7                  38458499.957
        45.100
 133130303.255 7                  25333851.421
        45.700
 144008751.136 5                  27403951.336
        35.900
 128471870.304 7                  24447381.784
        46.600
 142602897.616 6                  27136431.872
        40.900
 122057652.813 6  95109909.33944  23226790.244    23226789.2474   23226795.3874
        41.800          26.0004
 128295643.198 7  99785512.914 6  24034094.302    24034094.771    24034100.488
        44.100          38.700
 151325867.222 5                  28796412.966
        35.400
 129569756.488 7                  24656298.444
        47.000
 153330811.190 5                  29177877.431
        35.700
 125793215.440 6  98020689.49343  23937654.640    23937654.1894   23937656.5374
        39.700          23.6004
 106158991.253 8  82568153.331 7  19866202.071    19866202.340    19866208.516
        52.500          47.800
 146957560.265 6                  27965116.921
        37.300
 127371411.311 7  99066696.819 7  23894546.610    23894547.007    23894554.327
        43.900          42.500
 105360367.436 8  81946959.488 8  19709832.519    19709832.682    19709839.499
        51.700          48.600
 119028216.446 7  92749261.47947  22650318.617    22650318.1304   22650322.9244
        46.400          44.2004
 105324491.529 8  81919093.100 8  19716960.295    19716960.623    19716967.214
        52.700          49.100
 141136508.961 6                  26857384.401
        37.700
 135844993.917 6 105853321.00444  25850434.915    25850434.4014   25850451.0144
        39.500          28.0004
 111442349.104 8  86838197.14246  21206773.306    21206772.9354   21206773.8114
        48.200          37.9004
 105214956.188 8  81985681.45448  20021740.300    20021739.8184   20021739.4464
        50.600          51.5004
 124819915.787 6  97262300.90445  23752436.480    23752435.4744   23752440.4544
        41.500          34.2004
 130545164.967 6 101535171.152 6  24395484.534    24395484.285    24395492.971
        41.600          38.900
 130174720.864 6 101434845.46943  24771433.559    24771432.2054   24771434.6754
        39.400          21.8004
 25  1  1 14 16 15.0000000  0 35G10G26E19E10R04S31S35G21G03R06S48S33
                                E27E11E29E04G16R22E07E21E30G04R15E33
                                R14R05G32R16E12G29G28G31G25R21G02
 131371818.057 6 102367615.11745  24999261.254    24999260.4814   24999275.6674
        38.300          30.2004
 110106593.041 8  85797372.10148  20952584.822    20952584.1434   20952589.1414
        48.000          48.5004
 122148419.667 7                  23244069.991
        45.000
 140776100.749 6                  26788798.210
        41.100
 122894900.394 7  95584933.608 6  22949784.135    22949785.042    22949799.535
        46.400          41.300
 198980618.064 7                  37864750.168
        45.900
 200940562.023 7                  38237730.724
        44.200
 133253897.428 6 103834193.84042  25357384.708    25357383.4254   25357389.6754
        36.100          14.5004
 111527132.222 8  86904274.93748  21222903.249    21222902.9634   21222905.5594
        48.300          48.1004
 112301973.653 6                  21045340.784    21045341.345
        38.400
 412711775.265 5                  78536153.817
        32.900
 202100948.212 7                  38458504.160
        45.000
 133142980.917 7                  25336263.802
        46.100
 144004578.955 5                  27403157.147
        35.500
 128489420.597 7                  24450721.663
        46.900
 142571139.981 6                  27130388.571
        40.900
 121999236.490 6  95064390.12944  23215674.212    23215673.2154   23215678.9514
        41.500          25.9004
 128305943.756 7  99793524.263 6  24036024.118    24036024.661    24036029.524
        44.400          38.700
 151357778.560 5                  28802485.367
        34.500
 129540979.167 7                  24650822.296
        47.000
 153370157.224 6                  29185364.415
        36.000
 125750505.944 6  97987409.35643  23929527.641    23929527.1994   23929529.0774
        40.600          23.4004
 106189721.374 8  82592054.501 7  19871952.728    19871953.123    19871959.134
        52.100          47.900
 147000866.712 6                  27973357.497
        37.700
 127434349.492 7  99115648.903 7  23906354.334    23906353.852    23906361.508
        43.700          42.800
 105374217.141 8  81957731.462 8  19712423.594    19712423.768    19712430.348
        52.100          48.700
 119059770.496 7  92773848.96947  22656323.290    22656322.8034   22656327.5444
        46.100          44.1004
 105290663.969 8  81892782.842 8  19710627.438    19710628.068    19710634.485
        52.600          49.400
 141165781.155 6                  26862954.253
        38.000
 135816995.055 6 105831504.30444  25845106.591    25845106.0864   25845122.6914
        38.600          28.0004
 111470941.472 8  86860476.92446  21212214.127    21212213.7384   21212214.7704
        48.000          37.9004
 105221404.932 8  81990706.44748  20022967.416    20022966.9294   20022966.5804
        50.500          51.5004
 124866261.465 6  97298414.47345  23761255.944    23761254.9384   23761259.5904
        40.400          34.4004
 130591294.654 7 101571049.784 6  24404104.811    24404104.988    24404113.401
        42.800          39.100
 130207354.120 6 101460273.81443  24777643.682    24777642.3414   24777644.2214
        38.600          21.0004
 25  1  1 14 16 30.0000000  0 35G10G26E19E10R04S31S35G21G03R06S48S33
                                E27E11E29E04G16R22E07E21E30G04R15E33
                                R14R05G32R16E12G29G28G31G25R21G02
 131430268.789 6 102413160.91844  25010383.790    25010383.0214   25010398.6274
        38.500          29.7004
 110073177.708 8  85771334.17948  20946226.032    20946225.3484   20946230.3914
        48.000          48.6004
 122138936.013 7                  23242265.254
        45.000
 140791031.386 7                  26791639.836
        42.100
 122943060.478 7  95622391.052 7  22958778.090    22958778.347    22958794.079
        45.900          42.100
 198980623.576 7                  37864750.021
        45.700
 200940536.615 7                  38237725.335
        44.200
 133289132.746 5 103861649.73242  25364090.559    25364089.2674   25364094.9404
        33.300          15.3004
 111499061.196 8  86882401.42148  21217561.126    21217560.8314   21217563.7904
        48.000          48.2004
 112256715.876 6                  21036860.842    21036860.063
        38.800
 412710529.428 5                  78536173.560
        32.800
 202100972.019 7                  38458510.411
        45.000
 133155758.885 7                  25338695.377
        46.200
 144000512.162 5                  27402383.994
        35.600
 128507002.467 7                  24454067.197
        46.800
 142539376.331 6                  27124344.268
        40.700
 121940851.151 6  95018895.07444  23204563.952    23204562.9514   23204568.4494
        41.900          26.0004
 128316406.926 7  99801662.168 6  24037983.928    24037984.439    24037990.272
        43.900          38.600
 151389699.506 5                  28808559.773
        31.900
 129512282.169 7                  24645361.411
        47.200
 153409543.033 6                  29192859.332
        37.800
 125707793.546 6  97954126.95143  23921398.961    23921398.5014   23921401.0724
        40.600          23.6004
 106220606.907 8  82616076.582 7  19877732.375    19877732.843    19877738.841
        52.200          47.700
 147044148.895 6                  27981594.222
        37.900
 127497305.316 7  99164614.662 7  23918164.089    23918164.033    23918171.752
        44.600          42.600
 105388188.579 8  81968598.123 8  19715036.842    19715037.195    19715043.940
        51.600          48.600
 119091376.256 7  92798476.75747  22662337.423    22662336.9234   22662341.9384
        46.300          44.1004
 105256999.953 8  81866599.671 8  19704325.776    19704326.072    19704332.766
        53.000          49.200
 141195119.986 6                  26868537.233
        38.400
 135789058.737 6 105809736.31344  25839789.584    25839789.0524   25839806.2004
        38.900          27.5004
 111499593.273 7  86882803.00446  21217666.418    21217666.0214   21217666.9794
        47.800          38.0004
 105227959.242 8  81995813.68948  20024214.732    20024214.2454   20024213.8274
        50.700          51.6004
 124912693.302 6  97334595.04945  23770091.381    23770090.3754   23770095.5694
        40.900          34.4004
 130637478.380 7 101606970.435 6  24412735.288    24412735.774    24412742.997
        42.200          37.900
 130240018.463 6 101485726.41043  24783859.330    24783858.0114   24783859.7984
        39.300          21.7004
 25  1  1 14 16 45.0000000  0 34G10G26E19E10R04S31S35G21G03R06S48S33
                                E27E11E29E04G16R22E07E21G04R15E33R14
                                R05G32R16E12G29G28G31G25R21G02
 131488729.493 6 102458714.49145  25021509.213    25021508.4714   25021523.9444
        39.500          30.7004
 110039885.228 8  85745392.01448  20939890.833    20939890.1494   20939895.0504
        48.000          48.7004
 122129479.923 7                  23240466.099
        45.100
 140806057.598 6                  26794498.824
        41.900
 122991284.956 7  95659898.582 6  22967784.352    22967784.262    22967798.840
        45.700          41.000
 198980626.715 7                  37864752.203
        45.700
 200940508.506 7                  38237721.436
        44.200
 133324353.060 5 103889093.94742  25370792.361    25370790.9844   25370797.2634
        34.200          14.4004
 111471115.068 8  86860625.20148  21212243.853    21212243.5724   21212245.7974
        48.100          48.3004
 112211504.185 6                  21028386.951    21028387.215
        38.000
 412710881.400 5                  78536189.863
        32.800
 202100994.410 7                  38458513.595
        45.000
 133168636.984 7                  25341145.872
        46.300
 143996550.362 5                  27401629.934
        35.500
 128524615.984 7                  24457419.152
        47.100
 142507606.668 6                  27118298.841
        40.900
 121882496.994 7  94973424.32844  23193459.401    23193458.4004   23193464.0654
        42.100          26.2004
 128327032.250 7  99809926.222 6  24039975.083    24039974.521    24039980.614
        42.600          38.200
 151421630.101 5                  28814636.315
        35.700
 129483665.743 7                  24639915.871
        47.100
 125665078.463 6  97920842.45343  23913270.673    23913270.2134   23913272.3414
        40.800          23.4004
 106251647.474 8  82640219.169 7  19883541.836    19883541.673    19883547.814
        52.600          47.900
 147087406.650 6                  27989826.377
        37.500
 127560278.987 7  99213594.259 7  23929977.867    23929977.792    23929984.969
        43.600          42.400
 105402281.920 8  81979559.589 8  19717673.559    19717673.793    19717680.422
        51.600          48.500
 119123033.713 7  92823144.82047  22668361.767    22668361.2804   22668366.1624
        46.200          44.2004
 105223499.660 8  81840543.893 8  19698054.660    19698054.809    19698061.355
        52.700          49.200
 141224525.174 6                  26874132.876
        38.400
 135761185.591 6 105788017.54644  25834484.552    25834484.0024   25834501.4254
        38.900          27.1004
 111528304.315 7  86905175.23346  21223129.937    21223129.5404   21223130.4834
        47.800          38.0004
 105234618.994 8  82001003.12448  20025481.807    20025481.3294   20025481.1254
        50.400          51.6004
 124959211.808 6  97370843.34945  23778943.845    23778942.8444   23778947.5134
        40.500          34.4004
 130683715.433 7 101642932.568 6  24421376.337    24421376.661    24421385.119
        42.100          38.400
 130272713.748 6 101511203.09243  24790080.451    24790079.1414   24790082.2224
        39.900          22.1004
 25  1  1 14 17  0.0000000  0 34G10G26E19E10R04S31S35G21G03R06S48S33
                                E27E11E29E04G16R22E07E21G04R15E33R14
                                R05G32R16E12G29G28G31G25R21G02
 131547203.240 6 102504278.23745  25032635.999    25032635.2624   25032651.0444
        37.900          30.3004
 110006719.200 7  85719548.36948  20933579.655    20933578.9804   20933583.7264
        47.800          48.8004
 122120054.960 7                  23238672.566
        45.100
 140821182.605 6                  26797377.043
        41.900
 123039576.964 7  95697458.665 7  22976802.921    22976802.474    22976818.036
        46.100          42.000
 198980631.129 7                  37864755.101
        46.000
 200940481.660 7                  38237714.273
        44.400
 133359561.559 5 103916528.91742  25377492.901    25377491.5154   25377497.3724
        34.500          14.9004
 111443297.416 8  86838949.07248  21206950.140    21206949.8544   21206952.2864
        48.400          48.5004
 112166342.637 6                  21019924.597    21019923.918
        38.600
 412711234.632 5                  78536206.815
        33.000
 202101016.980 7                  38458518.697
        45.200
 133181618.667 7                  25343616.274
        46.300
 143992697.422 5                  27400897.072
        35.200
 128542264.560 7                  24460777.481
        46.700
 142475834.369 6                  27112252.866
        41.300
 121824177.819 6  94927980.82744  23182361.275    23182360.3054   23182366.1774
        41.900          26.5004
 128337822.764 7  99818318.598 6  24041997.828    24041997.568    24042002.462
        44.500          39.100
 151453573.632 6                  28820714.946
        36.200
 129455133.381 7                  24634486.406
        46.900
 125622364.144 6  97887558.56944  23905142.998    23905142.5604   23905144.7434
        40.200          24.1004
 106282846.322 8  82664484.923 7  19889379.840    19889380.141    19889386.300
        51.900          47.800
 147130643.022 6                  27998054.049
        38.400
 127623272.839 7  99262589.540 7  23941795.442    23941795.459    23941802.417
        43.300          42.300
 105416500.828 8  81990618.728 8  19720333.992    19720333.903    19720340.483
        51.900          48.600
 119154746.223 7  92847855.77947  22674396.562    22674396.0844   22674400.9834
        46.300          44.2004
 105190166.950 8  81814618.460 8  19691814.517    19691814.861    19691821.403
        52.700          49.100
 141253999.912 6                  26879741.598
        37.800
 135733379.265 6 105766350.84744  25829193.149    25829192.6044   25829209.2064
        39.100          28.3004
 111557077.676 7  86927595.96946  21228605.564    21228605.1674   21228605.9184
        47.200          38.1004
 105241387.460 8  82006277.28248  20026769.924    20026769.4514   20026769.1094
        50.300          51.8004
 125005819.304 6  97407160.91645  23787813.061    23787812.0514   23787816.5744
        40.300          34.8004
 130730008.797 6 101678938.535 6  24430027.107    24430027.038    24430035.303
        41.900          37.900
 130305443.076 6 101536706.32843  24796308.825    24796307.5604   24796310.7054
        40.100          22.4004
 25  1  1 14 17 15.0000000  0 34G10G26E19E10R04S31S35G21G03R06S48S33
                                E27E11E29E04G16R22E07E21G04R15E33R14
                                R05G32R16E12G29G28G31G25R21G02
 131605687.754 6 102549850.35145  25043765.624    25043764.8914   25043780.4174
        38.200          30.0004
 109973677.975 7  85693801.98448  20927291.956    20927291.2814   20927296.1334
        47.900          48.9004
 122110659.199 7                  23236884.453
        44.900
 140836404.302 6                  26800273.487
        41.500
 123087934.307 7  95735069.538 6  22985833.260    22985833.296    22985848.746
        45.800          41.800
 198980633.772 7                  37864753.473
        45.900
 200940453.345 7                  38237708.339
        44.400
 133394755.884 5 103943952.86242  25384189.594    25384188.2224   25384194.8884
        34.500          14.4004
 111415606.667 8  86817371.86648  21201680.491    21201680.2054   21201682.9794
        48.300          48.6004
 112121229.451 6                  21011469.983    21011469.877
        38.100
 412711587.251 5                  78536231.941
        33.000
 202101038.161 7                  38458524.332
        45.300
 133194701.655 7                  25346106.020
        46.000
 143988951.222 5                  27400184.200
        35.600
 128559946.258 7                  24464142.235
        46.500
 142444057.554 6                  27106205.414
        41.500
 121765892.090 6  94882563.41844  23171270.292    23171269.3004   23171274.9304
        41.900          26.3004
 128348776.625 7  99826838.128 6  24044048.632    24044049.202    24044053.556
        44.400          37.700
 151485528.168 5                  28826795.987
        33.500
 129426683.318 7                  24629072.713
        46.800
 125579648.614 6  97854273.74944  23897014.618    23897014.1894   23897016.3214
        41.100          24.2004
 106314201.109 8  82688872.013 7  19895247.240    19895247.822    19895253.775
        52.200          47.800
 147173855.723 6                  28006277.379
        37.800
 127686285.054 7  99311599.017 7  23953616.272    23953616.309    23953623.620
        43.500          42.700
 105430842.943 8  82001773.676 8  19723016.325    19723016.761    19723023.372
        51.800          48.500
 119186511.827 7  92872608.11647  22680441.308    22680440.8264   22680445.8574
        45.900          44.3004
 105156999.594 8  81788821.606 8  19685605.417    19685605.714    19685612.479
        53.000          49.400
 141283541.943 6                  26885363.509
        38.200
 135705638.119 6 105744734.90345  25823913.825    25823913.2714   25823930.0444
        39.400          30.1004
 111585911.346 7  86950063.74646  21234092.339    21234091.9424   21234092.8584
        47.500          38.2004
 105248262.466 8  82011634.45348  20028078.205    20028077.7324   20028077.3544
        50.200          51.8004
 125052513.283 6  97443545.67945  23796698.605    23796697.6224   23796702.3364
        40.100          34.5004
 130776355.869 6 101714986.233 6  24438688.338    24438688.427    24438696.147
        41.300          38.400
 130338203.921 6 101562234.14043  24802542.909    24802541.6314   24802545.1224
        39.300          22.6004
 25  1  1 14 17 30.0000000  0 34G10G26E19E10R04S31S35G21G03R06S48S33
                                E27E11E29E04G16R22E07E21G04R15E33R14
                                R05G32R16E12G29G28G31G25R21G02
 131664188.100 6 102595434.81144  25054897.608    25054896.8804   25054912.7364
        38.600          29.7004
 109940767.176 7  85668157.23448  20921029.054    20921028.3884   20921033.3574
        47.800          48.7004
 122101298.109 7                  23235103.058
        44.900
 140851727.892 6                  26803189.315
        41.200
 123136362.503 7  95772735.541 6  22994876.007    22994877.077    22994892.620
        45.700          41.500
 198980641.197 7                  37864754.640
        46.000
 200940429.359 7                  38237704.940
        44.500
 133429941.017 5 103971369.58442  25390884.830    25390883.4444   25390890.4854
        34.600          15.1004
 111388048.416 8  86795897.91848  21196436.378    21196436.0924   21196438.8264
        48.100          48.5004
 112076170.444 6                  21003025.907    21003025.759
        38.700
 412711945.383 5                  78536244.609
        32.900
 202101063.776 7                  38458525.946
        45.200
 133207891.374 7                  25348616.130
        45.800
 143985316.829 5                  27399492.809
        35.900
 128577666.454 7                  24467514.277
        46.600
 142412281.503 6                  27100158.842
        40.900
 121707645.633 6  94837176.61544  23160185.963    23160184.9714   23160191.0614
        41.900          26.4004
 128359898.792 7  99835488.527 6  24046132.181    24046131.664    24046138.526
        42.700          38.900
 151517499.074 5                  28832879.473
        34.600
 129398321.089 7                  24623675.369
        46.800
 125536937.365 6  97820992.27644  23888886.280    23888885.8294   23888888.7894
        40.700          24.7004
 106345716.297 8  82713383.851 7  19901145.036    19901145.289    19901151.550
        52.500          47.800
 147217049.954 6                  28014497.087
        37.600
 127749320.254 7  99360626.326 7  23965442.517    23965442.856    23965449.041
        45.000          42.200
 105445314.212 8  82013029.091 8  19725723.922    19725723.832    19725730.698
        51.700          48.400
 119218335.884 7  92897406.00247  22686497.291    22686496.8264   22686501.8604
        45.900          44.1004
 105124003.658 8  81763158.096 8  19679428.640    19679429.097    19679435.438
        53.000          49.400
 141313156.379 6                  26890998.618
        37.600
 135677967.750 6 105723174.13344  25818647.861    25818647.3034   25818664.1274
        39.800          29.7004
 111614810.303 7  86972582.36246  21239591.868    21239591.4754   21239592.1714
        47.000          38.0004
 105255249.207 8  82017078.69448  20029407.763    20029407.2944   20029406.8704
        50.300          51.7004
 125099299.326 6  97480002.27845  23805601.617    23805600.6834   23805605.0194
        39.900          34.2004
 130822761.449 6 101751079.475 6  24447359.432    24447360.093    24447368.300
        41.400          37.600
 130371001.295 6 101587790.40043  24808784.938    24808783.6604   24808786.3714
        38.700          21.9004
 25  1  1 14 17 45.0000000  0 34G10G26E19E10R04S31S35G21G03R06S48S33
                                E27E11E29E04G16R22E07E21G04R15E33R14
                                R05G32R16E12G29G28G31G25R21G02
 131722696.206 6 102641025.30544  25066031.747    25066031.0194   25066046.8164
        39.000          29.7004
 109907979.289 7  85642608.24948  20914789.868    20914789.2114   20914793.9724
        47.800          48.8004
 122091963.708 7                  23233326.881
        44.700
 140867145.362 6                  26806123.414
        41.800
 123184853.247 7  95810450.158 6  23003932.260    23003932.712    23003948.796
        45.100          41.600
 198980644.491 7                  37864756.250
        46.100
 200940401.788 7                  38237700.768
        44.500
 133465108.743 5 103998772.81242  25397577.164    25397575.8194   25397582.6044
        34.600          14.1004
 111360615.123 8  86774521.32348  21191215.959    21191215.6784   21191218.4394
        48.100          48.5004
 112031158.277 6                  20994590.252    20994590.535
        38.800
 412712300.110 5                  78536263.216
        33.000
 202101086.022 7                  38458532.497
        45.200
 133221179.930 7                  25351144.745
        45.900
 143981786.853 5                  27398820.797
        35.100
 128595417.443 7                  24470892.212
        46.400
 142380498.532 6                  27094110.598
        41.000
 121649430.997 7  94791814.60844  23149108.003    23149107.0154   23149112.9694
        42.000          26.5004
 128371181.352 7  99844263.655 6  24048246.131    24048246.531    24048250.692
        43.600          37.100
 151549478.672 5                  28838965.596
        33.300
 129370039.082 7                  24618293.450
        46.800
 125494222.643 6  97787708.10343  23880758.300    23880757.8624   23880760.1314
        39.300          23.9004
 106377384.257 8  82738014.521 7  19907071.266    19907071.758    19907077.640
        52.800          47.800
 147260217.726 6                  28022711.400
        37.700
 127812370.216 7  99409665.133 7  23977269.356    23977269.556    23977276.715
        44.100          42.700
 105459906.740 8  82024378.804 8  19728453.531    19728453.726    19728460.623
        51.900          48.400
 119250210.586 7  92922243.33747  22692562.827    22692562.3624   22692567.4874
        46.100          44.1004
 105091171.506 8  81737621.974 8  19673282.282    19673282.821    19673289.184
        52.800          49.000
 141342835.148 6                  26896646.948
        37.600
 135650360.750 6 105701662.73944  25813394.372    25813393.8184   25813410.0204
        38.900          29.5004
 111643766.751 7  86995145.83546  21245101.986    21245101.6024   21245102.4454
        47.600          38.2004
 105262339.687 8  82022603.73448  20030756.953    20030756.4804   20030756.1194
        50.500          51.7004
 125146168.630 6  97516523.51745  23814520.519    23814519.5944   23814524.1894
        40.000          34.0004
 130869217.129 6 101787211.714 6  24456041.554    24456041.534    24456049.329
        41.500          38.400
 130403827.099 6 101613368.77843  24815031.330    24815030.0654   24815032.5084
        39.300          21.9004
 25  1  1 14 18  0.0000000  0 34G10G26E19E10R04S31S35G21G03R06S48S33
                                E27E11E29E04G16R22E07E21G04R15E33R14
                                R05G32R16E12G29G28G31G25R21G02
 131781215.021 6 102686624.15244  25077168.183    25077167.4734   25077182.4354
        36.900          29.4004
 109875317.889 7  85617157.82048  20908574.664    20908574.0304   20908578.7254
        47.300          48.7004
 122082659.616 7                  23231556.481
        44.800
 140882659.947 6                  26809075.663
        41.900
 123233410.008 7  95848216.149 6  23013001.240    23013000.836    23013016.800
        46.100          41.900
 198980647.728 7                  37864758.687
        46.000
 200940373.438 7                  38237691.481
        44.400
 133500262.540 5 104026165.17742  25404267.733    25404266.3794   25404272.4244
        33.700          14.4004
 111333310.352 8  86753244.87648  21186020.106    21186019.8294   21186022.4764
        48.100          48.5004
 111986196.510 6                  20986164.353    20986164.657
        38.500
 412711054.241 5                  78536281.648
        32.900
 202101107.590 7                  38458535.985
        45.000
 133234570.489 7                  25353693.016
        46.000
 143978364.189 5                  27398170.304
        35.500
 128613202.510 7                  24474276.611
        46.200
 142348711.894 6                  27088061.938
        41.100
 121591251.792 6  94746480.20044  23138037.465    23138036.4824   23138041.6214
        41.400          26.6004
 128382627.607 7  99853166.278 6  24050390.076    24050390.750    24050395.917
        44.400          38.200
 151581470.200 5                  28845053.533
        34.300
 129341840.767 7                  24612927.304
        46.700
 125451507.873 6  97754423.87243  23872629.997    23872629.5644   23872631.5084
        40.500          23.9004
 106409207.592 8  82762766.050 8  19913026.278    19913026.658    19913032.973
        52.100          48.100
 147303362.066 6                  28030921.900
        37.800
 127875438.034 7  99458717.751 7  23989101.955    23989101.317    23989108.257
        43.700          42.500
 105474623.932 8  82035825.485 8  19731206.844    19731206.833    19731213.681
        52.100          48.500
 119282139.252 7  92947122.71947  22698638.858    22698638.3894   22698643.4024
        45.800          44.0004
 105058506.653 8  81712215.993 8  19667167.265    19667167.787    19667174.316
        52.700          49.100
 141372581.433 6                  26902307.208
        37.700
 135622820.711 6 105680203.51044  25808153.231    25808152.6774   25808168.8224
        39.800          28.4004
 111672783.567 7  87017756.30646  21250623.567    21250623.1784   21250624.1654
        47.500          38.0004
 105269537.019 8  82028212.05848  20032126.521    20032126.0484   20032125.7194
        50.300          51.6004
 125193125.163 6  97553113.04245  23823456.167    23823455.2284   23823460.0524
        40.000          34.1004
 130915725.877 6 101823385.231 6  24464731.954    24464732.092    24464740.482
        40.700          37.400
 130436684.315 6 101638971.60643  24821283.474    24821282.2144   24821285.3974
        39.800          22.1004
 25  1  1 14 18 15.0000000  0 34G10G26E19E10R04S31S35G21G03R06S48S33
                                E27E11E29E04G16R22E07E21G04R15E33R14
                                R05G32R16E12G29G28G31G25R21G02
 131839746.753 6 102732233.03844  25088307.317    25088306.6154   25088321.1044
        37.700          29.6004
 109842785.721 8  85591808.09548  20902384.004    20902383.3704   20902388.0684
        48.000          48.8004
 122073388.236 7                  23229792.249
        44.400
 140898273.930 6                  26812046.968
        41.400
 123282034.963 7  95886035.153 7  23022082.084    23022082.402    23022097.507
        46.800          42.000
 198980653.275 7                  37864759.116
        45.600
 200940347.845 7                  38237686.209
        44.000
 133535404.171 5 104053548.07742  25410953.671    25410952.3174   25410959.7224
        35.600          14.4004
 111306136.816 8  86732070.68848  21180849.281    21180849.0044   21180851.4794
        48.300          48.7004
 111941287.870 6                  20977748.519    20977748.383
        38.300
 412711411.976 5                  78536296.498
        32.800
 202101131.745 7                  38458541.167
        44.900
 133248065.379 7                  25356260.597
        45.600
 143975051.631 5                  27397539.264
        34.800
 128631024.188 7                  24477667.974
        45.900
 142316924.085 6                  27082013.146
        40.200
 121533110.956 7  94701175.67544  23126973.398    23126972.4244   23126977.7094
        42.000          26.6004
 128394239.668 7  99862197.940 6  24052565.764    24052565.944    24052570.365
        44.100          37.600
 151613476.085 5                  28851143.807
        35.500
 129313728.791 7                  24607578.069
        46.600
 125408795.510 6  97721141.52644  23864502.293    23864501.8734   23864503.3144
        40.500          24.5004
 106441188.179 8  82787639.880 8  19919011.201    19919011.567    19919017.619
        52.500          48.000
 147346485.104 6                  28039127.929
        37.600
 127938525.696 7  99507785.805 7  24000937.748    24000937.608    24000943.422
        45.500          42.500
 105489468.416 8  82047371.187 8  19733983.635    19733983.827    19733990.684
        51.600          48.200
 119314124.297 7  92972046.03047  22704725.882    22704725.4264   22704730.0854
        46.000          44.1004
 105026011.777 8  81686942.208 8  19661084.247    19661084.521    19661091.250
        52.600          49.300
 141402397.352 6                  26907981.205
        37.400
 135595350.597 6 105658798.76644  25802925.242    25802924.6924   25802940.4854
        38.200          28.2004
 111701863.133 7  87040415.71046  21256157.259    21256156.8664   21256157.8794
        47.500          38.2004
 105276843.466 8  82033905.39548  20033516.903    20033516.4304   20033516.0814
        50.200          51.8004
 125240170.492 6  97589771.71845  23832408.860    23832407.9134   23832412.9564
        39.800          34.5004
 130962289.293 7 101859601.216 6  24473435.210    24473435.108    24473442.752
        42.600          37.600
 130469575.078 6 101664600.61843  24827542.669    24827541.4174   24827544.7924
        39.000          22.4004
 25  1  1 14 18 30.0000000  0 34G10G26E19E10R04S31S35G21G03R06S48S33
                                E27E11E29E04G16R22E07E21G04R15E33R14
                                R05G32R16E12G29G28G31G25R21G02
 131898288.642 6 102777849.83944  25099446.673    25099445.9944   25099462.1074
        37.100          29.5004
 109810380.623 7  85566557.37448  20896217.196    20896216.5624   20896221.5674
        47.900          48.8004
 122064147.380 7                  23228033.668
        44.600
 140913984.678 6                  26815036.670
        41.400
 123330725.446 7  95923905.145 6  23031174.712    23031174.695    23031190.185
        46.200          41.600
 198980658.688 7                  37864759.483
        45.600
 200940321.574 7                  38237684.536
        44.100
 133570531.204 5 104080919.58742  25417638.828    25417637.4744   25417644.5214
        34.500          15.6004
 111279092.434 8  86710997.14848  21175703.074    21175702.7974   21175705.1334
        48.400          48.7004
 111896430.308 6                  20969342.243    20969342.292
        38.300
 412711770.600 5                  78536314.210
        32.300
 202101156.488 7                  38458544.695
        44.800
 133261662.077 7                  25358848.051
        46.000
 143971846.617 5                  27396929.888
        35.200
 128648880.083 7                  24481065.682
        46.300
 142285132.762 6                  27075963.541
        41.300
 121475006.422 6  94655899.44344  23115916.091    23115915.1264   23115920.9744
        41.900          26.6004
 128406014.735 7  99871356.363 6  24054771.930    24054771.930    24054776.346
        43.300          36.300
 151645494.062 5                  28857237.666
        31.700
 129285700.875 7                  24602244.480
        46.700
 125366083.207 6  97687859.20244  23856373.947    23856373.5234   23856375.7564
        41.000          24.1004
 106473323.329 8  82812633.970 7  19925024.781    19925025.077    19925031.231
        52.500          47.900
 147389584.220 6                  28047329.936
        37.900
 128001630.137 7  99556866.809 7  24012775.342    24012775.039    24012781.832
        45.400          42.400
 105504437.929 8  82059014.111 8  19736784.019    19736784.247    19736791.212
        51.600          48.400
 119346163.340 7  92997011.42147  22710822.659    22710822.2084   22710826.9554
        45.800          44.1004
 104993684.476 8  81661798.753 8  19655032.583    19655032.931    19655039.495
        52.400          49.000
 141432280.234 6                  26913667.653
        38.100
 135567948.218 6 105637446.77744  25797710.757    25797710.2034   25797725.5354
        39.100          28.7004
 111731002.671 7  87063121.81146  21261702.470    21261702.0814   21261702.9054
        47.700          38.1004
 105284256.503 8  82039681.78948  20034927.521    20034927.0564   20034926.7394
        50.300          51.7004
 125287301.339 6  97626496.89445  23841377.591    23841376.6394   23841381.3814
        40.700          34.1004
 131008904.508 6 101895857.459 6  24482144.929    24482145.426    24482154.161
        41.900          38.400
 130502496.540 6 101690253.48043  24833808.070    24833806.8144   24833809.8214
        39.600          22.3004
 25  1  1 14 18 45.0000000  0 34G10G26E19E10R04S31S35G21G03R06S48S33
                                E27E11E29E04G16R22E07E21G04R15E33R14
                                R05G32R16E12G29G28G31G25R21G02
 131956838.645 6 102823472.94744  25110588.338    25110587.6724   25110604.6574
        38.000          29.2004
 109778101.084 8  85541404.49548  20890074.709    20890074.0704   20890078.9574
        48.300          48.8004
 122054935.165 7                  23226280.668
        44.700
 140929790.352 6                  26818044.730
        41.800
 123379479.774 7  95961824.813 6  23040278.129    23040278.784    23040295.330
        44.200          41.700
 198980661.358 7                  37864760.949
        45.500
 200940292.941 7                  38237677.927
        44.100
 133605641.214 5 104108277.81942  25424321.453    25424320.1434   25424325.8494
        34.600          14.9004
 111252175.601 8  86690022.97248  21170580.739    21170580.4674   21170583.0684
        48.500          48.7004
 111851622.436 6                  20960944.502    20960945.470
        38.600
 412712127.255 5                  78536334.972
        32.500
 202101177.071 7                  38458549.601
        44.900
 133275358.646 7                  25361454.694
        46.000
 143968747.656 5                  27396339.797
        35.700
 128666768.421 7                  24484469.729
        46.300
 142253336.010 6                  27069912.774
        41.100
 121416936.683 7  94610650.34344  23104866.517    23104865.5784   23104870.5354
        42.500          26.7004
 128417951.002 7  99880640.269 6  24057008.279    24057008.394    24057012.600
        44.400          37.400
 151677522.132 5                  28863332.157
        34.700
 129257755.380 7                  24596926.512
        46.700
 125323369.287 6  97654575.60843  23848246.483    23848246.0594   23848247.6564
        40.000          23.8004
 106505610.752 8  82837746.420 7  19931066.919    19931067.201    19931073.502
        52.300          47.700
 147432657.387 6                  28055526.664
        37.000
 128064749.622 7  99605959.719 7  24024615.313    24024615.310    24024623.158
        43.900          42.400
 105519530.392 8  82070752.669 8  19739607.602    19739607.648    19739614.563
        51.800          48.200
 119378254.523 7  93022017.42747  22716929.349    22716928.9074   22716933.8464
        46.000          44.1004
 104961523.364 8  81636784.553 8  19649012.038    19649012.191    19649018.826
        52.600          49.000
 141462228.080 6                  26919366.134
        38.100
 135540612.075 6 105616146.43045  25792508.170    25792507.6074   25792523.4914
        40.500          30.2004
 111760200.286 7  87085873.16646  21267258.545    21267258.1524   21267259.0984
        47.600          38.1004
 105291774.135 8  82045539.71348  20036357.939    20036357.4794   20036357.2794
        50.500          51.6004
 125334516.465 6  97663287.91945  23850361.889    23850360.9504   23850365.9214
        41.000          34.0004
 131055569.267 7 101932152.212 6  24490865.813    24490866.378    24490874.241
        42.300          37.100
 130535446.719 6 101715928.77043  24840077.915    24840076.6634   24840080.0334
        39.400          21.9004
 25  1  1 14 19  0.0000000  0 34G10G26E19E10R04S31S35G21G03R06S48S33
                                E27E11E29E04G16R22E07E21G04R15E33R14
                                R05G32R16E12G29G28G31G25R21G02
 132015399.804 6 102869104.75844  25121732.674    25121732.0534   25121747.7124
        37.900          28.5004
 109745950.794 8  85516352.32448  20883956.794    20883956.1554   20883960.9234
        48.400          48.8004
 122045755.256 7                  23224533.762
        44.600
 140945694.051 7                  26821070.888
        42.100
 123428301.065 7  95999796.538 6  23049396.151    23049396.660    23049412.226
        45.300          41.300
 198980666.023 7                  37864759.809
        45.300
 200940266.339 7                  38237675.696
        44.100
 133640737.248 5 104135625.14442  25430999.169    25430997.8774   25431004.7634
        35.000          15.3004
 111225390.058 8  86669151.11548  21165483.518    21165483.2464   21165485.9734
        48.900          48.7004
 111806867.944 6                  20952557.942    20952558.378
        37.900
 412712485.223 5                  78536349.893
        32.600
 202101200.461 7                  38458553.138
        44.700
 133289158.377 7                  25364080.715
        45.800
 143965757.694 5                  27395771.616
        35.500
 128684692.678 7                  24487880.617
        46.300
 142221537.330 6                  27063861.295
        41.300
 121358905.750 6  94565431.49544  23093823.046    23093822.1074   23093827.6844
        41.700          26.7004
 128430051.077 7  99890051.405 6  24059274.492    24059273.950    24059279.940
        44.400          37.400
 151709563.878 5                  28869429.604
        35.300
 129229895.940 7                  24591625.135
        46.700
 125280657.274 6  97621293.52944  23840118.640    23840118.2254   23840120.2364
        40.800          24.4004
 106538053.373 8  82862979.572 8  19937138.559    19937138.510    19937144.539
        52.500          48.000
 147475707.759 6                  28063719.483
        36.500
 128127886.997 7  99655066.547 7  24036460.183    24036460.889    24036467.024
        45.100          42.000
 105534749.505 8  82082589.729 8  19742454.463    19742454.703    19742461.632
        51.600          48.200
 119410401.293 7  93047066.74047  22723046.866    22723046.4284   22723051.2894
        46.500          43.9004
 104929532.160 8  81611902.529 8  19643023.097    19643023.128    19643029.982
        52.300          49.100
 141492243.979 6                  26925078.431
        37.800
 135513345.773 6 105594900.48345  25787319.229    25787318.6484   25787334.6024
        39.700          30.9004
 111789459.195 8  87108672.31646  21272826.256    21272825.8674   21272826.9124
        48.000          38.0004
 105299399.548 8  82051481.60248  20037809.205    20037808.7404   20037808.3164
        50.900          51.6004
 125381818.452 6  97700146.66645  23859363.501    23859362.5624   23859367.1274
        39.000          33.7004
 131102286.409 7 101968487.790 6  24499596.123    24499596.720    24499604.462
        42.900          37.200
 130568428.753 6 101741628.92543  24846354.822    24846353.5794   24846356.6674
        39.500          22.3004
 25  1  1 14 19 15.0000000  0 34G10G26E19E10R04S31S35G21G03R06S48S33
                                E27E11E29E04G16R22E07E21G04R15E33R14
                                R05G32R16E12G29G28G31G25R21G02
 132073968.652 6 102914742.56144  25132877.711    25132877.0944   25132892.9144
        38.800          28.5004
 109713926.803 8  85491398.57348  20877862.997    20877862.3634   20877866.9334
        48.300          48.8004
 122036604.304 7                  23222792.343
        44.700
 140961692.465 6                  26824114.977
        41.500
 123477186.031 7  96037817.807 6  23058525.651    23058525.750    23058541.692
        45.200          41.900
 198980668.734 7                  37864759.997
        45.400
 200940237.634 7                  38237669.181
        43.900
 133675816.070 5 104162959.05642  25437675.318    25437674.0404   25437680.6144
        33.800          14.9004
 111198732.792 8  86648379.21248  21160410.819    21160410.5474   21160413.2354
        49.000          48.7004
 111762163.931 6                  20944181.059    20944180.570
        38.200
 412712841.373 5                  78536370.624
        32.600
 202101221.827 7                  38458560.726
        44.600
 133303058.005 7                  25366725.580
        45.800
 143962873.632 5                  27395221.992
        35.900
 128702649.635 7                  24491297.607
        46.200
 142189733.504 6                  27057809.638
        40.800
 121300910.724 7  94520240.64944  23082786.980    23082786.0554   23082791.5944
        42.800          26.7004
 128442311.250 7  99899586.749 6  24061571.338    24061571.573    24061576.924
        44.100          38.100
 151741616.106 4                  28875529.004
        28.100
 129202119.451 7                  24586339.199
        46.800
 125237944.023 6  97588010.49144  23831990.092    23831989.6814   23831992.3334
        41.600          24.7004
 106570647.584 8  82888330.631 8  19943237.710    19943238.121    19943244.101
        52.500          48.100
 147518731.981 6                  28071906.724
        36.600
 128191038.523 7  99704184.424 7  24048307.584    24048307.657    24048313.855
        45.100          42.400
 105550092.275 8  82094522.983 8  19745324.685    19745324.948    19745331.805
        51.700          48.400
 119442600.419 7  93072156.85047  22729174.221    22729173.8014   22729178.6824
        45.700          43.9004
 104897707.556 8  81587150.072 8  19637065.555    19637065.978    19637072.337
        52.700          49.000
 141522324.465 6                  26930802.487
        37.800
 135486146.616 6 105573706.84745  25782143.331    25782142.7594   25782157.8504
        40.100          30.3004
 111818775.938 8  87131516.55246  21278405.013    21278404.6204   21278405.6724
        48.400          38.2004
 105307129.394 8  82057504.86448  20039280.047    20039279.5874   20039279.2424
        50.900          51.7004
 125429203.570 6  97737070.12345  23868380.860    23868379.9304   23868384.3064
        41.000          34.4004
 131149051.897 7 102004860.885 6  24508335.787    24508336.064    24508343.904
        43.200          38.100
 130601438.670 6 101767350.79543  24852636.321    24852635.0614   24852638.3844
        40.100          22.9004
 25  1  1 14 19 30.0000000  0 34G10G26E19E10R04S31S35G21G03R06S48S33
                                E27E11E29E04G16R22E07E21G04R15E33R14
                                R05G32R16E12G29G28G31G25R21G02
 132132547.484 6 102960388.11644  25144025.581    25144024.9604   25144040.8794
        38.000          28.4004
 109682031.948 8  85466545.44948  20871793.596    20871792.9664   20871797.5294
        48.200          48.7004
 122027484.914 7                  23221056.990
        44.700
 140977788.054 6                  26827178.138
        41.700
 123526137.080 7  96075890.422 7  23067667.571    23067668.107    23067684.067
        46.000          42.000
 198980671.661 7                  37864761.410
        45.500
 200940209.310 7                  38237659.298
        44.000
 133710879.803 5 104190281.21642  25444347.618    25444346.3754   25444353.2324
        34.000          14.1004
 111172206.646 8  86627709.45448  21155363.293    21155363.0214   21155365.5244
        48.800          48.6004
 111717513.448 6                  20935812.879    20935813.069
        37.700
 412711599.438 5                  78536391.229
        32.400
 202101243.807 7                  38458564.411
        44.900
 133317060.057 7                  25369389.884
        46.000
 143960097.894 5                  27394694.059
        35.900
 128720641.897 7                  24494721.703
        46.100
 142157927.163 6                  27051757.118
        40.900
 121242954.607 7  94475080.11044  23071757.875    23071756.9594   23071762.2974
        42.500          26.3004
 128454735.141 7  99909249.709 6  24063899.081    24063899.035    24063903.464
        44.200          38.000
 151773681.359 5                  28881631.158
        34.700
 129174428.655 7                  24581069.880
        46.600
 125195232.112 6  97554728.47844  23823862.339    23823861.9334   23823864.0954
        41.200          24.5004
 106603395.528 8  82913801.249 8  19949366.116    19949366.408    19949372.325
        52.700          48.100
 147561732.253 6                  28080089.336
        36.300
 128254206.372 7  99753314.927 7  24060157.631    24060157.626    24060165.130
        44.500          42.700
 105565561.287 8  82106554.384 8  19748219.002    19748218.812    19748225.714
        52.200          48.300
 119474854.499 7  93097289.80147  22735312.026    22735311.5934   22735316.5124
        46.900          43.9004
 104866052.779 8  81562529.695 8  19631139.506    19631139.688    19631146.543
        52.200          49.000
 141552471.862 6                  26936539.460
        38.200
 135459017.508 6 105552567.80844  25776979.821    25776979.2584   25776994.6424
        39.700          29.8004
 111848152.839 7  87154407.66146  21283995.415    21283995.0224   21283995.9074
        47.500          38.0004
 105314965.999 8  82063611.30048  20040771.387    20040770.9184   20040770.5114
        51.100          51.7004
 125476673.847 6  97774059.79245  23877413.971    23877413.0464   23877417.8294
        40.500          34.1004
 131195868.046 7 102041273.393 6  24517085.183    24517084.950    24517092.097
        42.200          36.100
 130634478.851 6 101793096.21443  24858923.635    24858922.3884   24858925.6554
        40.700          22.5004
 25  1  1 14 19 45.0000000  0 34G10G26E19E10R04S31S35G21G03R06S48S33
                                E27E11E29E04G16R22E07E21G04R15E33R14
                                R05G32R16E12G29G28G31G25R21G02
 132191140.595 6 103006044.80844  25155175.590    25155174.9564   25155191.4024
        38.200          28.4004
 109650271.174 8  85441796.80448  20865749.394    20865748.7604   20865753.6394
        48.000          48.7004
 122018401.684 7                  23219328.571
        44.700
 140993985.231 7                  26830260.515
        42.000
 123575158.826 7  96114018.100 6  23076821.169    23076822.127    23076838.301
        45.500          41.200
 198980680.390 7                  37864761.683
        45.700
 200940186.234 7                  38237658.713
        44.200
 133745932.650 5 104217594.84642  25451017.755    25451016.5214   25451023.9044
        35.500          14.4004
 111145816.624 8  86607145.78548  21150341.315    21150341.0434   21150343.7004
        48.600          48.7004
 111672921.676 6                  20927457.115    20927456.518
        38.200
 412711964.253 5                  78536407.425
        32.700
 202101271.246 7                  38458569.370
        45.000
 133331168.980 7                  25372074.812
        45.900
 143957435.389 5                  27394187.579
        35.200
 128738674.208 7                  24498152.989
        46.100
 142126122.907 6                  27045704.919
        40.600
 121185042.392 7  94429953.77244  23060737.439    23060736.5184   23060741.9384
        42.400          26.7004
 128467326.856 7  99919043.407 6  24066256.879    24066257.445    24066262.156
        43.900          36.500
 151805764.282 5                  28887736.490
        35.400
 129146828.419 7                  24575817.714
        46.800
 125152526.324 6  97521451.24344  23815735.600    23815735.2034   23815737.2974
        41.700          24.3004
 106636301.623 8  82939394.860 8  19955524.115    19955524.365    19955530.559
        52.400          48.200
 147604713.131 6                  28088268.751
        36.800
 128317395.203 7  99802461.908 7  24072011.780    24072011.402    24072018.230
        44.400          42.300
 105581161.326 8  82118687.740 8  19751137.024    19751137.302    19751143.958
        52.100          48.400
 119507168.162 7  93122469.18247  22741460.869    22741460.4314   22741465.6994
        46.400          44.0004
 104834572.228 8  81538044.819 8  19625246.371    19625246.452    19625253.239
        52.600          49.100
 141582690.689 6                  26942289.377
        38.100
 135431963.389 6 105531487.19245  25771831.020    25771830.4624   25771846.2664
        40.000          30.6004
 111877594.352 7  87177349.11446  21289598.168    21289597.7934   21289598.4524
        47.700          37.9004
 105322913.814 8  82069804.39148  20042283.733    20042283.2554   20042282.9434
        50.700          51.6004
 125524234.159 6  97811119.75745  23886464.349    23886463.4104   23886468.4164
        40.700          34.1004
 131242739.066 7 102077728.621 6  24525844.072    24525843.978    24525850.915
        43.000          36.200
 130667553.796 6 101818868.78543  24865217.345    24865216.0934   24865219.2234
        40.000          22.0004
 25  1  1 14 20  0.0000000  0 34G10G26E19E10R04S31S35G21G03R06S48S33
                                E27E11E29E04G16R22E07E21G04R15E33R14
                                R05G32R16E12G29G28G31G25R21G02
 132249739.199 6 103051705.76644  25166326.211    25166325.5684   25166342.8384
        38.200          28.7004
 109618636.248 8  85417146.23648  20859729.826    20859729.1964   20859733.7304
        48.300          48.7004
 122009346.682 7                  23217605.444
        44.600
 141010275.375 6                  26833360.593
        41.700
 123624242.398 7  96152193.834 6  23085987.948    23085988.189    23086004.287
        45.500          40.800
 198980685.767 7                  37864762.863
        45.500
 200940160.623 7                  38237657.188
        44.100
 133780966.036 5 104244893.32542  25457684.686    25457683.4434   25457690.6374
        34.900          14.1004
 111119554.378 8  86586681.67648  21145343.883    21145343.6154   21145346.1654
        48.800          48.7004
 111628380.238 6                  20919109.848    20919109.832
        38.800
 412712325.808 5                  78536428.706
        32.700
 202101295.552 7                  38458572.214
        44.900
 133345376.139 7                  25374778.366
        45.900
 143954877.735 5                  27393700.308
        35.600
 128756738.035 7                  24501590.575
        46.000
 142094312.311 6                  27039651.368
        41.200
 121127166.055 7  94384855.40644  23049723.972    23049723.0474   23049728.7614
        42.200          26.5004
 128480077.447 7  99928960.668 6  24068645.827    24068646.203    24068650.995
        44.200          37.700
 151837856.294 4                  28893842.736
        28.000
 129119310.338 7                  24570581.277
        46.600
 125109818.191 6  97488172.14944  23807608.580    23807608.1874   23807610.1144
        41.200          24.0004
 106669356.774 8  82965104.392 8  19961709.781    19961710.153    19961716.410
        52.300          48.200
 147647665.754 6                  28096442.707
        36.700
 128380595.637 7  99851617.995 7  24083868.138    24083867.779    24083874.178
        44.500          42.000
 105596883.897 8  82130916.365 8  19754078.142    19754078.346    19754085.306
        52.000          48.300
 119539532.878 7  93147688.34447  22747620.081    22747619.6394   22747624.5774
        46.600          43.8004
 104803257.835 8  81513689.144 8  19619384.305    19619384.409    19619391.202
        52.600          49.100
 141612972.078 6                  26948052.621
        37.900
 135404976.010 6 105510458.54945  25766695.527    25766694.9604   25766710.4064
        39.500          30.7004
 111907091.780 7  87200334.15346  21295211.096    21295210.7164   21295211.5904
        47.800          38.1004
 105330964.198 8  82076077.41848  20043815.701    20043815.2054   20043814.8724
        50.900          51.5004
 125571875.220 6  97848242.55945  23895529.987    23895529.0404   23895534.3714
        40.200          33.9004
 131289655.918 6 102114219.587 6  24534610.494    24534610.209    24534619.127
        40.500          36.700
 130700654.493 6 101844661.42043  24871516.807    24871515.5964   24871518.7864
        38.900          22.2004
 25  1  1 14 20 15.0000000  0 34G10G26E19E10R04S31S35G21G03R06S48S33
                                E27E11E29E04G16R22E07E21G04R15E33R14
                                R05G32R16E12G29G28G31G25R21G02
 132308346.090 6 103097373.17544  25177479.167    25177478.5284   25177495.4044
        37.200          28.1004
 109587130.444 8  85392596.26448  20853734.259    20853733.6254   20853738.3894
        48.300          48.8004
 122000322.643 7                  23215888.222
        44.500
 141026661.326 6                  26836478.599
        41.000
 123673390.943 7  96190420.115 6  23095166.029    23095166.570    23095183.683
        44.800          41.600
 198980691.155 7                  37864762.729
        45.700
 200940134.615 7                  38237646.680
        43.900
 133815982.646 5 104272178.74342  25464349.026    25464347.7744   25464354.2094
        34.100          14.6004
 111093423.225 8  86566319.68248  21140371.338    21140371.0794   21140373.6324
        48.700          48.8004
 111583892.583 6                  20910772.108    20910772.747
        39.200
 412712687.922 5                  78536442.089
        32.700
 202101319.607 7                  38458576.900
        44.900
 133359684.485 7                  25377501.390
        45.600
 143952427.590 5                  27393234.697
        35.400
 128774836.542 7                  24505034.527
        46.100
 142062498.442 6                  27033597.576
        41.200
 121069328.966 7  94339787.63344  23038717.827    23038716.8974   23038722.6404
        42.400          26.9004
 128492989.044 7  99939002.985 6  24071065.187    24071065.244    24071070.523
        43.800          37.600
 151869960.809 5                  28899952.072
        34.200
 129091877.662 7                  24565360.985
        46.400
 125067110.909 6  97454893.75044  23799481.932    23799481.5484   23799482.8554
        41.500          24.5004
 106702563.645 8  82990931.979 8  19967923.854    19967924.411    19967930.476
        52.500          48.200
 147690592.935 6                  28104611.457
        37.000
 128443810.135 7  99900784.830 7  24095727.340    24095727.492    24095732.917
        45.200          42.300
 105612732.129 8  82143242.758 8  19757042.847    19757043.166    19757050.144
        51.900          48.400
 119571951.747 7  93172949.72847  22753789.313    22753788.8624   22753793.8424
        46.400          43.9004
 104772112.821 8  81489465.223 8  19613553.850    19613554.111    19613560.716
        52.600          48.900
 141643318.839 6                  26953827.190
        37.800
 135378058.938 6 105489484.70845  25761573.407    25761572.8354   25761587.8634
        40.500          30.6004
 111936647.866 7  87223364.88046  21300835.432    21300835.0524   21300835.8944
        47.700          38.1004
 105339120.134 8  82082432.67548  20045367.611    20045367.1114   20045366.9144
        50.600          51.7004
 125619600.098 6  97885430.74145  23904612.117    23904611.1704   23904616.0174
        40.100          33.5004
 131336620.939 7 102150747.974 6  24543387.580    24543388.174    24543395.058
        42.900          36.700
 130733783.677 6 101870476.23043  24877821.188    24877819.9724   24877823.8464
        39.100          22.1004
 25  1  1 14 20 30.0000000  0 34G10G26E19E10R04S31S35G21G03R06S48S33
                                E27E11E29E04G16R22E07E21G04R15E33R14
                                R05G32R16E12G29G28G31G25R21G02
 132366958.346 6 103143044.77944  25188633.912    25188633.2864   25188648.8654
        37.500          28.1004
 109555751.495 8  85368145.15648  20847763.003    20847762.3604   20847767.1724
        48.600          48.9004
 121991326.957 7                  23214176.448
        44.200
 141043140.362 6                  26839614.737
        41.400
 123722601.419 7  96228694.544 6  23104355.815    23104357.189    23104373.319
        45.500          40.900
 198980693.553 7                  37864765.519
        45.600
 200940105.574 7                  38237644.891
        44.000
 133850979.788 5 104299448.99842  25471008.740    25471007.5564   25471013.8904
        32.700          13.9004
 111067420.997 8  86546058.19648  21135423.148    21135422.8854   21135425.6204
        48.900          48.8004
 111539456.420 6                  20902445.325    20902445.401
        39.300
 412713047.985 5                  78536467.363
        32.600
 202101340.581 7                  38458582.087
        44.800
 133374091.390 7                  25380242.664
        45.300
 143950082.677 5                  27392788.692
        35.500
 128792967.106 7                  24508484.600
        45.800
 142030678.703 6                  27027542.477
        40.800
 121011528.734 7  94294748.57644  23027718.624    23027717.6904   23027723.2234
        42.200          26.7004
 128506060.018 7  99949169.493 6  24073514.184    24073514.092    24073518.253
        44.700          37.100
 151902074.823 5                  28906064.108
        33.300
 129064527.971 7                  24560156.529
        46.200
 125024401.995 6  97421614.09044  23791354.475    23791354.1094   23791355.9894
        41.900          24.6004
 106735919.020 8  83016875.067 8  19974165.848    19974166.139    19974172.646
        52.500          48.300
 147733491.826 6                  28112775.024
        36.600
 128507035.895 7  99949960.456 7  24107587.711    24107588.373    24107594.964
        44.700          42.700
 105628703.622 8  82155664.989 8  19760030.873    19760031.113    19760037.881
        52.000          48.500
 119604422.121 7  93198251.24347  22759967.984    22759967.5334   22759972.8374
        46.300          43.9004
 104741134.904 8  81465371.243 8  19607754.661    19607755.003    19607761.737
        52.800          48.900
 141673728.159 6                  26959613.987
        37.400
 135351209.912 6 105468563.87344  25756464.020    25756463.4484   25756477.7734
        39.300          29.4004
 111966259.889 7  87246439.19146  21306470.504    21306470.1294   21306470.8774
        47.800          38.1004
 105347378.977 8  82088868.13348  20046939.266    20046938.7574   20046938.5424
        51.000          51.7004
 125667405.604 6  97922681.84045  23913709.271    23913708.3244   23913712.9574
        40.600          33.9004
 131383630.921 7 102187311.310 5  24552171.971    24552172.744    24552178.863
        42.200          34.700
 130766938.198 6 101896310.78143  24884130.218    24884128.9934   24884132.8894
        40.300          22.2004
 25  1  1 14 20 45.0000000  0 33G10G26E19E10R04S31S35G21G03R06S48S33
                                E27E11E29E04G16R22E21G04R15E33R14R05
                                G32R16E12G29G28G31G25R21G02
 132425577.010 6 103188721.36844  25199788.461    25199787.8314   25199803.9454
        38.000          28.5004
 109524500.932 8  85343794.09648  20841816.022    20841815.3744   20841820.3664
        48.200          48.9004
 121982361.192 7                  23212470.401
        44.400
 141059713.590 6                  26842768.219
        41.500
 123771875.294 7  96267018.305 6  23113558.326    23113558.197    23113574.827
        45.400          41.200
 198980694.483 7                  37864767.813
        45.700
 200940075.770 7                  38237635.138
        44.100
 133885958.483 5 104326704.87242  25477665.273    25477664.0444   25477670.2494
        34.900          15.0004
 111041549.194 8  86525898.37648  21130499.904    21130499.6414   21130502.3424
        48.700          48.8004
 111495073.322 6                  20894128.337    20894127.982
        38.700
 412713406.879 5                  78536478.775
        32.700
 202101360.524 7                  38458586.281
        45.000
 133388597.940 7                  25383003.234
        45.600
 143947844.037 5                  27392362.386
        35.100
 128811131.110 7                  24511941.013
        46.100
 141998854.409 6                  27021486.290
        40.500
 120953767.317 7  94249739.78544  23016727.460    23016726.5354   23016731.4024
        42.300          26.9004
 128519290.613 7  99959460.133 6  24075991.573    24075991.572    24075996.726
        44.300          37.200
 129037262.723 7                  24554968.052
        46.300
 124981692.696 6  97388334.10744  23783226.879    23783226.4904   23783228.6054
        41.500          24.7004
 106769423.910 8  83042934.427 8  19980435.983    19980436.248    19980442.595
        52.300          48.400
 147776363.536 6                  28120933.199
        37.500
 128570273.510 7  99999145.151 7  24119450.473    24119450.899    24119457.987
        45.000          42.900
 105644799.587 8  82168184.056 8  19763041.946    19763042.148    19763049.009
        51.800          48.400
 119636945.292 7  93223593.89347  22766157.240    22766156.7934   22766161.7284
        46.400          43.7004
 104710325.559 8  81441408.401 8  19601987.196    19601987.285    19601994.166
        52.800          48.900
 141704201.087 6                  26965412.696
        37.300
 135324430.553 6 105447697.31545  25751367.487    25751366.9154   25751380.9244
        40.500          30.7004
 111995928.910 7  87269557.91546  21312116.187    21312115.8124   21312116.6674
        47.700          38.1004
 105355741.595 8  82095384.45648  20048530.588    20048530.0794   20048529.8984
        50.700          51.6004
 125715292.434 6  97959996.14445  23922821.346    23922820.3634   23922825.5474
        39.500          33.3004
 131430686.658 6 102223910.174 6  24560966.574    24560966.646    24560973.856
        41.700          36.600
 130800119.400 6 101922166.13343  24890443.947    24890442.7184   24890446.8654
        38.800          22.6004
 25  1  1 14 21  0.0000000  0 33G10G26E19E10R04S31S35G21G03R06S48S33
                                E27E11E29E04G16R22E21G04R15E33R14R05
                                G32R16E12G29G28G31G25R21G02
 132484206.658 6 103234406.50944  25210945.483    25210944.8534   25210961.3004
        37.600          28.3004
 109493383.965 8  85319547.13448  20835894.781    20835894.1294   20835898.9544
        48.300          48.8004
 121973430.450 7                  23210770.754
        44.400
 141076385.850 6                  26845940.951
        41.600
 123821217.178 7  96305394.945 6  23122771.926    23122772.185    23122790.077
        44.200          41.400
 198980699.478 7                  37864767.362
        45.600
 200940048.732 7                  38237631.740
        44.200
 133920923.147 5 104353949.81242  25484318.861    25484317.6184   25484324.3284
        33.700          14.5004
 111015812.868 8  86505844.08048  21125602.495    21125602.2324   21125604.8374
        48.700          48.7004
 111450748.833 6                  20885821.232    20885821.210
        38.000
 412712170.835 5                  78536505.859
        32.900
 202101384.362 7                  38458591.647
        44.900
 133403208.922 7                  25385783.379
        45.800
 143945716.648 5                  27391958.010
        35.300
 128829333.490 7                  24515405.022
        46.000
 141967030.515 6                  27015430.874
        40.800
 120896050.025 7  94204765.36944  23005744.177    23005743.2614   23005748.3554
        42.000          26.6004
 128532685.023 7  99969877.801 6  24078501.269    24078501.396    24078506.930
        44.600          38.000
 129010087.021 7                  24549796.886
        46.500
 124938988.088 6  97355057.76444  23775100.592    23775100.1994   23775102.2504
        40.800          24.8004
 106803082.857 8  83069113.533 8  19986735.132    19986735.110    19986741.421
        52.500          48.000
 147819212.816 6                  28129086.971
        36.700
 128633527.645 7 100048342.616 7  24131317.548    24131317.530    24131324.569
        45.000          42.700
 105661025.275 8  82180803.985 8  19766077.513    19766077.548    19766084.548
        52.100          48.400
 119669526.191 7  93248981.52147  22772357.032    22772356.5764   22772361.7674
        46.300          43.6004
 104679689.856 8  81417580.623 8  19596251.978    19596252.411    19596259.154
        52.700          48.800
 141734742.282 6                  26971224.598
        37.400
 135297726.017 6 105426889.02445  25746285.193    25746284.6124   25746298.5544
        40.600          30.3004
 112025659.680 7  87292724.77346  21317773.920    21317773.5544   21317774.2534
        47.400          38.0004
 105364212.836 8  82101985.41548  20050142.714    20050142.2004   20050141.9364
        50.600          51.5004
 125763265.415 6  97997377.60245  23931951.178    23931950.2044   23931954.1454
        38.800          33.2004
 131477792.452 7 102260547.994 6  24569769.112    24569769.433    24569776.374
        42.500          36.100
 130833331.721 6 101948045.73643  24896764.427    24896763.2074   24896767.3204
        39.100          21.9004
 25  1  1 14 21 15.0000000  0 33G10G26E19E10R04S31S35G21G03R06S48S33
                                E27E11E29E04G16R22E21G04R15E33R14R05
                                G32R16E12G29G28G31G25R21G02
 132542842.698 6 103280096.63844  25222103.428    25222102.7984   25222119.7564
        38.200          28.1004
 109462396.517 8  85295401.08248  20829998.207    20829997.5554   20830002.1944
        48.500          48.9004
 121964530.203 7                  23209077.370
        44.400
 141093152.629 6                  26849131.879
        41.300
 123870622.796 7  96343821.188 6  23131999.406    23131999.164    23132015.678
        44.600          40.200
 198980703.202 7                  37864768.015
        45.500
 200940021.481 7                  38237623.906
        44.000
 133955869.220 5 104381180.25942  25490969.874    25490968.6184   25490974.6504
        33.000          13.2004
 110990208.074 8  86485892.26448  21120730.035    21120729.7764   21120732.4234
        49.000          48.8004
 111406478.715 6                  20877525.996    20877525.491
        38.400
 412712534.520 5                  78536516.703
        32.300
 202101407.055 7                  38458593.655
        44.900
 133417920.059 7                  25388583.051
        45.700
 143943695.918 5                  27391572.870
        35.400
 128847569.977 7                  24518875.307
        46.000
 141935202.713 6                  27009373.893
        41.600
 120838372.816 7  94159822.21744  22994768.627    22994767.6974   22994772.5744
        42.800          26.9004
 128546239.479 7  99980420.041 6  24081040.262    24081040.620    24081045.014
        44.300          37.900
 128982996.707 7                  24544641.529
        46.600
 124896283.962 6  97321781.79344  23766974.370    23766973.9864   23766976.3414
        41.400          25.1004
 106836890.993 8  83095408.697 8  19993061.780    19993061.955    19993068.252
        52.500          48.400
 147862035.030 6                  28137236.246
        36.800
 128696794.537 7 100097550.236 7  24143185.519    24143185.739    24143193.230
        44.200          42.200
 105677376.351 8  82193521.480 8  19769136.254    19769136.459    19769143.258
        51.600          48.400
 119702160.496 7  93274410.76147  22778567.200    22778566.7354   22778572.1094
        46.400          43.7004
 104649223.790 8  81393884.796 8  19590548.557    19590549.089    19590555.649
        52.800          48.700
 141765347.183 6                  26977049.043
        37.700
 135271092.264 6 105406135.88045  25741216.340    25741215.7644   25741230.5204
        40.100          30.5004
 112055447.599 8  87315936.13246  21323442.460    21323442.0984   21323442.7054
        48.100          38.1004
 105372788.144 8  82108667.48048  20051774.523    20051774.0054   20051773.7574
        50.400          51.6004
 125811320.035 6  98034822.74545  23941095.695    23941094.7344   23941098.9314
        39.700          33.6004
 131524943.682 6 102297221.211 5  24578579.775    24578580.573    24578587.586
        40.800          35.700
 130866570.394 6 101973945.83943  24903089.727    24903088.5074   24903092.6054
        39.400          22.2004
 25  1  1 14 21 30.0000000  0 33G10G26E19E10R04S31S35G21G03R06S48S33
                                E27E11E29E04G16R22E21G04R15E33R14R05
                                G32R16E12G29G28G31G25R21G02
 132601487.515 6 103325793.57644  25233262.860    25233262.2264   25233280.1164
        36.900          27.2004
 109431541.522 8  85271358.24848  20824126.420    20824125.7594   20824130.6364
        48.500          48.9004
 121955663.289 7                  23207389.874
        44.500
 141110016.303 6                  26852340.852
        41.600
 123920094.404 7  96382298.743 6  23141238.060    23141238.032    23141255.427
        44.600          41.200
 198980708.828 7                  37864768.095
        45.400
 200939995.591 7                  38237620.570
        43.900
 133990798.766 5 104408397.80442  25497616.685    25497615.4384   25497621.7174
        34.500          14.4004
 110964737.735 8  86466045.23648  21115882.980    21115882.7124   21115885.5564
        49.000          48.9004
 111362266.286 6                  20869239.961    20869239.919
        38.500
 412712900.770 5                  78536533.503
        32.400
 202101431.938 7                  38458598.417
        44.700
 133432733.652 7                  25391402.202
        45.500
 143941784.679 5                  27391209.563
        34.900
 128865843.241 7                  24522352.676
        46.100
 141903373.659 6                  27003316.421
        41.000
 120780738.734 7  94114912.63644  22983800.271    22983799.3154   22983804.8024
        42.900          26.9004
 128559956.221 7  99991088.492 6  24083609.708    24083610.037    24083616.183
        43.600          38.400
 128955994.595 7                  24539503.107
        46.500
 124853583.046 6  97288508.32344  23758848.792    23758848.4174   23758850.3254
        41.400          24.8004
 106870850.804 8  83121821.888 8  19999416.905    19999417.065    19999423.336
        52.300          48.400
 147904832.630 6                  28145380.448
        36.900
 128760075.242 7 100146768.458 7  24155057.284    24155056.931    24155064.712
        44.300          42.300
 105693855.675 8  82206338.706 8  19772219.140    19772219.138    19772225.919
        52.000          48.500
 119734850.846 7  93299883.68047  22784788.042    22784787.5774   22784792.9634
        46.700          43.7004
 104618930.076 8  81370323.013 8  19584877.583    19584877.940    19584884.786
        52.200          48.800
 141796018.150 6                  26982885.325
        38.000
 135244532.301 6 105385440.25745  25736162.240    25736161.6734   25736176.1734
        39.200          30.4004
 112085295.107 7  87339193.90246  21329121.965    21329121.5994   21329122.5294
        47.700          38.1004
 105381469.894 8  82115432.45148  20053426.794    20053426.2854   20053425.8334
        50.100          51.5004
 125859458.414 6  98072333.20045  23950255.818    23950254.8844   23950259.5464
        39.800          33.0004
 131572142.365 6 102333931.279 6  24587400.379    24587400.200    24587408.174
        41.500          36.500
 130899837.752 6 101999868.31243  24909420.279    24909419.0594   24909423.6674
        39.500          22.3004
 25  1  1 14 21 45.0000000  0 33G10G26E19E10R04S31S35G21G03R06S48S33
                                E27E11E29E04G16R22E21G04R15E33R14R05
                                G32R16E12G29G28G31G25R21G02
 132660136.255 6 103371493.57944  25244424.600    25244423.9614   25244440.8534
        37.900          28.1004
 109400814.621 8  85247415.20948  20818279.378    20818278.7174   20818283.5074
        48.500          48.8004
 121946825.388 7                  23205708.118
        44.700
 141126972.220 6                  26855567.543
        41.300
 123969627.592 7  96420824.184 6  23150488.599    23150488.482    23150505.837
        44.500          41.000
 198980711.950 7                  37864770.921
        45.200
 200939967.063 7                  38237615.883
        43.700
 134025706.979 5 104435598.74242  25504258.535    25504257.2974   25504264.6034
        35.800          13.8004
 110939397.495 8  86446299.58448  21111061.081    21111060.8134   21111063.4344
        48.700          48.7004
 111318107.139 6                  20860964.909    20860964.994
        38.900
 412713264.492 5                  78536551.108
        32.100
 202101453.878 7                  38458602.630
        44.700
 133447645.278 7                  25394239.425
        46.000
 143939978.621 5                  27390866.215
        35.000
 128884148.771 7                  24525835.996
        46.300
 141871538.857 6                  26997259.314
        40.900
 120723143.640 7  94070033.43244  22972840.449    22972839.4614   22972844.5334
        42.900          27.0004
 128573830.493 7 100001879.494 6  24086209.442    24086209.615    24086214.236
        44.000          36.100
 128929076.272 7                  24534380.752
        46.700
 124810880.886 6  97255233.89644  23750722.787    23750722.4254   23750723.9694
        41.900          24.5004
 106904957.021 8  83148348.967 8  20005799.537    20005799.730    20005805.951
        52.900          48.500
 147947600.845 5                  28153519.228
        35.900
 128823365.554 7 100195994.288 7  24166931.127    24166930.806    24166937.733
        45.600          42.300
 105710458.482 8  82219251.994 8  19775324.731    19775325.020    19775331.988
        51.900          48.400
 119767592.648 7  93325396.68847  22791018.450    22791017.9684   22791023.5074
        46.700          43.7004
 104588804.315 8  81346891.836 8  19579238.192    19579238.384    19579245.082
        52.500          48.900
 141826750.437 6                  26988732.934
        37.900
 135218041.812 6 105364798.73645  25731120.741    25731120.1694   25731134.5934
        40.300          30.0004
 112115197.517 7  87362494.47346  21334812.295    21334811.9334   21334812.8124
        47.900          38.1004
 105390253.459 8  82122276.75948  20055098.307    20055097.8114   20055097.3174
        50.700          51.5004
 125907675.568 6  98109905.07445  23959430.890    23959429.9474   23959434.8374
        40.000          33.3004
 131619383.387 6 102370674.301 5  24596227.610    24596227.921    24596235.712
        41.000          35.600
 130933128.993 6 102025809.42643  24915755.781    24915754.5704   24915758.7804
        38.900          21.5004
 25  1  1 14 22  0.0000000  0 33G10G26E19E10R04S31S35G21G03R06S48S33
                                E27E11E29E04G16R22E21G04R15E33R14R05
                                G32R16E12G29G28G31G25R21G02
 132718792.433 6 103417199.38044  25255586.390    25255585.7604   25255602.9444
        38.400          29.0004
 109370219.989 8  85223575.23748  20812457.704    20812457.0434   20812461.5704
        48.200          48.9004
 121938020.125 7                  23204032.439
        44.500
 141144024.048 6                  26858812.180
        41.800
 124019225.696 7  96459400.106 6  23159749.955    23159750.630    23159767.623
        44.500          40.700
 198980716.147 7                  37864769.007
        45.100
 200939939.510 7                  38237610.991
        43.800
 134060597.729 5 104462786.09242  25510898.833    25510897.6044   25510904.4174
        34.300          14.0004
 110914191.465 8  86426658.49948  21106264.730    21106264.4764   21106266.9174
        48.700          48.7004
 111274005.507 6                  20852699.607    20852699.919
        38.800
 412713629.591 5                  78536576.229
        32.400
 202101476.876 7                  38458606.399
        44.500
 133462658.599 7                  25397096.564
        46.000
 143938281.450 5                  27390542.970
        35.800
 128902490.494 7                  24529326.318
        46.400
 141839702.181 6                  26991201.096
        41.400
 120665591.860 7  94025187.97444  22961888.739    22961887.7294   22961892.9124
        42.800          27.1004
 128587865.805 7 100012795.762 6  24088838.154    24088838.464    24088843.260
        42.400          37.300
 128902245.736 7                  24529274.876
        46.500
 124768181.362 7  97221961.53144  23742597.298    23742596.9364   23742598.5664
        42.300          24.9004
 106939213.169 8  83174992.627 8  20012209.576    20012210.029    20012216.438
        52.300          48.200
 147990343.188 6                  28161653.233
        36.000
 128886668.552 7 100245229.931 7  24178806.236    24178805.325    24178813.231
        44.700          42.400
 105727189.044 8  82232264.634 8  19778454.709    19778454.825    19778461.869
        51.800          48.300
 119800389.755 7  93350952.78247  22797259.850    22797259.3634   22797264.6404
        46.700          43.5004
 104558850.712 8  81323594.565 8  19573630.756    19573630.911    19573637.864
        52.600          48.700
 141857547.617 6                  26994594.471
        37.800
 135191625.172 6 105344214.74844  25726093.028    25726092.4434   25726107.3454
        39.100          29.7004
 112145158.379 7  87385840.56446  21340513.943    21340513.5904   21340514.2164
        47.800          37.9004
 105399142.575 8  82129203.32048  20056789.679    20056789.1834   20056788.8924
        50.400          51.4004
 125955974.724 6  98147540.64045  23968622.613    23968621.6744   23968626.0074
        39.400          32.9004
 131666670.040 6 102407452.813 6  24605064.299    24605065.322    24605072.438
        41.800          36.000
 130966447.508 6 102051771.78643  24922095.614    24922094.3544   24922098.8304
        39.400          21.6004
 25  1  1 14 22 15.0000000  0 33G10G26E19E10R04S31S35G21G03R06S48S33
                                E27E11E29E04G16R22E21G04R15E33R14R05
                                G32R16E12G29G28G31G25R21G02
 132777455.681 6 103462910.67644  25266749.874    25266749.2444   25266766.6184
        37.300          28.6004
 109339757.749 8  85199838.41948  20806660.741    20806660.0754   20806664.8144
        48.800          48.8004
 121929247.507 7                  23202362.870
        44.500
 141161171.568 6                  26862075.334
        41.200
 124068888.783 7  96498026.595 6  23169026.275    23169026.010    23169042.832
        45.000          41.100
 198980720.886 7                  37864769.204
        45.400
 200939913.072 7                  38237607.267
        44.000
 134095470.262 5 104489959.23642  25517534.747    25517533.4644   25517540.9534
        35.000          13.9004
 110889119.965 8  86407122.29948  21101493.899    21101493.6454   21101495.9554
        48.800          48.6004
 111229961.751 6                  20844446.256    20844446.476
        38.700
 412713995.137 5                  78536592.841
        32.900
 202101501.489 7                  38458613.505
        44.700
 133477773.417 7                  25399972.675
        45.900
 143936693.108 5                  27390240.707
        34.800
 128920868.329 7                  24532823.583
        46.100
 141807863.507 6                  26985142.117
        40.800
 120608083.645 7  93980376.46344  22950945.164    22950944.1634   22950949.3494
        42.800          27.0004
 128602062.074 7 100023837.170 6  24091498.605    24091499.075    24091504.671
        44.200          38.100
 128875503.100 7                  24524186.220
        46.600
 124725484.493 7  97188691.23144  23734472.283    23734471.9214   23734473.9054
        42.300          24.9004
 106973618.456 8  83201752.278 8  20018648.904    20018648.759    20018655.033
        52.200          48.500
 148033059.458 6                  28169781.490
        36.000
 128949984.147 7 100294475.511 7  24190684.248    24190684.696    24190691.059
        45.300          42.400
 105744046.918 8  82245376.294 8  19781608.517    19781608.624    19781615.495
        52.000          48.400
 119833242.090 7  93376551.90647  22803511.472    22803510.9904   22803516.3664
        46.200          43.3004
 104529069.485 8  81300431.395 8  19568055.363    19568055.974    19568062.547
        52.600          48.700
 141888409.332 6                  27000466.776
        37.400
 135165282.579 6 105323688.42044  25721080.674    25721080.0804   25721093.9764
        40.700          29.8004
 112175177.482 8  87409232.06046  21346226.157    21346225.8044   21346226.6604
        48.200          38.0004
 105408136.862 8  82136211.81848  20058501.263    20058500.7724   20058500.4774
        50.500          51.4004
 126004355.747 6  98185240.02545  23977829.088    23977828.1544   23977832.6574
        39.800          32.6004
 131714001.768 6 102444266.359 5  24613909.554    24613909.870    24613917.415
        40.900          35.800
 130999792.991 6 102077755.13343  24928441.847    24928440.5954   24928444.0574
        39.200          21.5004
 25  1  1 14 22 30.0000000  0 33G10G26E19E10R04S31S35G21G03R06S48S33
                                E27E11E29E04G16R22E21G04R15E33R14R05
                                G32R16E12G29G28G31G25R21G02
 132836124.602 6 103508626.39044  25277914.806    25277914.1804   25277930.9624
        37.000          26.1004
 109309427.083 8  85176204.12948  20800888.877    20800888.2074   20800893.0854
        48.600          48.8004
 121920506.754 7                  23200699.593
        44.300
 141178413.493 6                  26865356.237
        41.500
 124118615.384 7  96536702.497 6  23178311.112    23178310.529    23178329.502
        44.200          41.200
 198980726.038 7                  37864770.885
        45.700
 200939886.217 7                  38237600.421
        44.200
 134130323.357 5 104517117.22142  25524166.999    25524165.6984   25524173.7064
        35.400          13.8004
 110864181.925 8  86387690.08748  21096748.227    21096747.9824   21096750.3564
        49.200          48.6004
 111185975.016 6                  20836203.608    20836203.080
        38.600
 412712761.628 5                  78536610.889
        33.300
 202101525.086 7                  38458616.501
        45.100
 133492988.437 7                  25402868.283
        45.700
 143935212.281 5                  27389959.489
        34.700
 128939281.164 7                  24536327.290
        46.200
 141776021.752 6                  26979082.659
        40.900
 120550618.247 7  93935598.33144  22940010.330    22940009.3204   22940014.0864
        42.500          26.8004
 128616418.191 7 100035003.192 6  24094187.858    24094188.125    24094191.468
        43.800          37.000
 128848847.387 7                  24519113.800
        46.300
 124682789.248 6  97155422.19544  23726347.675    23726347.3224   23726349.7944
        41.900          25.0004
 107008171.676 8  83228626.963 8  20025114.634    20025115.078    20025121.111
        52.700          48.500
 148075748.128 5                  28177905.137
        35.900
 129013310.213 7 100343729.187 7  24202563.600    24202563.825    24202570.367
        45.500          42.400
 105761031.439 8  82258586.436 8  19784785.665    19784785.721    19784792.820
        51.700          48.400
 119866148.505 7  93402193.17247  22809773.442    22809772.9424   22809778.2034
        46.400          43.2004
 104499459.545 8  81277401.438 8  19562512.708    19562512.937    19562519.573
        52.800          48.700
 141919334.207 6                  27006351.385
        37.600
 135139013.211 6 105303219.15444  25716080.922    25716080.3144   25716094.4434
        39.200          29.4004
 112205253.472 7  87432667.89046  21351949.504    21351949.1564   21351949.9394
        47.700          37.9004
 105417235.008 8  82143301.26748  20060232.685    20060232.1944   20060231.8314
        50.700          51.3004
 126052817.343 6  98223002.32145  23987050.603    23987049.6604   23987054.4714
        39.700          32.5004
 131761376.688 6 102481113.458 6  24622763.994    24622763.370    24622770.436
        40.000          36.000
 131033163.873 6 102103758.30243  24934792.311    24934791.0514   24934794.7104
        39.200          21.3004
 25  1  1 14 22 45.0000000  0 33G10G26E19E10R04S31S35G21G03R06S48S33
                                E27E11E29E04G16R22E21G04R15E33R14R05
                                G32R16E12G29G28G31G25R21G02
 132894800.382 6 103554347.45344  25289080.327    25289079.6754   25289096.3094
        37.100          25.6004
 109279229.725 8  85152673.71648  20795142.545    20795141.8754   20795146.7244
        48.500          49.0004
 121911799.086 7                  23199042.576
        44.300
 141195751.153 6                  26868655.256
        41.200
 124168406.937 7  96575428.907 6  23187610.368    23187610.131    23187627.915
        44.100          41.300
 198980732.185 7                  37864774.516
        45.800
 200939860.879 7                  38237595.515
        44.100
 134165158.341 5 104544261.12842  25530796.360    25530795.0644   25530802.8824
        34.000          12.8004
 110839379.031 8  86368363.12648  21092028.007    21092027.7484   21092030.5404
        48.800          48.7004
 111142047.314 6                  20827971.030    20827971.328
        39.000
 412713129.644 5                  78536631.306
        33.000
 202101550.896 7                  38458621.352
        45.200
 133508305.108 7                  25405782.702
        45.800
 143933840.263 5                  27389698.173
        35.800
 128957730.558 7                  24539838.382
        46.200
 141744178.461 6                  26973022.981
        41.200
 120493197.665 7  93890855.11244  22929083.149    22929082.1304   22929087.1844
        43.000          27.1004
 128630934.461 7 100046293.558 6  24096906.397    24096907.216    24096913.050
        43.500          39.200
 128822280.231 7                  24514058.253
        46.400
 124640097.183 6  97122155.63844  23718223.863    23718223.5064   23718225.7684
        41.500          24.9004
 107042873.707 8  83255617.411 8  20031608.322    20031608.920    20031615.030
        52.500          48.400
 148118410.542 6                  28186023.546
        36.400
 129076648.185 7 100392992.082 7  24214444.671    24214445.481    24214452.877
        44.400          42.700
 105778143.903 8  82271896.119 8  19787986.992    19787987.260    19787994.081
        52.600          48.500
 119899110.487 7  93427877.74247  22816045.916    22816045.4204   22816050.7454
        46.600          43.3004
 104470022.446 8  81254505.929 8  19557001.898    19557002.154    19557008.893
        52.600          48.700
 141950323.428 6                  27012248.610
        37.900
 135112818.859 6 105282808.34445  25711096.720    25711096.1124   25711109.5404
        39.600          30.5004
 112235387.625 8  87456149.05746  21357684.000    21357683.6614   21357684.2724
        48.300          38.1004
 105426438.467 8  82150472.79648  20061983.901    20061983.4144   20061983.2184
        50.400          51.5004
 126101360.457 6  98260828.14145  23996288.111    23996287.1684   23996292.0524
        38.500          32.6004
 131808795.933 6 102517995.108 5  24631623.950    24631624.484    24631631.936
        40.600          35.100
 131066561.273 6 102129782.13843  24941147.548    24941146.2744   24941150.0934
        39.200          21.6004
