     2.11           OBSERVATION DATA    M (MIXED)           RINEX VERSION / TYPE
teqc  2019Feb25                         20260317 16:20:08UTCPGM / RUN BY / DATE
Linux 2.4.21-27.ELsmp|Opteron|gcc -static|Linux 64|=+       COMMENT
BIT 2 OF LLI FLAGS DATA COLLECTED UNDER A/S CONDITION       COMMENT
-Unknown-                                                   MARKER NAME
-Unknown-           -Unknown-                               OBSERVER / AGENCY
-Unknown-           -Unknown-           -Unknown-           REC # / TYPE / VERS
-Unknown-           -Unknown-                               ANT # / TYPE
        0.0000        0.0000        0.0000                  APPROX POSITION XYZ
        0.0000        0.0000        0.0000                  ANTENNA: DELTA H/E/N
     1     1                                                WAVELENGTH FACT L1/2
     7    L1    L2    C1    P1    P2    S1    S2            # / TYPES OF OBSERV
 SNR is mapped to RINEX snr flag value [0-9]                COMMENT
  L1 & L2: min(max(int(snr_dBHz/6), 0), 9)                  COMMENT
  2025     1     1     1     0    0.0000000     GPS         TIME OF FIRST OBS
    18                                                      LEAP SECONDS
                                                            END OF HEADER
 25  1  1  1  0  0.0000000  0 26E34R21R11S31S35R06G03G24S33G12G20E15
                                R22R05G11E02G06E36R23E27R13G17R12E30
                                G14G19
 122258312.348 8                  23264932.947
        48.700
 116258550.607 8  90423468.487 7  21725644.170    21725644.540    21725652.845
        49.300          45.500
 113692689.048 7  88427796.181 7  21275991.096    21275991.340    21275998.532
        47.800          46.200
 198981820.146 7                  37864984.182
        45.300
 200915863.356 7                  38233035.815
        44.200
 126551915.087 5                  23715769.715    23715769.943
        31.000
 123747850.407 6  96426996.42945  23548404.891    23548404.6194   23548410.1524
        40.400          35.9004
 121474277.273 7  94655421.74546  23115736.848    23115736.4914   23115743.1504
        42.200          38.6004
 202135839.489 7                  38465154.666
        44.800
 121327463.317 7  94540996.58946  23087811.508    23087810.8914   23087814.7364
        44.200          40.0004
 128923355.506 6 100459789.67243  24533289.361    24533288.0334   24533293.8654
        39.200          19.8004
 131842937.222 7                  25088846.616
        44.800
 103901771.108 8  80812627.274 8  19464258.896    19464259.212    19464264.308
        52.000          49.600
 128850745.959 7 100217268.185 6  24104197.519    24104197.877    24104204.255
        44.300          40.600
 115756582.101 7  90200027.61145  22027715.296    22027714.9344   22027717.2124
        46.400          34.9004
 130773037.057 7                  24885243.857
        45.500
 106115467.083 8  82687522.46048  20193061.541    20193061.1754   20193064.7244
        50.100          52.9004
 136473325.964 7                  25969968.567
        43.400
 115053639.753 7                  21508040.269    21508039.939
        47.000
 137698280.918 7                  26203067.509
        43.000
 116235239.716 7                  21767087.788    21767087.646
        43.900
 115376711.881 7  89904070.09747  21955406.945    21955406.3464   21955407.7794
        46.900          44.6004
 103214568.134 8  80278182.454 8  19321926.312    19321926.688    19321933.708
        52.100          48.600
 123803458.698 8                  23558965.410
        48.600
 119329622.613 7  92984223.52644  22707639.878    22707639.5614   22707642.7764
        42.700          29.3004
 106484404.981 8  82974992.20146  20263253.908    20263252.5224   20263252.5714
        48.500          40.7004
 25  1  1  1  0 15.0000000  0 26E34R21R11S31S35R06G03G24S33G12G20E15
                                R22R05G11E02G06E36R23E27R13G17R12E30
                                G14G19
 122261628.836 8                  23265564.243
        48.900
 116305759.149 8  90460186.251 7  21734466.958    21734467.199    21734474.887
        50.600          45.400
 113750118.341 7  88472463.372 7  21286737.846    21286737.946    21286746.117
        47.900          46.200
 198981827.795 7                  37864982.554
        45.200
 200915903.649 7                  38233037.751
        43.800
 126513220.158 5                  23708518.360    23708519.198
        32.500
 123775171.907 6  96448285.92446  23553604.017    23553603.7454   23553609.3844
        41.600          36.2004
 121494367.056 6  94671076.13846  23119559.886    23119559.5334   23119566.0174
        41.800          38.6004
 202135836.925 7                  38465151.187
        44.800
 121278728.002 7  94503021.12046  23078537.564    23078536.9564   23078540.4444
        45.000          40.2004
 128868920.370 6 100417372.72043  24522931.353    24522930.0484   24522934.4714
        39.500          20.5004
 131809468.712 7                  25082477.680
        45.200
 103906220.667 8  80816088.072 8  19465092.539    19465092.884    19465097.859
        52.100          49.600
 128857027.713 7 100222153.969 6  24105372.177    24105373.015    24105379.899
        43.300          40.600
 115717537.975 7  90169603.66245  22020285.357    22020285.0004   22020287.2494
        46.200          35.0004
 130804312.707 7                  24891195.279
        45.400
 106110819.227 8  82683900.78248  20192177.110    20192176.7574   20192180.2324
        50.300          53.0004
 136510233.277 7                  25976991.595
        43.200
 115016382.834 7                  21501075.229    21501075.333
        46.400
 137661671.117 7                  26196100.564
        43.200
 116182693.587 7                  21757247.907    21757247.742
        43.600
 115402427.045 7  89924107.89347  21960300.417    21960299.8144   21960301.1434
        46.700          44.6004
 103208967.549 8  80273826.461 8  19320877.975    19320878.240    19320885.175
        52.200          48.700
 123797903.139 8                  23557908.211
        48.800
 119378081.023 7  93021983.30544  22716860.675    22716860.3494   22716864.0494
        43.000          29.3004
 106490120.166 8  82979445.60546  20264341.310    20264339.9114   20264340.1504
        48.600          40.7004
 25  1  1  1  0 30.0000000  0 26E34R21R11S31S35R06G03G24S33G12G20E15
                                R22R05G11E02G06E36R23E27R13G17R12E30
                                G14G19
 122265029.962 8                  23266211.134
        49.000
 116352986.877 8  90496918.947 7  21743291.685    21743292.250    21743300.435
        50.000          45.400
 113807646.681 7  88517207.602 7  21297503.716    21297503.610    21297511.423
        47.900          46.200
 198981833.007 7                  37864987.379
        45.500
 200915941.318 7                  38233046.677
        44.200
 126474624.084 5                  23701285.461    23701286.863
        33.500
 123802624.844 6  96469677.82746  23558827.440    23558827.1594   23558833.7604
        41.000          36.3004
 121514575.212 7  94686822.76646  23123405.805    23123405.4524   23123411.4114
        42.500          38.6004
 202135832.165 7                  38465152.282
        45.400
 121230036.612 7  94465079.87546  23069271.696    23069271.0974   23069274.7864
        45.200          40.3004
 128814476.123 6 100374948.69243  24512570.479    24512569.1654   24512574.5084
        38.300          20.2004
 131776061.520 7                  25076120.509
        45.000
 103910782.682 8  80819636.329 8  19465947.225    19465947.478    19465952.556
        52.200          49.800
 128863483.305 7 100227174.931 6  24106580.600    24106581.332    24106588.462
        43.700          41.700
 115678579.658 7  90139246.58345  22012871.659    22012871.2934   22012873.7194
        46.400          35.0004
 130835646.455 7                  24897157.825
        45.700
 106106297.555 8  82680377.42548  20191316.512    20191316.1594   20191319.7584
        50.400          52.9004
 136547169.562 7                  25984020.449
        43.400
 114979215.903 7                  21494127.207    21494127.138
        46.400
 137625083.575 7                  26189138.204
        42.900
 116130247.529 7                  21747427.002    21747425.926
        43.700
 115428167.746 7  89944165.59547  21965198.796    21965198.2024   21965199.4164
        46.700          44.5004
 103203561.167 8  80269621.517 8  19319865.785    19319866.079    19319873.073
        52.100          48.800
 123792423.694 8                  23556865.364
        49.000
 119426601.344 7  93059791.31844  22726094.255    22726093.9384   22726096.9794
        42.900          29.1004
 106495897.628 8  82983947.53746  20265440.882    20265439.4784   20265439.5444
        48.100          40.7004
 25  1  1  1  0 45.0000000  0 26E34R21R11S31S35R06G03G24S33G12G20E15
                                R22R05G11E02G06E36R23E27R13G17R12E30
                                G14G19
 122268518.963 8                  23266875.175
        49.100
 116400237.199 8  90533669.197 7  21752121.462    21752122.108    21752130.405
        49.600          45.300
 113865276.970 8  88562031.127 7  21308288.532    21308288.689    21308296.520
        48.000          46.100
 198981840.032 7                  37864992.575
        45.400
 200915980.694 7                  38233054.207
        44.000
 126436130.974 5                  23694074.293    23694073.720
        31.200
 123830212.310 6  96491174.56445  23564077.638    23564077.3704   23564083.2394
        40.500          35.8004
 121534904.833 7  94702664.04446  23127274.093    23127273.7274   23127280.0044
        42.400          38.7004
 202135828.362 7                  38465148.388
        45.100
 121181392.804 7  94427175.70346  23060014.915    23060014.3074   23060018.0894
        44.600          40.4004
 128760026.390 6 100332520.38743  24502209.338    24502208.0424   24502213.2674
        39.500          19.9004
 131742719.021 7                  25069775.546
        45.100
 103915460.254 8  80823274.453 8  19466823.397    19466823.630    19466828.743
        52.100          49.900
 128870116.135 7 100232333.760 6  24107821.067    24107821.693    24107829.203
        43.500          41.200
 115639710.633 7  90108959.08445  22005475.213    22005474.8424   22005477.2264
        46.400          35.2004
 130867041.522 7                  24903132.091
        45.500
 106101905.292 8  82676954.90748  20190480.533    20190480.1714   20190483.9004
        50.400          53.0004
 136584137.935 7                  25991055.327
        43.800
 114942142.492 7                  21487196.868    21487196.794
        46.700
 137588521.789 7                  26182180.687
        43.200
 116077905.292 7                  21737624.686    21737623.356
        43.700
 115453937.423 7  89964245.86747  21970102.464    21970101.8704   21970103.2084
        47.000          44.5004
 103198352.419 8  80265570.280 8  19318890.928    19318891.109    19318897.977
        52.500          48.800
 123787023.801 8                  23555838.005
        48.900
 119475186.670 7  93097649.98244  22735339.206    22735338.8854   22735342.6894
        43.000          29.0004
 106501740.581 8  82988500.50346  20266552.861    20266551.4574   20266551.4174
        48.200          40.8004
 25  1  1  1  1  0.0000000  0 26E34R21R11S31S35R06G03G24S33G12G20E15
                                R22R05G11E02G06E36R23E27R13G17R12E30
                                G14G19
 122272095.310 8                  23267555.758
        49.200
 116447509.263 8  90570436.379 7  21760955.882    21760956.018    21760964.140
        50.200          45.300
 113923008.381 7  88606933.308 7  21319092.361    21319092.232    21319099.826
        47.600          46.200
 198981847.586 7                  37864984.951
        45.200
 200916020.538 7                  38233066.397
        43.900
 126397740.897 5                  23686878.255    23686879.018
        32.400
 123857933.715 6  96512775.67546  23569352.646    23569352.3784   23569358.4084
        40.600          36.0004
 121555355.204 6  94718599.41646  23131165.615    23131165.2494   23131171.5854
        41.800          38.8004
 202135825.414 7                  38465154.317
        45.000
 121132796.802 7  94389308.79246  23050767.234    23050766.6264   23050770.4114
        44.600          40.4004
 128705571.197 6 100290087.81743  24491846.677    24491845.3724   24491850.0944
        38.800          20.1004
 131709440.940 7                  25063442.852
        45.000
 103920252.877 8  80827002.084 8  19467720.746    19467721.487    19467726.516
        51.700          50.000
 128876925.696 7 100237630.033 6  24109095.982    24109096.052    24109102.113
        43.700          39.600
 115600930.677 7  90078740.97945  21998095.479    21998095.1084   21998097.6144
        46.000          35.2004
 130898497.529 7                  24909118.024
        46.000
 106097641.948 8  82673632.84748  20189669.264    20189668.8984   20189672.5874
        50.800          53.0004
 136621137.814 7                  25998096.012
        43.900
 114905162.011 7                  21480283.766    21480283.742
        47.100
 137551985.567 7                  26175228.122
        43.400
 116025667.016 7                  21727841.443    21727841.337
        43.900
 115479735.717 7  89984348.44347  21975011.665    21975011.0714   21975012.4684
        47.100          44.4004
 103193341.152 8  80261672.664 8  19317952.336    19317952.887    19317959.921
        52.400          49.000
 123781703.219 8                  23554825.350
        49.000
 119523836.452 7  93135558.87044  22744597.340    22744597.0054   22744600.3974
        42.600          28.9004
 106507648.616 8  82993104.18446  20267676.997    20267675.5934   20267675.6464
        48.200          40.8004
 25  1  1  1  1 15.0000000  0 26E34R21R11S31S35R06G03G24S33G12G20E15
                                R22R05G11E02G06E36R23E27R13G17R12E30
                                G14G19
 122275758.103 8                  23268252.728
        49.300
 116494802.072 8  90607219.693 7  21769793.444    21769793.733    21769801.940
        49.800          45.600
 113980839.715 8  88651913.208 7  21329914.544    21329915.223    21329922.222
        48.500          46.000
 198981854.048 7                  37864987.375
        45.600
 200916060.455 7                  38233072.634
        44.400
 126359453.451 5                  23679703.575    23679703.329
        32.900
 123885788.005 6  96534480.32645  23574653.360    23574653.0884   23574659.0824
        40.300          35.9004
 121575925.324 7  94734628.09746  23135080.046    23135079.6894   23135086.0214
        43.000          38.9004
 202135821.753 7                  38465147.350
        45.000
 121084247.982 7  94351478.64446  23041528.789    23041528.1774   23041531.8424
        44.900          40.5004
 128651109.917 6 100247650.53543  24481483.445    24481482.1674   24481486.7964
        39.000          20.5004
 131676226.557 7                  25057122.362
        45.200
 103925159.403 8  80830818.294 8  19468640.451    19468640.638    19468645.644
        52.200          50.100
 128883911.455 7 100243063.422 6  24110402.385    24110402.991    24110409.088
        44.300          41.000
 115562239.120 7  90048591.77045  21990733.053    21990732.6964   21990734.8504
        46.600          35.1004
 130930013.586 7                  24915115.398
        45.900
 106093506.660 8  82670410.56848  20188882.173    20188881.7984   20188885.6484
        50.500          53.0004
 136658168.208 7                  26005142.825
        44.000
 114868274.009 7                  21473386.452    21473387.337
        46.800
 137515474.252 7                  26168279.930
        43.400
 115973532.465 7                  21718078.005    21718077.925
        44.300
 115505561.655 7  90004472.55447  21979926.130    21979925.5314   21979926.9564
        46.900          44.4004
 103188526.713 8  80257928.116 8  19317051.354    19317051.533    19317058.602
        52.300          49.000
 123776461.213 8                  23553827.841
        49.200
 119572549.653 7  93173517.18944  22753866.926    22753866.5784   22753870.2144
        43.100          28.8004
 106513620.815 8  82997757.85646  20268813.495    20268812.0914   20268812.1044
        48.200          40.8004
 25  1  1  1  1 30.0000000  0 26E34R21R11S31S35R06G03G24S33G12G20E15
                                R22R05G11E02G06E36R23E27R13G17R12E30
                                G14G19
 122279505.879 8                  23268965.950
        49.400
 116542113.864 8  90644017.734 7  21778634.664    21778635.302    21778643.442
        50.600          45.600
 114038769.062 7  88696969.336 7  21340755.557    21340755.196    21340762.870
        47.800          45.900
 198981860.781 7                  37864983.641
        45.100
 200916098.974 7                  38233077.441
        44.100
 126321267.980 5                  23672547.839    23672547.517
        32.200
 123913773.588 6  96556287.28145  23579978.845    23579978.5684   23579984.3204
        41.300          35.7004
 121596613.492 7  94750748.76446  23139016.528    23139016.1574   23139022.7624
        42.600          38.8004
 202135817.551 7                  38465153.619
        45.000
 121035745.132 7  94313684.32746  23032298.950    23032298.3424   23032301.8774
        44.100          40.4004
 128596641.568 6 100205207.72843  24471118.582    24471117.2994   24471121.8964
        39.300          20.2004
 131643074.586 7                  25050813.656
        45.300
 103930178.221 8  80834721.824 8  19469580.558    19469580.806    19469585.986
        52.200          49.900
 128891071.692 7 100248632.547 6  24111741.244    24111741.701    24111749.385
        42.700          40.300
 115523634.802 7  90018510.52845  21983386.474    21983386.1124   21983388.6184
        46.200          35.1004
 130961588.278 7                  24921123.876
        45.800
 106089497.963 8  82667286.93148  20188119.389    20188119.0144   20188122.7894
        50.500          53.0004
 136695227.597 7                  26012194.819
        44.000
 114831476.985 7                  21466509.791    21466509.016
        46.900
 137478986.669 7                  26161336.545
        43.400
 115921500.514 7                  21708334.708    21708333.785
        44.100
 115531413.880 7  90024617.14847  21984845.808    21984845.2094   21984846.4694
        46.900          44.3004
 103183907.858 8  80254335.678 8  19316186.809    19316187.079    19316193.920
        52.700          48.800
 123771296.580 8                  23552844.964
        49.000
 119621324.738 7  93211523.71944  22763148.728    22763148.3664   22763152.1404
        42.200          28.9004
 106519655.949 8  83002460.57746  20269961.876    20269960.4774   20269960.5694
        48.400          40.8004
 25  1  1  1  1 45.0000000  0 26E34R21R11S31S35R06G03G24S33G12G20E15
                                R22R05G11E02G06E36R23E27R13G17R12E30
                                G14G19
 122283340.088 8                  23269695.583
        49.200
 116589446.097 8  90680831.681 7  21787479.446    21787479.764    21787488.499
        49.800          45.700
 114096797.634 8  88742102.638 7  21351614.923    21351615.023    21351622.416
        48.300          46.000
 198981867.207 7                  37864991.627
        45.800
 200916137.350 7                  38233086.662
        44.100
 126283186.298 5                  23665411.552    23665411.115
        31.900
 123941891.872 6  96578197.65145  23585329.359    23585329.0734   23585334.5894
        41.000          35.9004
 121617421.040 7  94766962.46046  23142976.220    23142975.8494   23142982.1204
        42.700          38.8004
 202135813.425 7                  38465142.659
        44.600
 120987290.322 7  94275927.44246  23023078.140    23023077.5464   23023081.1054
        45.300          40.6004
 128542168.039 6 100162760.87843  24460752.162    24460750.9154   24460755.9694
        39.400          20.4004
 131609986.704 7                  25044517.239
        45.100
 103935310.764 8  80838713.830 8  19470542.001    19470542.218    19470547.443
        52.200          50.000
 128898407.789 7 100254338.475 6  24113114.208    24113113.850    24113121.494
        43.300          41.000
 115485119.430 7  89988498.60545  21976057.292    21976056.9354   21976059.3614
        46.400          35.3004
 130993223.094 7                  24927143.806
        45.800
 106085617.332 8  82664263.08948  20187380.909    20187380.5294   20187384.3054
        50.700          53.0004
 136732317.343 7                  26019252.985
        43.800
 114794772.421 7                  21459647.456    21459647.602
        47.200
 137442524.602 7                  26154398.091
        43.500
 115869573.541 7                  21698610.156    21698609.697
        44.100
 115557293.974 7  90044783.46047  21989770.435    21989769.8364   21989771.2554
        46.800          44.3004
 103179486.185 8  80250896.631 8  19315358.930    19315359.346    19315366.214
        52.600          48.900
 123766211.012 8                  23551877.295
        48.800
 119670163.017 7  93249579.48144  22772442.482    22772442.1254   22772445.6604
        42.700          28.7004
 106525755.535 8  83007213.51646  20271122.471    20271121.0674   20271121.2724
        48.100          40.8004
 25  1  1  1  2  0.0000000  0 26E34R21R11S31S35R06G03G24S33G12G20E15
                                R22R05G11E02G06E36R23E27R13G17R12E30
                                G14G19
 122287258.661 8                  23270441.226
        49.100
 116636796.536 8  90717659.777 7  21796328.717    21796329.342    21796337.138
        50.600          45.500
 114154922.959 8  88787311.179 7  21362492.027    21362492.263    21362499.911
        48.600          45.900
 198981871.190 7                  37864992.132
        45.200
 200916174.438 7                  38233092.023
        44.000
 126245207.332 5                  23658291.497    23658293.853
        33.100
 123970140.601 6  96600209.65646  23590705.115    23590704.8434   23590710.5224
        41.000          36.2004
 121638345.721 7  94783267.42846  23146958.122    23146957.7474   23146964.0374
        43.000          39.2004
 202135807.091 7                  38465148.446
        45.100
 120938881.729 7  94238206.57046  23013866.009    23013865.4334   23013869.1284
        45.500          40.8004
 128487687.710 6 100120308.73743  24450384.942    24450383.7134   24450388.7354
        39.600          21.3004
 131576961.020 7                  25038232.739
        45.100
 103940554.764 8  80842792.512 8  19471524.136    19471524.580    19471529.751
        52.200          50.200
 128905918.171 7 100260179.906 6  24114517.900    24114518.686    24114526.330
        43.600          40.400
 115446691.193 7  89958554.57545  21968744.405    21968744.0434   21968746.7694
        46.600          35.5004
 131024916.054 7                  24933174.685
        45.400
 106081862.741 8  82661337.45848  20186666.435    20186666.0554   20186669.8034
        50.900          53.3004
 136769435.295 7                  26026316.384
        43.400
 114758158.496 7                  21452802.713    21452802.849
        46.800
 137406086.211 7                  26147463.782
        43.200
 115817749.914 7                  21688905.272    21688904.921
        44.600
 115583199.979 7  90064969.96147  21994700.171    21994699.5724   21994700.9824
        46.900          44.5004
 103175259.982 8  80247609.594 8  19314567.975    19314568.048    19314575.050
        52.800          48.900
 123761202.649 8                  23550924.303
        48.800
 119719062.356 7  93287682.82944  22781747.604    22781747.2474   22781750.9194
        42.700          29.0004
 106531917.795 8  83012015.29546  20272295.168    20272293.7554   20272293.8934
        48.600          41.1004
 25  1  1  1  2 15.0000000  0 26E34R21R11S31S35R06G03G24S33G12G20E15
                                R22R05G11E02G06E36R23E27R13G17R12E30
                                G14G19
 122291264.312 8                  23271203.294
        49.200
 116684167.500 8  90754503.870 7  21805180.931    21805181.277    21805189.489
        50.200          45.600
 114213147.504 8  88832596.914 7  21373387.530    21373388.216    21373395.819
        48.300          46.000
 198981876.812 7                  37864990.661
        45.200
 200916212.877 7                  38233100.850
        44.300
 126207334.166 5                  23651194.138    23651195.510
        32.100
 123998522.424 6  96622325.36445  23596105.672    23596105.3914   23596111.8484
        40.600          35.9004
 121659390.108 7  94799665.67146  23150962.756    23150962.3724   23150968.5504
        42.900          38.9004
 202135801.899 7                  38465149.765
        45.000
 120890522.507 7  94200524.16846  23004663.648    23004663.0724   23004666.4094
        45.000          40.6004
 128433203.918 6 100077853.91343  24440016.765    24440015.5674   24440020.6214
        39.400          20.6004
 131544000.459 7                  25031960.323
        45.200
 103945912.898 8  80846959.966 8  19472528.115    19472528.370    19472533.506
        52.300          50.100
 128913604.949 7 100266158.562 6  24115955.890    24115956.420    24115963.787
        43.700          39.900
 115408353.088 7  89928680.77345  21961449.003    21961448.6374   21961451.1784
        46.300          35.4004
 131056669.894 7                  24939217.323
        45.700
 106078236.885 8  82658512.14048  20185976.418    20185976.0344   20185979.7824
        50.400          53.0004
 136806584.089 7                  26033385.379
        43.700
 114721638.209 7                  21445975.695    21445975.835
        47.200
 137369674.539 7                  26140535.124
        43.400
 115766033.063 7                  21679219.966    21679219.632
        43.600
 115609134.663 7  90085178.81347  21999635.543    21999634.9444   21999636.1734
        47.100          44.2004
 103171232.324 8  80244477.001 8  19313813.854    19313814.061    19313820.947
        52.500          48.800
 123756274.459 8                  23549986.386
        49.000
 119768025.373 7  93325835.79244  22791064.928    22791064.5714   22791068.1044
        43.000          28.7004
 106538145.402 8  83016867.99646  20273480.360    20273478.9434   20273478.9584
        48.400          40.8004
 25  1  1  1  2 30.0000000  0 26E34R21R11S31S35R06G03G24S33G12G20E15
                                R22R05G11E02G06E36R23E27R13G17R12E30
                                G14G19
 122295356.010 8                  23271982.076
        49.000
 116731558.066 8  90791363.191 7  21814037.253    21814037.259    21814045.989
        50.100          45.700
 114271469.897 8  88877958.743 7  21384302.607    21384302.508    21384310.335
        48.300          46.100
 198981882.437 7                  37864997.038
        45.600
 200916250.966 7                  38233104.173
        43.800
 126169566.520 5                  23644119.127    23644118.903
        33.600
 124027036.136 6  96644543.85445  23601531.755    23601531.4654   23601537.4604
        41.400          35.7004
 121680552.995 7  94816156.24946  23154989.806    23154989.4174   23154995.6534
        42.700          38.8004
 202135796.265 7                  38465144.515
        44.800
 120842211.986 7  94162879.72246  22995470.323    22995469.7384   22995473.4054
        45.000          40.6004
 128378715.699 6 100035395.63243  24429648.369    24429647.1494   24429651.4874
        39.700          20.4004
 131511104.177 7                  25025700.426
        45.000
 103951383.965 8  80851215.263 8  19473552.698    19473553.225    19473558.401
        52.400          50.200
 128921467.913 7 100272274.237 6  24117427.482    24117427.776    24117435.550
        43.000          40.800
 115370104.320 7  89898876.59145  21954170.511    21954170.1494   21954172.5704
        46.500          35.2004
 131088483.650 7                  24945271.242
        45.400
 106074738.774 8  82655786.36348  20185310.954    20185310.5654   20185314.1014
        50.500          52.9004
 136843762.625 7                  26040460.219
        43.500
 114685210.592 7                  21439166.073    21439165.898
        47.400
 137333288.852 7                  26133610.851
        43.200
 115714422.725 7                  21669555.385    21669555.155
        44.600
 115635097.082 7  90105409.27447  22004575.892    22004575.2934   22004576.6724
        46.500          44.1004
 103167402.387 8  80241498.178 8  19313096.903    19313097.032    19313104.070
        52.500          48.800
 123751425.631 8                  23549063.490
        48.800
 119817050.908 6  93364037.47844  22800394.285    22800393.9324   22800397.5494
        41.600          28.5004
 106544437.271 8  83021770.76546  20274677.650    20274676.2294   20274676.2444
        48.100          40.7004
 25  1  1  1  2 45.0000000  0 26E34R21R11S31S35R06G03G24S33G12G20E15
                                R22R05G11E02G06E36R23E27R13G17R12E30
                                G14G19
 122299534.183 8                  23272777.074
        49.200
 116778968.342 8  90828237.842 7  21822896.553    21822896.786    21822905.270
        49.900          45.600
 114329890.266 8  88923396.791 7  21395234.185    21395235.107    21395242.222
        48.600          45.700
 198981888.436 7                  37864992.723
        45.300
 200916290.033 7                  38233112.365
        44.000
 126131905.492 5                  23637061.479    23637060.224
        32.200
 124055682.101 6  96666865.40046  23606982.767    23606982.4774   23606988.4804
        41.000          36.0004
 121701834.635 7  94832739.36346  23159039.364    23159038.9754   23159045.5704
        42.900          39.1004
 202135792.365 7                  38465141.233
        45.000
 120793951.097 7  94125273.94446  22986286.639    22986286.0634   22986289.2964
        45.200          40.7004
 128324224.067 6  99992934.68543  24419278.556    24419277.3454   24419281.8624
        39.300          20.9004
 131478272.793 7                  25019452.798
        45.400
 103956968.314 8  80855558.673 8  19474599.392    19474599.357    19474604.502
        52.300          50.200
 128929507.298 7 100278527.148 6  24118932.247    24118932.205    24118939.348
        44.400          40.300
 115331945.638 7  89869142.60245  21946909.000    21946908.6164   21946911.2104
        46.400          35.6004
 131120357.811 7                  24951336.767
        45.400
 106071368.844 8  82653160.46648  20184669.564    20184669.1674   20184672.7994
        50.800          53.1004
 136880971.247 7                  26047540.893
        43.300
 114648876.307 7                  21432373.683    21432373.526
        47.500
 137296929.831 7                  26126692.069
        43.100
 115662919.708 7                  21659910.197    21659909.454
        43.800
 115661087.837 7  90125661.81147  22009521.872    22009521.2734   22009522.5244
        46.400          44.2004
 103163770.824 8  80238673.648 8  19312416.997    19312417.265    19312424.155
        52.800          48.700
 123746656.837 8                  23548156.122
        48.900
 119866139.379 6  93402288.19544  22809735.653    22809735.2964   22809739.0014
        41.900          28.6004
 106550794.191 8  83026724.22546  20275887.046    20275885.6254   20275885.9254
        48.300          41.0004
 25  1  1  1  3  0.0000000  0 26E34R21R11S31S35R06G03G24S33G12G20E15
                                R22R05G11E02G06E36R23E27R13G17R12E30
                                G14G19
 122303794.764 8                  23273588.037
        49.100
 116826394.386 8  90865124.750 7  21831759.857    21831759.743    21831768.205
        49.900          45.300
 114388404.141 7  88968907.545 7  21406184.381    21406184.603    21406192.792
        47.800          45.900
 198981891.275 7                  37865001.058
        45.800
 200916325.607 7                  38233119.189
        44.200
 126094347.497 5                  23630022.152    23630023.464
        33.000
 124084456.089 6  96689286.70046  23612458.461    23612458.1664   23612464.1434
        41.600          36.0004
 121723230.773 7  94849411.70046  23163111.110    23163110.7174   23163117.0944
        42.200          39.0004
 202135784.924 7                  38465142.498
        45.200
 120745736.208 7  94087704.00846  22977111.507    22977110.9224   22977114.0814
        45.200          40.7004
 128269725.430 6  99950468.27743  24408907.482    24408906.2624   24408911.1094
        39.100          20.4004
 131445502.447 7                  25013216.688
        44.900
 103962661.684 8  80859986.865 8  19475665.512    19475666.004    19475671.064
        52.400          50.300
 128937719.098 7 100284914.203 6  24120467.075    24120467.353    24120474.331
        42.200          39.400
 115293873.188 7  89839475.81345  21939664.233    21939663.8494   21939666.3054
        46.200          35.4004
 131152288.344 7                  24957413.081
        45.400
 106068123.039 8  82650631.29148  20184051.750    20184051.3394   20184055.1114
        50.800          53.0004
 136918205.810 7                  26054626.322
        43.500
 114612631.349 7                  21425597.816    21425597.770
        47.600
 137260593.727 7                  26119777.471
        43.500
 115611520.821 7                  21650284.713    21650284.286
        44.600
 115687102.989 7  90145933.36847  22014472.259    22014471.6654   22014473.0264
        46.700          44.0004
 103160333.632 8  80236000.287 8  19311773.541    19311773.896    19311780.720
        52.600          48.700
 123741964.230 8                  23547263.175
        48.800
 119915286.541 6  93440584.64744  22819088.256    22819087.9124   22819091.4944
        41.800          28.4004
 106557212.165 8  83031725.26346  20277108.226    20277106.8004   20277107.1884
        48.300          40.7004
 25  1  1  1  3 15.0000000  0 26E34R21R11S31S35R06G03G24S33G12G20E15
                                R22R05G11E02G06E36R23E27R13G17R12E30
                                G14G19
 122308143.948 8                  23274415.584
        49.400
 116873841.973 8  90902028.424 7  21840625.983    21840626.608    21840635.218
        50.200          45.700
 114447017.508 8  89014495.689 7  21417153.708    21417154.187    21417161.562
        48.500          46.000
 198981897.610 7                  37865000.418
        45.600
 200916364.490 7                  38233124.693
        44.000
 126056899.437 5                  23623004.386    23623004.121
        32.500
 124113364.205 6  96711812.49445  23617959.593    23617959.2944   23617965.0794
        40.300          35.4004
 121744747.465 7  94866177.97546  23167205.952    23167205.5594   23167211.5894
        42.800          39.1004
 202135780.232 7                  38465141.913
        44.900
 120697573.969 7  94050175.10646  22967946.348    22967945.7634   22967949.2184
        45.000          40.9004
 128215226.396 6  99908001.56743  24398537.120    24398535.8824   24398540.5364
        39.500          21.2004
 131412799.508 7                  25006993.779
        45.300
 103968470.258 8  80864504.662 8  19476753.684    19476754.205    19476759.247
        52.500          50.200
 128946109.378 7 100291439.961 6  24122037.216    24122037.192    24122045.158
        43.300          40.600
 115255893.447 7  89809881.26145  21932436.845    21932436.4704   21932438.9424
        46.200          35.6004
 131184281.495 7                  24963500.711
        45.100
 106065007.590 8  82648203.69248  20183458.839    20183458.4154   20183462.2464
        50.600          53.1004
 136955472.434 7                  26061718.009
        43.800
 114576482.238 7                  21418840.086    21418840.352
        47.100
 137224287.000 7                  26112868.527
        44.000
 115560232.661 7                  21640680.046    21640680.122
        44.200
 115713148.840 7  90166228.84447  22019428.517    22019427.9184   22019429.3864
        46.200          44.1004
 103157097.454 8  80233483.281 8  19311167.797    19311167.987    19311174.900
        52.700          48.700
 123737354.233 8                  23546385.901
        48.900
 119964498.493 6  93478931.58044  22828452.398    22828452.0724   22828455.9884
        41.900          28.1004
 106563697.411 8  83036778.71646  20278342.483    20278341.0534   20278341.2934
        48.200          40.8004
 25  1  1  1  3 30.0000000  0 26E34R21R11S31S35R06G03G24S33G12G20E15
                                R22R05G11E02G06E36R23E27R13G17R12E30
                                G14G19
 122312577.782 8                  23275259.260
        49.500
 116921307.241 8  90938945.861 7  21849495.843    21849496.237    21849504.891
        49.800          45.600
 114505726.013 8  89060157.828 7  21428139.671    21428140.512    21428147.904
        48.200          45.500
 198981902.651 7                  37864998.388
        45.700
 200916401.996 7                  38233135.698
        44.300
 126019557.936 5                  23616005.849    23616006.135
        33.100
 124142402.386 6  96734439.65945  23623485.499    23623485.2044   23623490.7174
        41.200          35.7004
 121766380.613 7  94883034.99146  23171322.338    23171321.9414   23171328.3044
        43.000          39.2004
 202135774.683 7                  38465138.559
        45.000
 120649461.043 7  94012684.62946  22958790.649    22958790.0644   22958793.3614
        45.000          40.9004
 128160723.415 6  99865531.77843  24388165.321    24388164.0744   24388168.8404
        39.400          21.3004
 131380160.266 7                  25000782.410
        45.200
 103974389.943 8  80869108.867 8  19477862.860    19477862.980    19477868.281
        52.300          50.300
 128954674.287 7 100298101.497 6  24123639.500    24123640.121    24123646.916
        43.600          39.700
 115218002.748 7  89780356.09245  21925226.439    21925226.0684   21925228.5584
        46.500          35.7004
 131216333.381 7                  24969600.378
        45.400
 106062018.547 8  82645874.58848  20182890.116    20182889.6924   20182893.4194
        50.500          53.1004
 136992767.109 7                  26068814.742
        43.900
 114540425.006 7                  21412099.181    21412099.176
        47.200
 137188006.024 7                  26105964.227
        43.500
 115509051.963 7                  21631095.342    21631095.060
        43.800
 115739221.607 7  90186545.29047  22024390.227    22024389.6464   22024390.8754
        46.500          44.1004
 103154058.555 8  80231119.709 8  19310598.810    19310599.005    19310605.913
        52.400          48.700
 123732823.124 8                  23545523.605
        48.900
 120013771.227 7  93517325.88344  22837828.927    22837828.5884   22837832.2124
        42.000          28.4004
 106570246.274 8  83041881.74346  20279588.760    20279587.3344   20279587.4544
        48.100          40.8004
 25  1  1  1  3 45.0000000  0 26E34R21R11S31S35R06G03G24S33G12G20E15
                                R22R05G11E02G06E36R23E27R13G17R12E30
                                G14G19
 122317097.130 8                  23276119.293
        49.400
 116968790.747 8  90975877.465 7  21858369.261    21858370.011    21858378.285
        49.800          45.600
 114564530.281 8  89105894.449 7  21439144.437    21439144.933    21439152.326
        48.100          45.600
 198981907.635 7                  37864998.267
        45.600
 200916440.405 7                  38233144.936
        44.100
 125982324.592 5                  23609029.053    23609027.940
        31.800
 124171571.356 6  96757168.71845  23629036.141    23629035.8554   23629041.4814
        41.200          35.7004
 121788130.878 7  94899983.27046  23175460.968    23175460.5624   23175467.1974
        43.200          39.3004
 202135770.212 7                  38465138.407
        44.900
 120601398.756 7  93975233.61446  22949644.875    22949644.2904   22949647.3504
        45.000          41.0004
 128106217.970 6  99823060.06843  24377793.187    24377791.9404   24377796.7054
        40.100          21.1004
 131347585.739 7                  24994583.802
        45.200
 103980421.401 8  80873800.034 8  19478992.472    19478992.829    19478998.113
        52.100          50.100
 128963415.231 7 100304899.995 6  24125274.601    24125275.336    24125281.254
        43.200          38.600
 115180202.196 7  89750901.17045  21918033.474    21918033.0904   21918035.3184
        46.400          35.8004
 131248444.917 7                  24975710.760
        45.400
 106059156.796 8  82643644.67448  20182345.680    20182345.2514   20182348.8124
        50.500          53.1004
 137030090.591 7                  26075917.172
        43.400
 114504460.758 7                  21405376.535    21405375.832
        47.100
 137151751.954 7                  26099065.260
        43.600
 115457980.158 7                  21621531.450    21621531.073
        44.500
 115765322.223 7  90206883.43947  22029357.088    22029356.4944   22029357.6674
        46.800          44.0004
 103151218.004 8  80228910.407 8  19310067.283    19310067.293    19310074.184
        52.500          48.600
 123728372.009 8                  23544676.598
        48.800
 120063105.534 7  93555768.16444  22847217.034    22847216.7084   22847220.3744
        42.100          28.4004
 106576859.689 8  83047035.07246  20280847.308    20280845.8874   20280845.9114
        48.400          40.8004
 25  1  1  1  4  0.0000000  0 26E34R21R11S31S35R06G03G24S33G12G20E15
                                R22R05G11E02G06E36R23E27R13G17R12E30
                                G14G19
 122321703.040 8                  23276995.746
        49.500
 117016293.392 8  91012823.954 7  21867246.595    21867246.996    21867254.961
        49.700          45.300
 114623431.015 7  89151706.109 7  21450166.775    21450167.022    21450174.956
        47.300          45.300
 198981915.245 7                  37865004.420
        45.500
 200916479.992 7                  38233146.819
        44.000
 125945201.007 5                  23602071.712    23602071.897
        33.000
 124200872.059 6  96780000.43745  23634611.724    23634611.4384   23634617.1384
        41.000          35.7004
 121809999.163 7  94917023.51446  23179622.804    23179622.4024   23179628.5884
        42.800          39.3004
 202135766.619 7                  38465136.337
        45.000
 120553388.196 7  93937822.90646  22940508.430    22940507.8544   22940511.1814
        44.600          41.0004
 128051711.375 6  99780587.46543  24367420.854    24367419.6024   24367424.2584
        40.000          21.1004
 131315077.178 7                  24988397.492
        45.100
 103986565.654 8  80878578.914 8  19480143.431    19480143.847    19480149.211
        52.100          50.100
 128972332.960 7 100311836.088 6  24126943.215    24126943.573    24126950.528
        43.400          39.800
 115142493.097 7  89721517.50945  21910857.478    21910857.1124   21910859.4864
        46.200          35.9004
 131280617.189 7                  24981833.093
        45.500
 106056423.388 8  82641514.76948  20181825.508    20181825.0974   20181828.6504
        50.200          53.1004
 137067443.889 7                  26083025.307
        43.900
 114468590.572 7                  21398671.587    21398671.072
        47.500
 137115526.120 7                  26092171.317
        43.600
 115407018.822 7                  21611987.371    21611987.307
        43.700
 115791451.895 7  90227244.22947  22034329.324    22034328.7344   22034329.9684
        46.200          44.0004
 103148577.199 8  80226856.474 8  19309572.549    19309572.897    19309579.801
        52.500          48.600
 123724002.179 8                  23543845.086
        49.100
 120112502.319 7  93594259.12444  22856616.686    22856616.3734   22856620.3514
        42.100          28.3004
 106583538.847 8  83052239.63146  20282118.081    20282116.6514   20282116.8854
        48.400          40.9004
 25  1  1  1  4 15.0000000  0 26E34R21R11S31S35R06G03G24S33G12G20E15
                                R22R05G11E02G06E36R23E27R13G17R12E30
                                G14G19
 122326392.885 8                  23277888.252
        49.700
 117063812.362 8  91049783.145 7  21876126.139    21876126.587    21876135.680
        48.600          45.800
 114682425.198 8  89197590.435 7  21461206.564    21461207.177    21461214.824
        48.000          45.400
 198981920.529 7                  37865001.433
        45.600
 200916518.234 7                  38233152.104
        44.100
 125908185.274 5                  23595136.101    23595135.659
        32.800
 124230301.748 6  96802932.67845  23640211.819    23640211.5244   23640217.4794
        41.700          35.8004
 121831982.644 7  94934153.52246  23183806.093    23183805.6914   23183811.8044
        43.300          39.3004
 202135760.842 7                  38465137.517
        45.400
 120505427.175 7  93900450.79746  22931381.976    22931381.4094   22931384.4924
        45.300          41.0004
 127997201.450 6  99738112.26743  24357047.784    24357046.5284   24357051.7484
        39.900          21.4004
 131282632.184 7                  24982223.284
        45.500
 103992819.934 8  80883443.385 8  19481314.927    19481315.542    19481320.709
        52.000          50.000
 128981424.859 7 100318907.607 6  24128643.442    24128643.438    24128650.621
        42.900          39.200
 115104873.107 7  89692203.28445  21903698.567    21903698.2054   21903700.5984
        47.100          35.9004
 131312847.654 7                  24987966.249
        45.400
 106053815.724 8  82639482.84348  20181329.344    20181328.9334   20181332.3984
        50.100          53.1004
 137104824.325 7                  26090138.703
        44.000
 114432812.080 7                  21391981.948    21391982.106
        47.800
 137079326.167 7                  26085282.791
        44.000
 115356166.299 7                  21602465.125    21602464.129
        43.300
 115817607.955 7  90247625.57747  22039306.734    22039306.1534   22039307.2864
        46.600          44.0004
 103146133.723 8  80224956.011 8  19309115.349    19309115.589    19309122.314
        52.800          48.600
 123719711.212 8                  23543028.490
        49.200
 120161958.899 7  93632796.68044  22866028.071    22866027.7584   22866031.6904
        42.300          28.3004
 106590280.987 8  83057493.26346  20283401.164    20283399.7384   20283399.8564
        48.400          40.9004
 25  1  1  1  4 30.0000000  0 26E34R21R11S31S35R06G03G24S33G12G20E15
                                R22R05G11E02G06E36R23E27R13G17R12E30
                                G14G19
 122331165.941 8                  23278796.453
        49.600
 117111346.881 8  91086754.394 7  21885009.876    21885009.899    21885018.254
        49.500          45.700
 114741511.727 8  89243546.595 7  21472263.999    21472264.046    21472271.502
        48.000          45.400
 198981924.024 7                  37864999.193
        45.400
 200916554.721 7                  38233162.197
        44.100
 125871277.398 5                  23588219.274    23588219.593
        34.100
 124259859.581 6  96825964.76345  23645836.661    23645836.3714   23645842.1144
        40.700          35.6004
 121854080.461 7  94951372.61246  23188011.007    23188010.6014   23188016.9274
        42.900          39.4004
 202135754.879 7                  38465135.411
        45.300
 120457515.452 7  93863117.10846  22922264.536    22922263.9604   22922267.0464
        45.800          41.1004
 127942688.071 6  99695634.37443  24346674.281    24346673.0384   24346677.8034
        39.700          21.1004
 131250250.187 7                  24976061.215
        45.300
 103999183.348 8  80888392.720 8  19482507.343    19482507.489    19482512.683
        52.100          49.900
 128990690.253 7 100326114.043 6  24130378.027    24130378.105    24130384.274
        43.600          39.900
 115067341.775 7  89662958.14146  21896556.405    21896556.0344   21896558.5404
        47.000          36.0004
 131345135.594 7                  24994110.556
        45.400
 106051333.079 8  82637548.33648  20180856.812    20180856.4104   20180859.9544
        50.400          53.1004
 137142231.047 7                  26097256.944
        43.500
 114397124.478 7                  21385311.083    21385310.597
        46.900
 137043151.709 7                  26078398.889
        43.600
 115305422.315 7                  21592961.999    21592961.837
        43.800
 115843789.799 7  90268027.01947  22044288.649    22044288.0644   22044289.5244
        46.500          43.9004
 103143886.928 8  80223208.510 8  19308694.418    19308694.894    19308701.668
        52.700          48.400
 123715498.643 8                  23542226.755
        48.900
 120211474.398 7  93671380.14344  22875450.575    22875450.2454   22875454.0964
        42.000          28.1004
 106597085.694 8  83062795.64746  20284695.892    20284694.4624   20284694.7714
        48.700          40.8004
 25  1  1  1  4 45.0000000  0 26E34R21R11S31S35R06G03G24S33G12G20E15
                                R22R05G11E02G06E36R23E27R13G17R12E30
                                G14G19
 122336027.005 8                  23279721.377
        49.500
 117158901.658 8  91123741.445 7  21893896.649    21893896.950    21893905.233
        50.000          45.800
 114800695.187 7  89289578.155 7  21483339.140    21483339.343    21483347.416
        47.300          45.200
 198981931.700 7                  37865002.775
        45.300
 200916594.942 7                  38233168.095
        44.200
 125834482.484 5                  23581323.146    23581322.777
        33.200
 124289550.215 6  96849100.33045  23651486.684    23651486.3854   23651492.2414
        40.500          35.5004
 121876297.198 7  94968684.37846  23192238.473    23192238.0584   23192244.5874
        43.000          39.3004
 202135751.281 7                  38465135.880
        45.000
 120409658.351 7  93825825.96946  22913157.415    22913156.8344   22913159.9884
        45.600          41.1004
 127888176.429 6  99653157.84943  24336300.965    24336299.6964   24336305.3744
        40.400          21.8004
 131217936.190 7                  24969912.145
        45.100
 104005660.702 8  80893430.685 8  19483720.765    19483720.962    19483726.093
        52.300          49.900
 129000134.260 7 100333459.370 6  24132143.485    24132143.498    24132150.551
        42.700          39.400
 115029904.142 7  89633786.01246  21889431.737    21889431.3444   21889434.3784
        46.900          36.0004
 131377485.887 7                  25000266.617
        45.400
 106048980.260 8  82635714.99148  20180409.094    20180408.7014   20180412.2154
        50.500          53.1004
 137179668.798 7                  26104381.196
        43.600
 114361533.111 7                  21378657.387    21378657.118
        47.700
 137007007.834 7                  26071521.206
        43.600
 115254792.226 7                  21583480.475    21583480.329
        44.200
 115870002.353 7  90288452.39147  22049277.080    22049276.4994   22049277.6504
        46.500          43.9004
 103141841.954 8  80221617.992 8  19308311.640    19308311.958    19308318.813
        52.400          48.500
 123711369.473 8                  23541441.078
        48.800
 120261053.555 6  93710013.20844  22884885.179    22884884.8264   22884888.8404
        41.900          28.1004
 106603957.744 8  83068150.50446  20286003.598    20286002.1634   20286002.4524
        48.600          40.8004
 25  1  1  1  5  0.0000000  0 26E34R21R11S31S35R06G03G24S33G12G20E15
                                R22R05G11E02G06E36R23E27R13G17R12E30
                                G14G19
 122340969.170 8                  23280661.830
        49.500
 117206469.655 8  91160738.779 7  21902785.484    21902785.815    21902794.322
        49.100          45.500
 114859968.353 7  89335679.481 7  21494431.170    21494431.646    21494439.356
        47.500          45.300
 198981935.028 7                  37865005.024
        45.400
 200916631.219 7                  38233176.948
        44.300
 125797794.435 5                  23574448.703    23574448.511
        33.700
 124319366.615 6  96872333.89945  23657160.608    23657160.3184   23657165.9794
        41.000          35.6004
 121898625.847 7  94986083.34246  23196487.256    23196486.8504   23196493.4244
        42.100          39.3004
 202135744.504 7                  38465130.935
        44.900
 120361849.369 7  93788572.33046  22904059.543    22904058.9624   22904062.1094
        44.400          41.1004
 127833659.821 6  99610677.43743  24325926.516    24325925.2294   24325930.6064
        39.300          21.0004
 131185683.518 7                  24963774.674
        45.400
 104012244.831 8  80898551.698 8  19484954.216    19484954.343    19484959.470
        52.400          50.000
 129009749.577 7 100340937.979 6  24133941.646    24133942.154    24133949.543
        43.000          39.400
 114992553.577 7  89604681.72646  21882324.550    21882324.1444   21882326.8324
        46.800          36.1004
 131409891.668 7                  25006432.979
        45.200
 106046750.388 8  82633977.44748  20179984.730    20179984.3374   20179987.8534
        50.300          53.1004
 137217130.612 7                  26111509.745
        43.100
 114326030.864 7                  21372020.608    21372020.685
        47.700
 136970887.928 7                  26064647.705
        44.000
 115204269.733 7                  21574019.155    21574018.707
        44.000
 115896238.828 7  90308896.40247  22054269.297    22054268.7034   22054270.2614
        46.600          43.9004
 103139992.160 8  80220179.289 8  19307965.551    19307965.756    19307972.597
        52.400          48.500
 123707317.061 8                  23540669.942
        48.900
 120310689.373 6  93748690.43644  22894330.720    22894330.3634   22894334.4854
        41.700          28.1004
 106610890.394 8  83073552.58746  20287322.945    20287321.5104   20287321.6574
        48.500          40.9004
 25  1  1  1  5 15.0000000  0 26E34R21R11S31S35R06G03G24S33G12G20E15
                                R22R05G11E02G06E36R23E27R13G17R12E30
                                G14G19
 122345999.106 8                  23281619.105
        49.100
 117254057.393 8  91197751.434 7  21911678.676    21911679.130    21911686.863
        49.200          45.300
 114919337.502 7  89381855.451 7  21505541.717    21505541.808    21505549.768
        47.200          45.100
 198981941.546 7                  37865006.124
        45.400
 200916670.904 7                  38233180.423
        43.700
 125761220.444 5                  23567594.442    23567593.809
        31.600
 124349315.355 6  96895670.59845  23662859.625    23662859.3304   23662864.6604
        41.300          34.9004
 121921072.850 7  95003574.53346  23200759.508    23200759.1114   23200764.9194
        42.200          39.1004
 202135739.012 7                  38465133.063
        45.100
 120314095.671 7  93751361.77346  22894972.173    22894971.5924   22894974.8244
        45.200          41.0004
 127779145.563 6  99568198.84743  24315553.459    24315552.1904   24315556.7504
        40.000          21.5004
 131153498.996 7                  24957649.970
        44.900
 104018942.399 8  80903760.936 8  19486208.770    19486209.129    19486214.064
        52.600          49.900
 129019543.248 7 100348555.217 6  24135774.498    24135774.661    24135781.205
        43.200          39.100
 114955296.995 7  89575650.67945  21875235.025    21875234.6194   21875236.9814
        46.400          35.9004
 131442359.695 7                  25012611.857
        45.100
 106044650.150 8  82632340.92348  20179585.030    20179584.6464   20179588.1624
        49.800          52.8004
 137254623.102 7                  26118644.446
        42.900
 114290624.862 7                  21365401.266    21365401.454
        47.400
 136934798.968 7                  26057779.978
        43.300
 115153862.385 7                  21564579.334    21564579.277
        44.300
 115922506.108 7  90329364.41847  22059267.929    22059267.3304   22059268.7844
        46.200          43.6004
 103138344.371 8  80218897.689 8  19307657.216    19307657.219    19307663.948
        52.400          48.200
 123703348.289 8                  23539914.606
        48.300
 120360388.415 6  93787416.93244  22903788.048    22903787.6864   22903791.9004
        41.400          27.6004
 106617890.487 8  83079007.21946  20288654.938    20288653.5034   20288653.7094
        48.000          40.6004
 25  1  1  1  5 30.0000000  0 26E34R21R11S31S35R06G03G24S33G12G20E15
                                R22R05G11E02G06E36R23E27R13G17R12E30
                                G14G19
 122351113.467 8                  23282592.149
        49.300
 117301661.286 8  91234776.661 7  21920574.642    21920575.021    21920583.434
        49.200          45.700
 114978798.968 7  89428103.228 7  21516669.267    21516669.396    21516676.958
        47.500          44.900
 198981948.761 7                  37865006.652
        45.600
 200916710.159 7                  38233191.942
        44.400
 125724758.025 5                  23560761.897    23560761.635
        33.000
 124379392.951 6  96919107.70245  23668583.270    23668582.9894   23668588.4264
        40.900          35.3004
 121943634.718 7  95021155.22746  23205052.389    23205051.9924   23205058.4014
        42.800          39.3004
 202135736.004 7                  38465131.038
        45.000
 120266394.319 7  93714191.99846  22885894.865    22885894.2804   22885897.5474
        44.700          41.1004
 127724630.758 6  99525719.83743  24305179.199    24305177.9434   24305182.7964
        39.900          21.8004
 131121379.489 7                  24951537.932
        45.200
 104025749.897 8  80909055.679 8  19487484.093    19487484.253    19487489.429
        52.600          49.900
 129029511.830 7 100356308.494 6  24137639.097    24137639.699    24137646.891
        43.400          39.500
 114918131.328 7  89546690.46946  21868162.626    21868162.2204   21868164.5104
        46.500          36.1004
 131474886.637 7                  25018801.237
        44.900
 106042676.183 8  82630802.78548  20179209.342    20179208.9624   20179212.5054
        50.400          52.9004
 137292142.836 7                  26125784.211
        43.200
 114255311.765 7                  21358799.747    21358799.926
        47.500
 136898737.890 7                  26050917.618
        43.500
 115103567.352 7                  21555160.615    21555160.403
        44.200
 115948800.939 7  90349853.90147  22064271.734    22064271.1314   22064272.4494
        45.700          43.6004
 103136895.587 8  80217770.877 8  19307385.804    19307385.992    19307392.708
        52.800          48.500
 123699460.044 8                  23539174.557
        48.500
 120410147.224 6  93826190.00444  22913256.964    22913256.5934   22913260.6644
        41.500          27.7004
 106624954.774 8  83084511.87646  20289999.433    20289998.0074   20289997.9684
        48.200          40.7004
 25  1  1  1  5 45.0000000  0 26E34R21R11S31S35R06G03G24S33G12G20E15
                                R22R05G11E02G06E36R23E27R13G17R12E30
                                G14G19
 122356311.682 8                  23283581.411
        49.400
 117349280.720 8  91271813.987 7  21929473.240    21929473.286    21929482.025
        49.100          45.700
 115038351.848 7  89474422.086 7  21527813.634    21527813.909    21527821.235
        47.300          44.700
 198981954.948 7                  37865010.623
        45.400
 200916749.483 7                  38233199.669
        44.200
 125688406.902 5                  23553949.283    23553949.574
        34.000
 124409598.700 6  96942644.65745  23674331.050    23674330.7784   23674336.6704
        41.400          35.3004
 121966310.698 7  95038824.83746  23209367.291    23209366.9074   23209373.4814
        42.800          39.4004
 202135732.122 7                  38465130.532
        44.700
 120218745.126 7  93677062.87546  22876827.698    22876827.1134   22876830.0624
        44.700          41.2004
 127670115.402 6  99483240.40543  24294805.021    24294803.7564   24294808.8774
        39.400          21.8004
 131089324.621 7                  24945437.932
        45.400
 104032666.574 8  80914435.323 8  19488779.959    19488780.093    19488785.077
        52.500          49.800
 129039654.663 7 100364197.250 6  24139536.077    24139536.297    24139545.028
        42.800          39.700
 114881056.271 7  89517800.86446  21861107.368    21861106.9574   21861109.2744
        46.700          36.1004
 131507471.983 7                  25025002.253
        45.100
 106040827.941 8  82629362.61748  20178857.496    20178857.1164   20178860.7634
        50.100          53.0004
 137329689.194 7                  26132929.073
        43.500
 114220091.307 7                  21352215.985    21352215.752
        47.900
 136862704.418 7                  26044060.553
        43.600
 115053384.524 7                  21545762.792    21545762.215
        42.900
 115975122.818 7  90370364.46147  22069280.569    22069279.9664   22069281.3284
        46.100          43.6004
 103135645.307 8  80216798.445 8  19307151.651    19307151.957    19307158.691
        52.500          48.400
 123695652.011 8                  23538450.073
        48.600
 120459965.199 6  93865009.18644  22922737.039    22922736.6864   22922740.6824
        41.600          27.8004
 106632082.763 8  83090066.16546  20291355.779    20291354.3534   20291354.3634
        48.300          40.7004
 25  1  1  1  6  0.0000000  0 26E34R21R11S31S35R06G03G24S33G12G20E15
                                R22R05G11E02G06E36R23E27R13G17R12E30
                                G14G19
 122361594.792 8                  23284586.842
        49.200
 117396916.569 8  91308864.084 7  21938375.220    21938375.379    21938383.926
        49.300          45.700
 115097996.914 8  89520812.688 7  21538975.876    21538975.857    21538983.482
        48.200          45.000
 198981961.109 7                  37865011.964
        45.600
 200916788.946 7                  38233211.116
        44.200
 125652169.032 5                  23547158.374    23547158.141
        33.300
 124439933.500 6  96966282.17845  23680103.370    23680103.0934   23680109.1014
        41.400          35.2004
 121989101.637 7  95056584.02946  23213704.493    23213704.1044   23213710.6244
        43.300          39.3004
 202135727.917 7                  38465132.585
        45.000
 120171149.544 7  93639975.51746  22867770.185    22867769.5954   22867772.7154
        45.500          41.1004
 127615600.720 6  99440761.47943  24284431.724    24284430.4594   24284435.0664
        40.000          21.8004
 131057335.651 7                  24939350.644
        45.400
 104039693.477 8  80919900.729 8  19490095.893    19490096.373    19490101.438
        52.200          49.600
 129049973.321 7 100372222.829 6  24141467.344    24141467.457    24141474.663
        43.600          40.200
 114844073.148 7  89488982.89746  21854069.690    21854069.2704   21854071.6514
        47.100          36.0004
 131540116.840 7                  25031214.314
        44.700
 106039106.494 8  82628021.24948  20178529.981    20178529.6014   20178533.1724
        50.300          52.8004
 137367263.119 7                  26140078.971
        42.800
 114184964.418 7                  21345649.048    21345649.210
        47.500
 136826699.924 7                  26037209.200
        43.200
 115003315.819 7                  21536386.860    21536386.207
        44.100
 116001472.874 7  90390896.98247  22074295.027    22074294.4194   22074295.5964
        46.200          43.5004
 103134594.948 8  80215981.523 8  19306955.271    19306955.362    19306962.002
        52.600          48.400
 123691925.459 8                  23537741.001
        48.300
 120509843.223 7  93903875.15144  22932228.323    22932227.9524   22932231.9784
        42.100          27.5004
 106639275.679 8  83095671.05446  20292724.441    20292723.0154   20292723.1134
        48.300          40.6004
 25  1  1  1  6 15.0000000  0 26E34R21R11S31S35R06G03G24S33G12G20E15
                                R22R05G11E02G06E36R23E27R13G17R12E30
                                G14G19
 122366961.830 8                  23285607.989
        49.200
 117444567.685 8  91345926.057 7  21947280.046    21947280.070    21947289.108
        49.200          46.100
 115157732.795 7  89567273.907 7  21550154.327    21550154.372    21550162.311
        47.100          44.900
 198981968.512 7                  37865006.527
        45.500
 200916828.565 7                  38233212.149
        44.100
 125616043.866 5                  23540388.148    23540388.717
        33.200
 124470396.343 6  96990019.48545  23685900.857    23685900.5674   23685905.9744
        40.700          35.1004
 122012006.439 7  95074431.94246  23218062.855    23218062.4664   23218069.4194
        43.400          39.3004
 202135723.302 7                  38465129.723
        45.000
 120123607.079 7  93602929.55346  22858723.234    22858722.6354   22858725.7194
        45.500          41.2004
 127561086.164 6  99398282.66443  24274057.522    24274056.2534   24274061.2874
        39.800          21.4004
 131025411.789 7                  24933275.741
        45.500
 104046829.433 8  80925450.943 8  19491432.924    19491433.062    19491438.136
        52.100          49.700
 129060466.609 7 100380384.242 6  24143430.399    24143430.101    24143437.294
        43.500          39.200
 114807181.221 7  89460235.99446  21847049.180    21847048.7514   21847051.3784
        47.200          36.0004
 131572820.283 7                  25037437.461
        44.800
 106037510.859 8  82626777.91748  20178226.542    20178226.1624   20178229.5274
        50.400          52.8004
 137404863.611 7                  26147234.461
        42.700
 114149930.340 7                  21339099.885    21339100.063
        47.200
 136790723.742 7                  26030363.220
        43.600
 114953360.734 7                  21527031.743    21527031.483
        44.100
 116027850.382 7  90411450.89247  22079314.413    22079313.8014   22079315.0994
        45.800          43.5004
 103133743.619 8  80215319.400 8  19306795.551    19306795.922    19306802.692
        52.500          48.400
 123688279.624 8                  23537046.919
        48.400
 120559780.234 6  93942787.07044  22941731.558    22941731.1834   22941734.6734
        41.600          27.2004
 106646532.615 8  83101325.82546  20294105.600    20294104.1794   20294104.0264
        48.400          40.6004
 25  1  1  1  6 30.0000000  0 26E34R21R11S31S35R06G03G24S33G12G20E15
                                R22R05G11E02G06E36R23E27R13G17R12E30
                                G14G19
 122372410.283 8                  23286644.945
        49.200
 117492231.544 8  91382997.927 7  21956187.515    21956187.385    21956195.932
        48.900          45.800
 115217556.753 8  89613803.610 7  21561350.058    21561350.148    21561357.197
        48.300          44.800
 198981972.383 7                  37865009.862
        45.400
 200916865.349 7                  38233221.329
        43.700
 125580029.643 5                  23533639.402    23533639.532
        34.100
 124500984.496 6  97013854.43145  23691721.060    23691720.7794   23691726.4884
        41.400          35.1004
 122035022.380 7  95092366.45546  23222442.977    23222442.5884   23222449.1094
        43.800          39.3004
 202135718.492 7                  38465125.855
        45.000
 120076115.616 7  93565923.32746  22849685.768    22849685.1514   22849688.2524
        45.700          41.2004
 127506569.682 6  99355802.33743  24263683.466    24263682.1744   24263687.1494
        39.900          21.8004
 130993550.699 7                  24927212.788
        45.200
 104054071.759 8  80931083.882 8  19492789.705    19492789.985    19492794.875
        52.400          49.900
 129071132.032 7 100388679.502 6  24145425.317    24145425.612    24145432.854
        42.500          39.200
 114770378.234 7  89431558.39546  21840045.957    21840045.5374   21840047.9234
        47.100          36.1004
 131605579.858 7                  25043671.558
        44.800
 106036038.531 8  82625630.67048  20177946.104    20177945.7244   20177949.3174
        50.700          52.8004
 137442488.076 7                  26154393.920
        42.500
 114114986.730 7                  21332567.743    21332567.452
        47.400
 136754773.614 7                  26023522.059
        43.600
 114903517.184 7                  21517697.939    21517696.814
        44.200
 116054252.812 7  90432024.22147  22084338.536    22084337.9424   22084339.2624
        46.300          43.4004
 103133089.088 8  80214810.337 8  19306673.009    19306673.390    19306680.120
        52.800          48.200
 123684712.240 8                  23536368.163
        48.500
 120609773.641 7  93981742.94144  22951244.474    22951244.0994   22951248.4084
        42.000          27.4004
 106653851.418 8  83107028.80646  20295498.432    20295497.0244   20295496.7274
        48.500          40.6004
 25  1  1  1  6 45.0000000  0 26E34R21R11S31S35R06G03G24S33G12G20E15
                                R22R05G11E02G06E36R23E27R13G17R12E30
                                G14G19
 122377941.661 8                  23287697.453
        49.400
 117539909.439 8  91420080.716 7  21965097.025    21965097.549    21965105.358
        49.800          45.600
 115277469.828 7  89660402.659 7  21572561.845    21572561.910    21572568.833
        47.800          44.700
 198981974.963 7                  37865016.158
        45.400
 200916901.214 7                  38233226.431
        44.100
 125544128.447 5                  23526910.539    23526910.236
        32.700
 124531699.369 6  97037788.12345  23697566.319    23697566.0334   23697571.0784
        41.100          35.1004
 122058150.845 7  95110388.65646  23226844.057    23226843.6554   23226850.2504
        43.300          39.2004
 202135709.928 7                  38465127.273
        45.000
 120028677.211 7  93528958.44046  22840658.303    22840657.6824   22840660.9594
        45.500          41.3004
 127452053.359 6  99313322.14643  24253308.801    24253307.5094   24253313.2314
        40.600          22.2004
 130961754.126 7                  24921162.095
        45.300
 104061421.946 8  80936800.710 8  19494166.311    19494166.833    19494171.773
        52.300          49.800
 129081971.429 7 100397110.196 6  24147453.102    24147452.751    24147460.395
        43.300          38.900
 114733665.994 7  89402951.50646  21833059.750    21833059.3214   21833061.7054
        46.900          36.0004
 131638397.146 7                  25049916.362
        44.900
 106034691.059 8  82624580.71248  20177689.628    20177689.2354   20177692.8784
        50.600          52.8004
 137480137.969 7                  26161558.332
        42.700
 114080135.302 7                  21326051.713    21326052.226
        47.200
 136718851.413 7                  26016686.106
        43.600
 114853787.494 7                  21508384.934    21508384.173
        44.000
 116080681.803 7  90452618.24147  22089367.702    22089367.0944   22089368.5324
        46.000          43.3004
 103132633.118 8  80214455.713 8  19306587.897    19306587.947    19306594.690
        52.700          48.500
 123681225.085 8                  23535704.632
        48.500
 120659824.845 6  94020743.84244  22960769.416    22960769.0274   22960772.6954
        41.400          27.4004
 106661233.529 8  83112781.11546  20296902.822    20296901.4144   20296901.4784
        48.500          40.6004
 25  1  1  1  7  0.0000000  0 26E34R21R11S31S35R06G03G24S33G12G20E15
                                R22R05G11E02G06E36R23E27R13G17R12E30
                                G14G19
 122383557.755 8                  23288766.023
        49.400
 117587603.048 8  91457175.762 7  21974009.125    21974009.310    21974018.688
        48.900          46.000
 115337473.646 8  89707072.265 7  21583790.480    21583790.731    21583798.584
        48.000          45.200
 198981979.744 7                  37865011.723
        45.700
 200916938.563 7                  38233238.228
        44.500
 125508342.715 5                  23520204.724    23520204.238
        33.200
 124562542.633 6  97061821.85745  23703435.123    23703434.8284   23703440.1774
        41.100          34.9004
 122081393.410 7  95128499.75746  23231266.459    23231266.0534   23231273.2314
        43.300          39.2004
 202135703.229 7                  38465125.779
        45.200
 119981294.059 7  93492036.61746  22831641.610    22831640.9844   22831644.1464
        45.100          41.2004
 127397539.356 6  99270843.75443  24242935.817    24242934.5034   24242939.3394
        40.000          22.0004
 130930024.038 7                  24915123.901
        45.600
 104068881.637 8  80942602.718 8  19495564.175    19495564.377    19495569.141
        52.800          49.700
 129092986.367 7 100405677.345 6  24149514.484    24149514.893    24149521.902
        43.600          39.100
 114697046.545 7  89374416.92146  21826091.152    21826090.7194   21826093.1694
        47.200          36.0004
 131671273.958 7                  25056172.731
        44.900
 106033470.205 8  82623629.41848  20177457.349    20177456.9474   20177460.5334
        50.700          52.8004
 137517814.976 7                  26168728.170
        42.600
 114045377.846 7                  21319554.772    21319555.052
        47.900
 136682959.195 7                  26009856.059
        43.700
 114804174.298 7                  21499092.735    21499092.655
        43.800
 116107139.350 7  90473234.51347  22094402.664    22094402.0564   22094403.3024
        45.600          43.4004
 103132377.627 8  80214257.011 8  19306540.090    19306540.136    19306546.790
        52.700          48.400
 123677820.134 8                  23535056.493
        48.700
 120709935.570 6  94059791.12544  22970304.799    22970304.4284   22970308.3814
        41.000          27.2004
 106668680.804 8  83118584.19946  20298319.961    20298318.5534   20298318.6294
        48.400          40.6004
 25  1  1  1  7 15.0000000  0 26E34R21R11S31S35R06G03G24S33G12G20E15
                                R22R05G11E02G06E36R23E27R13G17R12E30
                                G14G19
 122389261.997 8                  23289851.587
        49.500
 117635315.846 8  91494285.693 7  21982926.570    21982926.695    21982934.598
        49.800          46.000
 115397571.285 7  89753814.851 7  21595036.631    21595037.363    21595044.715
        47.900          44.700
 198981988.351 7                  37865014.553
        45.600
 200916980.473 7                  38233239.895
        44.000
 125472676.484 5                  23513520.858    23513521.849
        34.100
 124593517.571 6  97085958.19545  23709329.092    23709328.8114   23709334.4154
        41.700          35.1004
 122104753.375 7  95146702.34346  23235712.442    23235712.0404   23235718.4754
        42.900          39.1004
 202135701.949 7                  38465127.693
        45.200
 119933969.984 7  93455160.82046  22822636.064    22822635.4434   22822638.5854
        45.500          41.4004
 127343031.516 6  99228370.14943  24232562.580    24232561.2524   24232566.5884
        39.700          21.7004
 130898364.074 7                  24909099.344
        45.700
 104076454.214 8  80948492.515 8  19496982.427    19496982.954    19496987.759
        52.700          49.900
 129104180.192 7 100414383.612 6  24151607.210    24151607.246    24151615.619
        42.100          38.700
 114660523.563 7  89345957.51146  21819141.091    21819140.6584   21819142.9714
        47.100          36.0004
 131704213.803 7                  25062441.117
        45.000
 106032379.437 8  82622779.49048  20177249.610    20177249.1904   20177252.9334
        51.000          52.8004
 137555522.528 7                  26175903.670
        42.600
 114010718.305 7                  21313074.970    21313075.050
        47.200
 136647100.702 7                  26003032.390
        43.700
 114754681.579 7                  21489825.161    21489824.829
        44.100
 116133628.871 7  90493875.70947  22099443.481    22099442.8784   22099444.0994
        46.000          43.3004
 103132326.555 8  80214217.304 8  19306530.071    19306530.549    19306537.341
        52.700          48.400
 123674501.068 8                  23534425.092
        48.600
 120760109.137 6  94098887.37544  22979852.637    22979852.2664   22979856.1414
        40.900          27.1004
 106676196.765 8  83124440.80346  20299750.337    20299748.9294   20299748.8784
        48.900          40.6004
 25  1  1  1  7 30.0000000  0 26E34R21R11S31S35R06G03G24S33G12G20E15
                                R22R05G11E02G06E36R23E27R13G17R12E30
                                G14G19
 122395046.279 8                  23290952.296
        49.600
 117683039.227 8  91531403.878 7  21991844.071    21991844.546    21991852.941
        49.700          45.800
 115457754.299 8  89800623.824 7  21606299.676    21606300.128    21606306.966
        48.300          44.600
 198981993.413 7                  37865017.580
        45.800
 200917018.753 7                  38233248.047
        44.200
 125437122.360 5                  23506859.445    23506858.662
        34.000
 124624615.964 7  97110190.73545  23715247.460    23715247.2014   23715252.4774
        42.100          35.2004
 122128222.374 7  95164989.89446  23240178.383    23240177.9814   23240184.3704
        42.500          39.0004
 202135696.403 7                  38465125.716
        45.400
 119886697.285 7  93418325.05646  22813640.269    22813639.6434   22813642.8564
        45.600          41.5004
 127288522.489 6  99185895.62943  24222190.104    24222188.7854   24222193.8814
        39.100          22.0004
 130866766.299 7                  24903086.326
        45.400
 104084131.333 8  80954463.631 8  19498420.564    19498420.925    19498425.896
        52.400          50.100
 129115545.006 7 100423222.925 6  24153734.790    24153733.923    24153741.173
        42.900          38.900
 114624089.209 7  89317567.15546  21812207.635    21812207.1934   21812209.7074
        47.000          36.0004
 131737208.606 7                  25068719.671
        45.300
 106031410.616 8  82622024.58848  20177065.205    20177064.7674   20177068.5504
        50.800          52.8004
 137593252.428 7                  26183083.645
        42.800
 113976148.355 7                  21306613.082    21306612.817
        47.200
 136611268.149 7                  25996213.625
        43.700
 114705301.808 7                  21480577.032    21480577.276
        44.100
 116160142.507 7  90514535.69347  22104488.610    22104488.0024   22104489.4444
        45.800          43.3004
 103132471.695 8  80214330.208 8  19306557.375    19306557.598    19306564.430
        52.300          48.400
 123671260.013 8                  23533808.316
        48.700
 120810337.361 6  94138026.21244  22989411.339    22989410.9864   22989414.4984
        40.800          26.9004
 106683773.498 8  83130344.76046  20301191.908    20301190.4914   20301190.6184
        48.700          40.6004
 25  1  1  1  7 45.0000000  0 26E34R21R11S31S35R06G03G24S33G12G20E15
                                R22R05G11E02G06E36R23E27R13G17R12E30
                                G14G19
 122400911.049 8                  23292068.394
        49.600
 117730773.633 8  91568530.632 7  22000764.124    22000764.450    22000773.578
        49.500          46.000
 115518022.676 7  89847499.223 7  21617578.192    21617577.815    21617585.284
        46.900          44.500
 198981995.845 7                  37865014.808
        45.500
 200917053.776 7                  38233257.402
        43.900
 125401681.264 5                  23500216.458    23500217.301
        34.500
 124655838.100 6  97134519.69545  23721188.597    23721188.3114   23721194.0164
        41.300          35.3004
 122151800.753 7  95183362.67946  23244664.918    23244664.5034   23244670.9944
        43.200          39.1004
 202135688.315 7                  38465128.806
        45.200
 119839476.924 7  93381530.07346  22804654.236    22804653.6154   22804656.9254
        45.800          41.6004
 127234012.954 6  99143420.72443  24211817.277    24211815.9904   24211820.8754
        39.700          21.8004
 130835231.372 7                  24897085.732
        45.500
 104091913.367 8  80960516.338 8  19499878.599    19499878.808    19499883.895
        52.300          50.000
 129127081.221 7 100432195.578 6  24155891.736    24155891.458    24155899.729
        43.300          39.500
 114587744.209 7  89289246.42846  21805291.706    21805291.2644   21805293.4484
        46.800          36.1004
 131770258.880 7                  25075008.589
        45.100
 106030564.230 8  82621365.08548  20176904.117    20176903.6664   20176907.4654
        50.800          52.9004
 137631005.022 7                  26190267.194
        42.100
 113941668.710 7                  21300166.993    21300167.255
        47.500
 136575462.294 7                  25989399.951
        44.100
 114656035.846 7                  21471351.096    21471351.228
        44.500
 116186680.711 7  90535214.81847  22109538.655    22109538.0474   22109539.4584
        46.200          43.4004
 103132813.644 8  80214596.186 8  19306621.478    19306621.757    19306628.428
        52.600          48.500
 123668097.647 8                  23533206.511
        48.400
 120860620.567 6  94177207.89644  22998979.509    22998979.1384   22998983.0594
        41.700          27.0004
 106691411.505 8  83136296.46646  20302645.637    20302644.2204   20302644.0704
        48.600          40.7004
 25  1  1  1  8  0.0000000  0 27E34R21R11S31S35R06G03G24S33G12G20E15
                                R22R05G11E02G06E36R23E27R13G17R07R12
                                E30G14G19
 122406861.079 8                  23293200.571
        49.700
 117778524.040 8  91605669.832 7  22009688.497    22009688.234    22009696.499
        49.800          45.800
 115578381.017 7  89894444.559 7  21628873.580    21628873.500    21628880.723
        47.900          44.700
 198982000.702 7                  37865018.931
        45.500
 200917091.387 7                  38233263.273
        44.200
 125366358.750 5                  23493596.317    23493596.577
        33.000
 124687188.659 6  97158948.71545  23727154.508    23727154.2184   23727160.0064
        41.300          35.0004
 122175493.076 7  95201824.23946  23249173.864    23249173.4534   23249179.4814
        42.400          39.0004
 202135682.110 7                  38465117.641
        44.800
 119792314.386 7  93344780.14746  22795679.557    22795678.9404   22795681.9854
        45.300          41.5004
 127179508.080 6  99100949.43943  24201445.767    24201444.4934   24201449.4294
        39.700          22.2004
 130803764.263 7                  24891097.449
        45.500
 104099805.033 8  80966654.315 8  19501356.837    19501357.274    19501362.209
        52.500          50.100
 129138793.516 6 100441305.061 6  24158083.254    24158083.381    24158091.034
        41.900          38.900
 114551493.572 7  89260999.23746  21798393.301    21798392.8684   21798395.1484
        46.900          36.1004
 131803369.429 7                  25081309.749
        45.000
 106029845.038 8  82620804.69648  20176767.303    20176766.8474   20176770.5844
        50.600          52.9004
 137668785.104 7                  26197456.936
        42.300
 113907284.035 7                  21293738.969    21293739.119
        47.600
 136539688.188 7                  25982592.101
        43.700
 114606889.422 7                  21462147.534    21462147.596
        44.700
 116213248.493 7  90555916.99347  22114594.456    22114593.8534   22114595.1154
        45.600          43.3004
 132109969.824 6 102752247.280 6  24679250.645    24679251.650    24679264.005
        41.200          38.600
 103133357.615 8  80215019.288 8  19306722.955    19306723.504    19306730.261
        52.200          48.400
 123665018.976 8                  23532620.691
        48.700
 120910963.460 6  94216436.09544  23008559.307    23008558.9234   23008562.9384
        40.900          26.9004
 106699115.927 8  83142299.92546  20304111.729    20304110.3124   20304110.1584
        48.500          40.6004
 25  1  1  1  8 15.0000000  0 27E34R21R11S31S35R06G03G24S33G12G20E15
                                R22R05G11E02G06E36R23E27R13G17R07R12
                                E30G14G19
 122412896.702 8                  23294349.212
        49.700
 117826290.424 8  91642821.433 7  22018613.988    22018614.237    22018622.971
        49.300          46.100
 115638829.223 7  89941459.822 7  21640184.907    21640185.332    21640192.734
        47.300          44.300
 198982007.639 7                  37865016.114
        45.400
 200917131.604 7                  38233272.288
        43.800
 125331155.768 5                  23486999.651    23487000.115
        33.400
 124718667.825 6  97183477.96145  23733144.897    23733144.6074   23733150.2724
        41.600          35.1004
 122199299.514 7  95220374.73046  23253703.780    23253703.3694   23253709.5574
        43.400          38.8004
 202135679.061 7                  38465120.731
        44.700
 119745210.129 7  93308075.62846  22786716.225    22786715.6224   22786718.2334
        45.600          41.5004
 127125008.708 6  99058482.43643  24191074.475    24191073.1924   24191078.8514
        39.800          21.5004
 130772365.504 7                  24885122.306
        45.600
 104107806.521 8  80972877.708 8  19502855.666    19502856.109    19502861.146
        52.300          49.900
 129150682.408 7 100450551.887 6  24160307.034    24160307.731    24160314.472
        43.800          38.200
 114515337.910 7  89232826.04645  21791513.092    21791512.6684   21791514.7964
        47.000          35.8004
 131836540.688 7                  25087621.920
        44.800
 106029253.403 8  82620343.70548  20176654.713    20176654.2574   20176657.9754
        50.700          52.7004
 137706592.907 7                  26204651.414
        42.600
 113872995.276 7                  21287329.392    21287329.518
        47.500
 136503946.487 7                  25975790.976
        43.800
 114557863.228 7                  21452966.631    21452966.657
        44.000
 116239846.277 7  90576642.54547  22119655.780    22119655.1774   22119656.5134
        45.600          43.1004
 132057621.906 7 102711532.250 6  24669473.008    24669473.222    24669485.013
        42.300          39.800
 103134104.073 8  80215599.880 8  19306862.909    19306863.189    19306870.035
        52.400          48.400
 123662024.568 8                  23532050.822
        48.700
 120961366.285 6  94255710.98244  23018150.774    23018150.3854   23018154.6444
        41.600          27.0004
 106706887.129 8  83148355.42846  20305590.492    20305589.0844   20305588.9784
        48.600          40.5004
 25  1  1  1  8 30.0000000  0 27E34R21R11S31S35R06G03G24S33G12G20E15
                                R22R05G11E02G06E36R23E27R13G17R07R12
                                E30G14G19
 122419015.613 8                  23295513.431
        49.600
 117874070.398 8  91679983.626 7  22027543.647    22027543.432    22027551.728
        50.300          45.900
 115699364.872 7  89988543.075 7  21651513.626    21651514.027    21651521.465
        47.500          44.500
 198982014.980 7                  37865014.441
        44.800
 200917171.253 7                  38233280.856
        44.100
 125296070.437 5                  23480424.558    23480425.028
        33.700
 124750273.141 6  97208105.49645  23739159.071    23739158.8034   23739164.3944
        41.600          35.1004
 122223217.550 7  95239012.17646  23258254.842    23258254.4274   23258261.0024
        42.800          38.8004
 202135674.431 7                  38465125.332
        44.800
 119698162.325 7  93271415.10146  22777762.794    22777762.1824   22777765.2894
        45.600          41.6004
 127070512.905 6  99016018.21843  24180704.064    24180702.7814   24180708.4574
        39.800          21.7004
 130741032.975 7                  24879159.632
        45.700
 104115915.332 8  80979184.583 8  19504374.987    19504375.105    19504380.197
        52.300          50.000
 129162745.934 7 100459934.626 6  24162563.277    24162563.522    24162571.439
        42.100          38.600
 114479275.144 7  89204725.24346  21784650.243    21784649.8234   21784652.2194
        47.100          36.0004
 131869770.361 7                  25093945.348
        44.900
 106028786.989 8  82619980.28448  20176565.890    20176565.4304   20176569.1914
        50.500          52.8004
 137744426.066 7                  26211850.438
        42.700
 113838800.062 7                  21280936.948    21280936.931
        47.600
 136468235.182 7                  25968994.914
        43.600
 114508955.699 7                  21443808.254    21443808.023
        44.800
 116266471.725 7  90597389.65447  22124722.349    22124721.7464   22124723.2104
        45.700          43.2004
 132005259.733 6 102670806.174 6  24659690.944    24659690.806    24659703.039
        38.200          38.900
 103135050.939 8  80216336.348 8  19307040.358    19307040.484    19307047.236
        52.500          48.200
 123659112.352 8                  23531496.658
        48.700
 121011826.557 6  94295030.63044  23027753.191    23027752.7944   23027756.9084
        40.200          26.6004
 106714722.679 8  83154461.06846  20307081.611    20307080.1984   20307080.0094
        48.800          40.6004
 25  1  1  1  8 45.0000000  0 27E34R21R11S31S35R06G03G24S33G12G20E15
                                R22R05G11E02G06E36R23E27R13G17R07R12
                                E30G14G19
 122425216.298 8                  23296693.533
        49.600
 117921862.212 8  91717155.031 7  22036474.062    22036474.179    22036482.686
        49.400          45.900
 115759986.001 7  90035692.797 7  21662858.490    21662858.024    21662865.819
        47.200          44.500
 198982021.429 7                  37865026.658
        45.500
 200917210.948 7                  38233290.478
        43.900
 125261102.057 5                  23473872.923    23473872.200
        34.100
 124782002.988 6  97232830.06845  23745196.897    23745196.6344   23745202.2384
        41.400          34.9004
 122247245.587 7  95257735.33346  23262827.460    23262827.0494   23262833.5054
        42.800          39.0004
 202135671.074 7                  38465124.049
        45.200
 119651169.728 7  93234797.59346  22768820.733    22768820.1254   22768822.6484
        45.200          41.7004
 127016019.627 6  98973555.97643  24170334.234    24170332.9294   24170338.9164
        39.500          22.1004
 130709765.364 7                  24873209.955
        45.500
 104124129.947 8  80985573.729 8  19505913.893    19505914.068    19505919.016
        52.300          50.000
 129174982.014 7 100469451.597 6  24164853.391    24164853.315    24164860.807
        43.500          39.700
 114443304.048 7  89176695.87546  21777805.497    21777805.0774   21777807.0874
        46.800          36.1004
 131903057.008 7                  25100279.545
        44.900
 106028444.304 8  82619713.27848  20176500.707    20176500.2474   20176503.9594
        50.400          52.9004
 137782282.986 7                  26219054.759
        42.500
 113804696.873 7                  21274561.334    21274561.108
        46.800
 136432553.069 7                  25962204.806
        43.700
 114460166.005 7                  21434670.125    21434670.463
        43.800
 116293123.617 7  90618157.36747  22129794.197    22129793.5894   22129794.9244
        45.800          43.3004
 131952881.984 6 102630067.981 5  24649906.364    24649906.963    24649918.646
        40.400          34.400
 103136196.827 8  80217227.597 8  19307254.791    19307254.970    19307261.807
        52.400          48.400
 123656281.047 8                  23530957.846
        48.800
 121062342.765 6  94334393.88444  23037366.222    23037365.8294   23037369.7574
        40.500          26.9004
 106722621.365 8  83160615.90546  20308584.758    20308583.3504   20308583.0734
        48.700          40.8004
 25  1  1  1  9  0.0000000  0 26E34R21R11S31S35R06G03G24S33G12G20E15
                                R22R05G11E02G06E36R23E27R13G17R12E30
                                G14G19
 122431498.678 8                  23297888.998
        49.700
 117969665.711 8  91754335.541 7  22045407.370    22045407.908    22045415.896
        50.100          45.800
 115820692.083 8  90082908.628 7  21674218.491    21674218.736    21674225.896
        48.100          44.500
 198982026.306 7                  37865021.815
        45.700
 200917249.276 7                  38233293.376
        43.800
 125226251.069 5                  23467341.223    23467341.512
        35.000
 124813857.150 6  97257651.52845  23751258.996    23751258.7154   23751263.5634
        41.200          35.2004
 122271383.275 7  95276543.93946  23267420.457    23267420.0424   23267426.6534
        42.900          39.0004
 202135665.991 7                  38465117.417
        45.000
 119604232.838 7  93198223.49346  22759888.671    22759888.0594   22759890.7964
        45.600          41.9004
 126961529.324 6  98931096.05443  24159965.326    24159963.9944   24159969.2864
        39.800          22.3004
 130678562.792 7                  24867272.137
        45.500
 104132450.074 8  80992044.962 8  19507472.447    19507472.634    19507477.609
        52.300          49.800
 129187390.799 7 100479102.833 6  24167173.801    24167174.082    24167180.747
        42.800          38.600
 114407424.815 7  89148738.08846  21770977.726    21770977.3024   21770979.4474
        47.200          36.3004
 131936400.588 7                  25106624.480
        44.800
 106028225.271 8  82619542.62348  20176459.352    20176458.8924   20176462.2524
        50.700          53.0004
 137820163.535 7                  26226263.272
        42.800
 113770685.957 7                  21268203.762    21268203.623
        47.200
 136396900.414 7                  25955420.392
        44.000
 114411494.528 7                  21425556.773    21425555.978
        43.900
 116319802.019 7  90638945.73547  22134870.949    22134870.3374   22134871.6204
        45.500          43.3004
 103137541.788 8  80218273.702 8  19307506.498    19307506.691    19307513.551
        52.300          48.400
 123653530.816 8                  23530434.455
        48.900
 121112914.671 6  94373800.52344  23046989.615    23046989.2444   23046993.4134
        41.400          27.1004
 106730583.344 8  83166820.05646  20310099.645    20310098.2324   20310098.1664
        48.800          40.9004
 25  1  1  1  9 15.0000000  0 27E34R21R11S31S35R06G03G24S33G12G20E15
                                R22R05G11E02G06E36R07R23E27R13G17R12
                                E30G14G19
 122437863.211 8                  23299100.095
        49.600
 118017481.270 8  91791525.417 7  22054342.449    22054342.769    22054351.298
        49.300          45.600
 115881483.395 8  90130190.734 7  21685595.401    21685595.447    21685602.289
        48.000          44.400
 198982031.449 7                  37865022.065
        45.400
 200917287.510 7                  38233302.503
        44.000
 125191518.598 5                  23460833.340    23460832.886
        34.300
 124845835.951 6  97282570.08545  23757344.361    23757344.0754   23757349.1244
        41.100          34.9004
 122295630.921 7  95295438.22646  23272034.770    23272034.3504   23272040.8174
        43.100          38.7004
 202135659.988 7                  38465118.602
        45.100
 119557352.641 7  93161693.56846  22750967.836    22750967.2284   22750969.7304
        45.100          41.8004
 126907043.066 6  98888639.26343  24149596.973    24149595.6414   24149600.3314
        39.100          22.0004
 130647425.897 7                  24861346.931
        45.900
 104140876.066 8  80998598.522 8  19509050.528    19509051.010    19509056.083
        52.000          50.000
 129199972.736 7 100488888.655 6  24169528.198    24169528.580    24169536.018
        43.300          39.300
 114371638.127 7  89120852.41046  21764167.727    21764167.3034   21764169.4204
        47.100          36.0004
 131969801.633 7                  25112980.608
        44.800
 106028130.340 8  82619468.66748  20176441.039    20176440.5744   20176444.1424
        50.600          52.8004
 137858068.148 7                  26233476.099
        42.100
 131848085.144 6 102548553.743 6  24630329.224    24630329.823    24630341.395
        39.100          36.200
 113736767.806 7                  21261862.751    21261862.961
        47.800
 136361277.925 7                  25948641.664
        43.600
 114362942.628 7                  21416464.428    21416464.024
        44.500
 116346507.500 7  90659755.20447  22139952.668    22139952.0604   22139953.4494
        45.800          43.1004
 103139086.647 8  80219475.264 8  19307795.896    19307795.916    19307802.686
        52.400          48.400
 123650862.331 8                  23529926.561
        48.800
 121163542.722 6  94413250.92044  23056623.703    23056623.3284   23056627.5774
        41.200          26.7004
 106738609.161 8  83173073.95746  20311627.005    20311625.5974   20311625.4134
        48.600          40.7004
 25  1  1  1  9 30.0000000  0 27E34R21R11S31S35R06G03G24S33G12G20E15
                                R22R05G11E02G06E36R07R23E27R13G17R12
                                E30G14G19
 122444308.436 8                  23300326.511
        49.400
 118065307.451 8  91828723.547 7  22063280.463    22063280.572    22063288.878
        49.300          45.600
 115942358.115 7  90177537.726 7  21696986.485    21696986.919    21696993.855
        47.300          43.800
 198982034.738 7                  37865026.434
        45.300
 200917323.383 7                  38233308.320
        44.000
 125156903.832 5                  23454346.821    23454345.671
        35.000
 124877937.785 6  97307584.52845  23763452.639    23763452.3624   23763458.0894
        40.700          34.8004
 122319986.873 7  95314416.90146  23276669.584    23276669.1604   23276675.5964
        43.100          38.7004
 202135651.734 7                  38465116.411
        44.900
 119510528.058 7  93125206.96946  22742057.242    22742056.6484   22742059.1914
        45.200          41.7004
 126852559.761 6  98846184.80043  24139229.031    24139227.6944   24139232.6954
        40.200          22.2004
 130616353.434 7                  24855434.003
        45.500
 104149406.346 8  81005233.210 8  19510648.789    19510649.024    19510654.089
        52.000          49.600
 129212726.463 7 100498808.098 6  24171914.132    24171914.342    24171921.477
        42.300          39.200
 114335942.814 7  89093037.93946  21757374.842    21757374.4224   21757376.7264
        47.100          36.0004
 132003258.715 7                  25119347.193
        44.700
 106028158.056 8  82619490.28448  20176446.311    20176445.8464   20176449.3884
        50.500          52.7004
 137895995.303 7                  26240693.240
        42.200
 131795664.340 6 102507782.054 6  24620534.894    24620536.335    24620548.524
        39.300          39.200
 113702941.322 8                  21255538.836    21255539.291
        48.000
 136325684.501 7                  25941868.292
        43.600
 114314509.279 7                  21407395.099    21407394.085
        44.500
 116373238.670 7  90680584.68947  22145039.080    22145038.4864   22145040.2154
        45.600          43.0004
 103140830.119 8  80220831.318 8  19308122.061    19308122.259    19308129.052
        52.400          48.500
 123648274.376 8                  23529434.022
        48.500
 121214225.294 6  94452743.82444  23066268.378    23066267.9984   23066271.9774
        40.700          26.8004
 106746697.485 8  83179376.56546  20313166.029    20313164.6304   20313164.5464
        48.700          40.6004
 25  1  1  1  9 45.0000000  0 27E34R21R11S31S35R06G03G24S33G12G20E15
                                R22R05G11E02G06E36R07R23E27R13G17R12
                                E30G14G19
 122450836.665 8                  23301568.847
        49.100
 118113146.305 8  91865931.554 7  22072219.859    22072220.115    22072228.809
        49.200          45.700
 116003318.233 7  90224951.117 7  21708394.694    21708394.542    21708402.592
        47.100          44.600
 198982038.251 7                  37865020.952
        45.500
 200917360.237 7                  38233313.811
        44.000
 125122409.654 5                  23447882.203    23447881.319
        34.500
 124910164.807 6  97332696.51045  23769585.586    23769585.3144   23769590.7994
        41.300          35.3004
 122344453.289 7  95333481.66546  23281325.104    23281324.6754   23281331.2884
        42.500          38.4004
 202135645.772 7                  38465114.734
        45.100
 119463761.778 7  93088765.80546  22733157.736    22733157.1424   22733159.7944
        46.000          41.7004
 126798082.190 6  98803734.78243  24128862.001    24128860.6564   24128866.0524
        40.000          22.0004
 130585347.906 7                  24849533.910
        45.000
 104158043.188 8  81011950.775 8  19512266.516    19512266.831    19512271.909
        51.900          49.700
 129225654.525 7 100508863.295 6  24174331.806    24174331.983    24174340.991
        42.300          39.400
 114300341.441 7  89065296.66345  21750600.179    21750599.7504   21750601.9904
        46.900          35.9004
 132036774.204 7                  25125725.148
        44.400
 106028310.745 8  82619609.28548  20176475.315    20176474.8554   20176478.4264
        50.700          52.6004
 137933947.224 6                  26247915.202
        41.600
 131743231.790 6 102467001.268 5  24610741.946    24610742.185    24610753.417
        38.100          31.400
 113669208.992 7                  21249233.194    21249233.190
        47.400
 136290122.748 7                  25935101.302
        43.100
 114266197.386 7                  21398347.079    21398346.682
        44.600
 116399997.985 7  90701436.10147  22150131.604    22150131.0104   22150132.3334
        46.100          42.9004
 103142774.509 8  80222343.646 8  19308485.609    19308486.281    19308493.046
        52.300          48.600
 123645769.494 8                  23528957.620
        48.300
 121264964.626 6  94492280.92544  23075923.552    23075923.1684   23075927.3604
        41.300          26.9004
 106754850.825 8  83185729.83446  20314717.641    20314716.2464   20314716.0424
        48.800          40.5004
 25  1  1  1 10  0.0000000  0 27E34R21R11S31S35R06G03G24S33G12G20E15
                                R22R05G11E02G06E36R07R23E27R13G17R12
                                E30G14G19
 122457451.983 8                  23302827.613
        49.200
 118161002.032 8  91903152.669 7  22081163.062    22081163.320    22081171.697
        49.200          45.400
 116064367.539 7  90272433.895 7  21719819.271    21719819.260    21719826.474
        46.800          44.000
 198982046.869 7                  37865028.643
        45.900
 200917402.202 7                  38233327.526
        44.300
 125088040.848 5                  23441438.369    23441440.841
        34.400
 124942521.016 7  97357909.14845  23775742.858    23775742.5864   23775747.8884
        42.100          35.3004
 122369034.081 7  95352635.54046  23286003.311    23286002.8824   23286008.9634
        42.100          38.5004
 202135643.907 7                  38465114.578
        45.300
 119417058.496 7  93052373.72646  22724270.181    22724269.5824   22724272.3064
        46.200          41.9004
 126743614.798 6  98761292.71943  24118497.196    24118495.8914   24118501.4214
        39.700          22.3004
 130554413.580 7                  24843647.065
        45.600
 104166790.561 8  81018754.315 8  19513905.565    19513905.663    19513910.562
        51.900          49.700
 129238761.037 7 100519057.165 6  24176783.928    24176785.089    24176792.156
        43.700          39.500
 114264838.326 7  89037631.95446  21743844.367    21743843.9474   21743845.8474
        47.600          36.2004
 132070352.255 7                  25132114.660
        44.300
 106028592.477 8  82619828.83148  20176529.033    20176528.5734   20176532.0194
        50.500          52.8004
 137971927.987 6                  26255143.008
        41.400
 131690792.483 6 102426215.129 5  24600944.019    24600945.812    24600958.082
        39.000          35.700
 113635574.641 8                  21242945.532    21242945.829
        48.200
 136254597.063 7                  25928340.856
        42.900
 114218011.992 7                  21389323.543    21389323.364
        45.300
 116426789.624 7  90722312.70147  22155229.886    22155229.2834   22155230.6184
        46.000          43.0004
 103144924.422 8  80224015.822 8  19308888.388    19308888.709    19308895.537
        52.500          48.500
 123643351.996 8                  23528497.425
        48.400
 121315764.701 6  94531865.35644  23085591.155    23085590.7714   23085594.5924
        41.200          26.9004
 106763073.342 8  83192137.00546  20316282.332    20316280.9374   20316280.7574
        49.100          40.7004
 25  1  1  1 10 15.0000000  0 27E34R21R11S31S35R06G03G24S33G12G20E15
                                R22R05G11E02G06E36R07R23E27R13G17R12
                                E30G14G19
 122464144.382 8                  23304101.115
        49.200
 118208864.245 8  91940378.833 7  22090107.236    22090107.755    22090116.136
        49.600          45.800
 116125495.665 7  90319977.943 7  21731259.351    21731258.601    21731265.976
        47.000          43.900
 198982050.670 7                  37865027.892
        45.600
 200917438.776 7                  38233334.247
        44.400
 125053787.939 5                  23435022.494    23435022.185
        34.600
 124974996.182 6  97383214.48045  23781922.534    23781922.2444   23781927.5994
        41.400          34.9004
 122393718.987 7  95371870.54946  23290700.404    23290699.9804   23290706.4434
        42.800          38.4004
 202135636.129 7                  38465106.815
        44.900
 119370408.505 7  93016023.16946  22715393.088    22715392.4854   22715395.0804
        45.600          41.6004
 126689147.944 6  98718851.06643  24108132.657    24108131.3474   24108136.3884
        40.100          21.9004
 130523540.635 7                  24837772.114
        45.400
 104175638.171 8  81025635.800 8  19515562.807    19515563.110    19515568.076
        52.200          49.600
 129252035.529 7 100529381.724 6  24179267.357    24179268.096    24179274.948
        42.400          38.300
 114229423.712 7  89010036.20445  21737104.921    21737104.4924   21737106.5704
        47.100          35.9004
 132103982.874 7                  25138514.364
        44.300
 106028993.247 8  82620141.13948  20176605.393    20176604.9284   20176608.2734
        50.700          52.6004
 138009927.485 6                  26262374.259
        41.700
 131638336.376 7 102385416.041 6  24591145.794    24591146.667    24591158.892
        42.900          41.000
 113602028.580 7                  21236674.138    21236674.445
        47.500
 136219097.726 7                  25921585.458
        43.600
 114169943.400 7                  21380321.892    21380321.433
        44.200
 116453603.746 7  90743206.82447  22160332.165    22160331.5574   22160333.1964
        46.100          42.8004
 103147269.803 8  80225840.007 8  19309327.475    19309327.666    19309334.726
        52.500          48.700
 123641012.106 8                  23528052.215
        48.400
 121366615.406 6  94571489.24644  23095267.054    23095266.6524   23095271.1344
        41.000          26.7004
 106771354.993 8  83198590.25446  20317858.138    20317856.7484   20317856.6964
        49.100          40.5004
 25  1  1  1 10 30.0000000  0 27E34R21R11S31S35R06G03G24S33G12G20E15
                                R22R05G11E02G06E36R07R23E27R13G17R12
                                E30G14G19
 122470920.956 8                  23305390.684
        49.400
 118256740.023 8  91977615.554 7  22099053.966    22099053.870    22099062.739
        48.800          45.600
 116186709.235 7  90367588.489 7  21742713.365    21742713.521    21742721.057
        47.000          43.800
 198982056.683 7                  37865031.049
        45.300
 200917478.092 7                  38233343.378
        44.000
 125019658.524 5                  23428625.322    23428625.158
        34.200
 125007597.358 6  97408618.01045  23788126.658    23788126.3684   23788131.5284
        41.500          34.9004
 122418515.024 7  95391192.15246  23295418.848    23295418.4244   23295424.9484
        42.600          38.4004
 202135632.306 7                  38465115.047
        45.000
 119323819.481 7  92979720.11046  22706527.165    22706526.5394   22706529.2434
        46.000          41.7004
 126634689.229 6  98676415.76443  24097769.325    24097768.0294   24097773.4794
        39.100          22.1004
 130492736.391 7                  24831910.358
        45.400
 104184593.207 8  81032600.847 8  19517240.031    19517240.572    19517245.739
        52.200          49.700
 129265485.432 7 100539842.696 6  24181783.417    24181783.115    24181791.506
        43.000          39.300
 114194105.007 7  88982515.19045  21730384.242    21730383.8184   21730385.6594
        47.200          35.9004
 132137673.277 7                  25144925.130
        44.200
 106029520.158 8  82620551.73748  20176705.516    20176705.0564   20176708.5234
        50.600          52.6004
 138047952.778 6                  26269609.832
        41.700
 131585871.637 5 102344610.149 6  24581344.956    24581344.795    24581357.212
        34.000          36.800
 113568578.128 7                  21230421.236    21230421.364
        47.300
 136183632.195 7                  25914836.709
        43.800
 114121999.233 7                  21371343.035    21371342.715
        44.700
 116480447.626 7  90764124.13547  22165440.668    22165440.0604   22165441.4794
        46.000          42.8004
 103149817.951 8  80227821.911 8  19309804.421    19309804.815    19309811.688
        52.300          48.700
 123638757.184 8                  23527623.070
        48.600
 121417523.769 6  94611158.07944  23104955.038    23104954.6634   23104958.7034
        40.600          26.3004
 106779703.075 8  83205095.26546  20319446.710    20319445.3204   20319445.2534
        48.900          40.5004
 25  1  1  1 10 45.0000000  0 27E34R21R11S31S35R06G03G24S33G12G20E15
                                R22R05G11E02G06E36R07R23E27R13G17R12
                                E30G14G19
 122477778.431 8                  23306695.518
        49.500
 118304626.041 8  92014860.251 7  22108002.648    22108003.206    22108011.171
        49.100          45.400
 116248004.873 7  90415262.849 7  21754185.303    21754185.151    21754191.788
        47.600          43.900
 198982061.235 7                  37865030.409
        45.600
 200917516.426 7                  38233345.073
        44.000
 124985650.252 5                  23422252.298    23422252.684
        33.700
 125040321.084 6  97434117.01645  23794353.443    23794353.1484   23794358.5664
        41.300          35.1004
 122443418.669 7  95410597.60746  23300158.065    23300157.6454   23300163.7594
        42.400          38.4004
 202135627.038 7                  38465115.306
        45.300
 119277288.466 7  92943462.24947  22697672.607    22697671.9864   22697674.5274
        45.800          42.0004
 126580235.773 6  98633984.54643  24087407.184    24087405.9244   24087410.8914
        39.700          22.2004
 130461997.759 7                  24826060.981
        45.600
 104193652.145 8  81039646.709 8  19518937.073    19518937.530    19518942.827
        51.600          49.500
 129279107.718 7 100550437.855 6  24184332.249    24184332.486    24184339.718
        43.200          38.600
 114158879.146 7  88955066.52446  21723680.893    21723680.4734   21723682.3934
        47.100          36.0004
 132171420.177 7                  25151347.197
        44.800
 106030169.915 8  82621058.05848  20176829.086    20176828.6264   20176832.1414
        50.400          52.8004
 138086000.514 7                  26276850.193
        42.100
 131533395.928 6 102303795.823 6  24571542.234    24571542.886    24571554.212
        40.400          38.200
 113535220.200 7                  21224185.599    21224185.700
        47.500
 136148197.486 7                  25908093.597
        43.900
 114074177.241 7                  21362387.782    21362386.792
        44.900
 116507318.062 7  90785062.13047  22170553.832    22170553.2204   22170554.7484
        45.500          43.0004
 103152565.721 8  80229959.082 8  19310318.976    19310319.199    19310325.956
        52.400          48.700
 123636584.158 8                  23527209.627
        48.700
 121468486.391 6  94650869.17644  23114652.946    23114652.5664   23114656.3334
        40.900          26.6004
 106788114.472 8  83211649.61346  20321047.455    20321046.0604   20321045.8664
        48.800          40.7004
 25  1  1  1 11  0.0000000  0 27E34R21R11S31S35R06G03G24S33G12G20E15
                                R22R05G11E02G06E36R07R23E27R13G17R12
                                E30G14G19
 122484719.279 8                  23308016.375
        49.600
 118352524.701 8  92052114.782 7  22116953.157    22116953.856    22116962.152
        48.900          45.400
 116309384.604 7  90463002.618 7  21765670.867    21765670.907    21765677.920
        46.700          43.900
 198982068.536 7                  37865030.651
        45.500
 200917556.080 7                  38233354.494
        44.200
 124951765.993 5                  23415902.012    23415902.247
        34.600
 125073169.718 6  97459713.36345  23800604.350    23800604.0604   23800609.4434
        41.100          35.2004
 122468432.235 6  95430088.71346  23304917.616    23304917.1964   23304923.6144
        41.900          38.4004
 202135622.481 7                  38465114.734
        44.900
 119230818.490 7  92907251.95547  22688829.808    22688829.1914   22688831.7504
        45.400          42.0004
 126525790.540 6  98591559.76243  24077046.560    24077045.2954   24077050.4684
        38.700          22.5004
 130431327.396 7                  24820224.428
        45.300
 104202817.439 8  81046775.278 8  19520654.402    19520654.531    19520659.841
        51.900          49.700
 129292904.526 7 100561168.682 6  24186912.571    24186912.755    24186920.654
        42.700          37.900
 114123748.860 7  88927692.33246  21716995.716    21716995.2964   21716997.2324
        46.800          36.1004
 132205226.130 7                  25157780.260
        44.500
 106030945.017 8  82621662.05348  20176976.574    20176976.1094   20176979.6064
        50.200          52.8004
 138124073.151 7                  26284095.124
        42.300
 131480911.417 6 102262974.585 6  24561738.128    24561737.405    24561750.184
        41.400          38.400
 113501957.535 7                  21217967.447    21217966.912
        47.500
 136112796.379 7                  25901356.729
        44.100
 114026480.228 7                  21353455.545    21353455.004
        45.100
 116534217.767 7  90806022.93747  22175672.993    22175672.3854   22175673.5624
        45.000          43.0004
 103155515.956 8  80232253.735 8  19310871.341    19310871.445    19310878.246
        52.200          48.600
 123634495.741 8                  23526812.093
        48.600
 121519505.662 6  94690624.41544  23124361.076    23124360.7054   23124365.0624
        41.100          26.9004
 106796591.775 8  83218255.31846  20322660.480    20322659.0854   20322659.0264
        48.700          40.7004
 25  1  1  1 11 15.0000000  0 27E34R21R11S31S35R06G03G24S33G12G20E15
                                R22R05G11E02G06E36R07R23E27R13G17R12
                                E30G14G19
 122491738.761 8                  23309352.175
        49.300
 118400430.771 8  92089375.049 7  22125906.300    22125906.111    22125914.864
        48.700          45.600
 116370843.413 7  90510803.874 7  21777172.303    21777171.943    21777179.380
        46.500          43.600
 198982072.482 7                  37865033.025
        45.300
 200917593.109 7                  38233360.804
        43.800
 124918001.699 5                  23409576.788    23409575.804
        35.200
 125106138.356 6  97485403.21945  23806877.575    23806877.2894   23806883.1124
        40.900          35.0004
 122493550.812 7  95449661.64846  23309698.024    23309697.5954   23309703.6314
        42.300          38.2004
 202135616.249 7                  38465106.627
        44.700
 119184405.121 7  92871085.77446  22679997.666    22679997.0404   22679999.5274
        45.300          41.8004
 126471349.419 6  98549138.17243  24066686.995    24066685.7174   24066690.4574
        40.400          22.1004
 130400720.761 7                  24814400.349
        45.700
 104212084.094 8  81053982.692 8  19522390.481    19522390.575    19522395.756
        52.000          49.800
 129306870.875 7 100572031.417 6  24189525.491    24189525.721    24189532.614
        42.400          38.100
 114088709.662 7  88900389.10946  21710327.860    21710327.4454   21710329.3904
        46.900          36.0004
 132239086.428 7                  25164223.831
        44.300
 106031840.707 8  82622360.01348  20177146.843    20177146.3784   20177150.0424
        50.200          52.7004
 138162165.887 6                  26291343.788
        41.800
 131428414.745 7 102222143.888 6  24551930.950    24551931.445    24551943.120
        42.500          39.600
 113468785.062 7                  21211765.870    21211765.902
        47.500
 136077424.449 7                  25894625.459
        43.500
 113978904.224 7                  21344545.730    21344545.685
        45.000
 116561141.949 7  90827002.81847  22180796.435    22180795.8364   22180797.0754
        46.100          42.8004
 103158663.869 8  80234702.123 8  19311460.658    19311460.751    19311467.637
        52.500          48.700
 123632487.410 8                  23526430.040
        48.500
 121570576.762 6  94730420.05644  23134079.393    23134079.0224   23134083.7804
        40.700          26.8004
 106805130.373 8  83224908.77846  20324285.405    20324284.0104   20324283.8974
        48.400          40.5004
 25  1  1  1 11 30.0000000  0 27E34R21R11S31S35R06G03G24S33G12G20E15
                                R22R05G11E02G06E36R07R23E27R13G17R12
                                E30G14G19
 122498839.556 8                  23310703.378
        49.700
 118448347.325 8  92126643.460 7  22134859.878    22134860.200    22134868.872
        48.900          45.400
 116432383.646 7  90558668.472 7  21788688.845    21788688.611    21788695.982
        47.400          43.400
 198982075.946 7                  37865028.317
        45.100
 200917630.217 7                  38233369.268
        44.100
 124884360.709 5                  23403268.854    23403270.396
        33.600
 125139229.560 6  97511188.57945  23813174.990    23813174.7044   23813180.4584
        41.500          35.4004
 122518776.875 7  95469318.33246  23314497.880    23314497.4474   23314504.0474
        42.100          38.1004
 202135608.606 7                  38465103.622
        44.600
 119138051.522 7  92834966.15346  22671176.426    22671175.8054   22671178.6074
        45.700          41.8004
 126416915.482 6  98506722.17643  24056328.146    24056326.8594   24056331.6664
        39.800          22.1004
 130370180.748 7                  24808588.450
        45.800
 104221454.748 8  81061270.996 8  19524145.748    19524145.871    19524151.275
        52.000          49.700
 129321009.641 7 100583028.091 6  24192171.260    24192171.365    24192177.936
        42.900          38.200
 114053764.502 7  88873159.16845  21703678.050    21703677.6394   21703679.5244
        46.700          35.9004
 132273003.854 7                  25170677.995
        44.700
 106032859.649 8  82623154.00848  20177340.863    20177340.4074   20177343.9144
        50.100          52.5004
 138200281.332 7                  26298597.148
        42.200
 131375908.814 6 102181306.039 6  24542120.791    24542121.917    24542134.119
        36.400          36.500
 113435705.853 7                  21205582.054    21205582.234
        47.700
 136042084.695 7                  25887901.011
        43.600
 113931452.279 7                  21335660.235    21335659.234
        44.900
 116588093.468 7  90848004.00147  22185924.752    22185924.1314   22185925.8034
        45.300          42.9004
 103162012.482 8  80237306.608 8  19312087.326    19312087.677    19312094.478
        52.500          48.700
 123630562.106 8                  23526063.568
        48.800
 121621702.275 6  94770258.07644  23143808.950    23143808.5794   23143812.8064
        40.600          26.8004
 106813733.112 8  83231612.22146  20325922.710    20325921.3244   20325920.9454
        48.700          40.5004
 25  1  1  1 11 45.0000000  0 27E34R21R11S31S35R06G03G24S33G12G20E15
                                R22R05G11E02G06E36R07R23E27R13G17R12
                                E30G14G19
 122506025.281 8                  23312070.622
        49.900
 118496277.628 8  92163922.588 7  22143817.720    22143817.486    22143825.899
        49.000          45.000
 116494008.692 7  90606599.029 7  21800221.276    21800221.297    21800228.198
        47.100          43.600
 198982083.507 7                  37865032.829
        45.300
 200917671.016 7                  38233379.339
        44.200
 124850847.064 5                  23396990.577    23396989.917
        34.900
 125172446.837 6  97537072.18045  23819495.936    23819495.6374   23819501.3294
        41.100          35.0004
 122544113.852 7  95489061.44546  23319319.231    23319318.7934   23319325.3784
        42.400          38.1004
 202135605.642 7                  38465105.912
        45.100
 119091761.931 7  92798896.41646  22662367.520    22662366.8994   22662369.9454
        45.800          41.8004
 126362492.771 6  98464314.94743  24045971.145    24045969.8624   24045975.1464
        40.100          22.0004
 130339711.125 7                  24802790.365
        46.100
 104230932.951 8  81068642.937 8  19525921.499    19525921.726    19525926.697
        52.400          49.600
 129335324.954 7 100594162.197 6  24194848.495    24194849.308    24194855.633
        43.400          37.600
 114018917.261 7  88846005.52245  21697046.792    21697046.3864   21697048.2114
        46.500          35.9004
 132306982.036 7                  25177143.778
        44.600
 106034005.483 8  82624046.88648  20177558.959    20177558.5034   20177561.9324
        50.100          52.6004
 138238423.087 7                  26305855.143
        42.500
 131323398.096 7 102140464.390 6  24532313.059    24532313.225    24532325.374
        43.100          40.500
 113402723.869 8                  21199416.318    21199416.542
        48.100
 136006781.025 7                  25881182.327
        43.900
 113884128.962 7                  21326797.954    21326797.578
        45.400
 116615076.044 7  90869029.38447  22191059.604    22191058.9964   22191060.4204
        45.400          42.9004
 103165565.573 8  80240070.125 8  19312752.504    19312752.710    19312759.578
        52.800          49.000
 123628723.659 8                  23525713.750
        48.900
 121672885.719 6  94810141.23944  23153549.044    23153548.6914   23153552.6304
        41.100          26.8004
 106822403.644 8  83238368.48746  20327572.411    20327571.0214   20327570.8494
        48.700          40.6004
 25  1  1  1 12  0.0000000  0 27E34R21R11S31S35R06G03G24S33G12G20E15
                                R22R05G11E02G06E36R07R23E27R13G17R12
                                E30G14G19
 122513289.855 8                  23313453.160
        49.700
 118544215.536 8  92201207.599 7  22152775.880    22152775.287    22152784.289
        48.600          45.300
 116555711.978 7  90654590.460 7  21811767.702    21811767.693    21811775.363
        46.700          43.900
 198982088.986 7                  37865035.297
        45.700
 200917709.602 7                  38233377.255
        43.800
 124817455.545 5                  23390732.031    23390731.770
        33.300
 125205783.919 6  97563049.14445  23825840.262    23825839.9494   23825845.0454
        41.500          35.4004
 122569555.493 7  95508886.11646  23324160.383    23324159.9504   23324166.7854
        42.100          38.3004
 202135600.333 7                  38465109.721
        45.400
 119045530.821 7  92762872.25247  22653570.735    22653570.1234   22653572.4034
        45.700          42.1004
 126308075.678 6  98421912.09143  24035616.095    24035614.8214   24035619.7764
        40.300          22.4004
 130309306.041 7                  24797004.332
        46.000
 104240512.453 8  81076093.692 8  19527715.760    19527716.175    19527721.083
        52.700          49.700
 129349809.981 7 100605428.295 6  24197557.899    24197558.606    24197566.237
        42.100          38.400
 113984162.099 7  88818923.62946  21690433.044    21690432.6384   21690434.5074
        47.100          36.1004
 132341014.935 7                  25183620.080
        44.500
 106035272.100 8  82625033.88148  20177800.082    20177799.6354   20177802.9394
        50.200          52.8004
 138276584.967 7                  26313117.042
        42.200
 131270876.691 5 102099614.604 5  24522500.519    24522500.768    24522513.927
        33.000          34.200
 113369832.951 8                  21193267.649    21193267.623
        48.200
 135971507.722 7                  25874470.355
        43.900
 113836928.778 7                  21317958.891    21317958.432
        45.500
 116642083.696 7  90890074.30547  22196198.793    22196198.1854   22196199.7854
        45.800          43.0004
 103169317.153 8  80242988.042 8  19313454.577    19313454.952    19313461.891
        52.400          49.100
 123626966.243 8                  23525379.282
        48.900
 121724120.893 6  94850064.71244  23163298.590    23163298.2334   23163302.3374
        40.800          27.1004
 106831136.263 8  83245173.13146  20329234.298    20329232.9124   20329232.5934
        48.900          40.8004
 25  1  1  1 12 15.0000000  0 27E34R21R11S31S35R06G03G24S33G12G20E15
                                R22R05G11E02G06E36R07R23E27R13G17R12
                                E30G14G19
 122520632.204 8                  23314850.296
        49.800
 118592159.765 8  92238497.541 7  22161735.515    22161735.461    22161744.129
        48.900          45.500
 116617492.176 7  90702641.690 7  21823329.334    21823329.171    21823336.291
        46.800          43.600
 198982090.788 7                  37865033.651
        45.800
 200917744.598 7                  38233386.104
        44.200
 124784185.459 5                  23384499.413    23384498.489
        34.800
 125239239.561 6  97589118.49145  23832206.229    23832205.9214   23832211.6744
        41.100          35.5004
 122595100.552 7  95528791.37046  23329021.696    23329021.2584   23329027.8064
        42.300          38.2004
 202135591.547 7                  38465103.546
        45.100
 118999357.274 7  92726892.93747  22644783.600    22644782.9794   22644785.8124
        45.500          42.1004
 126253663.566 6  98379513.11343  24025261.820    24025260.5154   24025265.8644
        39.600          22.5004
 130278964.616 7                  24791230.488
        45.900
 104250192.037 8  81083622.261 8  19529528.986    19529529.476    19529534.348
        52.300          49.800
 129364464.288 7 100616826.118 6  24200300.643    24200300.015    24200307.628
        42.400          38.300
 113949498.204 7  88791912.85146  21683836.527    21683836.1254   21683838.0544
        47.100          36.1004
 132375101.557 7                  25190106.466
        44.700
 106036658.436 8  82626114.16148  20178063.728    20178063.2814   20178066.7344
        50.500          52.7004
 138314765.888 7                  26320382.838
        42.100
 131218344.961 6 102058756.581 6  24512688.451    24512688.459    24512699.718
        39.700          36.000
 113337032.130 8                  21187135.680    21187136.219
        48.500
 135936264.006 7                  25867763.685
        44.000
 113789850.874 7                  21309142.255    21309142.271
        45.700
 116669115.513 7  90911138.05647  22201342.662    22201342.0324   22201343.8054
        46.000          43.0004
 103173266.231 8  80246059.554 8  19314194.239    19314194.187    19314201.252
        52.700          49.000
 123625288.990 8                  23525060.136
        49.000
 121775406.644 6  94890027.59844  23173058.045    23173057.6924   23173061.6714
        41.200          26.9004
 106839929.782 8  83252025.23346  20330907.536    20330906.1464   20330905.9504
        48.600          40.8004
 25  1  1  1 12 30.0000000  0 27E34R21R11S31S35R06G03G24S33G12G20E15
                                R22R05G11E02G06E36R07R23E27R13G17R12
                                E30G14G19
 122528059.502 8                  23316263.673
        49.600
 118640117.598 8  92275798.074 7  22170697.152    22170697.581    22170705.985
        49.200          45.400
 116679356.161 7  90750758.101 7  21834906.444    21834906.408    21834913.805
        47.500          43.500
 198982096.585 7                  37865041.204
        45.600
 200917784.011 7                  38233395.749
        44.000
 124751044.686 5                  23378287.557    23378286.010
        33.100
 125272820.848 6  97615285.74245  23838595.995    23838595.6784   23838602.0174
        41.900          35.3004
 122620755.992 6  95548782.64046  23333904.101    23333903.6634   23333909.7634
        41.600          38.1004
 202135587.807 7                  38465100.344
        45.100
 118953248.941 7  92690964.44146  22636009.574    22636008.9624   22636011.5234
        45.700          41.9004
 126199264.175 6  98337124.05243  24014910.184    24014908.9014   24014913.8974
        40.200          22.7004
 130248694.180 7                  24785470.355
        46.000
 104259978.789 8  81091234.207 8  19531362.260    19531362.649    19531367.790
        52.400          49.500
 129379294.765 7 100628360.972 6  24203073.662    24203074.505    24203081.402
        42.100          37.500
 113914932.997 7  88764978.97746  21677258.961    21677258.5594   21677260.4584
        47.000          36.0004
 132409249.113 7                  25196604.429
        44.400
 106038171.645 8  82627293.30248  20178351.680    20178351.2334   20178354.6534
        50.300          52.6004
 138352972.962 7                  26327653.311
        42.700
 131165810.439 7 102017896.438 6  24502874.197    24502874.387    24502886.254
        42.300          39.700
 113304328.625 8                  21181021.543    21181022.326
        48.000
 135901057.361 7                  25861064.055
        43.900
 113742903.817 7                  21300349.994    21300350.126
        45.200
 116696178.986 7  90932226.47447  22206493.216    22206492.5954   22206493.8854
        45.600          42.9004
 103177420.423 8  80249290.608 8  19314971.541    19314971.766    19314978.782
        52.500          48.900
 123623699.298 8                  23524757.633
        49.000
 121826750.065 6  94930035.42044  23182827.997    23182827.6494   23182832.0414
        41.300          27.0004
 106848791.450 8  83258930.43546  20332594.139    20332592.7584   20332592.2574
        48.700          40.6004
 25  1  1  1 12 45.0000000  0 27E34R21R11S31S35R06G03G24S33G12G20E15
                                R22R05G11E02G06E36R07R23E27R13G17R12
                                E30G14G19
 122535565.449 8                  23317692.027
        49.500
 118688082.624 8  92313104.202 7  22179660.684    22179660.542    22179669.348
        48.500          45.300
 116741297.320 7  90798934.551 7  21846497.679    21846497.819    21846505.069
        47.300          43.700
 198982100.987 7                  37865034.519
        45.300
 200917821.288 7                  38233399.640
        43.700
 124718027.660 5                  23372101.057    23372099.972
        34.600
 125306521.335 6  97641545.88545  23845009.737    23845009.4294   23845014.7304
        41.300          35.5004
 122646515.351 7  95568854.88046  23338805.997    23338805.5644   23338811.5864
        42.300          38.1004
 202135580.434 7                  38465109.806
        45.100
 118907200.211 7  92655082.38347  22627246.682    22627246.0704   22627248.7484
        45.700          42.1004
 126144871.602 6  98294740.30443  24004559.217    24004557.9434   24004563.4684
        40.000          22.5004
 130218488.671 7                  24779722.318
        45.800
 104269866.296 8  81098924.510 8  19533214.338    19533214.947    19533220.016
        52.300          49.700
 129394294.866 7 100640027.652 6  24205880.040    24205880.913    24205888.356
        43.000          38.200
 113880460.454 7  88738117.30246  21670699.224    21670698.8224   21670700.5214
        46.700          36.0004
 132443451.362 7                  25203113.110
        44.300
 106039805.434 8  82628566.40548  20178662.658    20178662.2204   20178665.5334
        50.300          52.7004
 138391199.874 7                  26334927.815
        42.300
 131113267.061 6 101977029.471 6  24493058.521    24493059.140    24493070.408
        41.200          38.300
 113271716.561 8                  21174925.902    21174926.118
        48.400
 135865881.810 7                  25854370.206
        44.200
 113696081.206 7                  21291582.322    21291581.601
        45.400
 116723268.062 7  90953334.84147  22211647.626    22211647.0054   22211648.7674
        45.900          43.0004
 103181773.478 8  80252676.340 8  19315786.618    19315786.720    19315793.731
        52.300          48.900
 123622191.122 8                  23524470.632
        48.900
 121878144.756 6  94970083.19844  23192607.958    23192607.6054   23192612.2534
        41.100          26.9004
 106857715.276 8  83265884.07446  20334292.188    20334290.8114   20334290.4104
        48.700          40.7004
 25  1  1  1 13  0.0000000  0 27E34R21R11S31S35R06G03G24S33G12G20E15
                                R22R05G11E02G06E36R07R23E27R13G17R12
                                E30G14G19
 122543152.632 8                  23319135.846
        49.400
 118736057.148 8  92350417.706 7  22188626.391    22188626.033    22188634.616
        49.100          45.400
 116803317.781 7  90847172.655 7  21858104.047    21858104.354    21858111.273
        46.500          43.600
 198982105.468 7                  37865039.147
        45.100
 200917859.000 7                  38233404.930
        43.800
 124685137.398 5                  23365936.496    23365936.127
        33.500
 125340343.442 6  97667900.79645  23851445.545    23851445.2464   23851450.9784
        41.100          35.3004
 122672381.030 7  95589009.97446  23343728.221    23343727.7794   23343733.8014
        42.200          38.0004
 202135574.399 7                  38465099.370
        45.100
 118861213.932 7  92619248.99247  22618495.718    22618495.1104   22618497.8994
        45.600          42.1004
 126090488.897 6  98252364.24543  23994210.726    23994209.4484   23994214.2644
        39.900          22.4004
 130188350.847 7                  24773987.287
        46.000
 104279857.062 8  81106695.116 8  19535086.317    19535086.603    19535091.748
        52.400          49.900
 129409467.443 6 100651828.570 6  24208718.106    24208718.127    24208725.949
        40.900          38.400
 113846083.398 7  88711330.03346  21664157.444    21664157.0474   21664158.7474
        47.100          36.0004
 132477710.929 7                  25209632.374
        44.600
 106041562.392 8  82629935.48148  20178996.803    20178996.3704   20178999.8634
        50.400          52.6004
 138429449.121 7                  26342206.350
        42.600
 131060718.444 7 101936158.382 6  24483242.376    24483242.636    24483254.181
        42.400          40.000
 113239198.516 8                  21168846.602    21168846.956
        48.500
 135830740.277 7                  25847682.926
        44.100
 113649386.725 7                  21282837.671    21282837.558
        45.900
 116750385.265 7  90974465.12347  22216808.231    22216807.6144   22216808.9754
        45.700          42.9004
 103186328.101 8  80256218.828 8  19316639.234    19316639.409    19316646.237
        52.600          49.000
 123620767.299 8                  23524199.561
        48.700
 121929593.195 7  95010172.86544  23202398.913    23202398.5514   23202402.4734
        42.300          26.7004
 106866704.039 8  83272888.31246  20336002.626    20336001.2454   20336000.9264
        49.200          40.7004
 25  1  1  1 13 15.0000000  0 27E34R21R11S31S35R06G03G24S33G12G20E15
                                R22R05G11E02G06E36R07R23E27R13G17R12
                                E30G14G19
 122550821.559 8                  23320594.987
        49.400
 118784041.874 8  92387739.164 7  22197592.704    22197592.861    22197601.475
        48.300          45.200
 116865417.884 7  90895472.701 7  21869725.417    21869725.506    21869732.421
        47.500          43.400
 198982111.201 7                  37865034.939
        45.600
 200917898.640 7                  38233421.121
        44.200
 124652375.128 5                  23359796.461    23359796.902
        34.700
 125374287.564 6  97694350.78545  23857904.775    23857904.4804   23857910.4434
        41.800          35.2004
 122698353.321 7  95609248.13246  23348670.265    23348669.8144   23348676.1604
        42.100          38.0004
 202135569.176 7                  38465097.845
        44.900
 118815291.017 7  92583464.97746  22609757.001    22609756.3984   22609758.9494
        45.200          41.9004
 126036116.922 6  98209996.55943  23983864.721    23983863.4434   23983867.3994
        40.100          22.6004
 130158281.408 7                  24768265.129
        46.000
 104289951.458 8  81114546.324 8  19536977.361    19536977.697    19536982.695
        52.600          49.600
 129424813.135 6 100663764.060 6  24211588.727    24211589.825    24211597.907
        41.900          39.100
 113811802.569 7  88684617.74845  21657633.864    21657633.4534   21657635.3074
        46.800          35.9004
 132512028.395 7                  25216162.906
        44.500
 106043443.003 8  82631400.91248  20179354.798    20179354.3744   20179357.7274
        50.100          52.6004
 138467721.178 7                  26349489.017
        42.500
 131008165.423 6 101895283.877 6  24473423.378    24473423.959    24473436.721
        40.800          39.000
 113206775.160 8                  21162785.351    21162786.012
        48.400
 135795633.562 7                  25841002.715
        43.900
 113602821.264 7                  21274117.989    21274117.773
        46.700
 116777531.035 7  90995617.67247  22221973.746    22221973.1384   22221974.6604
        45.600          42.8004
 103191085.017 8  80259918.656 8  19317529.578    19317529.884    19317536.792
        52.500          49.100
 123619428.516 8                  23523945.008
        48.600
 121981095.855 6  95050304.78544  23212199.108    23212198.7334   23212203.0354
        41.000          26.6004
 106875758.246 8  83279943.54246  20337725.501    20337724.1204   20337723.8784
        49.000          40.6004
 25  1  1  1 13 30.0000000  0 27E34R21R11S31S35R06G03G24S33G12G20E15
                                R22R05G11E02G06E36R07R23E27R13G17R12
                                E30G14G19
 122558572.340 8                  23322070.098
        49.500
 118832036.668 8  92425068.453 7  22206561.420    22206562.288    22206570.298
        48.500          45.200
 116927597.425 7  90943834.518 7  21881360.967    21881361.129    21881369.224
        47.000          43.600
 198982119.117 7                  37865035.444
        45.300
 200917938.974 7                  38233426.080
        44.000
 124619741.401 5                  23353681.080    23353680.536
        33.800
 125408353.654 6  97720895.80945  23864387.222    23864386.9274   23864393.1244
        41.700          35.6004
 122724432.159 7  95629569.32346  23353632.675    23353632.2244   23353638.8614
        42.100          38.2004
 202135566.801 7                  38465099.490
        44.900
 118769432.135 7  92547730.85647  22601030.265    22601029.6534   22601032.2204
        45.900          42.1004
 125981756.389 6  98167637.78343  23973519.919    23973518.6414   23973523.0164
        40.500          22.8004
 130128280.675 7                  24762556.251
        45.900
 104300149.475 8  81122478.125 8  19538887.889    19538888.117    19538893.066
        52.600          49.700
 129440331.970 7 100675834.311 6  24214492.603    24214492.570    24214499.923
        42.100          39.100
 113777618.337 7  88657980.73245  21651129.054    21651128.6524   21651130.2144
        46.800          35.9004
 132546403.938 7                  25222703.979
        44.400
 106045447.389 8  82632962.78748  20179736.310    20179735.9044   20179739.1254
        50.100          52.7004
 138506016.106 7                  26356776.432
        42.400
 130955608.876 6 101854406.614 6  24463605.692    24463606.923    24463617.775
        40.500          36.700
 113174446.637 8                  21156742.038    21156742.109
        48.700
 135760562.103 7                  25834328.463
        43.700
 113556385.807 7                  21265421.787    21265421.567
        46.100
 116804705.803 7  91016792.81347  22227144.825    22227144.2084   22227145.8684
        46.100          42.9004
 103196044.384 8  80263775.959 8  19318457.896    19318458.345    19318465.271
        52.400          49.100
 123618175.192 8                  23523706.353
        48.900
 122032652.758 6  95090478.98544  23222010.364    23222009.9934   23222013.9774
        41.000          26.4004
 106884878.181 8  83287049.98846  20339460.821    20339459.4354   20339459.3324
        48.700          40.7004
 25  1  1  1 13 45.0000000  0 27E34R21R11S31S35R06G03G24S33G12G20E15
                                R22R05G11E02G06E36R07R23E27R13G17R12
                                E30G14G19
 122566401.280 8                  23323559.756
        49.500
 118880037.663 8  92462402.531 7  22215532.022    22215532.211    22215540.592
        48.600          45.000
 116989852.229 7  90992254.898 7  21893011.947    21893011.602    21893018.914
        47.200          43.500
 198982124.265 7                  37865039.625
        45.400
 200917977.887 7                  38233432.953
        44.000
 124587233.377 5                  23347589.055    23347588.263
        33.200
 125442537.895 6  97747532.93045  23870892.741    23870892.4424   23870897.7294
        40.600          35.4004
 122750613.700 6  95649970.54546  23358615.093    23358614.6464   23358621.1794
        41.700          38.1004
 202135561.744 7                  38465099.316
        45.100
 118723634.009 7  92512044.07547  22592315.223    22592314.6114   22592317.0724
        45.400          42.2004
 125927404.031 6  98125285.37543  23963176.500    23963175.2224   23963180.2204
        40.800          22.4004
 130098345.144 7                  24756859.726
        46.000
 104310447.285 8  81130487.537 8  19540817.197    19540817.296    19540822.195
        52.400          49.800
 129456020.023 7 100688036.162 6  24217427.912    24217427.363    24217435.338
        42.200          38.500
 113743527.281 7  88631416.32245  21644641.504    21644641.1074   21644642.8024
        46.600          35.8004
 132580833.861 7                  25229256.137
        44.600
 106047571.815 8  82634618.20348  20180140.556    20180140.1544   20180143.3734
        50.200          52.6004
 138544330.168 7                  26364067.321
        42.400
 130903045.812 7 101813524.227 6  24453786.835    24453787.146    24453799.411
        43.300          40.800
 113142209.809 8                  21150715.363    21150715.703
        48.100
 135725522.569 7                  25827660.726
        44.200
 113510076.870 7                  21256749.523    21256749.378
        46.400
 116831906.048 7  91037987.80747  22232320.801    22232320.1754   22232321.8964
        45.600          42.7004
 103201202.734 8  80267788.017 8  19319423.667    19319423.938    19319430.882
        52.100          48.900
 123617003.779 8                  23523483.413
        48.900
 122084259.996 6  95130692.38244  23231830.903    23231830.5284   23231834.5634
        40.900          26.7004
 106894060.265 8  83294204.86846  20341208.414    20341207.0244   20341206.6194
        48.700          40.6004
 25  1  1  1 14  0.0000000  0 27E34R21R11S31S35R06G03G24S33G12G20E15
                                R22R05G11E02G06E36R07R23E27R13G17R12
                                E30G14G19
 122574311.959 8                  23325065.238
        49.200
 118928048.458 7  92499744.254 7  22224503.984    22224504.155    22224512.934
        47.900          45.200
 117052185.729 7  91040736.482 7  21904676.064    21904676.339    21904684.067
        47.200          43.800
 198982131.548 7                  37865040.645
        45.500
 200918018.550 7                  38233438.941
        44.200
 124554855.182 5                  23341521.570    23341521.291
        35.000
 125476843.651 6  97774264.71545  23877420.910    23877420.6154   23877425.5524
        41.300          35.6004
 122776901.288 6  95670454.38646  23363617.670    23363617.2324   23363623.4314
        41.600          38.2004
 202135558.024 7                  38465096.803
        45.300
 118677900.829 7  92476407.90447  22583612.141    22583611.5294   22583614.2794
        45.500          42.3004
 125873063.880 6  98082942.46343  23952835.702    23952834.4104   23952839.5794
        38.700          22.7004
 130068478.574 7                  24751176.205
        46.100
 104320848.403 8  81138577.305 8  19542765.571    19542765.730    19542770.776
        52.700          49.900
 129471881.142 7 100700372.585 6  24220394.288    24220395.018    24220402.371
        43.100          39.600
 113709533.223 7  88604927.48746  21638172.505    21638172.1164   21638173.8674
        46.700          36.2004
 132615321.844 7                  25235818.814
        44.100
 106049819.884 8  82636369.96348  20180568.185    20180567.7834   20180571.1424
        50.100          52.7004
 138582666.941 7                  26371362.924
        42.900
 130850480.258 6 101772639.938 6  24443966.667    24443966.873    24443979.639
        39.100          37.500
 113110067.957 8                  21144707.481    21144707.421
        48.500
 135690518.813 7                  25820999.719
        43.700
 113463899.204 7                  21248101.632    21248101.417
        45.600
 116859135.333 7  91059205.43147  22237502.402    22237501.7904   22237503.4654
        44.800          42.9004
 103206563.741 8  80271957.702 8  19320427.264    19320427.455    19320434.520
        52.200          49.100
 123615918.135 8                  23523276.860
        48.700
 122135921.130 6  95170947.77244  23241661.860    23241661.4804   23241665.4164
        41.200          26.8004
 106903308.258 8  83301411.09946  20342968.106    20342966.7204   20342966.4444
        48.600          40.8004
 25  1  1  1 14 15.0000000  0 27E34R21R11S31S35R06G03G24S33G12G20E15
                                R22R05G11E02G06E36R07R23E27R13G17R12
                                E30G14G19
 122582299.863 8                  23326585.245
        49.100
 118976064.359 8  92537089.961 7  22233476.977    22233477.624    22233485.491
        49.000          45.200
 117114593.026 7  91089275.467 7  21916355.342    21916355.050    21916362.420
        47.000          43.600
 198982136.100 7                  37865036.384
        45.400
 200918056.199 7                  38233447.665
        44.200
 124522602.933 5                  23335476.893    23335476.140
        33.400
 125511266.317 6  97801087.60845  23883971.541    23883971.2424   23883976.2914
        40.800          35.5004
 122803290.236 6  95691017.21746  23368638.994    23368638.5614   23368644.9694
        41.900          38.3004
 202135551.488 7                  38465096.307
        45.500
 118632228.457 7  92440819.11247  22574921.299    22574920.6824   22574923.1004
        45.400          42.4004
 125818731.871 6  98040605.92543  23942497.085    23942495.7804   23942500.4864
        40.300          23.0004
 130038676.653 7                  24745505.049
        45.600
 104331348.113 8  81146743.773 8  19544732.507    19544732.555    19544737.655
        52.900          50.000
 129487910.422 7 100712839.809 6  24223392.520    24223392.794    24223400.482
        42.300          38.800
 113675631.892 7  88578510.90946  21631721.356    21631720.9544   21631722.6084
        46.900          36.1004
 132649863.410 7                  25242392.074
        44.300
 106052187.042 8  82638214.52048  20181018.727    20181018.3304   20181021.5734
        50.200          52.8004
 138621021.801 7                  26378661.490
        42.600
 130797908.387 6 101731750.761 6  24434146.586    24434146.734    24434158.869
        39.000          37.400
 113078016.680 8                  21138715.422    21138715.617
        48.600
 135655546.637 7                  25814344.685
        44.200
 113417848.510 7                  21239477.659    21239477.897
        45.900
 116886389.333 7  91080442.31047  22242689.099    22242688.5004   22242689.7784
        45.000          42.9004
 103212123.185 8  80276281.731 8  19321468.220    19321468.422    19321475.281
        52.600          49.000
 123614913.966 8                  23523085.796
        48.600
 122187631.533 6  95211241.55644  23251501.786    23251501.4064   23251505.6514
        41.000          26.9004
 106912617.836 8  83308665.32046  20344739.623    20344738.2334   20344737.9894
        48.900          40.9004
 25  1  1  1 14 30.0000000  0 27E34R21R11S31S35R06G03G24S33G12G20E15
                                R22R05G11E02G06E36R07R23E27R13G17R12
                                E30G14G19
 122590367.055 8                  23328120.475
        49.100
 119024087.515 8  92574441.287 7  22242451.694    22242451.562    22242459.930
        49.000          45.100
 117177075.658 7  91137873.043 7  21928047.822    21928047.882    21928054.877
        46.800          43.500
 198982140.218 7                  37865039.268
        45.300
 200918093.635 7                  38233456.903
        44.200
 124490479.057 5                  23329456.913    23329456.397
        34.500
 125545807.774 6  97828003.06345  23890544.047    23890543.7484   23890549.3574
        41.500          35.5004
 122829782.458 7  95711660.51846  23373680.229    23373679.8054   23373686.2764
        42.100          38.2004
 202135545.911 7                  38465096.955
        45.400
 118586619.297 7  92405279.58547  22566241.844    22566241.2054   22566243.9174
        46.000          42.5004
 125764410.507 6  97998277.68443  23932159.940    23932158.6444   23932163.4904
        40.300          22.8004
 130008941.644 7                  24739846.612
        46.200
 104341948.410 8  81154988.472 8  19546718.267    19546718.474    19546723.440
        52.700          50.000
 129504110.219 6 100725439.675 6  24226422.870    24226423.360    24226431.862
        41.600          39.500
 113641825.640 7  88552168.41946  21625288.072    21625287.6704   21625289.4414
        47.100          36.0004
 132684460.666 7                  25248975.380
        44.000
 106054675.389 8  82640153.50848  20181492.153    20181491.7564   20181495.0734
        50.700          52.8004
 138659396.824 7                  26385963.938
        42.100
 130745333.216 6 101690858.959 6  24424324.223    24424325.629    24424336.865
        41.600          39.600
 113046058.501 8                  21132740.876    21132741.363
        48.500
 135620608.468 7                  25807695.849
        44.400
 113371927.677 7                  21230878.057    21230877.921
        45.500
 116913670.188 7  91101700.11747  22247880.220    22247879.6264   22247881.1044
        45.900          42.8004
 103217883.106 8  80280761.687 8  19322546.270    19322546.570    19322553.573
        52.300          48.800
 123613993.579 8                  23522910.464
        48.700
 122239393.189 6  95251575.28444  23261351.671    23261351.2604   23261355.4954
        41.100          26.6004
 106921991.215 8  83315969.26046  20346523.142    20346521.7474   20346521.6574
        48.800          40.8004
 25  1  1  1 14 45.0000000  0 27E34R21R11S31S35R06G03G24S33G12G20E15
                                R22R05G11E02G06E36R07R23E27R13G17R12
                                E30G14G19
 122598516.336 8                  23329671.093
        49.300
 119072120.484 8  92611800.238 7  22251427.684    22251428.107    22251435.903
        48.500          44.800
 117239636.407 7  91186531.373 7  21939755.144    21939755.279    21939763.740
        46.600          44.000
 198982146.855 7                  37865042.559
        45.400
 200918133.585 7                  38233461.281
        43.900
 124458487.151 5                  23323460.965    23323461.177
        34.100
 125580470.697 6  97855013.16645  23897140.050    23897139.7424   23897145.5824
        40.900          35.2004
 122856380.518 7  95732386.29146  23378741.880    23378741.4514   23378747.6704
        42.100          38.1004
 202135540.946 7                  38465092.707
        45.000
 118541076.547 7  92369791.80047  22557575.161    22557574.5134   22557577.2514
        45.700          42.4004
 125710103.108 6  97955960.30243  23921825.725    23921824.4114   23921829.1054
        41.100          22.9004
 129979276.520 7                  24734201.514
        46.100
 104352652.041 8  81163313.516 8  19548723.346    19548723.514    19548728.583
        52.900          49.900
 129520483.260 7 100738174.181 6  24229485.990    24229486.216    24229494.906
        42.200          39.800
 113608117.472 7  88525902.36046  21618873.748    21618873.3514   21618875.0154
        46.800          36.0004
 132719116.468 7                  25255570.581
        44.200
 106057287.667 8  82642189.06748  20181989.070    20181988.6684   20181992.1614
        50.500          52.7004
 138697794.740 7                  26393270.849
        42.800
 130692758.081 6 101649967.224 6  24414503.258    24414503.298    24414515.876
        40.600          39.400
 113014195.945 8                  21126785.089    21126785.113
        48.100
 135585707.402 7                  25801054.346
        44.000
 113326140.052 7                  21222303.296    21222303.187
        45.400
 116940980.908 7  91122981.19947  22253077.065    22253076.4714   22253078.1184
        45.200          42.6004
 103223846.608 8  80285399.957 8  19323662.717    19323662.911    19323669.891
        52.100          48.800
 123613159.987 8                  23522752.032
        48.800
 122291208.823 6  95291951.09144  23271211.754    23271211.3434   23271215.6064
        41.500          26.7004
 106931431.262 8  83323325.14746  20348319.804    20348318.4004   20348318.0554
        48.700          40.7004
 25  1  1  1 15  0.0000000  0 27E34R21R11S31S35R06G03G24S33G12G20E15
                                R22R05G11E02G06E36R07R23E27R13G17R12
                                E30G14G19
 122606742.169 8                  23331236.521
        49.200
 119120157.672 8  92649162.480 7  22260404.763    22260404.845    22260412.828
        48.800          45.000
 117302269.187 7  91235245.746 7  21951476.098    21951476.394    21951483.604
        46.400          44.000
 198982150.193 7                  37865042.501
        45.200
 200918170.307 7                  38233474.231
        43.900
 124426622.342 5                  23317489.165    23317489.070
        33.500
 125615249.420 6  97882113.50945  23903758.989    23903758.6904   23903763.5794
        40.800          35.5004
 122883078.694 6  95753190.08146  23383822.378    23383821.9364   23383828.1534
        41.600          38.1004
 202135533.724 7                  38465089.402
        44.600
 118495595.258 7  92334351.91047  22548920.486    22548919.8384   22548922.3094
        45.100          42.5004
 125655804.612 6  97913649.86543  23911492.626    23911491.2854   23911496.1604
        40.500          22.9004
 129949675.954 7                  24728568.650
        46.000
 104363453.223 8  81171714.470 8  19550746.571    19550746.910    19550752.006
        52.600          49.900
 129537023.920 7 100751039.172 6  24232580.461    24232581.017    24232588.446
        42.300          39.300
 113574502.119 7  88499708.62246  21612476.834    21612476.4414   21612478.1754
        46.700          36.1004
 132753825.370 7                  25262175.355
        44.100
 106060018.352 8  82644316.88748  20182508.781    20182508.3884   20182511.7774
        50.300          52.8004
 138736209.955 7                  26400581.025
        42.500
 130640177.898 7 101609071.569 6  24404681.201    24404681.491    24404692.848
        42.800          40.600
 112982423.847 8                  21120845.895    21120845.340
        48.200
 135550838.245 7                  25794419.109
        44.200
 113280480.734 7                  21213753.883    21213752.926
        45.700
 116968316.186 7  91144281.41447  22258278.970    22258278.3804   22258279.8714
        45.300          42.6004
 103230008.087 8  80290192.247 8  19324815.949    19324816.254    19324823.208
        51.900          48.700
 123612407.910 8                  23522608.824
        48.800
 122343072.787 6  95332364.55044  23281081.673    23281081.2804   23281085.0634
        40.600          26.6004
 106940932.615 8  83330728.80846  20350127.644    20350126.2404   20350126.1334
        48.800          40.7004
 25  1  1  1 15 15.0000000  0 27E34R21R11S31S35R06G03G24S33G12G20E15
                                R22R05G11E02G06E36R07R23E27R13G17R12
                                E30G14G19
 122615045.816 8                  23332816.407
        48.900
 119168200.393 8  92686529.036 7  22269382.021    22269382.352    22269390.898
        49.000          45.000
 117364975.092 7  91284016.961 7  21963210.871    21963210.500    21963217.937
        46.900          43.800
 198982151.984 7                  37865041.843
        45.400
 200918205.909 7                  38233479.718
        44.000
 124394886.305 5                  23311543.790    23311542.787
        34.700
 125650145.002 6  97909304.89445  23910399.185    23910398.8724   23910404.2654
        41.000          35.6004
 122909878.097 7  95774072.74446  23388921.911    23388921.4554   23388927.9764
        42.000          38.1004
 202135524.893 7                  38465089.291
        44.900
 118450177.173 7  92298961.26347  22540277.649    22540277.0104   22540279.5624
        45.200          42.4004
 125601516.726 6  97871347.69543  23901162.322    23901160.9684   23901165.4554
        40.300          22.9004
 129920141.415 7                  24722948.450
        45.700
 104374353.146 8  81180192.176 8  19552788.815    19552788.921    19552793.869
        52.800          49.900
 129553733.589 7 100764035.568 6  24235706.514    24235707.070    24235715.067
        42.000          39.800
 113540981.078 7  88473588.37045  21606097.978    21606097.5854   21606099.2094
        46.400          35.9004
 132788588.638 7                  25268790.470
        44.100
 106062868.708 8  82646537.96248  20183051.216    20183050.8194   20183054.1634
        50.400          52.7004
 138774643.694 7                  26407894.592
        42.500
 130587594.649 6 101568173.543 6  24394857.808    24394858.275    24394869.896
        41.200          38.500
 112950743.718 8                  21114922.746    21114923.173
        48.500
 135516002.566 7                  25787789.846
        43.500
 113234951.909 7                  21205227.269    21205226.753
        45.700
 116995677.358 7  91165601.80847  22263485.540    22263484.9464   22263486.5524
        45.600          42.5004
 103236369.179 8  80295139.762 8  19326006.962    19326007.119    19326014.023
        52.000          48.700
 123611738.824 8                  23522481.392
        48.500
 122394986.227 6  95372816.55744  23290959.988    23290959.5864   23290964.1924
        41.100          26.5004
 106950496.631 8  83338181.29546  20351947.632    20351946.2194   20351946.0884
        48.700          40.7004
 25  1  1  1 15 30.0000000  0 27E34R21R11S31S35R06G03G24S33G12G20E15
                                R22R05G11E02G06E36R07R23E27R13G17R12
                                E30G14G19
 122623431.650 8                  23334412.410
        49.100
 119216252.689 8  92723903.049 7  22278361.720    22278361.830    22278370.493
        48.200          44.900
 117427758.210 7  91332848.252 7  21974959.712    21974959.760    21974967.134
        46.900          44.000
 198982157.311 7                  37865042.411
        45.200
 200918243.794 7                  38233488.370
        43.900
 124363284.188 5                  23305621.259    23305620.427
        34.500
 125685161.723 6  97936590.68045  23917062.228    23917061.9024   23917067.4434
        40.600          35.1004
 122936782.880 7  95795037.52346  23394041.671    23394041.2204   23394047.6674
        42.100          37.9004
 202135519.631 7                  38465087.743
        44.800
 118404827.132 7  92263623.64347  22531647.717    22531647.0914   22531649.7104
        45.400          42.4004
 125547244.258 6  97829057.52943  23890834.096    23890832.7374   23890837.5814
        40.300          22.7004
 129890677.446 7                  24717341.449
        45.900
 104385356.136 8  81188750.075 8  19554850.056    19554850.156    19554855.068
        52.900          49.800
 129570616.295 6 100777166.599 6  24238865.577    24238864.791    24238872.829
        40.500          39.600
 113507559.007 7  88447545.23845  21599738.019    21599737.6264   21599739.1354
        47.300          35.8004
 132823410.752 7                  25275417.242
        44.000
 106065843.067 8  82648855.65948  20183617.177    20183616.7804   20183620.1504
        50.300          52.6004
 138813100.314 7                  26415212.743
        42.700
 130535013.508 6 101527277.182 6  24385035.285    24385035.274    24385047.360
        41.000          38.800
 112919159.865 8                  21109018.940    21109019.151
        48.800
 135481205.060 7                  25781168.285
        44.000
 113189558.073 7                  21196726.449    21196725.989
        45.900
 117023069.098 7  91186946.02447  22268698.129    22268697.5214   22268699.0024
        45.700          42.3004
 103242934.217 8  80300245.921 8  19327235.619    19327235.984    19327243.017
        51.900          48.600
 123611157.346 8                  23522370.751
        48.700
 122446953.505 6  95413310.52444  23300849.399    23300849.0064   23300853.1234
        40.800          26.4004
 106960127.852 8  83345686.14846  20353780.441    20353779.0284   20353778.8684
        48.600          40.5004
 25  1  1  1 15 45.0000000  0 27E34R21R11S31S35R06G03G24S33G12G20E15
                                R22R05G11E02G06E36R07R23E27R13G17R12
                                E30G14G19
 122631899.806 8                  23336023.647
        49.000
 119264314.773 8  92761284.650 7  22287343.578    22287343.576    22287351.998
        48.600          44.800
 117490618.207 7  91381739.337 7  21986723.067    21986723.279    21986730.762
        47.400          44.000
 198982165.605 7                  37865047.321
        45.400
 200918285.627 7                  38233490.901
        44.100
 124331816.593 5                  23299722.077    23299723.314
        34.600
 125720299.561 6  97963970.85145  23923748.584    23923748.2454   23923753.5294
        40.400          34.7004
 122963793.000 7  95816084.38046  23399181.500    23399181.0494   23399187.4444
        42.000          37.9004
 202135516.639 7                  38465094.639
        45.100
 118359545.809 7  92228339.56147  22523031.166    22523030.5544   22523032.8494
        45.300          42.4004
 125492987.865 6  97786779.89943  23880509.258    23880507.8994   23880513.2714
        40.500          22.6004
 129861284.376 7                  24711748.347
        46.000
 104396462.204 8  81197388.151 8  19556930.598    19556930.797    19556935.611
        52.800          50.000
 129587672.421 6 100790432.347 6  24242055.280    24242054.914    24242063.229
        40.900          38.600
 113474236.252 7  88421579.49945  21593396.491    21593396.0894   21593397.9104
        47.000          35.8004
 132858291.836 7                  25282054.839
        43.700
 106068941.561 8  82651270.08648  20184206.872    20184206.4794   20184209.7604
        50.300          52.6004
 138851579.910 7                  26422535.314
        42.300
 130482435.115 7 101486382.962 6  24375212.596    24375213.449    24375225.088
        42.000          39.800
 112887672.674 8                  21103131.737    21103132.372
        48.200
 135446446.200 7                  25774553.955
        44.200
 113144300.596 7                  21188251.275    21188250.565
        45.600
 117050491.471 7  91208314.10747  22273916.072    22273915.4644   22273917.3194
        45.400          42.2004
 103249703.718 8  80305511.094 8  19328503.136    19328503.335    19328510.213
        52.200          48.700
 123610663.810 8                  23522277.001
        48.800
 122498974.509 6  95453846.34544  23310748.998    23310748.6054   23310752.2944
        41.000          26.3004
 106969826.533 8  83353243.56646  20355626.069    20355624.6564   20355624.4544
        48.600          40.5004
 25  1  1  1 16  0.0000000  0 27E34R21R11S31S35R06G03G24S33G12G20E15
                                R22R05G11E02G06E36R07R23E27R13G17R12
                                E30G14G19
 122640441.648 8                  23337649.017
        49.000
 119312377.947 8  92798667.120 7  22296325.299    22296325.429    22296334.025
        48.600          44.800
 117553546.142 7  91430683.244 7  21998499.454    21998499.356    21998507.307
        47.200          44.300
 198982168.118 7                  37865045.058
        45.500
 200918322.354 7                  38233493.705
        43.900
 124300475.637 5                  23293848.737    23293851.014
        34.600
 125755549.658 6  97991438.48145  23930457.071    23930456.7414   23930461.3124
        41.100          35.4004
 122990899.611 7  95837206.43046  23404339.753    23404339.2974   23404345.7554
        42.200          38.0004
 202135509.118 7                  38465092.555
        45.100
 118314324.910 7  92193102.57247  22514425.729    22514425.1084   22514427.5074
        46.000          42.4004
 125438739.385 6  97744508.43943  23870186.888    23870185.5344   23870189.8514
        40.100          22.3004
 129831953.757 7                  24706166.701
        46.100
 104407662.472 8  81206099.489 8  19559028.601    19559028.892    19559033.893
        53.000          49.800
 129604893.117 6 100803826.249 6  24245276.524    24245276.454    24245285.225
        40.500          38.600
 113441004.455 7  88395684.63445  21587073.045    21587072.6484   21587074.0784
        46.900          35.9004
 132893223.348 7                  25288701.881
        44.100
 106072155.544 8  82653774.50448  20184818.482    20184818.0984   20184821.3484
        50.600          52.6004
 138890073.798 7                  26429860.535
        43.100
 130429851.654 7 101445484.819 6  24365390.892    24365390.493    24365402.208
        42.400          39.900
 112856273.490 8                  21097262.513    21097262.683
        48.100
 135411717.640 7                  25767944.948
        44.100
 113099170.812 7                  21179799.185    21179799.247
        46.100
 117077936.095 7  91229699.52947  22279138.912    22279138.3134   22279139.7944
        45.800          42.1004
 103256668.756 8  80310928.365 8  19329806.950    19329807.185    19329814.048
        52.200          48.800
 123610249.815 8                  23522198.075
        48.700
 122551040.650 6  95494417.34244  23320656.423    23320656.0394   23320660.1884
        40.600          26.3004
 106979584.216 8  83360846.97146  20357482.705    20357481.2884   20357481.2774
        49.000          40.5004
 25  1  1  1 16 15.0000000  0 27E34R21R11S31S35R06G03G24S33G12G20E15
                                R22R05G11E02G06E36R07R23E27R13G17R12
                                E30G14G19
 122649066.640 8                  23339290.461
        48.700
 119360451.522 8  92836057.666 7  22305308.449    22305309.004    22305317.604
        48.600          44.600
 117616551.156 7  91479687.113 7  22010289.648    22010289.455    22010297.903
        47.000          44.200
 198982175.593 7                  37865047.138
        45.500
 200918362.412 7                  38233502.818
        43.900
 124269271.275 5                  23288003.054    23288002.883
        33.500
 125790921.423 6  98019000.91745  23937187.903    23937187.5684   23937192.6694
        40.800          35.3004
 123018111.991 7  95858410.89146  23409517.873    23409517.4224   23409524.1544
        42.200          38.2004
 202135505.830 7                  38465091.213
        45.000
 118269174.497 7  92157920.50747  22505833.689    22505833.0814   22505835.6864
        45.400          42.7004
 125384508.722 6  97702250.84843  23859866.434    23859865.0934   23859869.9724
        41.000          23.2004
 129802695.255 7                  24700599.023
        45.900
 104418966.488 8  81214891.500 8  19561146.289    19561146.616    19561151.551
        53.500          49.900
 129622288.152 6 100817355.640 6  24248531.860    24248531.576    24248539.373
        40.800          38.900
 113407873.326 7  88369868.20946  21580768.394    21580767.9924   21580769.4174
        47.400          36.2004
 132928214.789 7                  25295360.480
        43.600
 106075494.473 8  82656376.27948  20185453.662    20185453.2824   20185456.7034
        50.800          52.8004
 138928591.401 7                  26437190.065
        42.500
 130377272.905 6 101404590.337 6  24355567.595    24355567.720    24355579.815
        40.800          38.700
 112824972.125 8                  21091410.639    21091411.046
        48.200
 135377029.222 7                  25761344.001
        44.000
 113054179.118 7                  21171374.326    21171373.664
        45.500
 117105412.522 7  91251109.73247  22284367.430    22284366.8274   22284368.2434
        45.800          42.2004
 103263839.548 8  80316505.656 8  19331149.391    19331149.633    19331156.447
        52.100          48.800
 123609925.114 8                  23522136.469
        48.600
 122603161.234 6  95535030.74444  23330575.066    23330574.6824   23330578.6634
        40.300          26.5004
 106989410.460 8  83368503.78946  20359352.530    20359351.1094   20359351.1534
        49.000          40.7004
 25  1  1  1 16 30.0000000  0 27E34R21R11S31S35R06G03G24S33G12G20E15
                                R22R05G11E02G06E36R07R23E27R13G17R12
                                E30G14G19
 122657765.364 8                  23340945.786
        48.900
 119408525.997 8  92873448.922 7  22314293.042    22314293.084    22314301.125
        48.700          44.600
 117679623.503 7  91528743.375 7  22022093.280    22022092.562    22022100.536
        46.100          43.200
 198982178.225 7                  37865050.684
        45.200
 200918399.050 7                  38233510.205
        43.600
 124238194.749 5                  23282179.401    23282178.286
        34.000
 125826405.249 6  98046650.67745  23943939.936    23943939.6234   23943945.2394
        41.400          35.3004
 123045420.576 6  95879690.32246  23414714.335    23414713.8794   23414720.8104
        41.900          38.2004
 202135497.417 7                  38465083.786
        44.600
 118224085.426 7  92122786.23747  22497253.829    22497253.2214   22497255.3364
        46.200          42.7004
 125330286.950 6  97660000.17443  23849548.482    23849547.1414   23849551.5604
        40.900          23.1004
 129773499.635 7                  24695043.059
        46.000
 104430364.557 8  81223756.691 8  19563281.466    19563281.821    19563286.652
        52.900          49.700
 129639847.845 6 100831013.169 6  24251814.965    24251816.100    24251824.365
        41.200          38.500
 113374833.670 7  88344123.06546  21574480.861    21574480.4594   21574482.0744
        47.400          36.2004
 132963256.798 7                  25302028.513
        43.800
 106078948.918 8  82659068.07048  20186111.105    20186110.7304   20186114.0684
        50.600          52.9004
 138967123.279 7                  26444522.468
        42.600
 130324690.658 6 101363693.170 6  24345745.546    24345744.517    24345756.778
        40.400          38.900
 112793759.151 8                  21085575.700    21085576.330
        48.600
 135342371.844 7                  25754749.231
        44.000
 113009316.534 7                  21162972.908    21162972.362
        46.400
 117132911.670 7  91272537.63847  22289600.285    22289599.6824   22289601.1104
        45.600          42.1004
 103271206.268 8  80322235.353 8  19332528.109    19332528.628    19332535.523
        52.200          48.600
 123609680.468 8                  23522089.758
        48.700
 122655326.775 6  95575679.18444  23340501.556    23340501.1814   23340505.6654
        40.900          26.4004
 106999296.099 8  83376206.89446  20361233.692    20361232.2624   20361232.3294
        48.900          40.6004
 25  1  1  1 16 45.0000000  0 27E34R21R11S31S35R06G03G24S33G12G20E15
                                R22R05G11E02G06E36R07R23E27R13G17R12
                                E30G14G19
 122666546.996 8                  23342616.774
        48.800
 119456610.746 8  92910848.171 7  22323278.534    22323279.122    22323287.133
        49.000          44.500
 117742772.196 7  91577858.997 7  22033910.160    22033910.171    22033918.704
        47.200          44.000
 198982184.996 7                  37865055.236
        45.400
 200918439.388 7                  38233525.650
        44.200
 124207255.994 5                  23276379.676    23276381.104
        33.700
 125862010.154 6  98074394.79645  23950715.143    23950714.8304   23950720.3694
        40.800          34.9004
 123072834.283 7  95901051.66446  23419931.289    23419930.8294   23419937.5254
        42.300          38.1004
 202135493.512 7                  38465086.634
        44.900
 118179067.464 7  92087707.37547  22488686.671    22488686.0504   22488688.6504
        46.400          42.7004
 125276083.781 6  97617764.02143  23839233.714    23839232.3774   23839236.9394
        40.500          22.8004
 129744376.299 7                  24689501.207
        46.300
 104441865.844 8  81232702.150 8  19565435.916    19565436.186    19565441.188
        52.700          49.800
 129657581.447 6 100844805.921 6  24255133.105    24255133.185    24255141.209
        41.500          38.800
 113341894.950 7  88318456.57046  21568212.888    21568212.4864   21568213.9374
        47.500          36.1004
 132998358.613 7                  25308708.478
        43.900
 106082528.042 8  82661857.01248  20186792.321    20186791.9554   20186795.1364
        50.900          52.8004
 139005678.566 7                  26451859.437
        42.800
 130272114.490 7 101322800.716 6  24335922.534    24335923.216    24335935.145
        42.900          39.600
 112762643.913 8                  21079759.202    21079759.241
        48.200
 135307755.007 7                  25748161.423
        44.300
 112964593.345 7                  21154597.280    21154597.209
        46.100
 117160442.506 7  91293990.24447  22294839.440    22294838.8374   22294840.0764
        45.800          42.0004
 103278778.421 8  80328124.815 8  19333945.891    19333946.011    19333953.009
        52.100          48.500
 123609525.287 8                  23522060.149
        48.700
 122707546.370 6  95616369.75344  23350438.648    23350438.2824   23350442.7874
        41.000          26.4004
 107009250.379 8  83383963.48346  20363128.133    20363126.7034   20363126.5764
        48.800          40.6004
 25  1  1  1 17  0.0000000  0 27E34R21R11S31S35R06G03G24S33G12G20E15
                                R22R05G11E02G06E36R07R23E27R13G17R12
                                E30G14G19
 122675406.650 8                  23344302.671
        48.900
 119504700.450 8  92948251.271 7  22332264.943    22332265.545    22332274.155
        48.800          45.000
 117805991.958 7  91627029.892 7  22045741.493    22045741.833    22045749.029
        47.200          44.000
 198982191.579 7                  37865051.766
        45.500
 200918478.987 7                  38233527.890
        44.000
 124176450.461 5                  23270608.032    23270607.162
        33.800
 125897731.093 6  98102229.31845  23957512.578    23957512.2614   23957517.8484
        41.200          35.5004
 123100348.088 6  95922490.99746  23425167.217    23425166.7614   23425173.2724
        41.900          38.1004
 202135488.876 7                  38465084.806
        45.200
 118134116.136 7  92052680.43647  22480132.720    22480132.1034   22480134.6914
        46.100          42.6004
 125221894.736 6  97575538.84543  23828922.209    23828920.8994   23828925.1234
        41.500          22.9004
 129715320.530 7                  24683971.950
        46.400
 104453465.324 8  81241723.976 8  19567609.034    19567609.180    19567614.208
        52.800          49.900
 129675483.780 6 100858729.905 6  24258482.020    24258482.869    24258490.969
        40.800          39.500
 113309052.494 7  88292865.08346  21561963.165    21561962.7594   21561964.2464
        47.300          36.1004
 133033515.374 7                  25315398.620
        43.800
 106086226.926 8  82664739.27248  20187496.025    20187495.6594   20187499.0014
        51.100          52.7004
 139044252.304 7                  26459199.883
        43.100
 130219539.838 6 101281909.476 6  24326100.791    24326101.444    24326113.293
        41.600          39.500
 112731621.680 7                  21073959.756    21073959.752
        47.700
 135273174.152 7                  25741581.035
        44.100
 112920004.753 7                  21146247.474    21146246.790
        45.900
 117188000.456 7  91315463.97546  22300083.621    22300083.0314   22300084.1724
        45.300          41.8004
 103286551.147 8  80334170.275 8  19335401.150    19335401.212    19335408.008
        52.000          48.700
 123609454.928 8                  23522046.663
        48.900
 122759814.998 6  95657098.51844  23360384.698    23360384.3234   23360388.9004
        40.300          26.1004
 107019268.450 8  83391769.78246  20365034.394    20365032.9594   20365032.9224
        48.600          40.4004
 25  1  1  1 17 15.0000000  0 27E34R21R11S31S35R06G03G24S33G12G20E15
                                R22R05G11E02G06E36R07R23E27R13G17R12
                                E30G14G19
 122684342.796 8                  23346003.144
        49.200
 119552793.645 8  92985657.056 7  22341252.958    22341253.145    22341261.352
        48.900          44.900
 117869280.790 7  91676254.494 7  22057585.022    22057584.734    22057592.963
        46.500          43.700
 198982196.467 7                  37865055.254
        45.100
 200918517.599 7                  38233537.791
        43.700
 124145777.170 5                  23264860.000    23264858.574
        32.500
 125933566.411 6  98130152.96845  23964331.843    23964331.5304   23964337.3944
        41.700          35.5004
 123127960.238 7  95944006.97046  23430421.523    23430421.0724   23430427.7154
        42.300          38.0004
 202135483.251 7                  38465085.695
        44.900
 118089230.292 7  92017704.52547  22471591.212    22471590.6094   22471593.1144
        45.600          42.6004
 125167718.768 6  97533323.88043  23818612.706    23818611.3964   23818615.9624
        40.500          23.1004
 129686330.960 7                  24678455.206
        46.500
 104465161.294 8  81250820.842 8  19569800.100    19569800.284    19569805.424
        52.700          49.900
 129693553.495 6 100872784.070 6  24261862.587    24261862.606    24261871.131
        40.200          39.700
 113276305.034 7  88267347.62446  21555731.628    21555731.2314   21555732.5524
        47.500          36.2004
 133068725.618 7                  25322098.830
        44.000
 106090044.042 8  82667713.66348  20188222.284    20188221.9184   20188225.3584
        51.000          52.6004
 139082842.975 7                  26466543.007
        43.200
 130166966.192 7 101241018.932 6  24316280.914    24316280.420    24316292.126
        42.300          40.100
 112700690.902 8                  21068177.781    21068177.663
        48.100
 135238628.066 7                  25735007.250
        44.300
 112875550.120 7                  21137922.505    21137921.943
        45.900
 117215584.104 7  91336957.72346  22305332.603    22305332.0184   22305333.1594
        45.900          41.7004
 103294523.162 8  80340370.741 8  19336893.163    19336893.522    19336900.524
        52.300          48.800
 123609468.074 8                  23522049.136
        49.000
 122812131.010 6  95697864.19144  23370340.754    23370340.3744   23370344.2444
        40.900          26.3004
 107029348.933 8  83399624.71846  20366952.788    20366951.3584   20366951.1724
        48.700          40.4004
 25  1  1  1 17 30.0000000  0 27E34R21R11S31S35R06G03G24S33G12G20E15
                                R22R05G11E02G06E36R07R23E27R13G17R12
                                E30G14G19
 122693355.846 8                  23347718.261
        49.200
 119600890.615 8  93023065.799 7  22350240.902    22350241.021    22350249.009
        48.800          44.200
 117932638.842 7  91725532.939 7  22069441.760    22069441.594    22069448.736
        47.100          43.400
 198982200.250 7                  37865056.157
        45.200
 200918554.325 7                  38233540.335
        43.800
 124115237.289 5                  23259137.865    23259136.247
        34.600
 125969516.346 6  98158165.93445  23971172.858    23971172.5454   23971178.1234
        40.400          34.5004
 123155670.949 6  95965599.74146  23435694.474    23435694.0324   23435700.7824
        41.400          37.9004
 202135476.535 7                  38465079.712
        44.900
 118044411.046 7  91982780.50947  22463062.385    22463061.7954   22463064.1604
        45.400          42.6004
 125113556.731 6  97491119.75643  23808305.971    23808304.6754   23808309.3734
        40.600          23.3004
 129657408.222 7                  24672951.832
        46.700
 104476954.077 8  81259993.005 8  19572009.524    19572009.493    19572014.491
        52.900          49.800
 129711790.893 6 100886968.652 6  24265276.308    24265275.626    24265282.675
        41.300          39.100
 113243653.208 7  88241904.67946  21549517.881    21549517.4794   21549519.0404
        47.100          36.1004
 133103989.801 7                  25328809.393
        44.100
 106093979.763 8  82670780.47448  20188971.414    20188971.0484   20188974.2964
        50.700          52.7004
 139121450.929 7                  26473890.229
        43.000
 130114394.330 6 101200129.842 6  24306459.793    24306459.279    24306471.964
        41.200          39.100
 112669852.437 8                  21062412.623    21062412.833
        48.800
 135204117.480 7                  25728440.169
        44.500
 112831230.476 7                  21129622.872    21129622.031
        45.600
 117243194.095 7  91358472.00746  22310586.688    22310586.0984   22310587.0924
        45.100          41.6004
 103302695.012 8  80346726.611 8  19338423.236    19338423.371    19338430.239
        52.400          48.700
 123609565.373 8                  23522067.756
        49.100
 122864494.774 6  95738667.08944  23380304.534    23380304.1504   23380308.8794
        41.000          26.5004
 107039492.498 8  83407528.80846  20368882.951    20368881.5254   20368881.4514
        48.400          40.4004
 25  1  1  1 17 45.0000000  0 27E34R21R11S31S35R06G03G24S33G12G20E15
                                R22R05G11E02G06E36R07R23E27R13G17R12
                                E30G14G19
 122702448.476 8                  23349448.619
        49.000
 119648993.995 8  93060479.534 7  22359230.004    22359230.230    22359238.683
        48.400          44.400
 117996068.536 7  91774867.110 7  22081311.207    22081311.069    22081320.201
        46.500          44.300
 198982205.266 7                  37865058.791
        45.500
 200918592.839 7                  38233547.977
        43.900
 124084834.101 5                  23253438.904    23253438.658
        33.800
 126005583.447 6  98186270.20645  23978036.548    23978036.2224   23978041.5814
        40.100          34.7004
 123183482.722 6  95987271.26746  23440986.904    23440986.4714   23440993.0684
        41.100          37.7004
 202135470.215 7                  38465076.667
        44.500
 117999661.390 7  91947910.71547  22454547.261    22454546.6764   22454548.4834
        45.700          42.5004
 125059411.739 6  97448928.90543  23798002.283    23798001.0144   23798005.1004
        41.300          22.7004
 129628555.175 7                  24667461.202
        46.500
 104488846.294 8  81269242.535 8  19574237.202    19574237.359    19574242.191
        53.200          50.000
 129730198.663 6 100901285.782 6  24268718.598    24268718.905    24268725.569
        40.800          38.300
 113211099.955 7  88216538.54746  21543323.605    21543323.2034   21543324.2604
        47.000          36.1004
 133139310.642 7                  25335530.799
        44.100
 106098036.781 8  82673941.80048  20189743.566    20189743.2004   20189746.2954
        50.900          52.6004
 139160078.844 7                  26481240.630
        43.000
 130061827.763 6 101159244.821 6  24296639.791    24296639.551    24296651.498
        41.800          39.600
 112639108.793 8                  21056665.637    21056665.904
        48.700
 135169645.419 7                  25721879.963
        44.500
 112787049.128 7                  21121348.930    21121348.626
        45.900
 117270833.181 7  91380008.95346  22315846.036    22315845.4604   22315846.5524
        45.200          41.5004
 103311069.455 8  80353240.091 8  19339990.784    19339991.109    19339997.820
        52.300          48.900
 123609749.771 8                  23522102.978
        49.100
 122916908.852 6  95779509.19144  23390279.091    23390278.6944   23390283.1194
        40.300          25.9004
 107049701.973 8  83415484.25446  20370825.768    20370824.3474   20370824.2154
        48.500          40.3004
 25  1  1  1 18  0.0000000  0 27E34R21R11S31S35R06G03G24S33G12G20E15
                                R22R05G11E02G06E36R07R23E27R13G17R12
                                E30G14G19
 122711619.475 8                  23351193.762
        49.000
 119697102.664 8  93097897.393 7  22368220.530    22368220.633    22368228.902
        48.200          44.400
 118059568.207 7  91824255.746 7  22093195.051    22093194.929    22093202.474
        46.800          44.000
 198982210.797 7                  37865054.543
        45.500
 200918632.492 7                  38233554.456
        43.600
 124054566.879 5                  23247766.215    23247765.935
        32.000
 126041766.326 6  98214464.69345  23984921.446    23984921.1164   23984926.6814
        40.800          34.7004
 123211394.154 6  96009020.44446  23446298.810    23446298.3864   23446304.5064
        41.900          38.0004
 202135465.405 7                  38465076.417
        44.600
 117954980.395 7  91913094.42947  22446044.292    22446043.7114   22446046.0554
        46.400          42.8004
 125005283.135 6  97406750.83643  23787702.193    23787700.9064   23787704.7454
        40.900          23.0004
 129599770.803 7                  24661983.616
        46.500
 104500836.580 8  81278568.330 8  19576483.385    19576483.633    19576488.322
        53.000          49.900
 129748775.794 6 100915734.777 6  24272192.642    24272192.416    24272201.178
        39.700          38.900
 113178644.291 7  88191248.46046  21537147.217    21537146.8244   21537148.1624
        47.600          36.3004
 133174686.972 7                  25342262.446
        43.600
 106102213.844 8  82677196.67148  20190538.160    20190537.7804   20190541.1494
        51.000          52.8004
 139198725.428 7                  26488594.917
        42.900
 130009266.244 6 101118363.762 6  24286820.798    24286820.275    24286832.307
        41.900          39.500
 112608458.909 7                  21050935.430    21050935.717
        47.800
 135135210.996 7                  25715327.198
        44.400
 112743005.484 7                  21113101.080    21113100.615
        45.600
 117298500.239 7  91401567.70746  22321110.981    22321110.4144   22321111.4094
        45.300          41.6004
 103319645.401 8  80359910.290 8  19341596.033    19341596.497    19341603.227
        52.300          48.700
 123610020.227 8                  23522154.443
        48.900
 122969371.939 6  95820389.47644  23400262.591    23400262.1764   23400266.5314
        40.700          26.3004
 107059976.158 8  83423490.12346  20372780.730    20372779.3004   20372779.3204
        48.600          40.4004
 25  1  1  1 18 15.0000000  0 27E34R21R11S31S35R06G03G24S33G12G20E15
                                R22R05G11E02G06E36R07R23E27R13G17R12
                                E30G14G19
 122720866.673 8                  23352953.479
        48.600
 119745214.206 7  93135317.486 7  22377210.388    22377210.718    22377219.305
        47.600          44.200
 118123135.539 7  91873696.926 7  22105090.838    22105090.666    22105098.166
        47.600          43.900
 198982215.362 7                  37865054.427
        45.200
 200918670.288 7                  38233566.664
        43.900
 124024434.137 5                  23242119.666    23242119.626
        33.400
 126078062.647 6  98242747.56345  23991828.207    23991827.8774   23991833.4114
        40.800          35.0004
 123239402.853 6  96030845.41446  23451628.366    23451627.9284   23451634.3454
        41.200          37.8004
 202135458.795 7                  38465077.244
        44.400
 117910366.475 7  91878330.41047  22437554.391    22437553.8014   22437556.3044
        46.100          42.7004
 124951169.247 6  97364584.22843  23777404.300    23777403.0174   23777407.3094
        41.000          23.4004
 129571053.145 7                  24656518.869
        46.300
 104512922.691 8  81287968.640 8  19578747.445    19578747.647    19578752.600
        52.700          50.000
 129767519.777 6 100930313.448 6  24275699.991    24275700.717    24275707.919
        41.200          40.200
 113146284.311 7  88166032.92446  21530989.295    21530988.8894   21530990.2424
        47.600          36.2004
 133210116.714 7                  25349004.761
        43.000
 106106508.775 8  82680543.38348  20191355.405    20191355.0254   20191358.4234
        51.000          52.7004
 139237388.510 7                  26495952.335
        42.700
 129956707.955 6 101077485.240 6  24277001.817    24277001.817    24277013.916
        41.000          39.400
 112577900.872 8                  21045223.709    21045223.545
        48.300
 135100812.376 7                  25708781.317
        44.000
 112699098.034 7                  21104878.588    21104877.865
        45.900
 117326193.285 7  91423146.70346  22326380.710    22326380.1384   22326381.1714
        46.000          41.5004
 103328420.632 8  80366735.478 8  19343238.782    19343239.349    19343245.994
        52.200          48.700
 123610374.820 8                  23522221.740
        48.700
 123021881.829 6  95861306.24144  23410254.769    23410254.3584   23410259.3244
        40.300          26.3004
 107070313.091 8  83431544.88646  20374747.880    20374746.4454   20374746.3734
        48.300          40.4004
 25  1  1  1 18 30.0000000  0 27E34R21R11S31S35R06G03G24S33G12G20E15
                                R22R05G11E02G06E36R07R23E27R13G17R12
                                E30G14G19
 122730192.017 8                  23354727.891
        48.500
 119793330.547 8  93172741.288 7  22386202.954    22386202.686    22386211.143
        48.100          44.300
 118186772.079 7  91923192.011 7  22116998.423    22116998.928    22117007.206
        47.400          44.000
 198982220.229 7                  37865051.082
        45.200
 200918708.776 7                  38233571.681
        44.000
 123994438.558 5                  23236498.259    23236498.153
        32.900
 126114474.190 6  98271120.22445  23998757.229    23998756.9084   23998762.1054
        41.100          34.7004
 123267510.627 6  96052747.58746  23456977.235    23456976.7884   23456983.0314
        40.700          37.6004
 202135452.562 7                  38465074.185
        44.800
 117865822.260 7  91843620.69647  22429077.672    22429077.0784   22429079.6284
        45.800          42.7004
 124897072.382 6  97322430.88043  23767109.953    23767108.6754   23767113.1334
        41.000          23.1004
 129542404.286 7                  24651066.995
        46.400
 104525106.366 8  81297444.851 8  19581029.849    19581030.008    19581034.965
        52.800          50.000
 129786432.381 6 100945023.293 6  24279238.417    24279238.316    24279245.723
        41.400          39.300
 113114022.183 7  88140893.64546  21524850.018    21524849.6074   21524850.9104
        47.600          36.3004
 133245601.848 7                  25355757.310
        43.400
 106110923.497 8  82683983.44248  20192195.494    20192195.1194   20192198.5114
        51.200          52.7004
 139276069.986 7                  26503313.376
        42.700
 129904155.339 7 101036611.051 6  24267184.725    24267184.901    24267196.500
        42.200          40.500
 112547436.549 8                  21039528.327    21039528.245
        48.000
 135066451.803 7                  25702242.793
        44.200
 112655329.173 7                  21096682.315    21096682.132
        46.700
 117353914.530 7  91444747.68046  22331655.967    22331655.4044   22331656.2954
        45.800          41.5004
 103337397.297 8  80373717.342 8  19344919.534    19344919.709    19344926.573
        52.500          48.500
 123610815.738 8                  23522305.618
        48.700
 123074440.327 6  95902260.87944  23420256.300    23420255.8894   23420260.8684
        40.400          26.2004
 107080714.984 8  83439650.27046  20376727.413    20376725.9874   20376725.7824
        48.500          40.3004
 25  1  1  1 18 45.0000000  0 27E34R21R11S31S35R06G03G24S33G12G20E15
                                R22R05G11E02G06E36R07R23E27R13G17R12
                                E30G14G19
 122739595.532 8                  23356517.322
        48.400
 119841451.594 8  93210168.743 7  22395196.339    22395195.897    22395204.359
        49.000          44.500
 118250477.644 7  91972740.723 7  22128920.762    22128920.837    22128928.516
        46.800          43.600
 198982225.276 7                  37865058.075
        45.200
 200918748.783 7                  38233585.078
        44.100
 123964580.564 5                  23230903.170    23230902.924
        33.200
 126151000.895 6  98299582.61945  24005707.886    24005707.5474   24005712.8764
        41.100          34.7004
 123295717.227 6  96074726.76646  23462344.926    23462344.4844   23462350.4504
        41.100          37.6004
 202135448.426 7                  38465076.470
        45.000
 117821348.206 7  91808965.66147  22420614.504    22420613.9234   22420616.3894
        45.500          42.6004
 124842993.121 6  97280291.24743  23756819.174    23756817.8914   23756822.1014
        41.500          23.1004
 129513824.500 7                  24645628.312
        46.000
 104537387.628 8  81306996.937 8  19583330.354    19583330.627    19583335.548
        52.700          50.000
 129805513.789 6 100959864.329 6  24282806.426    24282806.872    24282815.469
        40.000          39.200
 113081858.206 7  88115830.84446  21518729.159    21518728.7484   21518730.2244
        47.400          36.4004
 133281142.458 7                  25362520.638
        43.600
 106115458.016 8  82687516.84648  20193058.440    20193058.0564   20193061.3824
        51.100          52.7004
 139314769.853 7                  26510677.379
        43.400
 129851609.225 6 100995741.925 6  24257368.538    24257368.876    24257380.533
        41.600          40.100
 112517066.388 8                  21033850.613    21033850.805
        48.100
 135032129.686 7                  25695711.391
        43.700
 112611699.737 7                  21088511.202    21088510.827
        46.400
 117381664.006 7  91466370.65046  22336936.398    22336935.8314   22336936.8084
        45.400          41.5004
 103346575.649 8  80380856.057 8  19346637.579    19346637.858    19346644.740
        52.500          48.400
 123611343.246 8                  23522406.215
        48.700
 123127047.400 6  95943253.37044  23430267.799    23430267.3794   23430271.6464
        40.000          25.9004
 107091181.949 8  83447806.35346  20378719.175    20378717.7494   20378717.5854
        48.500          40.3004
 25  1  1  1 19  0.0000000  0 27E34R21R11S31S35R06G03G24S33G12G20E15
                                R22R05G11E02G06E36R07R23E27R13G17R12
                                E30G14G19
 122749072.626 8                  23358320.632
        48.400
 119889572.666 8  93247596.249 7  22404187.409    22404188.281    22404196.559
        48.400          44.500
 118314246.993 7  92022339.100 7  22140854.156    22140854.793    22140862.789
        46.600          43.600
 198982227.591 7                  37865055.334
        45.100
 200918783.907 7                  38233587.300
        44.200
 123934856.041 5                  23225330.992    23225332.592
        32.400
 126187637.970 6  98328131.03045  24012680.314    24012679.9844   24012684.6004
        40.700          34.9004
 123324017.952 6  96096779.29446  23467730.100    23467729.6584   23467735.8894
        41.400          37.9004
 202135439.913 7                  38465073.448
        45.200
 117776940.571 7  91774362.38847  22412164.537    22412163.9654   22412165.7654
        46.000          42.8004
 124788927.302 6  97238162.09043  23746531.232    23746529.9584   23746533.5994
        40.600          23.3004
 129485309.344 7                  24640202.035
        46.200
 104549761.603 8  81316621.161 8  19585648.519    19585648.828    19585653.682
        52.900          50.100
 129824759.427 6 100974833.327 6  24286406.304    24286407.038    24286416.516
        39.900          39.500
 113049788.011 7  88090841.11446  21512626.870    21512626.4594   21512627.4664
        47.700          36.5004
 133316733.987 7                  25369293.397
        43.300
 106120107.719 8  82691140.00648  20193943.378    20193942.9944   20193946.1694
        51.100          52.8004
 139353483.497 7                  26518044.313
        42.700
 129799065.680 7 100954874.812 6  24247553.681    24247554.107    24247564.588
        42.900          39.900
 112486785.768 8                  21028189.827    21028190.428
        48.100
 134997841.721 7                  25689186.424
        43.900
 112568205.691 7                  21080366.298    21080366.062
        45.900
 117409437.309 7  91488012.18646  22342221.704    22342221.1464   22342221.9304
        45.400          41.6004
 103355951.068 8  80388148.068 8  19348392.500    19348392.966    19348399.736
        52.500          48.300
 123611952.944 8                  23522522.090
        48.700
 123179698.326 6  95984280.04844  23440286.420    23440286.0094   23440291.1124
        39.800          26.5004
 107101709.591 8  83456009.72346  20380722.605    20380721.1794   20380720.9134
        48.500          40.4004
 25  1  1  1 19 15.0000000  0 27E34R21R11S31S35R06G03G24S33G12G20E15
                                R22R05G11E02G06E36R07R23E27R13G17R12
                                E30G14G19
 122758630.369 8                  23360139.605
        48.600
 119937701.014 7  93285029.369 7  22413181.790    22413181.715    22413190.249
        47.800          44.300
 118378087.297 7  92071992.636 7  22152801.593    22152801.689    22152809.234
        46.900          43.700
 198982233.655 7                  37865056.260
        45.600
 200918823.124 7                  38233591.504
        44.000
 123905272.798 5                  23219789.827    23219789.359
        33.900
 126224392.341 6  98356770.84245  24019674.363    24019674.0424   24019678.7954
        40.100          34.8004
 123352419.638 6  96118910.48346  23473134.797    23473134.3504   23473140.6854
        40.800          38.0004
 202135434.341 7                  38465075.183
        45.200
 117732605.956 7  91739816.01347  22403727.343    22403726.7714   22403729.1554
        46.200          43.0004
 124734882.548 6  97196049.34843  23736246.593    23736245.3374   23736248.9074
        41.200          23.2004
 129456866.099 7                  24634789.731
        46.500
 104562235.465 8  81326323.055 8  19587985.181    19587985.666    19587990.476
        52.700          50.000
 129844176.071 6 100989935.082 6  24290039.868    24290039.145    24290047.608
        38.200          38.800
 113017818.916 7  88065930.16946  21506543.196    21506542.7854   21506543.9484
        47.500          36.8004
 133352383.570 7                  25376077.235
        43.500
 106124879.682 8  82694858.43448  20194851.367    20194850.9834   20194854.2164
        51.100          53.1004
 139392217.955 7                  26525415.632
        43.100
 129746532.379 7 100914015.679 6  24237739.066    24237739.616    24237750.763
        42.100          38.800
 112456601.941 7                  21022547.282    21022547.451
        47.900
 134963595.364 7                  25682669.513
        44.500
 112524854.863 7                  21072247.786    21072247.679
        45.500
 117437241.774 7  91509678.00746  22347512.600    22347512.0594   22347513.0004
        45.400          41.9004
 103365530.873 8  80395599.029 8  19350185.940    19350186.243    19350193.120
        52.300          48.400
 123612652.153 8                  23522655.132
        49.000
 123232400.076 6  96025346.31744  23450315.420    23450315.0404   23450319.5264
        40.600          26.6004
 107112305.177 8  83464266.04046  20382738.738    20382737.3124   20382737.1814
        48.400          40.6004
 25  1  1  1 19 30.0000000  0 27E34R21R11S31S35R06G03G24S33G12G20E15
                                R22R05G11E02G06E36R07R23E27R13G17R12
                                E30G14G19
 122768263.487 8                  23361972.765
        48.400
 119985831.086 7  93322463.871 7  22422175.814    22422175.624    22422184.810
        47.900          44.300
 118441992.627 7  92121696.763 7  22164759.938    22164760.387    22164768.490
        46.900          43.700
 198982237.386 7                  37865058.558
        45.200
 200918860.725 7                  38233605.173
        44.000
 123875826.050 5                  23214270.641    23214269.959
        33.100
 126261258.547 6  98385497.79445  24026689.431    24026689.1054   24026694.3504
        39.700          34.8004
 123380916.797 6  96141116.07046  23478557.853    23478557.4114   23478563.4984
        40.700          37.8004
 202135427.389 7                  38465068.216
        45.000
 117688339.902 7  91705323.05547  22395303.981    22395303.4054   22395305.4904
        45.900          42.8004
 124680854.195 6  97153949.38543  23725965.389    23725964.1294   23725967.8474
        41.600          23.5004
 129428489.693 7                  24629389.667
        46.300
 104574803.660 8  81336098.335 8  19590339.998    19590340.190    19590344.960
        53.000          50.200
 129863758.552 6 101005165.952 6  24293703.137    24293703.725    24293711.007
        39.400          38.800
 112985945.891 7  88041094.08346  21500477.668    21500477.2574   21500478.7164
        47.900          36.6004
 133388085.976 7                  25382871.118
        43.300
 106129768.574 8  82698667.97548  20195781.626    20195781.2424   20195784.5294
        51.400          52.9004
 139430967.941 7                  26532789.276
        42.700
 129694005.072 7 100873161.203 6  24227925.946    24227927.257    24227938.757
        42.700          40.900
 112426509.698 7                  21016922.491    21016922.074
        47.800
 134929385.628 7                  25676159.737
        44.200
 112481642.399 7                  21064156.030    21064154.950
        45.300
 117465072.177 7  91531364.03846  22352808.434    22352807.8934   22352808.9754
        46.000          41.7004
 103375309.697 8  80403204.805 8  19352016.751    19352016.957    19352023.682
        52.300          48.300
 123613435.826 8                  23522804.328
        48.700
 123285147.282 6  96066448.00044  23460352.908    23460352.5244   23460356.9194
        40.200          26.0004
 107122963.566 8  83472571.28646  20384766.837    20384765.4114   20384765.4194
        48.600          40.4004
 25  1  1  1 19 45.0000000  0 27E34R21R11S31S35R06G03G24S33G12G20E15
                                R22R05G11E02G06E36R07R23E27R13G17R12
                                E30G14G19
 122777974.343 8                  23363820.379
        48.400
 120033965.244 8  93359901.528 7  22431171.540    22431171.353    22431180.432
        48.100          44.600
 118505965.132 7  92171453.099 7  22176731.645    22176731.653    22176739.815
        47.300          43.900
 198982242.114 7                  37865064.134
        45.600
 200918899.528 7                  38233608.867
        43.900
 123846519.019 5                  23208779.441    23208778.328
        33.200
 126298238.829 6  98414313.63945  24033726.505    24033726.1884   24033731.2674
        40.700          34.8004
 123409511.616 6  96163397.76346  23483999.113    23483998.6844   23484004.8014
        41.400          37.7004
 202135421.556 7                  38465067.093
        44.900
 117644145.334 7  91670885.79947  22386893.899    22386893.3324   22386895.4684
        46.300          42.8004
 124626845.017 6  97111864.37243  23715687.467    23715686.2074   23715690.1854
        40.500          23.3004
 129400182.641 7                  24624003.008
        46.300
 104587468.567 8  81345948.818 8  19592712.314    19592712.641    19592717.500
        52.700          50.200
 129883509.270 6 101020527.741 6  24297397.648    24297398.864    24297406.007
        41.700          39.900
 112954171.516 7  88016334.86846  21494431.255    21494430.8444   21494432.2064
        47.500          36.7004
 133423843.629 7                  25389675.745
        43.200
 106134776.751 8  82702570.46248  20196734.591    20196734.2024   20196737.5254
        51.400          52.9004
 139469735.733 7                  26540166.761
        42.800
 129641486.777 6 100832313.756 6  24218114.817    24218114.970    24218127.199
        41.100          39.800
 112396511.768 8                  21011314.544    21011314.740
        48.300
 134895215.226 7                  25669657.297
        44.100
 112438571.497 7                  21056089.936    21056089.413
        46.200
 117492931.036 7  91553072.23846  22358109.744    22358109.1994   22358110.3564
        46.300          41.8004
 103385290.060 8  80410967.305 8  19353885.189    19353885.321    19353892.056
        52.100          48.600
 123614306.544 8                  23522969.943
        48.700
 123337942.229 6  96107586.88444  23470398.641    23470398.2394   23470403.4034
        40.400          26.3004
 107133687.148 8  83480927.33346  20386807.615    20386806.1854   20386806.0314
        48.300          40.4004
 25  1  1  1 20  0.0000000  0 27E34R21R11S31S35R06G03G24S33G12G20E15
                                R22R05G11E02G06E36R07R23E27R13G17R12
                                E30G14G19
 122787764.761 8                  23365683.475
        48.500
 120082105.318 7  93397343.795 7  22440167.202    22440167.193    22440175.963
        47.900          44.000
 118570006.500 7  92221263.042 7  22188716.171    22188716.300    22188724.426
        46.300          43.600
 198982250.744 7                  37865062.453
        45.200
 200918941.238 7                  38233615.829
        43.900
 123817353.890 5                  23203312.859    23203313.478
        33.300
 126335334.831 6  98443219.66545  24040785.570    24040785.2494   24040790.1664
        40.900          34.6004
 123438205.715 6  96185756.81046  23489459.083    23489458.6544   23489465.0464
        41.200          37.8004
 202135418.646 7                  38465071.896
        45.000
 117600024.769 7  91636506.20847  22378497.935    22378497.3594   22378499.5494
        46.200          42.8004
 124572857.032 6  97069795.85543  23705413.960    23705412.7134   23705416.8644
        41.200          23.7004
 129371946.994 7                  24618629.882
        46.600
 104600231.848 8  81355875.820 8  19595103.294    19595103.649    19595108.400
        52.900          50.100
 129903430.072 6 101036021.726 6  24301124.873    24301125.183    24301133.055
        41.600          39.700
 112922497.902 7  87991654.16646  21488404.081    21488403.6704   21488404.8834
        47.600          36.7004
 133459658.392 7                  25396490.994
        43.300
 106139906.047 8  82706567.33548  20197710.725    20197710.3284   20197713.5874
        51.100          53.0004
 139508523.201 7                  26547547.769
        43.200
 129588979.761 7 100791475.060 6  24208306.631    24208307.459    24208318.785
        43.000          40.300
 112366609.775 8                  21005723.926    21005724.102
        48.000
 134861086.312 7                  25663162.974
        44.200
 112395644.283 7                  21048050.524    21048050.326
        45.800
 117520820.325 7  91574804.15446  22363416.869    22363416.3154   22363417.5154
        45.600          41.8004
 103395474.171 8  80418888.289 8  19355791.510    19355791.945    19355798.568
        52.700          48.300
 123615266.383 8                  23523152.704
        48.700
 123390786.656 6  96148764.33444  23480454.881    23480454.4524   23480459.4974
        40.800          26.5004
 107144477.929 8  83489335.74146  20388860.985    20388859.5554   20388859.4004
        48.400          40.5004
 25  1  1  1 20 15.0000000  0 27E34R21R11S31S35R06G03G24S33G12G20E15
                                R22R05G11E02G06E36R07R23E27R13G17R12
                                E30G14G19
 122797627.151 8                  23367560.143
        48.400
 120130243.413 8  93434784.518 7  22449163.153    22449163.136    22449172.117
        48.300          43.900
 118634108.485 7  92271120.099 7  22200711.360    22200712.254    22200719.826
        46.400          43.200
 198982253.885 7                  37865061.170
        44.800
 200918978.493 7                  38233623.377
        43.600
 123788323.586 5                  23197873.252    23197872.291
        33.300
 126372538.837 6  98472209.84245  24047864.885    24047864.5554   24047869.9344
        40.500          34.7004
 123466991.350 6  96208187.19646  23494936.858    23494936.4384   23494942.7164
        41.600          37.7004
 202135412.046 7                  38465070.478
        44.600
 117555970.781 7  91602178.50047  22370114.823    22370114.2424   22370116.2364
        45.900          42.8004
 124518883.174 6  97027738.36143  23695143.282    23695142.0354   23695145.2884
        40.900          23.4004
 129343775.319 7                  24613269.180
        46.200
 104613085.726 8  81365873.295 8  19597511.047    19597511.591    19597516.383
        52.900          50.100
 129923512.856 6 101051641.693 6  24304882.067    24304881.444    24304889.013
        40.100          38.900
 112890917.671 7  87967046.23046  21482394.516    21482394.1144   21482395.3364
        47.600          36.7004
 133495522.735 7                  25403315.870
        43.700
 106145148.804 8  82710652.61348  20198708.398    20198707.9964   20198711.2334
        51.200          52.9004
 139547322.649 7                  26554930.789
        43.100
 129536477.144 7 100750639.814 6  24198498.554    24198498.905    24198510.330
        42.300          39.500
 112336796.253 8                  21000150.923    21000150.882
        48.200
 134826991.626 7                  25656674.728
        43.700
 112352853.957 7                  21040037.771    21040037.750
        46.100
 117548732.641 7  91596554.01446  22368728.637    22368728.0744   22368729.0694
        45.800          41.8004
 103405854.156 8  80426961.620 8  19357734.517    19357735.040    19357741.756
        52.900          48.500
 123616307.942 8                  23523350.745
        48.800
 123443672.863 6  96189974.34544  23490518.940    23490518.5074   23490523.5364
        40.100          26.1004
 107155328.347 8  83497790.62346  20390925.683    20390924.2534   20390924.1454
        48.400          40.4004
 25  1  1  1 20 30.0000000  0 27E34R21R11S31S35R06G03G24S33G12G20E15
                                R22R05G11E02G06E36R07R23E27R13G17R12
                                E30G14G19
 122807565.370 8                  23369451.634
        48.300
 120178383.624 7  93472226.901 7  22458159.295    22458159.003    22458167.917
        47.500          44.100
 118698274.771 7  92321027.192 7  22212719.911    22212719.715    22212727.836
        46.100          43.300
 198982256.612 7                  37865066.196
        45.400
 200919014.776 7                  38233627.912
        43.500
 123759432.776 5                  23192457.246    23192458.574
        32.700
 126409854.483 6  98501287.01945  24054966.056    24054965.7174   24054970.7324
        39.900          34.3004
 123495872.107 6  96230691.69146  23500432.431    23500432.0114   23500438.5594
        40.800          37.7004
 202135402.880 7                  38465069.839
        44.900
 117511987.885 7  91567906.18347  22361744.948    22361744.3584   22361746.5484
        45.700          42.8004
 124464927.904 6  96985695.35343  23684875.460    23684874.2224   23684878.1474
        41.500          23.8004
 129315671.691 7                  24607921.047
        46.400
 104626034.016 8  81375944.189 8  19599936.940    19599937.232    19599941.885
        52.900          50.000
 129943761.587 6 101067390.697 6  24308668.939    24308668.971    24308678.020
        40.300          39.200
 112859434.923 7  87942514.26346  21476403.194    21476402.8014   21476404.3814
        47.400          36.9004
 133531440.554 7                  25410150.806
        42.900
 106150508.870 8  82714829.29948  20199728.396    20199727.9944   20199731.2054
        51.200          53.0004
 139586137.975 7                  26562317.011
        42.600
 129483983.349 7 100709811.383 6  24188692.626    24188692.534    24188704.097
        42.000          40.600
 112307075.224 8                  20994594.809    20994594.717
        48.200
 134792935.398 7                  25650193.916
        43.900
 112310204.932 7                  21032050.848    21032050.350
        46.000
 117576671.957 7  91618324.91147  22374045.288    22374044.7304   22374045.6854
        45.400          42.0004
 103416433.945 8  80435190.352 8  19359715.193    19359715.647    19359722.175
        52.700          48.600
 123617435.349 8                  23523565.253
        48.700
 123496604.585 6  96231219.81444  23500591.582    23500591.1534   23500596.2644
        40.200          26.3004
 107166242.488 8  83506295.15846  20393002.508    20393001.0734   20393001.0444
        48.300          40.4004
 25  1  1  1 20 45.0000000  0 27E34R21R11S31S35R06G03G24S33G12G20E15
                                R22R05G11E02G06E36R07R23E27R13G17R12
                                E30G14G19
 122817583.303 8                  23371357.706
        48.400
 120226529.692 8  93509673.840 7  22467156.742    22467156.936    22467165.367
        49.000          44.300
 118762509.064 7  92370987.179 7  22224739.895    22224740.742    22224749.096
        45.500          43.900
 198982263.094 7                  37865065.373
        45.500
 200919054.881 7                  38233638.635
        43.600
 123730685.775 5                  23187071.222    23187071.355
        33.800
 126447285.552 6  98530454.13245  24062088.928    24062088.5934   24062093.8034
        40.900          34.4004
 123524851.738 6  96253273.23846  23505947.437    23505947.0134   23505953.3094
        40.600          37.6004
 202135399.182 7                  38465065.059
        44.700
 117468080.362 7  91533692.59247  22353389.599    22353389.0094   22353391.0934
        45.500          42.8004
 124410995.628 6  96943670.26743  23674612.543    23674611.3004   23674615.1124
        41.200          23.6004
 129287640.188 7                  24602586.935
        46.300
 104639080.575 8  81386091.528 8  19602380.758    19602381.331    19602386.127
        52.700          50.000
 129964180.070 6 101083271.775 6  24312489.113    24312488.833    24312496.419
        39.900          39.200
 112828053.820 7  87918061.49246  21470431.768    21470431.3844   21470432.6904
        47.500          37.0004
 133567415.791 7                  25416996.409
        43.400
 106155990.140 8  82719100.43348  20200771.458    20200771.0564   20200774.2514
        51.200          53.1004
 139624973.044 7                  26569707.258
        42.800
 129431503.144 7 100668993.597 6  24178887.863    24178889.280    24178900.494
        42.600          40.700
 112277450.840 8                  20989056.404    20989057.301
        48.000
 134758921.812 7                  25643721.459
        43.900
 112267701.998 7                  21024090.982    21024090.683
        45.700
 117604642.275 7  91640119.96747  22379367.779    22379367.2214   22379368.3114
        45.900          42.1004
 103427217.863 8  80443577.861 8  19361734.079    19361734.236    19361740.920
        52.500          48.500
 123618652.693 8                  23523796.965
        48.800
 123549585.700 6  96272503.76144  23510673.782    23510673.3714   23510678.1544
        39.900          26.3004
 107177224.528 8  83514852.60546  20395092.424    20395090.9944   20395090.8654
        48.100          40.4004
 25  1  1  1 21  0.0000000  0 27E34R21R11S31S35R06G03G24S33G12G20E15
                                R22R05G11E02G06E36R07R23E27R13G17R12
                                E30G14G19
 122827674.933 8                  23373278.120
        48.400
 120274675.449 8  93547120.534 7  22476153.639    22476153.720    22476162.638
        48.100          44.200
 118826804.843 7  92420994.950 7  22236772.362    22236772.340    22236780.922
        45.800          43.700
 198982267.347 7                  37865069.161
        44.900
 200919092.996 7                  38233643.455
        43.600
 123702077.125 5                  23181708.105    23181709.504
        33.300
 126484825.832 6  98559706.35345  24069232.533    24069232.1984   24069237.7574
        40.000          35.0004
 123553923.967 6  96275926.93246  23511479.735    23511479.3114   23511485.5334
        40.700          37.6004
 202135392.468 7                  38465063.704
        44.600
 117424242.550 7  91499533.33147  22345047.394    22345046.8094   22345048.8924
        45.600          42.8004
 124357080.800 6  96901658.75844  23664352.889    23664351.6334   23664355.5914
        41.400          24.0004
 129259674.949 7                  24597265.235
        46.500
 104652219.110 8  81396310.385 8  19604842.314    19604842.619    19604847.460
        53.000          50.100
 129984762.565 6 101099280.417 6  24316339.371    24316339.816    24316347.045
        40.700          39.200
 112796768.523 7  87893683.37346  21464478.035    21464477.6514   21464479.2754
        47.400          37.1004
 133603442.478 7                  25423852.319
        43.500
 106161586.518 8  82723461.25948  20201836.319    20201835.9174   20201839.2094
        51.000          53.1004
 139663821.757 7                  26577099.801
        43.300
 129379031.001 7 100628182.024 6  24169086.350    24169086.325    24169097.910
        42.200          40.400
 112247917.030 8                  20983535.434    20983535.755
        48.100
 134724945.179 7                  25637255.578
        44.000
 112225339.720 7                  21016158.056    21016158.173
        46.200
 117632637.779 7  91661934.64547  22384694.986    22384694.4104   22384695.7404
        45.900          42.2004
 103438199.781 8  80452119.350 8  19363789.908    19363790.136    19363796.816
        52.600          48.500
 123619954.183 8                  23524044.664
        48.600
 123602610.031 6  96313821.39044  23520763.840    23520763.4294   23520768.0304
        39.800          26.3004
 107188268.507 8  83523458.31346  20397193.985    20397192.5554   20397192.4614
        48.100          40.4004
 25  1  1  1 21 15.0000000  0 27E34R21R11S31S35R06G03G24S33G12G20E15
                                R22R05G11E02G06E36R07R23E27R13G17R12
                                E30G14G19
 122837845.881 8                  23375213.657
        48.600
 120322826.572 8  93584571.407 7  22485151.607    22485152.150    22485160.866
        48.400          43.900
 118891167.566 7  92471054.818 7  22248817.229    22248817.102    22248824.983
        46.000          43.700
 198982274.560 7                  37865064.980
        44.900
 200919133.792 7                  38233658.940
        43.800
 123673613.195 5                  23176377.818    23176376.446
        34.600
 126522480.827 6  98589047.96045  24076398.213    24076397.8834   24076403.4564
        40.100          34.8004
 123583094.300 6  96298657.08046  23517030.332    23517029.8994   23517036.4624
        41.500          37.6004
 202135388.552 7                  38465061.938
        44.400
 117380480.673 7  91465433.23247  22336719.781    22336719.1874   22336721.3094
        46.000          42.9004
 124303189.615 6  96859665.68944  23654097.377    23654096.1124   23654100.6134
        41.200          24.2004
 129231781.809 7                  24591957.224
        46.700
 104665455.251 8  81406605.173 8  19607321.612    19607321.996    19607327.033
        52.500          50.000
 130005514.342 6 101115420.772 6  24320221.658    24320220.961    24320229.817
        40.400          39.900
 112765584.902 7  87869384.48846  21458544.140    21458543.7564   21458545.1904
        47.400          37.1004
 133639526.295 7                  25430718.719
        43.300
 106167303.650 8  82727916.18048  20202924.295    20202923.8934   20202927.1324
        51.000          53.1004
 139702689.744 7                  26584496.446
        42.900
 129326573.445 7 100587381.759 6  24159286.767    24159287.417    24159298.716
        42.700          40.400
 112218479.751 8                  20978032.925    20978032.748
        48.000
 134691011.490 7                  25630798.002
        44.300
 112183124.146 7                  21008252.608    21008251.906
        45.700
 117660664.297 7  91683773.49047  22390028.437    22390027.8614   22390029.0354
        45.500          42.3004
 103449385.414 8  80460819.295 8  19365883.861    19365884.152    19365890.846
        52.600          48.400
 123621345.700 8                  23524309.417
        48.900
 123655683.142 6  96355177.04444  23530863.208    23530862.8064   23530867.6064
        40.100          26.2004
 107199380.120 8  83532116.72446  20399308.548    20399307.1134   20399306.9124
        48.200          40.4004
 25  1  1  1 21 30.0000000  0 27E34R21R11S31S35R06G03G24S33G12G20E15
                                R22R05G11E02G06E36R07R23E27R13G17R12
                                E30G14G19
 122848089.554 8                  23377162.938
        48.500
 120370976.358 8  93622021.237 7  22494149.967    22494149.966    22494158.580
        48.200          43.700
 118955590.149 7  92521161.233 7  22260872.959    22260873.312    22260881.702
        46.100          43.500
 198982279.021 7                  37865064.201
        45.000
 200919171.812 7                  38233657.787
        43.500
 123645287.808 5                  23171067.688    23171067.454
        34.100
 126560243.760 6  98618473.68945  24083584.323    24083583.9844   24083589.1304
        40.200          34.4004
 123612355.847 6  96321458.29246  23522598.764    23522598.3264   23522604.9744
        41.200          37.5004
 202135382.819 7                  38465059.979
        44.500
 117336788.663 7  91431387.57847  22328405.165    22328404.5754   22328406.9314
        45.800          42.8004
 124249315.816 6  96817686.17544  23643845.652    23643844.3834   23643848.5384
        41.600          24.2004
 129203954.326 7                  24586661.632
        46.500
 104678782.192 8  81416970.573 8  19609818.519    19609818.762    19609823.661
        52.900          50.100
 130026428.991 6 101131687.828 6  24324134.194    24324133.886    24324141.485
        40.100          39.100
 112734496.626 7  87845159.89646  21452628.162    21452627.7824   21452629.3054
        47.800          37.1004
 133675660.693 7                  25437594.771
        43.400
 106173134.879 8  82732460.01048  20204034.072    20204033.6794   20204036.7704
        51.100          53.0004
 139741570.369 7                  26591895.121
        43.000
 129274124.518 7 100546588.245 6  24149488.281    24149489.511    24149500.121
        42.500          41.100
 112189132.473 8                  20972546.624    20972546.743
        48.200
 134657114.456 7                  25624347.605
        43.700
 112141049.222 7                  21000373.072    21000372.759
        46.300
 117688715.273 7  91705631.39347  22395366.243    22395365.6674   22395367.0394
        46.200          42.3004
 103460768.132 8  80469672.527 8  19368014.919    19368015.122    19368021.641
        53.000          48.300
 123622820.815 8                  23524590.103
        49.000
 123708798.308 6  96396565.46344  23540970.965    23540970.5634   23540975.1504
        39.700          26.2004
 107210552.946 8  83540822.82946  20401434.565    20401433.1354   20401432.9864
        48.100          40.2004
 25  1  1  1 21 45.0000000  0 27E34R21R11S31S35R06G03G24S33G12G20E15
                                R22R05G11E02G06E36R07R23E27R13G17R12
                                E30G14G19
 122858409.944 8                  23379126.789
        48.500
 120419128.916 8  93659473.217 7  22503148.494    22503148.816    22503157.028
        49.000          43.900
 119020076.362 7  92571317.137 7  22272939.735    22272940.777    22272948.975
        45.900          44.000
 198982284.615 7                  37865065.726
        44.900
 200919210.962 7                  38233669.601
        43.600
 123617105.707 5                  23165785.017    23165787.009
        34.700
 126598118.469 6  98647986.51745  24090791.903    24090791.5734   24090796.0534
        39.300          34.2004
 123641712.478 6  96344333.60846  23528185.140    23528184.6934   23528191.2294
        41.200          37.3004
 202135377.099 7                  38465060.927
        44.500
 117293170.946 7  91397399.81247  22320105.256    22320104.6714   22320106.6114
        46.200          42.7004
 124195463.982 7  96775723.77144  23633597.932    23633596.6224   23633600.5584
        42.000          24.2004
 129176196.749 7                  24581379.802
        46.600
 104692203.958 8  81427409.730 8  19612332.496    19612333.093    19612338.059
        52.800          50.200
 130047510.190 6 101148084.313 6  24328077.409    24328077.482    24328085.072
        39.700          38.700
 112703507.935 7  87821012.90146  21446731.460    21446731.0804   21446732.3354
        47.800          37.3004
 133711849.706 7                  25444481.627
        43.500
 106179084.227 8  82737095.87948  20205166.261    20205165.8684   20205168.8824
        51.300          53.1004
 139780467.622 7                  26599297.212
        43.000
 129221688.753 6 100505804.978 6  24139692.765    24139692.924    24139705.153
        41.600          40.900
 112159879.366 7                  20967077.837    20967077.890
        47.400
 134623258.418 7                  25617905.228
        43.800
 112099119.618 7                  20992520.698    20992520.496
        45.700
 117716794.879 7  91727511.60447  22400709.731    22400709.1554   22400710.5074
        46.100          42.4004
 103472352.264 8  80478682.405 8  19370183.154    19370183.747    19370190.235
        53.100          48.400
 123624383.808 8                  23524887.556
        48.900
 123761959.430 6  96437989.68044  23551087.262    23551086.8694   23551091.3644
        40.300          26.1004
 107221791.088 8  83549579.83646  20403573.274    20403571.8484   20403571.5304
        48.500          40.3004
 25  1  1  1 22  0.0000000  0 27E34R21R11S31S35R06G03G24S33G12G20E15
                                R22R05G11E02G06E36R07R23E27R13G17R12
                                E30G14G19
 122868802.306 8                  23381104.243
        48.400
 120467279.138 8  93696923.388 7  22512146.319    22512146.392    22512155.193
        48.600          44.100
 119084621.078 7  92621518.554 7  22285018.810    22285019.515    22285028.151
        45.400          44.100
 198982286.215 7                  37865068.941
        45.100
 200919246.414 7                  38233675.959
        43.800
 123589062.475 5                  23160531.685    23160530.786
        33.800
 126636100.081 6  98677582.67645  24098018.887    24098018.5434   24098023.6264
        39.600          33.9004
 123671159.246 6  96367279.15446  23533788.997    23533788.5414   23533794.6104
        40.900          37.2004
 202135368.044 7                  38465055.212
        44.500
 117249623.188 7  91363466.56147  22311818.275    22311817.6724   22311819.6044
        46.200          42.7004
 124141629.588 6  96733774.96644  23623353.586    23623352.2724   23623356.2004
        41.900          24.6004
 129148504.470 7                  24576109.812
        46.200
 104705715.501 8  81437918.710 8  19614863.811    19614864.134    19614869.113
        52.600          50.100
 130068753.072 6 101164606.686 6  24332049.908    24332050.702    24332059.477
        39.700          39.200
 112672614.290 7  87796939.97346  21440852.372    21440851.9974   21440853.4794
        47.900          37.4004
 133748088.670 7                  25451377.470
        43.200
 106185146.869 8  82741820.03048  20206319.883    20206319.4904   20206322.5474
        51.300          53.1004
 139819376.747 7                  26606701.394
        42.600
 129169262.006 6 100465028.722 6  24129898.179    24129898.733    24129911.181
        41.700          40.500
 112130715.568 8                  20961625.766    20961626.074
        48.100
 134589438.971 7                  25611469.260
        44.100
 112057331.331 7                  20984695.415    20984694.719
        45.500
 117744898.525 7  91749410.55547  22406057.835    22406057.2544   22406058.4474
        45.600          42.5004
 103484132.840 8  80487845.082 8  19372388.518    19372388.923    19372395.693
        52.800          48.300
 123626030.125 8                  23525200.744
        48.800
 123815161.676 6  96479445.95544  23561211.152    23561210.7684   23561215.4844
        39.800          26.2004
 107233090.113 8  83558384.28046  20405723.140    20405721.7144   20405721.6614
        48.500          40.3004
 25  1  1  1 22 15.0000000  0 27E34R21R11S31S35R06G03G24S33G12G20E15
                                R22R05G11E02G06E36R07R23E27R13G17R12
                                E30G14G19
 122879272.788 8                  23383096.740
        48.400
 120515433.289 8  93734376.623 7  22521145.435    22521145.130    22521153.985
        48.400          44.000
 119149230.211 7  92671770.077 7  22297110.029    22297109.951    22297118.609
        45.900          43.800
 198982291.182 7                  37865069.098
        45.100
 200919285.210 7                  38233683.311
        44.000
 123561165.048 5                  23155302.711    23155303.250
        34.700
 126674194.457 6  98707266.68845  24105268.167    24105267.8194   24105272.4614
        39.900          34.0004
 123700702.041 6  96390299.53046  23539410.218    23539409.7534   23539416.6074
        41.200          37.2004
 202135362.189 7                  38465058.374
        44.800
 117206152.080 7  91329593.03647  22303545.691    22303545.0834   22303547.2724
        45.600          42.6004
 124087819.368 7  96691845.00144  23613113.713    23613112.3944   23613116.5654
        42.000          24.3004
 129120883.826 7                  24570854.062
        46.500
 104719323.067 8  81448502.373 8  19617413.193    19617413.267    19617418.202
        52.700          49.900
 130090163.755 6 101181259.390 6  24336056.310    24336056.663    24336065.192
        40.400          39.300
 112641822.090 8  87772946.08946  21434992.745    21434992.3654   21434993.9104
        48.400          37.2004
 133784383.761 7                  25458284.212
        43.300
 106191328.945 8  82746637.24848  20207496.183    20207495.7944   20207498.9374
        51.500          53.0004
 139858303.814 7                  26614108.766
        43.100
 129116851.333 7 100424264.989 6  24120107.880    24120108.563    24120120.711
        42.000          41.200
 112101647.427 8                  20956192.200    20956192.396
        48.600
 134555662.606 7                  25605042.059
        44.200
 112015691.146 7                  20976897.584    20976897.108
        46.300
 117773032.597 7  91771333.20847  22411411.589    22411411.0264   22411412.0804
        46.500          42.4004
 103496116.316 8  80497165.578 8  19374632.156    19374632.211    19374638.909
        52.700          48.500
 123627766.135 8                  23525531.189
        48.800
 123868411.135 6  96520939.01244  23571344.635    23571344.2734   23571348.5664
        40.700          25.9004
 107244456.254 8  83567241.02346  20407885.948    20407884.5094   20407884.4954
        48.500          40.1004
 25  1  1  1 22 30.0000000  0 27E34R21R11S31S35R06G03G24S33G12G20E15
                                R22R05G11E02G06E36R07R23E27R13G17R12
                                E30G14G19
 122889819.215 8                  23385103.799
        48.200
 120563589.192 8  93771831.223 7  22530144.432    22530144.337    22530152.911
        48.500          44.000
 119213901.207 7  92722069.692 7  22309212.758    22309212.183    22309220.872
        45.900          43.400
 198982296.880 7                  37865069.585
        45.200
 200919324.506 7                  38233693.144
        43.800
 123533411.969 5                  23150102.696    23150101.988
        34.500
 126712399.360 6  98737036.81845  24112538.399    24112538.0644   24112542.4974
        40.200          33.5004
 123730338.558 6  96413392.93446  23545049.770    23545049.3104   23545056.2224
        40.900          37.2004
 202135357.226 7                  38465058.092
        45.000
 117162755.948 7  91295777.93447  22295288.118    22295287.5104   22295289.2314
        45.900          42.6004
 124034031.784 6  96649932.66244  23602878.210    23602876.8824   23602880.9814
        41.700          24.2004
 129093332.832 7                  24565611.273
        46.300
 104733024.231 8  81459158.837 8  19619979.906    19619979.988    19619984.837
        52.600          49.700
 130111740.122 6 101198041.032 6  24340091.798    24340092.414    24340100.617
        40.100          39.300
 112611129.392 7  87749029.74046  21429151.990    21429151.6154   21429153.2424
        47.500          37.3004
 133820732.843 7                  25465201.315
        42.800
 106197628.272 8  82751545.82748  20208695.044    20208694.6554   20208697.6454
        51.100          53.0004
 139897246.666 7                  26621519.193
        42.600
 129064455.280 7 100383512.599 6  24110321.362    24110321.259    24110331.435
        42.200          40.200
 112072673.212 8                  20950775.400    20950775.553
        48.200
 134521927.471 7                  25598622.406
        43.600
 111974197.407 7                  20969126.678    20969126.318
        45.400
 117801194.960 7  91793277.90247  22416770.589    22416770.0174   22416771.2344
        46.500          42.5004
 103508300.565 8  80506642.216 8  19376913.019    19376913.168    19376919.844
        53.000          48.600
 123629589.912 8                  23525878.109
        48.500
 123921705.526 6  96562467.09244  23581486.010    23581485.6394   23581490.0854
        40.000          25.7004
 107255887.675 8  83576148.63046  20410061.270    20410059.8314   20410059.8594
        48.300          40.1004
 25  1  1  1 22 45.0000000  0 27E34R21R11S31S35R06G03G24S33G12G20E15
                                R22R05G11E02G06E36R07R23E27R13G17R12
                                E30G14G19
 122900440.126 8                  23387124.666
        48.400
 120611745.239 8  93809285.928 7  22539143.210    22539143.160    22539151.528
        48.500          43.400
 119278632.369 7  92772416.085 7  22321326.374    22321326.564    22321334.636
        45.800          43.400
 198982301.344 7                  37865071.754
        45.300
 200919363.308 7                  38233692.925
        43.700
 123505802.047 5                  23144929.062    23144929.027
        35.500
 126750713.136 6  98766891.79045  24119829.025    24119828.6954   24119833.2944
        40.900          34.0004
 123760067.084 6  96436558.03346  23550706.896    23550706.4364   23550713.2044
        40.200          36.8004
 202135351.133 7                  38465059.425
        44.800
 117119433.773 7  91262020.46047  22287043.454    22287042.8424   22287045.2674
        46.300          42.6004
 123980265.862 6  96608037.21344  23592646.904    23592645.5854   23592649.2784
        41.600          24.2004
 129065850.228 7                  24560381.388
        46.600
 104746817.509 8  81469886.957 8  19622563.466    19622563.875    19622568.845
        52.600          49.900
 130133480.606 6 101214950.388 6  24344159.503    24344160.043    24344168.135
        40.400          40.100
 112580534.974 8  87725189.97346  21423330.413    21423330.0384   21423331.3414
        48.300          37.3004
 133857134.532 7                  25472128.132
        43.500
 106204043.336 8  82756544.58848  20209915.686    20209915.3024   20209918.3854
        51.200          52.9004
 139936203.827 7                  26628932.641
        42.700
 129012072.879 7 100342770.784 6  24100534.196    24100535.072    24100546.501
        43.000          41.100
 112043791.068 7                  20945376.395    20945376.140
        47.800
 134488232.461 7                  25592210.660
        43.600
 111932849.249 7                  20961384.157    20961383.524
        46.000
 117829384.441 7  91815243.72647  22422134.457    22422133.8814   22422135.5584
        46.400          42.6004
 103520684.080 8  80516273.848 8  19379231.222    19379231.409    19379238.058
        52.700          48.700
 123631500.219 8                  23526241.697
        48.600
 123975043.300 6  96604028.96544  23591636.024    23591635.6534   23591639.9214
        40.500          25.4004
 107267382.771 8  83585105.85346  20412248.833    20412247.4034   20412247.2784
        48.300          39.9004
 25  1  1  1 23  0.0000000  0 27E34R21R11S31S35R06G03G24S33G12G20E15
                                R22R05G11E02G06E36R07R23E27R13G17R12
                                E30G14G19
 122911137.008 8                  23389160.428
        48.400
 120659903.087 8  93846742.021 7  22548143.307    22548143.324    22548151.576
        49.100          43.700
 119343424.766 7  92822810.149 7  22333451.309    22333452.111    22333459.325
        46.700          43.000
 198982307.780 7                  37865076.405
        45.800
 200919403.171 7                  38233707.198
        44.500
 123478337.430 5                  23139781.768    23139781.014
        35.100
 126789137.129 6  98796832.63345  24127140.251    24127139.9214   24127144.9074
        40.200          33.6004
 123789888.902 6  96459795.82546  23556382.173    23556381.7044   23556388.0654
        40.800          36.9004
 202135346.172 7                  38465057.484
        45.300
 117076187.453 7  91228322.09247  22278814.532    22278813.9114   22278815.7474
        45.700          42.7004
 123926523.516 6  96566160.14044  23582420.052    23582418.7204   23582422.8204
        41.700          24.6004
 129038437.678 7                  24555164.854
        46.500
 104760704.230 8  81480687.746 8  19625164.996    19625165.393    19625170.292
        52.500          49.700
 130155386.691 6 101231988.519 6  24348257.528    24348257.642    24348265.545
        40.900          38.900
 112550040.562 7  87701428.13046  21417527.408    21417527.0374   21417528.3694
        47.300          37.4004
 133893590.374 7                  25479065.701
        42.700
 106210575.612 8  82761634.69048  20211158.743    20211158.3634   20211161.4244
        51.200          53.1004
 139975176.724 7                  26636348.988
        42.700
 128959706.203 7 100302041.291 6  24090752.574    24090752.329    24090763.136
        42.500          40.400
 112015003.071 8                  20939994.349    20939994.815
        48.200
 134454579.377 7                  25585806.247
        43.600
 111891649.045 7                  20953667.863    20953668.097
        46.300
 117857602.574 7  91837231.87747  22427504.429    22427503.8394   22427505.3154
        46.300          42.7004
 103533268.638 8  80526061.847 8  19381586.798    19381587.172    19381593.825
        52.600          48.800
 123633498.763 8                  23526622.148
        48.600
 124028425.838 6  96645625.73444  23601793.767    23601793.3834   23601797.9814
        40.700          25.7004
 107278943.250 8  83594114.02546  20414448.765    20414447.3304   20414447.1514
        48.300          40.1004
 25  1  1  1 23 15.0000000  0 27E34R21R11S31S35R06G03G24S33G12G20E15
                                R22R05G11E02G06E36R07R23E27R13G17R12
                                E30G14G19
 122921908.414 8                  23391210.106
        48.400
 120708061.098 8  93884198.251 7  22557141.771    22557142.313    22557150.806
        48.800          43.500
 119408276.694 7  92873250.514 7  22345586.862    22345587.053    22345595.689
        45.700          43.300
 198982313.614 7                  37865077.071
        45.800
 200919443.035 7                  38233711.303
        44.300
 123451017.215 5                  23134662.059    23134661.855
        35.500
 126827669.709 6  98826858.10045  24134473.445    24134473.1414   24134477.5004
        40.200          33.8004
 123819802.411 6  96483105.07346  23562074.441    23562073.9684   23562080.2884
        41.200          36.9004
 202135341.237 7                  38465055.132
        45.200
 117033016.187 7  91194682.20647  22270598.901    22270598.2804   22270600.3124
        46.300          42.7004
 123872803.787 6  96524300.69944  23572197.376    23572196.0534   23572200.4454
        41.700          24.8004
 129011093.948 7                  24549961.547
        46.500
 104774682.855 8  81491560.011 8  19627783.917    19627783.980    19627788.870
        52.900          49.700
 130177456.869 6 101249154.264 6  24352386.549    24352387.047    24352394.002
        41.000          39.000
 112519644.936 7  87677743.26446  21411743.350    21411742.9934   21411744.2674
        47.100          37.4004
 133930098.922 7                  25486013.036
        43.100
 106217223.641 8  82766814.98148  20212423.765    20212423.3904   20212426.5094
        51.300          53.1004
 140014163.974 7                  26643768.042
        42.400
 128907354.850 7 100261323.636 6  24080972.329    24080973.633    24080983.765
        42.800          40.900
 111986307.539 8                  20934630.335    20934630.192
        48.000
 134420967.149 7                  25579409.974
        43.900
 111850595.688 7                  20945979.946    20945979.844
        46.000
 117885848.060 7  91859241.34647  22432879.561    22432878.9714   22432880.2194
        46.400          42.9004
 103546052.608 8  80536004.937 8  19383980.141    19383980.420    19383987.136
        52.800          48.800
 123635584.344 8                  23527018.841
        48.700
 124081851.610 6  96687256.19744  23611960.253    23611959.8694   23611965.0294
        40.500          25.8004
 107290567.876 8  83603172.18246  20416660.791    20416659.3524   20416659.2764
        48.300          40.1004
 25  1  1  1 23 30.0000000  0 27E34R21R11S31S35R06G03G24S33G12G20E15
                                R22R05G11E02G06E36R07R23E27R13G17R12
                                E30G14G19
 122932751.367 8                  23393273.445
        48.400
 120756216.135 8  93921652.182 7  22566140.873    22566140.948    22566150.277
        48.600          44.000
 119473184.876 7  92923734.626 7  22357734.481    22357734.667    22357742.373
        46.700          43.000
 198982316.074 7                  37865078.533
        45.600
 200919479.391 7                  38233716.691
        44.100
 123423838.890 5                  23129568.978    23129567.984
        35.500
 126866307.737 6  98856965.73545  24141825.346    24141825.0514   24141830.1804
        40.000          34.0004
 123849804.450 6  96506483.30146  23567783.585    23567783.1034   23567789.4054
        40.200          36.8004
 202135333.350 7                  38465053.871
        45.300
 116989917.389 7  91161098.78747  22262397.349    22262396.7154   22262398.7214
        46.200          42.7004
 123819104.125 6  96482456.88744  23561978.393    23561977.0704   23561982.0274
        41.100          24.7004
 128983816.214 7                  24544770.714
        46.400
 104788750.234 8  81502501.316 8  19630419.143    19630419.192    19630424.010
        52.700          49.600
 130199687.675 6 101266444.975 6  24356543.979    24356545.146    24356552.531
        40.600          38.700
 112489345.369 7  87654133.25246  21405977.394    21405977.0464   21405978.4774
        47.700          37.5004
 133966657.272 7                  25492969.646
        43.100
 106223984.394 8  82772083.11548  20213710.224    20213709.8494   20213713.0444
        51.200          53.1004
 140053162.510 7                  26651189.203
        42.300
 128855016.337 7 100220616.062 6  24071195.111    24071194.950    24071206.960
        42.500          41.100
 111957701.744 8                  20929282.570    20929282.793
        48.600
 134387393.118 7                  25573021.150
        43.400
 111809686.835 7                  20938319.359    20938319.177
        46.400
 117914118.094 7  91881269.93847  22438259.162    22438258.5774   22438259.8314
        46.400          42.9004
 103559033.232 8  80546100.989 8  19386410.082    19386410.407    19386417.087
        52.700          48.800
 123637754.151 8                  23527431.814
        48.500
 124135317.528 6  96728917.93344  23622134.872    23622134.4794   23622139.4194
        40.200          25.2004
 107302253.693 8  83612278.01946  20418884.541    20418883.1024   20418883.0104
        48.000          40.0004
 25  1  1  1 23 45.0000000  0 27E34R21R11S31S35R06G03G24S33G12G20E15
                                R22R05G11E02G06E36R07R23E27R13G17R12
                                E30G14G19
 122943671.365 8                  23395351.373
        48.500
 120804373.968 8  93959108.242 7  22575140.788    22575140.929    22575149.350
        48.700          43.300
 119538154.404 7  92974266.456 7  22369892.685    22369892.821    22369900.536
        46.300          43.100
 198982321.947 7                  37865079.977
        45.700
 200919518.540 7                  38233723.497
        44.000
 123396808.877 5                  23124502.131    23124503.045
        35.200
 126905056.573 6  98887159.70945  24149199.608    24149199.3224   24149203.9404
        39.600          33.4004
 123879900.224 6  96529934.56346  23573510.506    23573510.0244   23573516.4184
        40.800          36.6004
 202135327.432 7                  38465057.502
        45.200
 116946897.105 7  91127576.55147  22254211.104    22254210.4654   22254212.2814
        45.600          42.6004
 123765430.625 6  96440633.46444  23551764.847    23551763.5424   23551767.7994
        41.100          24.2004
 128956610.170 7                  24539593.453
        46.400
 104802911.847 8  81513515.898 8  19633071.619    19633072.094    19633077.029
        52.300          49.500
 130222084.846 6 101283864.908 6  24360735.783    24360735.579    24360742.776
        41.000          39.000
 112459147.569 7  87630602.53446  21400230.853    21400230.5094   21400232.0134
        47.500          37.3004
 134003270.956 7                  25499936.896
        42.700
 106230863.354 8  82777443.35448  20215019.170    20215018.7904   20215022.0674
        51.200          52.9004
 140092177.770 7                  26658613.504
        42.700
 128802697.002 7 100179923.325 6  24061421.368    24061421.920    24061433.156
        42.800          41.700
 111929191.386 8                  20923952.965    20923953.053
        48.600
 134353863.127 7                  25566640.615
        43.900
 111768928.595 7                  20930686.646    20930685.885
        45.800
 117942418.308 7  91903322.05147  22443644.372    22443643.7784   22443645.2484
        46.100          42.9004
 103572215.938 8  80556354.204 8  19388877.713    19388878.081    19388885.021
        52.400          48.700
 123640013.946 8                  23527861.798
        48.600
 124188828.962 6  96770615.13044  23632318.181    23632317.7924   23632321.9034
        39.600          24.8004
 107314006.601 7  83621436.13446  20421121.006    20421119.5714   20421119.5104
        47.900          39.7004
 25  1  1  1 24  0.0000000  0 27E34R21R11S31S35R06G03G24S33G12G20E15
                                R22R05G11E02G06E36R07R23E27R13G17R12
                                E30G14G19
 122954663.769 8                  23397443.165
        48.200
 120852529.657 8  93996562.671 7  22584140.008    22584140.069    22584148.245
        48.900          43.400
 119603180.313 7  93024842.144 7  22382059.714    22382061.045    22382069.775
        45.400          43.400
 198982325.143 7                  37865077.290
        45.800
 200919555.938 7                  38233731.854
        44.200
 123369922.770 5                  23119463.486    23119464.054
        35.000
 126943911.401 6  98917436.28845  24156592.443    24156592.1714   24156597.6344
        40.200          33.8004
 123910084.947 6  96553455.14646  23579254.005    23579253.5184   23579260.4544
        40.500          36.5004
 202135320.468 7                  38465050.142
        45.200
 116903950.937 7  91094112.06547  22246039.194    22246038.5644   22246039.9344
        46.300          42.7004
 123711779.003 6  96398827.09944  23541555.336    23541554.0534   23541558.3344
        41.400          24.6004
 128929471.350 7                  24534428.945
        46.300
 104817162.871 8  81524600.049 8  19635741.933    19635741.867    19635746.851
        52.600          49.500
 130244643.580 6 101301410.673 6  24364954.163    24364954.041    24364962.553
        39.500          38.900
 112429047.112 8  87607147.67146  21394502.914    21394502.5664   21394504.0074
        48.100          37.4004
 134039935.406 7                  25506914.259
        42.800
 106237855.832 8  82782892.05148  20216349.744    20216349.3734   20216352.6744
        51.000          53.0004
 140131205.185 7                  26666039.902
        42.000
 128750392.664 7 100139242.343 6  24051649.972    24051650.329    24051662.097
        42.000          41.300
 111900771.886 8                  20918640.048    20918639.960
        48.000
 134320372.876 7                  25560267.744
        43.800
 111728316.823 7                  20923081.511    20923081.153
        46.300
 117970744.266 7  91925394.22347  22449034.830    22449034.2404   22449035.5614
        46.500          43.1004
 103585596.243 8  80566761.114 8  19391382.863    19391383.205    19391389.791
        52.500          48.800
 123642359.307 8                  23528308.005
        48.400
 124242381.201 6  96812344.12944  23642508.557    23642508.1864   23642512.6994
        39.100          25.2004
 107325821.951 8  83630642.90646  20423369.512    20423368.0824   20423367.8864
        48.200          39.8004
 25  1  1  1 24 15.0000000  0 27E34R21R11S31S35R06G03G24S33G12G20E15
                                R22R05G11E02G06E36R07R23E27R13G17R12
                                E30G14G19
 122965734.642 8                  23399549.720
        48.500
 120900689.322 8  94034020.163 7  22593139.163    22593139.746    22593147.797
        48.900          43.100
 119668268.486 7  93075466.222 7  22394241.122    22394241.714    22394249.875
        46.000          43.100
 198982333.157 7                  37865076.181
        45.800
 200919597.594 7                  38233736.934
        43.900
 123343187.364 5                  23114453.444    23114454.477
        35.000
 126982878.055 6  98947800.00245  24164007.551    24164007.2924   24164012.4204
        39.800          33.7004
 123940364.474 6  96577049.60146  23585016.449    23585015.9624   23585022.4664
        41.000          36.5004
 202135317.785 7                  38465047.530
        45.100
 116861085.536 7  91060710.51047  22237881.503    22237880.8514   22237882.7744
        46.200          42.7004
 123658155.803 6  96357042.87744  23531350.723    23531349.4494   23531354.0424
        41.900          24.7004
 128902406.020 7                  24529278.765
        46.400
 104831509.365 8  81535758.428 8  19638428.946    19638429.326    19638434.305
        52.100          49.500
 130267370.146 6 101319086.944 6  24369206.313    24369206.572    24369213.961
        40.400          39.100
 112399050.335 8  87583773.59846  21388794.244    21388793.8874   21388795.7844
        48.000          37.3004
 134076656.755 7                  25513901.848
        43.200
 106244967.884 8  82788433.92148  20217703.211    20217702.8364   20217706.0334
        51.200          53.0004
 140170250.738 7                  26673470.124
        42.300
 128698110.473 7 100098578.500 6  24041883.866    24041884.148    24041894.781
        42.900          40.900
 111872449.523 8                  20913345.584    20913345.590
        49.100
 134286928.749 7                  25553903.346
        43.600
 111687858.584 7                  20915504.902    20915504.726
        46.100
 117999102.254 7  91947491.35447  22454431.112    22454430.5274   22454431.9334
        46.300          43.0004
 103599180.322 8  80577326.505 8  19393925.830    19393926.096    19393932.718
        52.700          48.900
 123644796.517 8                  23528771.959
        48.500
 124295980.230 6  96854109.58544  23652708.544    23652708.1874   23652712.3184
        40.300          25.0004
 107337706.036 8  83639903.24046  20425630.692    20425629.2534   20425629.3474
        48.200          39.7004
 25  1  1  1 24 30.0000000  0 27E34R21R11S31S35R06G03G24S33G12G20E15
                                R22R05G11E02G06E36R07R23E27R13G17R12
                                E30G14G19
 122976874.113 8                  23401669.784
        48.600
 120948842.964 8  94071473.005 7  22602138.364    22602138.453    22602146.709
        48.700          43.400
 119733408.539 7  93126130.687 7  22406430.438    22406431.656    22406439.375
        45.600          42.700
 198982335.667 7                  37865075.309
        45.100
 200919634.281 7                  38233748.243
        43.800
 123316593.278 5                  23109470.226    23109470.103
        35.500
 127021946.539 6  98978243.04145  24171442.516    24171442.2484   24171446.7474
        40.200          33.1004
 123970728.746 6  96600710.08546  23590794.661    23590794.1834   23590800.4474
        40.600          36.5004
 202135308.815 7                  38465049.480
        45.000
 116818291.547 7  91027364.60647  22229738.148    22229737.4734   22229739.3054
        46.500          42.9004
 123604551.699 6  96315273.52744  23521150.298    23521149.0114   23521153.1984
        41.200          24.5004
 128875404.494 7                  24524140.537
        46.600
 104845941.231 8  81546983.213 8  19641132.724    19641132.972    19641137.853
        52.800          49.400
 130290254.341 6 101336885.882 6  24373487.343    24373487.990    24373494.136
        40.400          37.800
 112369147.580 7  87560472.78646  21383104.090    21383103.7244   21383105.4704
        47.400          37.5004
 134113425.143 7                  25520898.691
        43.100
 106252189.594 8  82794061.24148  20219077.576    20219077.2014   20219080.2794
        51.300          53.1004
 140209304.572 7                  26680901.763
        42.300
 128645840.647 7 100057924.270 6  24032119.860    24032119.851    24032130.551
        42.700          41.500
 111844214.337 8                  20908067.341    20908067.636
        48.600
 134253521.258 7                  25547546.289
        44.000
 111647544.058 7                  20907955.545    20907954.660
        46.800
 118027482.583 7  91969605.89047  22459831.748    22459831.1634   22459832.5174
        46.400          43.3004
 103612958.241 8  80588042.670 8  19396504.912    19396505.167    19396511.954
        52.400          48.800
 123647315.927 8                  23529251.260
        48.500
 124349616.111 6  96895903.75744  23662914.092    23662913.7124   23662919.4094
        39.900          25.3004
 107349649.110 8  83649209.53646  20427903.541    20427902.0934   20427902.0184
        48.300          39.8004
 25  1  1  1 24 45.0000000  0 27E34R21R11S31S35R06G03G24S33G12G20E15
                                R22R05G11E02G06E36R07R23E27R13G17R12
                                E30G14G19
 122988089.538 8                  23403803.788
        49.000
 120996997.992 8  94108926.895 7  22611136.930    22611137.365    22611145.800
        49.000          43.700
 119798607.801 7  93176841.164 7  22418632.996    22418632.957    22418641.003
        45.800          42.600
 198982339.938 7                  37865077.366
        45.400
 200919672.718 7                  38233754.476
        44.300
 123290148.426 5                  23104514.055    23104514.293
        35.200
 127061124.084 6  99008771.08145  24178897.949    24178897.6684   24178902.1944
        39.400          33.3004
 124001184.923 6  96624442.18146  23596590.435    23596589.9934   23596595.9164
        40.700          36.4004
 202135303.081 7                  38465045.670
        45.100
 116775576.751 7  90994080.40447  22221609.463    22221608.7794   22221610.9244
        46.000          42.7004
 123550974.593 6  96273525.22144  23510954.891    23510953.6084   23510957.8004
        41.900          24.9004
 128848474.317 7                  24519015.699
        46.700
 104860465.844 8  81558280.156 8  19643853.611    19643854.048    19643858.786
        52.400          49.400
 130313303.389 6 101354813.008 6  24377799.018    24377799.837    24377806.475
        41.800          39.000
 112339346.459 7  87537251.17146  21377433.369    21377433.0124   21377434.4514
        47.600          37.4004
 134150247.985 7                  25527905.871
        43.800
 106259528.314 8  82799779.73548  20220473.929    20220473.5544   20220476.7804
        51.300          52.9004
 140248374.044 7                  26688336.808
        42.900
 128593591.671 7 100017286.269 6  24022358.678    24022358.916    24022370.269
        42.100          41.400
 111816073.920 8                  20902806.905    20902807.058
        48.700
 134220158.084 7                  25541197.230
        44.400
 111607381.984 7                  20900434.260    20900433.489
        46.300
 118055892.641 7  91991743.59547  22465238.125    22465237.5354   22465238.8024
        46.500          43.2004
 103626937.450 8  80598915.398 8  19399121.866    19399122.094    19399128.927
        52.400          48.800
 123649925.154 8                  23529747.705
        49.000
 124403296.106 6  96937732.29844  23673129.318    23673128.9254   23673133.8924
        39.300          24.4004
 107361658.674 8  83658567.64346  20430188.768    20430187.3204   20430187.3524
        48.400          39.6004
 25  1  1  1 25  0.0000000  0 27E34R21R11S31S35R06G03G24S33G12G20E15
                                R22R05G11E02G06E36R07R23E27R13G17R12
                                E30G14G19
 122999378.169 8                  23405952.013
        48.900
 121045151.541 8  94146379.654 7  22620135.267    22620136.175    22620144.467
        48.700          43.400
 119863862.873 7  93227595.109 7  22430844.609    22430844.802    22430852.440
        46.100          43.100
 198982343.877 7                  37865079.651
        45.600
 200919710.557 7                  38233758.765
        44.100
 123263850.601 5                  23099586.918    23099585.858
        35.100
 127100407.732 6  99039381.80245  24186372.998    24186372.7034   24186378.0054
        39.200          33.1004
 124031730.016 6  96648243.57246  23602402.267    23602401.8204   23602408.3904
        41.300          36.3004
 202135296.509 7                  38465050.159
        45.200
 116732939.125 7  90960856.33547  22213495.744    22213495.0654   22213497.1424
        46.300          42.7004
 123497422.104 7  96231796.09944  23500764.413    23500763.1394   23500766.9504
        42.000          24.7004
 128821612.906 7                  24513904.298
        46.800
 104875080.244 8  81569646.925 8  19646591.574    19646591.763    19646596.483
        52.700          49.500
 130336514.456 6 101372866.190 6  24382141.142    24382141.322    24382148.210
        39.700          37.500
 112309644.420 7  87514106.76246  21371781.169    21371780.8034   21371782.3164
        47.800          37.4004
 134187122.590 7                  25534922.662
        43.100
 106266981.227 8  82805587.21048  20221892.229    20221891.8544   20221895.0094
        51.100          52.9004
 140287456.364 7                  26695774.031
        42.500
 128541361.201 7  99976662.656 6  24012601.746    24012602.171    24012612.325
        43.500          41.400
 111788025.631 8                  20897563.324    20897563.611
        48.500
 134186836.823 7                  25534856.395
        44.300
 111567369.579 7                  20892940.581    20892940.432
        46.000
 118084329.934 7  92013902.52247  22470649.352    22470648.7624   22470650.2974
        46.400          43.3004
 103641115.217 8  80609942.558 8  19401776.160    19401776.369    19401783.059
        52.800          48.700
 123652621.616 8                  23530261.041
        49.000
 124457017.366 6  96979593.00244  23683352.292    23683351.8864   23683356.6794
        39.900          24.5004
 107373732.168 8  83667975.56946  20432486.476    20432485.0234   20432484.8364
        48.000          39.5004
 25  1  1  1 25 15.0000000  0 27E34R21R11S31S35R06G03G24S33G12G20E15
                                R22R05G11E02G06E36R07R23E27R13G17R12
                                E30G14G19
 123010741.074 8                  23408114.309
        48.700
 121093304.766 8  94183832.158 7  22629134.736    22629134.537    22629142.547
        48.800          43.100
 119929174.653 7  93278393.107 7  22443066.603    22443066.314    22443075.469
        45.400          43.300
 198982349.261 7                  37865077.044
        45.100
 200919749.251 7                  38233764.949
        43.900
 123237701.662 5                  23094685.742    23094685.903
        35.700
 127139798.425 6  99070075.93245  24193868.778    24193868.4574   24193873.4334
        39.900          32.7004
 124062364.929 6  96672114.95646  23608232.350    23608231.9084   23608237.9284
        40.800          36.2004
 202135290.281 7                  38465047.602
        44.600
 116690379.879 7  90927693.34047  22205397.218    22205396.5434   22205398.3814
        46.100          42.8004
 123443895.889 6  96190087.44844  23490578.381    23490577.1124   23490581.0594
        40.800          24.6004
 128794821.531 7                  24508805.816
        46.500
 104889785.414 8  81581084.286 8  19649346.065    19649346.461    19649351.284
        52.500          49.500
 130359888.425 6 101391045.880 6  24386514.388    24386514.967    24386520.657
        40.900          37.500
 112280042.783 7  87491040.58746  21366148.025    21366147.6634   21366149.2744
        47.400          37.3004
 134224050.058 7                  25541950.231
        42.800
 106274549.405 8  82811484.50348  20223332.382    20223332.0114   20223335.1934
        51.000          52.9004
 140326552.575 7                  26703213.316
        42.500
 128489151.369 7  99936055.158 6  24002846.724    24002847.787    24002859.368
        42.800          41.000
 111760070.633 8                  20892337.416    20892337.630
        48.900
 134153558.879 7                  25528523.669
        44.000
 111527508.757 7                  20885475.916    20885475.729
        46.100
 118112795.661 7  92036083.60347  22476066.232    22476065.6424   22476067.1764
        46.700          43.3004
 103655492.700 8  80621125.048 8  19404467.584    19404467.727    19404474.501
        52.600          48.800
 123655406.666 8                  23530790.743
        48.700
 124510780.835 6  97021486.58944  23693583.515    23693583.1094   23693587.6304
        39.700          24.6004
 107385870.814 7  83677434.25946  20434796.485    20434795.0414   20434794.7654
        47.800          39.5004
 25  1  1  1 25 30.0000000  0 27E34R21R11S31S35R06G03G24S33G12G20E15
                                R22R05G11E02G06E36R07R23E27R13G17R12
                                E30G14G19
 123022175.953 8                  23410290.177
        48.800
 121141455.295 8  94221282.581 7  22638132.479    22638132.519    22638140.981
        48.900          43.400
 119994540.511 7  93329233.197 7  22455299.648    22455299.140    22455306.850
        46.100          42.400
 198982352.649 7                  37865080.304
        45.300
 200919786.941 7                  38233778.409
        44.000
 123211699.507 5                  23089814.134    23089813.543
        35.700
 127179293.651 6  99100851.52045  24201384.239    24201383.9264   24201389.0234
        40.500          33.0004
 124093087.123 6  96696054.34146  23614078.342    23614077.9004   23614084.1904
        41.100          36.1004
 202135283.257 7                  38465045.080
        45.000
 116647897.335 7  90894590.10847  22197312.915    22197312.2364   22197314.2154
        45.800          42.8004
 123390394.036 6  96148397.79344  23480397.296    23480396.0134   23480399.8764
        41.500          24.5004
 128768098.072 7                  24503720.626
        46.500
 104904578.928 8  81592590.369 8  19652117.706    19652117.875    19652122.532
        52.600          49.500
 130383423.184 6 101409350.727 6  24390916.767    24390917.382    24390923.604
        41.200          38.300
 112250539.459 7  87468051.02246  21360533.906    21360533.5404   21360534.9644
        47.700          37.4004
 134261028.138 7                  25548986.686
        43.100
 106282230.475 8  82817469.76348  20224794.038    20224793.6724   20224796.8424
        51.000          52.8004
 140365660.380 7                  26710655.551
        42.000
 128436960.335 7  99895462.252 6  23993098.279    23993098.496    23993108.655
        43.100          40.500
 111732206.768 8                  20887128.743    20887128.977
        49.000
 134120322.289 7                  25522199.064
        44.100
 111487797.785 7                  20878039.437    20878039.188
        46.200
 118141287.663 7  92058285.15447  22481487.974    22481487.3754   22481489.0544
        46.400          43.4004
 103670067.639 8  80632461.115 8  19407196.016    19407196.217    19407202.934
        52.700          48.700
 123658278.153 8                  23531337.378
        48.700
 124564584.138 6  97063411.21344  23703821.730    23703821.3154   23703826.0634
        39.600          24.6004
 107398072.398 8  83686941.99346  20437118.374    20437116.9394   20437116.6104
        48.100          39.4004
 25  1  1  1 25 45.0000000  0 28E34R21R11S31S35R06G03G25G24S33G12G20
                                E15R22R05G11E02G06E36R07R23E27R13G17
                                R12E30G14G19
 123033684.666 8                  23412480.309
        48.600
 121189604.702 8  94258732.090 7  22647130.823    22647130.470    22647138.744
        48.800          43.200
 120059962.102 7  93380116.612 7  22467542.111    22467542.482    22467550.765
        46.900          43.300
 198982356.318 7                  37865081.323
        45.200
 200919824.565 7                  38233781.288
        44.100
 123185846.780 5                  23084966.682    23084968.129
        35.900
 127218895.087 6  99131709.85345  24208920.231    24208919.9104   24208925.1334
        38.800          33.2004
 132889433.855 6                  25288018.187
        36.200
 124123898.274 6  96720063.04846  23619941.508    23619941.0664   23619947.3104
        41.100          36.0004
 202135276.307 7                  38465039.481
        44.900
 116605493.790 7  90861548.44547  22189244.095    22189243.4254   22189245.0294
        46.600          42.9004
 123336918.965 6  96106729.00344  23470220.798    23470219.5334   23470224.0594
        41.300          24.8004
 128741444.572 7                  24498648.558
        46.600
 104919462.559 8  81604166.530 8  19654905.796    19654906.070    19654910.736
        52.800          49.400
 130407120.333 6 101427781.835 6  24395349.840    24395348.858    24395357.670
        40.200          38.700
 112221136.575 7  87445139.71546  21354938.614    21354938.2434   21354939.8204
        47.300          37.4004
 134298058.753 7                  25556033.365
        42.900
 106290026.318 8  82823544.45848  20226277.493    20226277.1314   20226280.3344
        51.100          52.8004
 140404781.619 7                  26718099.930
        42.300
 128384790.628 7  99854885.946 7  23983351.534    23983352.259    23983363.755
        42.400          42.100
 111704435.960 8                  20881936.757    20881937.097
        48.700
 134087129.294 7                  25515882.642
        44.100
 111448239.261 7                  20870631.524    20870630.988
        46.200
 118169807.937 7  92080508.73947  22486915.320    22486914.7214   22486916.2454
        46.200          43.4004
 103684841.892 8  80643952.209 8  19409961.784    19409961.965    19409968.757
        52.600          48.800
 123661238.206 8                  23531900.393
        48.700
 124618429.010 6  97105368.24144  23714067.853    23714067.4334   23714072.6034
        39.400          24.3004
 107410338.996 8  83696500.38646  20439452.493    20439451.0584   20439450.8334
        48.100          39.4004
 25  1  1  1 26  0.0000000  0 27E34R21R11S31S35R06G03G24S33G12G20E15
                                R22R05G11E02G06E36R07R23E27R13G17R12
                                E30G14G19
 123045268.278 8                  23414684.565
        48.800
 121237754.425 8  94296181.858 7  22656128.316    22656128.430    22656136.713
        48.600          43.200
 120125440.103 7  93431043.918 7  22479794.804    22479794.782    22479803.333
        46.100          43.000
 198982362.554 7                  37865085.799
        45.500
 200919864.516 7                  38233796.384
        44.100
 123160145.064 5                  23080150.564    23080151.453
        35.500
 127258603.639 6  99162651.66145  24216476.772    24216476.4734   24216480.9644
        39.400          33.1004
 124154799.247 6  96744141.73846  23625822.207    23625821.7744   23625827.7134
        40.900          36.1004
 202135271.165 7                  38465038.694
        44.800
 116563170.766 7  90828569.51347  22181190.111    22181189.4364   22181191.1724
        46.500          43.1004
 123283472.177 7  96065082.23944  23460050.115    23460048.8464   23460053.3234
        42.200          24.8004
 128714862.285 7                  24493590.236
        46.500
 104934437.349 8  81615813.594 8  19657710.858    19657711.164    19657716.089
        52.300          49.500
 130430980.763 6 101446339.848 6  24399811.985    24399813.148    24399820.103
        40.600          37.800
 112191835.372 7  87422307.64646  21349362.925    21349362.5774   21349363.9174
        47.500          37.6004
 134335143.040 7                  25563090.413
        43.000
 106297937.931 8  82829709.35848  20227782.976    20227782.6144   20227785.8584
        51.200          52.9004
 140443917.327 7                  26725547.275
        42.300
 128332644.144 7  99814327.659 6  23973611.362    23973611.393    23973622.285
        42.300          41.800
 111676759.590 8                  20876763.335    20876763.354
        48.500
 134053981.265 7                  25509574.524
        44.000
 111408834.769 7                  20863252.297    20863251.675
        45.300
 118198357.698 7  92102755.30247  22492348.154    22492347.5554   22492349.0784
        46.800          43.5004
 103699816.692 8  80655599.280 8  19412764.769    19412765.096    19412772.031
        52.300          48.900
 123664288.132 8                  23532481.023
        48.700
 124672316.506 6  97147358.46743  23724322.600    23724322.1764   23724326.8654
        39.400          23.9004
 107422671.843 7  83706110.40746  20441799.068    20441797.6294   20441797.7064
        47.800          39.5004
 25  1  1  1 26 15.0000000  0 28E34G25R21R11S31S35R06G03G24S33G12G20
                                E15R22R05G11E02G06E36R07R23E27R13G17
                                R12E30G14G19
 123056921.505 8                  23416902.091
        48.700


 121285899.071 8  94333627.691 7  22665125.032    22665125.366    22665134.083
        48.900          43.400
 120190968.832 7  93482010.673 7  22492058.291    22492057.952    22492066.208
        45.500          42.500
 198982365.232 7                  37865083.877
        45.400
 200919901.202 7                  38233802.122
        44.200
 123134589.672 6                  23075363.198    23075363.678
        36.300
 127298413.886 6  99193672.69345  24224052.363    24224052.0824   24224056.6934
        39.300          33.0004
 124185784.555 6  96768286.15646  23631718.044    23631717.6204   23631724.2134
        40.100          36.2004
 202135262.679 7                  38465038.542
        44.800
 116520923.577 7  90795649.68147  22173150.798    22173150.1284   22173151.7444
        45.700          43.2004
 123230048.891 6  96023453.79744  23449883.868    23449882.5994   23449887.1074
        41.800          24.9004
 128688346.093 7                  24488544.241
        46.500
 104949497.779 8  81627527.276 8  19660532.752    19660532.516    19660537.509
        52.700          49.400
 130454999.147 6 101465020.696 6  24404306.424    24404307.119    24404313.552
        41.200          37.800
 112162630.820 7  87399550.88946  21343805.024    21343804.6714   21343806.4104
        47.600          37.6004
 134372275.732 7                  25570156.291
        42.800
 106305960.007 8  82835960.34148  20229309.633    20229309.2674   20229312.4074
        51.000          53.0004
 140483062.245 7                  26732996.296
        42.400
 128280516.024 7  99773783.614 7  23963874.060    23963874.229    23963883.981
        43.200          42.100
 111649171.971 8                  20871606.196    20871606.048
        48.400
 134020873.259 7                  25503274.613
        44.300
 111369579.462 7                  20855901.004    20855901.007
        46.400
 118226931.952 7  92125020.94747  22497785.605    22497785.0024   22497786.6344
        45.900          43.6004
 103714986.781 8  80667398.248 8  19415605.093    19415605.032    19415611.985
        52.500          48.800
 123667422.793 8                  23533077.339
        48.700
 124726241.162 6  97189377.65144  23734584.141    23734583.6904   23734588.4974
        39.300          24.2004
 107435065.807 7  83715768.04646  20444157.707    20444156.2684   20444156.1784
        47.900          39.5004
 25  1  1  1 26 30.0000000  0 28E34G25R21R11S31S35R06G03G24S33G12G20
                                E15R22R05G11E02G06E36R07R23E27R13G17
                                R12E30G14G19
 123068648.761 8                  23419133.813
        48.600
 132723450.748 5 103420921.10243  25256434.715    25256434.0404   25256445.0634
        35.900          21.2004
 121334042.804 8  94371072.787 7  22674121.610    22674122.038    22674130.451
        48.700          43.100
 120256552.452 7  93533020.131 7  22504331.291    22504330.687    22504339.528
        44.700          42.800
 198982368.797 7                  37865086.050
        45.200
 200919938.670 7                  38233805.627
        43.700
 123109185.477 6                  23070600.746    23070601.405
        36.100
 127338330.011 6  99224776.21645  24231647.691    24231647.4104   24231652.3564
        40.100          32.7004
 124216858.414 6  96792499.56045  23637631.545    23637631.1304   23637637.3314
        40.100          35.9004
 202135256.495 7                  38465031.267
        44.500
 116478757.078 7  90762792.72347  22165126.446    22165125.7894   22165127.6464
        45.900          43.0004
 123176654.138 6  95981847.58344  23439723.628    23439722.3324   23439726.2434
        41.300          24.6004
 128661900.627 7                  24483511.772
        46.500
 104964648.250 8  81639310.985 8  19663370.682    19663370.744    19663375.639
        52.600          49.300
 130479179.937 6 101483828.058 6  24408829.741    24408829.602    24408837.304
        41.000          38.000
 112133527.571 7  87376873.06646  21338267.030    21338266.6684   21338268.2034
        47.200          37.5004
 134409461.255 7                  25577232.846
        43.100
 106314096.914 8  82842300.79748  20230857.987    20230857.6304   20230860.8094
        50.900          52.8004
 140522220.763 7                  26740447.966
        42.000
 128228411.527 7  99733257.978 6  23954138.966    23954139.587    23954150.323
        42.800          41.500
 111621678.219 8                  20866466.209    20866466.352
        48.900
 133987810.081 7                  25496982.465
        44.200
 111330478.501 7                  20848578.783    20848578.131
        46.500
 118255535.234 7  92147309.21447  22503228.858    22503228.2594   22503229.7354
        46.200          43.5004
 103730356.340 8  80679352.348 8  19418482.039    19418482.244    19418489.197
        52.400          49.000
 123670646.892 8                  23533691.056
        48.400
 124780207.287 6  97231429.14244  23744853.615    23744853.1684   23744858.2534
        38.500          24.0004
 107447525.432 7  83725476.85046  20446528.888    20446527.4584   20446527.1584
        47.900          39.4004
 25  1  1  1 26 45.0000000  0 28E34G25R21R11S31S35R06G03G24S33G12G20
                                E15R22R05G11E02G06E36R07R23E27R13G17
                                R12E30G14G19
 123080451.278 8                  23421379.686
        48.800
 132668154.270 5 103377833.20343  25245911.280    25245910.3774   25245922.0394
        34.800          18.9004
 121382187.222 8  94408518.443 7  22683118.655    22683118.907    22683127.628
        48.600          43.200
 120322191.982 7  93584073.047 7  22516614.124    22516614.109    22516622.494
        44.800          42.500
 198982375.450 7                  37865087.767
        45.200
 200919979.160 7                  38233815.129
        43.900
 123083934.453 5                  23065870.385    23065869.113
        35.200
 127378353.158 6  99255963.14745  24239263.941    24239263.6554   24239268.2184
        39.900          32.9004
 124248021.802 6  96816782.73346  23643561.780    23643561.3604   23643567.5834
        40.300          36.1004
 202135251.445 7                  38465038.019
        44.800
 116436672.952 7  90729999.94847  22157118.295    22157117.6434   22157119.2074
        46.700          43.3004
 123123289.374 6  95940264.73744  23429568.662    23429567.3934   23429571.3144
        41.500          25.4004
 128635527.270 7                  24478493.250
        46.800
 104979889.883 8  81651165.590 8  19666225.937    19666226.041    19666230.756
        53.100          49.100
 130503523.847 6 101502762.118 6  24413383.918    24413385.528    24413391.151
        41.300          38.300
 112104527.061 7  87354275.30346  21332748.571    21332748.2094   21332749.5144
        47.200          37.7004
 134446700.945 7                  25584318.934
        43.000
 106322349.860 8  82848731.67548  20232428.570    20232428.2134   20232431.2924
        51.000          53.0004
 140561394.079 7                  26747902.418
        42.700
 128176332.814 7  99692752.377 6  23944410.929    23944411.228    23944421.257
        43.400          40.900
 111594279.379 8                  20861344.262    20861344.663
        49.000
 133954793.245 7                  25490699.761
        44.100
 111291533.870 7                  20841285.576    20841285.178
        46.700
 118284168.963 7  92169621.20247  22508677.632    22508677.0334   22508678.5054
        46.100          43.7004
 103745926.990 8  80691462.858 8  19421396.766    19421397.156    19421404.101
        52.600          48.900
 123673961.862 8                  23534321.736
        48.800
 124834216.106 6  97273513.91243  23755131.243    23755130.7964   23755135.3654
        39.300          23.8004
 107460052.012 8  83735237.82546  20448912.393    20448910.9584   20448910.8994
        48.000          39.6004
 25  1  1  1 27  0.0000000  0 28E34G25R21R11S31S35R06G03G24S33G12G20
                                E15R22R05G11E02G06E36R07R23E27R13G17
                                R12E30G14G19
 123092324.714 8                  23423639.230
        48.300
 132612870.400 6 103334755.04944  25235390.487    25235389.4554   25235401.3174
        39.200          28.3004
 121430327.599 8  94445960.943 7  22692115.267    22692115.458    22692123.764
        49.100          43.600
 120387882.635 7  93635165.739 7  22528907.703    22528908.298    22528916.125
        45.900          42.600
 198982380.792 7                  37865085.871
        45.300
 200920018.075 7                  38233823.134
        43.800
 123058832.624 6                  23061166.735    23061166.237
        36.300
 127418478.828 6  99287229.99245  24246899.534    24246899.2484   24246903.8634
        39.400          32.9004
 124279270.230 6  96841132.17546  23649508.232    23649507.8034   23649513.8134
        40.300          36.1004
 202135245.575 7                  38465035.197
        44.800
 116394667.430 7  90697268.42547  22149124.656    22149124.0044   22149125.8334
        46.000          43.5004
 123069950.919 6  95898702.39444  23419418.279    23419417.0144   23419421.2544
        41.100          25.4004
 128609221.876 7                  24473487.259
        46.500
 104995218.171 8  81663087.598 8  19669097.429    19669097.574    19669102.155
        52.900          49.100
 130528026.726 6 101521819.783 6  24417967.851    24417968.432    24417974.050
        40.100          36.200
 112075625.194 7  87331754.40346  21327248.595    21327248.2334   21327249.6514
        47.500          37.8004
 134483990.510 7                  25591415.066
        42.300
 106330714.489 8  82855249.57748  20234020.235    20234019.8784   20234023.0114
        50.800          53.1004
 140600577.872 6                  26755359.044
        41.700
 128124276.081 7  99652263.874 6  23934685.787    23934686.478    23934697.468
        43.600          41.600
 111566971.178 8                  20856239.122    20856239.389
        48.900
 133921818.791 7                  25484424.923
        44.000
 111252741.704 7                  20834020.712    20834020.790
        46.900
 118312829.040 7  92191953.72547  22514131.556    22514130.9624   22514132.3374
        45.900          43.8004
 103761694.154 8  80703726.207 8  19424348.510    19424348.852    19424355.577
        52.600          49.000
 123677363.579 8                  23534969.149
        48.200
 124888263.141 6  97315628.45644  23765415.799    23765415.3524   23765420.2764
        39.700          24.5004
 107472641.594 7  83745047.89546  20451308.078    20451306.6434   20451306.5984
        47.700          39.7004
 25  1  1  1 27 15.0000000  0 28E34G25R21R11S31S35R06G03G24S33G12G20
                                E15R22R05G11E02G06E36R07R23E27R13G17
                                R12E30G14G19
 123104265.989 8                  23425911.437
        48.400
 132557596.016 5 103291684.31442  25224871.775    25224870.7114   25224882.8804
        31.600          15.0004
 121478460.882 7  94483397.971 7  22701109.882    22701109.877    22701118.526
        47.600          43.600
 120453620.959 7  93686295.525 7  22541209.304    22541209.750    22541218.194
        45.400          43.000
 198982380.705 7                  37865084.646
        45.000
 200920052.223 7                  38233828.911
        43.700
 123033877.446 5                  23056490.018    23056489.389
        35.800
 127458703.793 6  99318574.22645  24254554.117    24254553.8314   24254558.4804
        38.800          32.9004
 124310600.396 6  96865545.30546  23655469.699    23655469.2794   23655475.6174
        40.500          36.0004
 202135234.747 7                  38465040.720
        44.700
 116352737.891 7  90664596.10947  22141145.630    22141144.9784   22141146.8574
        46.800          43.6004
 123016636.093 6  95857158.46644  23409273.029    23409271.7644   23409275.4374
        41.200          25.1004
 128582981.544 7                  24468493.851
        46.200
 105010629.911 8  81675074.520 8  19671984.208    19671984.829    19671989.294
        52.700          49.100
 130552685.576 6 101540998.823 6  24422581.643    24422580.732    24422588.689
        40.800          37.900
 112046819.099 7  87309308.12846  21321766.891    21321766.5254   21321768.0454
        47.400          37.9004
 134521326.882 7                  25598520.160
        42.300
 106339187.657 8  82861852.05448  20235632.532    20235632.1704   20235635.3984
        50.800          53.1004
 140639769.038 6                  26762816.731
        41.800
 128072238.586 7  99611790.384 6  23924964.610    23924964.718    23924975.584
        43.200          41.300
 111539750.721 8                  20851151.027    20851151.228
        49.200
 133888884.001 7                  25478157.396
        43.800
 111214099.444 7                  20826785.019    20826784.185
        47.100
 118341512.438 7  92214304.41247  22519589.805    22519589.2154   22519590.6554
        45.800          43.9004
 103777654.773 8  80716140.029 8  19427336.215    19427336.719    19427343.574
        52.100          48.800
 123680849.176 8                  23535632.345
        48.000
 124942345.201 6  97357770.27544  23775707.184    23775706.7284   23775712.1454
        39.900          24.4004
 107485291.244 8  83754904.76846  20453715.252    20453713.8134   20453713.7264
        48.100          39.7004
 25  1  1  1 27 30.0000000  0 28E34G25R21R11S31S35R06G03G24S33G12G20
                                E15R22R05G11E02G06E36R07R23E27R13G17
                                R12E30G14G19
 123116283.326 8                  23428198.309
        48.700
 132502340.169 6 103248627.95744  25214356.985    25214355.9444   25214367.6504
        36.900          26.0004
 121526595.296 8  94520835.829 7  22710105.214    22710104.970    22710113.852
        48.600          43.600
 120519414.924 7  93737468.563 7  22553522.152    22553521.978    22553530.109
        45.800          42.300
 198982385.412 7                  37865090.204
        45.300
 200920091.159 7                  38233834.465
        43.900
 123009077.829 6                  23051841.831    23051842.269
        36.200
 127499035.975 6  99350001.98545  24262228.875    24262228.6034   24262233.2024
        38.400          32.4004
 124342020.284 6  96890028.35045  23661449.065    23661448.6594   23661454.4764
        41.200          35.9004
 202135228.490 7                  38465029.943
        44.800
 116310892.925 7  90631989.69047  22133182.861    22133182.2044   22133183.9264
        46.200          43.5004
 122963353.667 6  95815639.77044  23399133.686    23399132.4344   23399136.0734
        41.900          25.3004
 128556814.671 7                  24463514.460
        46.700
 105026133.295 8  81687132.723 8  19674888.905    19674888.960    19674893.685
        52.400          49.200
 130577508.883 6 101560305.895 6  24427224.840    24427225.303    24427232.263
        40.200          38.000
 112018117.230 7  87286943.06846  21316304.845    21316304.4794   21316306.1734
        47.700          37.9004
 134558718.339 7                  25605635.424
        42.600
 106347777.546 8  82868545.48648  20237267.325    20237266.9774   20237269.9814
        50.900          53.0004
 140678975.774 6                  26770277.586
        41.900
 128020229.881 7  99571339.273 6  23915248.396    23915249.407    23915259.611
        43.100          41.400
 111512626.579 8                  20846080.589    20846080.350
        48.700
 133855997.419 7                  25471899.651
        44.000
 111175615.822 7                  20819578.011    20819577.696
        47.100
 118370227.319 7  92236679.64247  22525054.024    22525053.4434   22525054.9064
        45.700          43.7004
 103793817.284 8  80728710.872 8  19430362.208    19430362.237    19430369.208
        52.400          49.000
 123684427.090 8                  23536313.212
        48.400
 124996470.489 6  97399945.77544  23786006.953    23786006.4754   23786011.9064
        39.900          24.2004
 107498009.263 8  83764814.92046  20456135.298    20456133.8594   20456133.8714
        48.000          39.7004
 25  1  1  1 27 45.0000000  0 28E34G25R21R11S31S35R06G03G24S33G12G20
                                E15R22R05G11E02G06E36R07R23E27R13G17
                                R12E30G14G19
 123128373.876 8                  23430499.203
        49.000
 132447100.420 5 103205584.18743  25203844.973    25203843.9544   25203855.8354
        34.600          22.7004
 121574728.095 8  94558272.465 7  22719099.999    22719100.113    22719108.906
        48.200          43.700
 120585261.575 7  93788682.587 7  22565845.291    22565844.969    22565852.707
        45.500          43.000
 198982391.238 7                  37865087.119
        45.400
 200920130.798 7                  38233841.673
        44.000
 122984431.365 5                  23047222.946    23047222.931
        35.900
 127539472.466 6  99381511.05045  24269924.092    24269923.8384   24269928.1854
        38.800          33.3004
 124373526.896 6  96914578.98045  23667444.322    23667443.8934   23667449.8404
        40.900          35.7004
 202135223.545 7                  38465029.773
        45.000
 116269130.277 7  90599447.41947  22125235.709    22125235.0614   22125236.7484
        46.600          43.6004
 122910101.381 6  95774144.56944  23388999.996    23388998.7404   23389002.3704
        41.900          25.3004
 128530718.604 7                  24458548.537
        47.100
 105041725.403 8  81699259.920 8  19677809.621    19677809.945    19677814.754
        52.300          49.400
 130602492.986 6 101579737.962 6  24431899.437    24431898.869    24431904.608
        39.400          36.500
 111989516.965 7  87264657.18046  21310862.537    21310862.1664   21310863.6724
        47.800          37.9004
 134596162.107 7                  25612760.711
        43.000
 106356481.303 8  82875327.64448  20238923.575    20238923.2314   20238926.2444
        50.700          52.9004
 140718195.272 6                  26777740.816
        41.800
 127968247.403 7  99530908.556 6  23905538.188    23905538.090    23905548.897
        42.800          41.400
 111485595.893 8                  20841027.639    20841027.322
        49.000
 133823156.543 7                  25465650.014
        44.800
 111137288.883 7                  20812400.231    20812400.030
        47.100
 118398971.108 7  92259077.39247  22530523.855    22530523.2794   22530524.6894
        45.900          43.6004
 103810178.866 8  80741436.544 8  19433425.022    19433425.307    19433432.144
        52.300          48.900
 123688094.706 8                  23537011.192
        48.800
 125050636.030 6  97442152.67343  23796314.210    23796313.7284   23796318.9294
        39.500          23.9004
 107510792.938 8  83774776.22846  20458568.115    20458566.6804   20458566.5014
        48.200          39.6004
 25  1  1  1 28  0.0000000  0 28E34G25R21R11S31S35R06G03G24S33G12G20
                                E15R22R05G11E02G06E36R07R23E27R13G17
                                R12E30G14G19
 123140534.670 8                  23432813.192
        48.800
 132391874.033 6 103162550.85744  25193335.524    25193334.5144   25193346.0694
        38.200          27.6004
 121622856.111 8  94595705.304 7  22728093.550    22728093.887    22728102.631
        48.700          43.500
 120651157.358 7  93839934.833 7  22578175.431    22578176.139    22578184.431
        46.000          43.200
 198982394.628 7                  37865090.928
        45.500
 200920168.453 7                  38233846.637
        44.100
 122959935.726 5                  23042631.981    23042632.354
        35.500
 127580010.019 6  99413098.82645  24277637.981    24277637.7274   24277642.2574
        38.400          32.4004
 124405117.041 6  96939194.68546  23673455.781    23673455.3344   23673461.1454
        41.200          36.0004
 202135216.813 7                  38465033.440
        45.200
 116227447.592 7  90566967.45147  22117303.576    22117302.9194   22117304.8104
        46.400          43.6004
 122856876.683 6  95732670.85444  23378871.375    23378870.1284   23378873.9664
        41.600          25.5004
 128504690.550 7                  24453595.529
        46.900
 105057403.063 8  81711453.673 8  19680746.630    19680746.947    19680751.658
        52.700          49.400
 130627635.241 6 101599293.200 6  24436601.310    24436602.573    24436609.613
        40.400          37.400
 111961015.568 7  87242448.33146  21305438.910    21305438.5394   21305440.0324
        47.500          38.0004
 134633655.242 7                  25619895.574
        43.000
 106365295.905 8  82882196.17648  20240600.944    20240600.6054   20240603.5814
        50.800          53.0004
 140757424.512 7                  26785205.868
        42.100
 127916289.317 7  99490496.785 6  23895831.922    23895832.737    23895842.529
        43.300          41.400
 111458655.631 8                  20835990.983    20835991.144
        49.500
 133790358.773 7                  25459408.896
        44.500
 111099116.178 7                  20805251.902    20805251.543
        46.500
 118427741.015 7  92281495.49647  22535998.798    22535998.2174   22535999.4044
        45.500          43.6004
 103826736.489 8  80754314.701 8  19436524.820    19436524.978    19436531.663
        52.700          49.000
 123691849.282 8                  23537725.448
        48.500
 125104838.724 6  97484388.50644  23806628.799    23806628.3304   23806633.5404
        39.200          24.0004
 107523639.457 8  83784786.50746  20461012.576    20461011.1194   20461011.0744
        48.200          39.8004
 25  1  1  1 28 15.0000000  0 28E34G25R21R11S31S35R06G03G24S33G12G20
                                E15R22R05G11E02G06E36R07R23E27R13G17
                                R12E30G14G19
 123152770.748 8                  23435141.605
        48.800
 132336666.419 5 103119532.17544  25182830.167    25182829.1754   25182840.5284
        33.700          24.5004
 121670984.612 8  94633138.547 7  22737087.605    22737087.465    22737096.736
        48.300          43.800
 120717107.081 7  93891229.033 7  22590517.134    22590517.478    22590526.561
        44.100          43.100
 198982402.709 7                  37865091.604
        45.200
 200920210.652 7                  38233853.854
        43.800
 122935596.375 6                  23038070.743    23038071.594
        36.400
 127620653.570 6  99444769.21645  24285371.847    24285371.5934   24285375.8344
        39.200          32.4004
 124436795.526 6  96963879.23046  23679484.194    23679483.7344   23679489.5274
        41.400          36.0004
 202135211.796 7                  38465033.123
        44.900
 116185850.070 7  90534553.84747  22109388.269    22109387.6174   22109389.0094
        46.500          43.7004
 122803685.041 6  95691222.90544  23368749.627    23368748.3714   23368751.7474
        40.900          25.3004
 128478735.751 7                  24448656.569
        47.200
 105073171.330 8  81723717.895 8  19683700.641    19683700.748    19683705.661
        52.600          49.400
 130652940.495 7 101618975.340 6  24441334.895    24441336.099    24441342.656
        42.100          38.600
 111932618.289 7  87220320.61546  21300035.040    21300034.6694   21300036.2014
        47.400          37.9004
 134671202.824 7                  25627040.392
        42.800
 106374226.356 8  82889154.97948  20242300.222    20242299.8834   20242302.9854
        50.900          52.9004
 140796668.507 7                  26792673.750
        42.300
 127864360.845 7  99450108.070 6  23886131.016    23886131.230    23886141.983
        43.500          41.900
 111431810.979 8                  20830972.350    20830972.629
        49.300
 133757609.500 7                  25453176.775
        44.300
 111061103.208 7                  20798132.704    20798132.903
        46.400
 118456542.133 7  92303937.91947  22541479.308    22541478.7274   22541480.1154
        45.700          43.6004
 103843495.116 8  80767349.198 8  19439661.577    19439662.094    19439668.895
        52.500          49.100
 123695696.087 8                  23538457.640
        48.700
 125159083.527 6  97526657.15343  23816951.637    23816951.1594   23816956.0174
        38.900          23.8004
 107536553.991 8  83794849.78746  20463470.351    20463468.8984   20463468.6474
        48.100          39.7004
