     2.11           OBSERVATION DATA    M (MIXED)           RINEX VERSION / TYPE
teqc  2019Feb25                         20260317 16:20:09UTCPGM / RUN BY / DATE
Linux 2.4.21-27.ELsmp|Opteron|gcc -static|Linux 64|=+       COMMENT
BIT 2 OF LLI FLAGS DATA COLLECTED UNDER A/S CONDITION       COMMENT
-Unknown-                                                   MARKER NAME
-Unknown-           -Unknown-                               OBSERVER / AGENCY
-Unknown-           -Unknown-           -Unknown-           REC # / TYPE / VERS
-Unknown-           -Unknown-                               ANT # / TYPE
        0.0000        0.0000        0.0000                  APPROX POSITION XYZ
        0.0000        0.0000        0.0000                  ANTENNA: DELTA H/E/N
     1     1                                                WAVELENGTH FACT L1/2
     7    L1    L2    C1    P1    P2    S1    S2            # / TYPES OF OBSERV
 SNR is mapped to RINEX snr flag value [0-9]                COMMENT
  L1 & L2: min(max(int(snr_dBHz/6), 0), 9)                  COMMENT
  2025     1     1    20     0    0.0000000     GPS         TIME OF FIRST OBS
    18                                                      LEAP SECONDS
                                                            END OF HEADER
 25  1  1 20  0  0.0000000  0 33G09E05G17G08S31S35G07E13E33S48S33R19
                                G30E04E31G27R01G04E06R20R08R10E26R11
                                G21E24R21R09E09R02G13G14G02
 121467392.231 6  94649883.54046  23114508.132    23114507.5564   23114521.5464
        40.900          39.1004
 132380689.142 6                  25191209.004
        41.600
 126422072.389 6  98510801.92045  24057308.443    24057307.9074   24057331.4944
        41.000          33.9004
 109944194.583 8  85670942.05548  20921632.443    20921631.6834   20921636.0824
        48.100          48.3004
 198975653.456 7                  37863812.138
        45.900
 200894869.772 7                  38229034.929
        44.100
 106971724.142 8  83354637.50948  20356022.910    20356022.2984   20356023.0634
        50.500          51.9004
 150364151.402 6                  28613295.526
        39.100
 140605332.554 6                  26756264.720
        41.000
 412937859.379 5                  78579447.803
        33.700
 202125401.390 7                  38463171.568
        45.500
 125825423.536 6  97864418.359 6  23521680.996    23521680.609    23521692.310
        36.100          40.300
 111778710.376 8  87100330.03748  21270772.254    21270771.4144   21270774.9354
        49.200          49.2004
 135145286.294 7                  25717312.598
        42.700
 123565859.850 8                  23513746.641
        48.500
 124294299.485 6  96852857.42646  23652362.739    23652361.9574   23652368.7774
        41.500          36.9004
 115781779.694 7  90052525.088 6  21659377.379    21659377.124    21659385.412
        46.200          37.600
 130905854.783 5 102004471.58542  24910628.281    24910627.9514   24910652.9504
        34.500          17.1004
 128980391.031 7                  24544157.901
        47.500
 109587244.538 6  85234703.720 7  20493302.783    20493302.686    20493311.762
        38.800          46.100
 119678066.355 7  93082920.446 7  22349061.468    22349061.958    22349077.171
        42.800          43.800
 108511260.263 8                  20356389.165    20356388.626
        48.600
 140133344.933 7                  26666416.140
        42.600
 110310825.320 8  85797472.559 7  20643115.424    20643115.421    20643121.030
        51.600          47.500
 116643336.350 6  90891061.14744  22196435.890    22196434.5134   22196439.8714
        41.500          26.7004
 139114772.796 7                  26472602.911
        44.200
 117163206.404 7  91127126.987 7  21894703.165    21894703.201    21894717.681
        46.900          44.400
 121910171.854 7  94819091.707 7  22829852.431    22829853.368    22829865.619
        45.100          42.600
 128809858.124 7                  24511700.677
        47.600
 126592736.727 7  98461112.889 6  23723405.964    23723406.651    23723413.065
        42.900          39.300
 127282229.576 6  99180968.08642  24221002.289    24221001.6374   24221003.5164
        38.600          17.8004
 118303505.586 7  92184707.45545  22512348.955    22512348.5404   22512351.2204
        44.200          31.9004
 121175485.014 7  94422584.79945  23058884.243    23058882.9564   23058891.6504
        43.600          30.0004
 25  1  1 20  0 15.0000000  0 33G09E05G17G08S31S35G07E13E33S48S33R19
                                G30E04E31G27R01G04E06R20R08R10E26R11
                                G21E24R21R09E09R02G13G14G02
 121520493.283 7  94691260.67846  23124613.216    23124612.6444   23124626.3264
        42.300          39.0004
 132353242.967 6                  25185986.233
        41.800
 126367922.388 6  98468607.53345  24047003.467    24047002.9094   24047026.3224
        41.600          33.8004
 109976649.126 8  85696231.29348  20927808.333    20927807.5734   20927812.0064
        48.300          48.4004
 198975640.616 7                  37863809.433
        45.900
 200894844.596 7                  38229033.386
        44.100
 106967450.894 8  83351307.69348  20355209.951    20355209.3394   20355209.9034
        50.400          51.8004
 150385092.467 6                  28617280.069
        39.100
 140566382.390 6                  26748852.106
        40.100
 412938425.475 5                  78579469.513
        33.100
 202125409.243 7                  38463179.604
        45.500
 125875336.752 5  97903239.682 6  23531010.409    23531011.633    23531022.825
        35.600          40.300
 111746846.122 8  87075500.75848  21264708.569    21264707.7244   21264711.3394
        49.100          49.2004
 135187991.234 7                  25725439.304
        42.900
 123564130.590 8                  23513417.607
        48.400
 124348325.601 6  96894955.61146  23662643.696    23662642.9274   23662649.2254
        41.100          36.6004
 115791603.376 7  90060165.684 6  21661214.645    21661214.947    21661223.410
        46.400          38.100
 130962782.658 6 102048830.84942  24921461.385    24921461.0464   24921485.9754
        36.700          17.5004
 129009949.150 7                  24549782.633
        47.200
 109574178.058 6  85224540.897 7  20490859.017    20490859.266    20490868.441
        39.500          46.000
 119734056.140 7  93126467.724 7  22359518.119    22359518.141    22359533.215
        43.000          43.500
 108526735.243 8                  20359292.237    20359291.764
        48.300
 140120896.079 7                  26664047.151
        42.700
 110285353.877 8  85777661.438 7  20638348.815    20638348.900    20638354.254
        51.100          47.600
 116616878.555 6  90870444.79744  22191401.336    22191399.9684   22191404.9004
        41.000          26.6004
 139087601.176 7                  26467432.212
        43.900
 117102425.512 7  91079853.288 7  21883343.682    21883344.457    21883358.982
        46.900          44.300
 121948959.320 7  94849259.564 7  22837116.913    22837117.156    22837129.117
        44.800          42.500
 128821753.198 7                  24513964.592
        47.500
 126553171.860 7  98430340.291 6  23715989.704    23715990.595    23715999.084
        43.800          39.600
 127237487.288 6  99146103.97942  24212488.598    24212487.9464   24212489.1494
        40.300          17.5004
 118269760.690 7  92158412.75445  22505927.703    22505927.2834   22505929.8584
        44.100          32.0004
 121136183.234 7  94391960.31145  23051405.822    23051404.5394   23051412.6024
        43.900          30.0004
 25  1  1 20  0 30.0000000  0 33G09E05G17G08S31S35G07E13E33S48S33R19
                                G30E04E31G27R01G04E06R20R08R10E26R11
                                G21E24R21R09E09R02G13G14G02
 121573632.540 7  94732667.59546  23134725.600    23134725.0284   23134738.8244
        42.000          39.2004
 132325883.880 6                  25180780.027
        41.200
 126313813.283 6  98426445.04845  24036706.649    24036706.0914   24036729.0384
        40.700          33.3004
 110009220.931 8  85721611.89648  20934006.545    20934005.7854   20934010.2334
        48.500          48.3004
 198975632.807 7                  37863807.197
        45.800
 200894825.159 7                  38229030.972
        44.100
 106963286.066 8  83348062.35348  20354417.270    20354416.6534   20354417.3704
        50.600          51.6004
 150406132.439 6                  28621283.972
        38.700
 140527471.314 6                  26741447.719
        40.300
 412938997.509 5                  78579501.521
        33.200
 202125423.082 7                  38463178.915
        45.500
 125925376.407 6  97942159.268 6  23540366.553    23540365.896    23540378.143
        36.300          40.600
 111715058.316 8  87050731.04848  21258659.832    21258658.9874   21258662.3114
        49.700          49.0004
 135230741.609 7                  25733574.568
        42.800
 123562442.581 8                  23513096.345
        48.300
 124402402.125 6  96937093.08146  23672933.766    23672933.0024   23672939.7434
        41.600          36.4004
 115801622.994 7  90067958.717 6  21663089.195    21663089.456    21663097.583
        46.600          37.600
 131019698.115 6 102093180.49042  24932290.955    24932290.5934   24932316.6834
        38.200          17.5004
 129039592.919 7                  24555423.738
        47.400
 109561322.495 6  85214542.155 7  20488454.075    20488454.786    20488464.304
        39.100          45.900
 119790118.242 7  93170071.258 7  22369988.049    22369987.627    22370002.907
        43.300          43.600
 108542274.586 7                  20362207.007    20362206.654
        47.800
 140108552.954 7                  26661698.243
        42.100
 110259926.979 8  85757884.979 7  20633590.377    20633590.758    20633595.732
        51.700          47.600
 116590546.354 6  90849926.32344  22186390.124    22186388.7564   22186393.9824
        41.700          26.5004
 139060460.110 7                  26462267.545
        44.200
 117041726.105 7  91032642.968 7  21872000.640    21872000.809    21872016.135
        46.400          44.400
 121987784.443 7  94879456.731 7  22844388.024    22844388.770    22844399.703
        44.000          42.000
 128833759.132 7                  24516249.355
        47.400
 126513756.416 7  98399683.928 6  23708604.068    23708604.069    23708612.151
        43.100          39.200
 127192835.493 6  99111310.35942  24203991.116    24203990.4644   24203992.2844
        39.800          17.9004
 118236057.844 7  92132150.83445  22499514.537    22499514.1354   22499516.3534
        44.000          31.8004
 121096951.675 7  94361390.55144  23043939.990    23043938.7124   23043946.8704
        43.800          29.5004
 25  1  1 20  0 45.0000000  0 33G09E05G17G08S31S35G07E13E33S48S33R19
                                G30E04E31G27R01G04E06R20R08R10E26R11
                                G21E24R21R09E09R02G13G14G02
 121626801.372 6  94774097.57446  23144843.409    23144842.8424   23144856.8014
        41.500          38.9004
 132298603.820 6                  25175588.919
        40.900
 126259737.139 6  98384308.23445  24026416.339    24026415.7814   24026438.0284
        41.000          33.1004
 110041901.447 8  85747077.19948  20940225.684    20940224.9244   20940229.1784
        48.500          48.4004
 198975623.069 7                  37863806.021
        45.800
 200894803.272 7                  38229029.885
        44.100
 106959221.553 8  83344895.18248  20353643.852    20353643.2354   20353643.9324
        50.400          51.7004
 150427262.779 6                  28625305.240
        38.900
 140488591.339 6                  26734048.766
        40.600
 412939567.179 5                  78579525.372
        33.200
 202125434.487 7                  38463172.060
        45.000
 125975533.591 5  97981170.036 6  23549742.122    23549742.137    23549755.127
        35.800          40.600
 111683338.990 8  87026014.69048  21252623.477    21252622.6234   21252626.3274
        49.200          49.1004
 135273528.948 7                  25741716.896
        42.900
 123560787.523 8                  23512781.533
        48.300
 124456520.465 6  96979263.11246  23683232.002    23683231.2204   23683238.5794
        41.400          36.7004
 115811830.275 7  90075897.695 6  21664998.669    21664998.441    21665007.239
        46.300          37.800
 131076592.583 5 102137513.76042  24943118.324    24943117.9804   24943143.0944
        35.800          17.4004
 129069313.897 7                  24561079.568
        46.900
 109548670.009 6  85204701.357 7  20486089.079    20486089.145    20486098.042
        39.500          45.800
 119846243.744 7  93213724.079 7  22380468.240    22380468.954    22380484.122
        44.100          43.700
 108557869.976 8                  20365133.674    20365132.437
        48.200
 140096307.435 7                  26659367.746
        42.300
 110234536.311 8  85738136.680 7  20628839.003    20628839.409    20628844.306
        51.900          47.700
 116564331.763 6  90829499.49944  22181401.505    22181400.1424   22181405.3724
        41.600          26.7004
 139033341.386 7                  26457106.854
        43.500
 116981100.014 7  90985489.670 7  21860671.015    21860671.314    21860685.928
        46.600          44.400
 122026639.240 7  94909676.952 7  22851664.610    22851664.467    22851676.540
        45.100          42.500
 128845867.654 7                  24518553.290
        47.200
 126474482.523 6  98369137.628 6  23701242.971    23701243.228    23701252.191
        41.400          39.300
 127148266.343 6  99076581.18343  24195509.991    24195509.3434   24195511.6014
        40.400          18.1004
 118202388.829 7  92105915.26545  22493107.284    22493106.8914   22493109.3414
        44.300          32.0004
 121057782.558 7  94330869.44144  23036486.192    23036484.9184   23036492.7164
        42.800          29.8004
 25  1  1 20  1  0.0000000  0 33G09E05G17G08S31S35G07E13E33S48S33R19
                                G30E04E31G27R01G04E06R20R08R10E26R11
                                G21E24R21R09E09R02G13G14G02
 121680000.028 7  94815550.77546  23154966.790    23154966.2234   23154980.7824
        42.300          39.0004
 132271403.596 6                  25170412.685
        41.300
 126205694.638 6  98342197.64445  24016131.895    24016131.3324   24016153.8914
        41.800          33.5004
 110074691.000 8  85772627.47948  20946465.196    20946464.4324   20946468.8584
        48.500          48.3004
 198975611.330 7                  37863807.470
        45.800
 200894779.692 7                  38229012.982
        43.700
 106955258.150 8  83341806.79548  20352889.760    20352889.1434   20352889.7484
        50.700          51.5004
 150448484.421 6                  28629343.152
        38.800
 140449743.448 6                  26726655.591
        40.400
 412938434.125 5                  78579564.280
        33.300
 202125444.532 7                  38463176.711
        45.300
 126025808.747 5  98020272.552 6  23559140.008    23559140.840    23559153.731
        35.400          40.700
 111651689.046 8  87001352.39448  21246600.827    21246599.9734   21246603.5344
        49.300          48.9004
 135316353.650 7                  25749866.422
        42.700
 123559166.067 8                  23512472.827
        48.200
 124510680.895 6  97021465.93946  23693538.567    23693537.7944   23693545.0924
        41.100          36.3004
 115822225.390 7  90083982.757 6  21666943.207    21666943.355    21666951.840
        46.400          38.000
 131133466.355 6 102181830.88442  24953940.133    24953939.8474   24953965.7894
        36.500          16.4004
 129099112.565 7                  24566749.994
        47.000
 109536221.148 6  85195018.933 7  20483760.945    20483760.767    20483770.232
        39.000          45.900
 119902432.622 7  93257426.215 7  22390962.150    22390961.643    22390977.839
        42.800          43.400
 108573522.354 8                  20368069.252    20368069.032
        48.300
 140084160.320 7                  26657056.270
        42.200
 110209182.548 8  85718417.086 7  20624094.336    20624094.525    20624099.973
        51.600          47.800
 116538235.672 6  90809165.00644  22176435.406    22176434.0474   22176439.4434
        41.500          26.7004
 139006245.630 7                  26451950.898
        43.300
 116920548.562 7  90938394.390 7  21849355.312    21849355.578    21849369.821
        46.600          44.200
 122065524.242 7  94939920.674 7  22858945.939    22858946.410    22858958.510
        44.400          42.700
 128858079.328 7                  24520877.228
        47.400
 126435351.251 7  98338702.235 6  23693910.183    23693910.130    23693918.735
        42.700          38.800
 127103780.937 6  99041917.22042  24187044.055    24187043.4214   24187045.8494
        40.300          17.8004
 118168754.277 7  92079706.54945  22486706.871    22486706.4784   22486708.8304
        45.100          31.8004
 121018676.746 7  94300397.66244  23029044.278    23029043.0224   23029050.9304
        44.000          29.8004
 25  1  1 20  1 15.0000000  0 33G09E05G17G08S31S35G07E13E33S48S33R19
                                G30E04E31G27R01G04E06R20R08R10E26R11
                                G21E24R21R09E09R02G13G14G02
 121733236.933 6  94857033.79746  23165097.688    23165097.1214   23165111.4084
        41.700          38.6004
 132244292.133 6                  25165253.655
        40.900
 126151695.033 6  98300120.48645  24005855.363    24005854.8004   24005877.7674
        40.200          33.6004
 110107598.015 8  85798269.28348  20952727.317    20952726.5534   20952730.8694
        48.400          48.4004
 198975606.077 7                  37863799.001
        45.400
 200894763.141 7                  38229017.503
        44.000
 106951404.761 8  83338804.13148  20352156.424    20352155.7984   20352156.4874
        50.700          51.4004
 150469805.843 6                  28633400.457
        38.200
 140410936.578 6                  26719271.017
        40.300
 412939008.473 5                  78579594.065
        34.000
 202125460.302 7                  38463186.418
        45.300
 126076210.502 6  98059473.565 6  23568563.344    23568563.572    23568576.410
        36.200          40.900
 111620117.491 8  86976751.17748  21240592.837    21240591.9794   21240595.6684
        49.500          48.8004
 135359224.328 7                  25758024.396
        42.600
 123557586.928 8                  23512172.549
        48.100
 124564891.859 6  97063708.13245  23703854.776    23703854.0164   23703860.7324
        41.200          35.9004
 115832817.060 7  90092220.702 6  21668925.410    21668924.888    21668932.845
        46.300          37.700
 131190327.918 6 102226138.53942  24964761.392    24964761.1114   24964786.0204
        36.700          15.6004
 129128997.490 7                  24572437.041
        46.800
 109523985.165 6  85185502.065 7  20481472.203    20481472.633    20481481.821
        39.500          46.100
 119958693.172 7  93301184.105 7  22401468.234    22401468.829    22401484.480
        43.800          43.500
 108589240.323 8                  20371018.028    20371017.289
        48.200
 140072120.492 7                  26654765.539
        42.300
 110183874.766 8  85698733.257 7  20619358.603    20619358.500    20619363.818
        51.600          47.900
 116512267.345 7  90788930.07344  22171493.983    22171492.6464   22171497.7464
        42.300          26.7004
 138979181.540 7                  26446800.937
        43.300
 116860081.210 7  90891364.564 7  21838055.436    21838055.948    21838070.219
        47.300          44.400
 122104448.347 7  94970194.781 7  22866235.922    22866235.946    22866247.586
        45.100          42.200
 128870402.810 7                  24523222.307
        47.300
 126396371.936 7  98308385.132 6  23686605.314    23686605.287    23686614.943
        42.000          39.800
 127059388.133 6  99007325.42242  24178596.625    24178595.9994   24178597.8184
        39.400          17.0004
 118135162.992 7  92053531.55145  22480314.259    22480313.8534   22480316.5344
        44.700          31.9004
 120979643.329 7  94269982.27244  23021616.011    23021614.7464   23021623.0014
        43.900          29.9004
 25  1  1 20  1 30.0000000  0 33G09E05G17G08S31S35G07E13E33S48S33R19
                                G30E04E31G27R01G04E06R20R08R10E26R11
                                G21E24R21R09E09R02G13G14G02
 121786499.102 6  94898536.49246  23175233.598    23175233.0264   23175247.1284
        41.700          38.6004
 132217257.138 6                  25160108.877
        40.800
 126097725.876 6  98258067.06745  23995585.446    23995584.8744   23995607.4304
        40.600          33.6004
 110140609.642 8  85823992.60548  20959009.269    20959008.5094   20959012.8104
        48.700          48.3004
 198975595.642 7                  37863799.251
        45.600
 200894740.315 7                  38229011.690
        43.700
 106947649.015 8  83335877.56048  20351441.922    20351441.2964   20351441.7964
        50.600          51.4004
 150491214.311 6                  28637474.207
        39.100
 140372158.559 6                  26711891.773
        40.400
 412939576.479 5                  78579620.578
        33.400
 202125471.044 7                  38463181.924
        45.300
 126126725.725 5  98098762.961 6  23578006.404    23578006.593    23578019.448
        34.400          40.800
 111588612.093 8  86952201.51148  21234597.690    21234596.8274   21234600.3674
        49.200          48.8004
 135402128.156 7                  25766188.544
        42.600
 123556037.484 8                  23511877.540
        48.200
 124619140.487 6  97105979.69046  23714177.971    23714177.2074   23714184.3854
        41.900          36.4004
 115843592.278 7  90100601.430 6  21670940.442    21670940.266    21670948.648
        45.800          38.000
 131247164.438 5 102270426.63842  24975576.601    24975576.2884   24975601.5824
        35.100          16.0004
 129158955.963 7                  24578137.912
        47.000
 109511949.516 6  85176141.031 7  20479221.573    20479221.605    20479231.025
        39.000          46.100
 120015012.013 7  93344987.298 7  22411986.174    22411985.504    22412000.994
        43.100          43.100
 108605011.633 8                  20373976.907    20373976.237
        48.600
 140060175.588 7                  26652492.265
        42.400
 110158600.242 8  85679075.288 7  20614628.458    20614628.641    20614634.080
        51.300          47.800
 116486414.977 6  90768785.50544  22166574.133    22166572.8014   22166578.0534
        41.800          26.9004
 138952136.602 7                  26441653.987
        43.500
 116799685.690 7  90844390.602 7  21826768.161    21826768.867    21826783.244
        46.600          44.200
 122143398.823 7  95000489.430 7  22873529.636    22873530.057    22873541.763
        44.800          42.100
 128882825.522 7                  24525586.212
        47.400
 126357531.988 6  98278176.376 6  23679326.944    23679326.112    23679335.231
        41.200          39.200
 127015075.862 6  98972796.41142  24170164.984    24170164.3904   24170165.3804
        39.400          17.5004
 118101602.437 7  92027380.51045  22473928.399    22473928.0024   22473930.2924
        44.300          31.9004
 120940670.313 7  94239613.94944  23014199.694    23014198.4344   23014206.3234
        43.900          29.8004
 25  1  1 20  1 45.0000000  0 33G09E05G17G08S31S35G07E13E33S48S33R19
                                G30E04E31G27R01G04E06R20R08R10E26R11
                                G21E24R21R09E09R02G13G14G02
 121839791.777 6  94940062.95046  23185374.862    23185374.2814   23185388.7724
        41.900          38.7004
 132190304.342 6                  25154980.092
        40.900
 126043793.004 6  98216041.90545  23985321.971    23985321.3814   23985343.7684
        40.900          33.3004
 110173731.139 8  85849801.53448  20965312.206    20965311.4514   20965315.6564
        48.700          48.6004
 198975585.115 7                  37863795.642
        45.500
 200894718.861 7                  38229008.886
        44.100
 106943996.658 8  83333031.54648  20350746.909    20350746.2834   20350746.8084
        50.700          51.6004
 150512715.105 6                  28641565.376
        38.500
 140333415.210 6                  26704518.343
        40.700
 412940142.897 5                  78579653.547
        33.200
 202125481.888 7                  38463189.106
        45.300
 126177359.100 6  98138144.253 6  23587472.471    23587473.134    23587484.916
        36.500          40.600
 111557178.666 8  86927707.92748  21228616.174    21228615.3204   21228618.7714
        49.200          49.0004
 135445070.467 7                  25774360.839
        42.900
 123554523.208 8                  23511589.331
        48.200
 124673431.967 6  97148284.60046  23724509.752    23724508.9974   23724515.8094
        41.600          36.5004
 115854556.648 7  90109129.242 6  21672991.854    21672991.583    21672999.786
        46.200          37.500
 131303981.124 6 102314699.25642  24986389.210    24986388.8714   24986413.8364
        36.800          16.3004
 129188993.357 7                  24583853.858
        46.700
 109500120.095 6  85166940.388 7  20477009.876    20477010.044    20477018.704
        38.900          46.100
 120071394.327 7  93388839.899 7  22422514.720    22422514.986    22422531.616
        42.700          44.000
 108620841.480 8                  20376946.446    20376945.547
        48.200
 140048331.292 6                  26650238.350
        41.900
 110133364.861 8  85659447.781 7  20609905.981    20609906.469    20609911.716
        51.900          47.800
 116460683.880 7  90748735.42644  22161677.614    22161676.2824   22161681.4884
        42.400          27.1004
 138925116.295 7                  26436512.390
        43.400
 116739368.566 7  90797477.605 7  21815496.458    21815497.234    21815511.053
        46.400          44.200
 122182381.477 7  95030809.093 6  22880830.953    22880831.475    22880842.170
        45.500          41.700
 128895352.936 7                  24527970.151
        47.300
 126318837.406 7  98248080.668 6  23672075.287    23672075.246    23672084.795
        42.000          39.900
 126970849.871 6  98938334.61043  24161748.815    24161748.2394   24161749.3754
        39.400          18.1004
 118068078.222 7  92001257.78045  22467548.661    22467548.2644   22467550.7854
        45.500          32.2004
 120901763.815 7  94209297.45145  23006795.920    23006794.6734   23006802.3314
        44.300          30.0004
 25  1  1 20  2  0.0000000  0 33G09E05G17G08S31S35G07E13E33S48S33R19
                                G30E04E31G27R01G04E06R20R08R10E26R11
                                G21E24R21R09E09R02G13G14G02
 121893113.494 6  94981612.03146  23195522.114    23195521.5244   23195535.7074
        41.500          38.6004
 132163432.837 6                  25149866.863
        41.500
 125989895.708 6  98174044.47445  23975065.829    23975065.2484   23975086.5104
        40.500          33.2004
 110206961.119 8  85875694.99748  20971635.511    20971634.7564   20971639.1614
        48.300          48.8004
 198975573.157 7                  37863798.361
        45.800
 200894695.323 7                  38229005.859
        44.200
 106940446.791 8  83330265.40448  20350071.262    20350070.6364   20350071.3254
        50.500          51.8004
 150534307.182 6                  28645673.884
        38.600
 140294705.735 6                  26697152.059
        40.300
 412939108.803 5                  78579678.579
        33.700
 202125491.663 7                  38463194.239
        45.100
 126228109.615 6  98177616.697 6  23596960.166    23596960.576    23596972.108
        36.300          39.900
 111525816.392 8  86903269.78948  21222647.999    21222647.1504   21222650.7254
        49.000          49.1004
 135488049.986 7                  25782539.648
        43.000
 123553042.970 8                  23511307.627
        48.400
 124727764.935 6  97190621.85146  23734848.627    23734847.8634   23734855.1984
        41.000          36.4004
 115865708.699 7  90117803.038 6  21675078.428    21675077.805    21675086.245
        46.000          38.100
 131360776.666 6 102358955.44142  24997195.940    24997195.5514   24997221.7834
        36.800          16.3004
 129219108.406 7                  24589584.596
        47.000
 109488496.117 6  85157899.532 7  20474836.042    20474836.169    20474845.093
        39.200          46.100
 120127838.410 7  93432740.499 7  22433056.778    22433056.232    22433071.664
        43.400          43.300
 108636729.262 8                  20379926.835    20379926.232
        48.400
 140036586.664 7                  26648003.590
        42.000
 110108167.500 8  85639849.823 8  20605190.755    20605190.987    20605196.197
        51.900          48.000
 116435073.592 7  90728779.48444  22156803.978    22156802.6334   22156807.8584
        42.100          27.3004
 138898119.592 7                  26431374.912
        43.800
 116679129.034 7  90750624.936 7  21804239.540    21804240.009    21804253.707
        47.200          44.300
 122221394.988 7  95061152.763 7  22888136.422    22888136.666    22888148.846
        45.500          42.500
 128907983.901 7                  24530373.767
        47.400
 126280287.835 7  98218097.775 6  23664851.489    23664851.376    23664860.526
        42.500          39.500
 126926709.496 6  98903939.51343  24153349.043    24153348.4534   24153350.2194
        39.600          18.5004
 118034589.265 7  91975162.52345  22461175.958    22461175.5614   22461178.0344
        44.300          32.3004
 120862922.851 7  94179032.03545  22999404.465    22999403.1964   22999410.9764
        43.800          30.1004
 25  1  1 20  2 15.0000000  0 33G09E05G17G08S31S35G07E13E33S48S33R19
                                G30E04E31G27R01G04E06R20R08R10E26R11
                                G21E24R21R09E09R02G13G14G02
 121946468.053 6  95023186.71246  23205675.531    23205674.9554   23205688.9734
        41.700          38.6004
 132136646.967 7                  25144769.382
        42.000
 125936038.551 6  98132078.31145  23964815.992    23964815.4114   23964837.2514
        40.800          33.2004
 110240303.409 8  85901675.98348  20977980.372    20977979.6264   20977984.0494
        48.600          48.7004
 198975564.245 7                  37863789.078
        45.500
 200894675.271 7                  38229001.763
        44.300
 106937003.702 8  83327582.46948  20349416.134    20349415.5084   20349416.1344
        50.800          51.7004
 150555994.576 6                  28649800.379
        38.700
 140256034.572 6                  26689793.134
        40.900
 412939677.954 5                  78579707.859
        32.900
 202125503.986 7                  38463187.688
        45.200
 126278980.854 6  98217183.133 6  23606469.348    23606470.438    23606482.332
        36.700          40.200
 111494529.720 8  86878890.56248  21216694.504    21216693.6594   21216697.0724
        49.500          49.1004
 135531070.686 7                  25790726.276
        43.200
 123551600.839 8                  23511033.351
        48.500
 124782143.258 6  97232994.47246  23745196.961    23745196.1924   23745203.1544
        41.400          36.5004
 115877052.626 7  90126626.052 6  21677200.112    21677200.256    21677208.736
        46.300          38.200
 131417554.838 6 102403198.08742  25008001.234    25008000.8684   25008026.3554
        38.100          17.1004
 129249305.115 7                  24595330.987
        47.100
 109477081.643 6  85149021.633 7  20472702.309    20472701.063    20472710.447
        39.300          46.200
 120184347.909 7  93476691.982 7  22443608.807    22443609.163    22443625.319
        43.500          43.500
 108652678.719 8                  20382918.818    20382918.391
        48.600
 140024945.944 7                  26645788.083
        42.200
 110083012.475 8  85620284.814 8  20600482.963    20600483.531    20600488.911
        50.900          48.000
 116409588.433 6  90708921.04444  22151953.993    22151952.6524   22151957.9634
        41.800          27.4004
 138871150.617 7                  26426242.976
        44.200
 116618971.958 7  90703836.399 7  21792997.759    21792997.966    21793012.384
        47.000          44.800
 122260443.955 7  95091523.994 7  22895448.889    22895449.866    22895461.116
        45.200          42.100
 128920722.530 7                  24532797.815
        47.700
 126241887.814 7  98188231.154 6  23657655.408    23657654.500    23657663.960
        42.900          40.000
 126882659.322 6  98869614.72743  24144966.474    24144965.8574   24144968.0464
        40.400          18.0004
 118001139.785 7  91949098.03545  22454810.646    22454810.2354   22454812.7954
        44.900          32.4004
 120824152.060 7  94148821.29245  22992026.596    22992025.3274   22992032.8624
        44.500          30.1004
 25  1  1 20  2 30.0000000  0 33G09E05G17G08S31S35G07E13E33S48S33R19
                                G30E04E31G27R01G04E06R20R08R10E26R11
                                G21E24R21R09E09R02G13G14G02
 121999848.098 7  95064781.26746  23215833.348    23215832.7674   23215847.2474
        42.100          38.4004
 132109939.880 6                  25139687.082
        41.400
 125882214.702 6  98090138.16245  23954573.114    23954572.5384   23954594.7544
        40.300          34.0004
 110273750.697 8  85927738.78848  20984345.394    20984344.6574   20984348.8814
        48.400          48.7004
 198975551.369 7                  37863794.994
        45.900
 200894651.085 7                  38228992.391
        43.400
 106933660.616 8  83324977.45748  20348780.093    20348779.4674   20348779.9784
        50.500          51.6004
 150577769.790 6                  28653943.857
        37.600
 140217395.015 6                  26682439.964
        40.900
 412940242.024 5                  78579734.407
        33.200
 202125512.938 7                  38463193.756
        45.000
 126329964.805 6  98256837.223 6  23615999.028    23616001.313    23616013.654
        36.000          40.600
 111463311.895 8  86854564.97948  21210753.864    21210753.0194   21210756.5354
        49.500          49.0004
 135574125.264 7                  25798919.173
        42.500
 123550189.809 8                  23510764.700
        48.300
 124836559.546 6  97275396.67946  23755551.708    23755550.9354   23755558.4524
        41.600          36.7004
 115888580.957 7  90135592.522 6  21679356.677    21679356.710    21679364.953
        46.400          38.100
 131474308.399 6 102447421.55442  25018801.108    25018800.7424   25018826.2894
        37.400          17.2004
 129279576.266 7                  24601091.464
        46.900
 109465870.076 6  85140301.570 7  20470603.737    20470604.798    20470613.999
        38.900          46.000
 120240915.067 7  93520688.332 7  22454171.322    22454172.593    22454188.616
        42.400          43.000
 108668683.201 8                  20385920.731    20385920.822
        48.100
 140013402.272 7                  26643591.583
        42.400
 110057892.770 8  85600747.263 8  20595782.583    20595782.590    20595787.971
        51.700          48.100
 116384221.642 7  90689154.82344  22147126.877    22147125.5454   22147130.8554
        42.000          27.3004
 138844202.287 7                  26421114.680
        43.500
 116558890.685 7  90657106.862 7  21781769.358    21781770.254    21781783.634
        47.700          44.400
 122299521.041 7  95121917.145 7  22902767.499    22902767.430    22902779.637
        44.000          42.200
 128933561.707 7                  24535241.219
        47.300
 126203630.628 7  98158475.616 6  23650485.663    23650485.613    23650494.352
        42.100          39.700
 126838692.730 6  98835355.07743  24136599.584    24136598.9454   24136601.4934
        40.200          18.7004
 117967722.737 7  91923058.81745  22448451.628    22448451.2224   22448453.7014
        45.100          32.3004
 120785444.824 7  94118660.07745  22984660.645    22984659.3624   22984666.7764
        44.500          30.1004
 25  1  1 20  2 45.0000000  0 33G09E05G17G08S31S35G07E13E33S48S33R19
                                G30E04E31G27R01G04E06R20R08R10E26R11
                                G21E24R21R09E09R02G13G14G02
 122053259.687 6  95106400.39946  23225997.628    23225997.0474   23226011.4474
        40.900          38.4004
 132083318.224 7                  25134621.374
        42.000
 125828431.059 6  98048229.33645  23944338.467    23944337.8954   23944360.2344
        40.700          33.4004
 110307309.093 8  85953888.18048  20990731.305    20990730.5684   20990734.8324
        48.700          48.8004
 198975541.236 7                  37863793.796
        45.700
 200894629.556 7                  38228981.498
        43.300
 106930424.198 8  83322455.56648  20348164.012    20348163.3824   20348164.1294
        50.600          51.7004
 150599639.321 6                  28658105.820
        38.000
 140178793.726 6                  26675094.087
        40.600
 412940808.418 5                  78579755.813
        32.900
 202125524.026 7                  38463194.172
        45.500
 126381067.988 6  98296584.103 6  23625554.580    23625553.843    23625566.685
        36.700          40.800
 111432169.607 8  86830298.26448  21204827.341    21204826.4964   21204830.3394
        49.500          49.0004
 135617219.936 7                  25807119.937
        42.700
 123548816.267 8                  23510503.454
        48.400
 124891019.907 6  97317833.26146  23765915.289    23765914.5164   23765921.7954
        41.300          36.3004
 115900300.169 7  90144707.452 6  21681548.436    21681548.856    21681557.528
        45.500          38.100
 131531043.414 5 102491630.56042  25029597.182    25029596.8614   25029622.4674
        35.500          15.7004
 129309928.133 7                  24606867.063
        46.900
 109454867.907 6  85131744.373 7  20468546.652    20468547.494    20468556.739
        39.200          46.200
 120297545.962 7  93564734.226 7  22464749.301    22464749.412    22464764.580
        43.900          43.400
 108684749.135 8                  20388935.374    20388934.799
        48.500
 140001962.236 7                  26641414.427
        42.500
 110032815.105 8  85581242.417 7  20591089.324    20591090.047    20591094.770
        51.900          47.900
 116358980.151 6  90669486.26144  22142323.885    22142322.5534   22142327.4524
        41.900          27.5004
 138817281.060 7                  26415991.803
        43.800
 116498892.472 7  90610441.839 7  21770556.942    21770557.521    21770571.112
        47.400          44.500
 122338632.807 7  95152337.220 7  22910091.830    22910092.190    22910104.446
        44.000          42.500
 128946507.804 7                  24537704.711
        47.600
 126165523.335 7  98128836.662 6  23643344.302    23643344.673    23643353.802
        42.500          40.500
 126794816.439 6  98801165.79243  24128250.195    24128249.5654   24128252.5854
        40.400          19.6004
 117934344.604 7  91897049.92145  22442099.677    22442099.2624   22442101.9274
        45.400          32.4004
 120746807.959 7  94088553.69845  22977308.082    22977306.7954   22977314.3424
        44.300          30.1004
 25  1  1 20  3  0.0000000  0 33G09E05G17G08S31S35G07E13E33S48S33R19
                                G30E04E31G27R01G04E06R20R08R10E26R11
                                G21E24R21R09E09R02G13G14G02
 122106699.243 6  95148041.32346  23236166.868    23236166.2874   23236181.0574
        41.600          38.5004
 132056778.996 6                  25129571.272
        41.400
 125774684.344 6  98006349.28345  23934110.538    23934109.9534   23934131.1964
        40.000          33.1004
 110340975.108 8  85980121.43548  20997137.727    20997136.9944   20997141.2544
        48.400          49.0004
 198975530.262 7                  37863792.056
        45.700
 200894607.325 7                  38228979.530
        43.300
 106927291.381 8  83320014.40748  20347567.907    20347567.2734   20347567.9674
        50.700          51.8004
 150621599.803 6                  28662283.943
        38.400
 140140227.814 6                  26667754.875
        40.700
 412939774.143 5                  78579787.450
        32.600
 202125534.534 7                  38463195.169
        45.200
 126432286.005 5  98336420.244 6  23635128.825    23635128.231    23635141.404
        35.300          40.000
 111401099.953 8  86806088.15148  21198915.317    21198914.4684   21198917.9554
        49.400          49.2004
 135660351.324 7                  25815327.419
        43.000
 123547476.983 8                  23510248.598
        48.600
 124945520.906 6  97360301.55446  23776287.186    23776286.4404   23776292.8884
        41.200          36.5004
 115912206.642 7  90153967.992 6  21683776.869    21683776.520    21683784.790
        45.500          37.600
 131587756.417 5 102535822.44042  25040390.083    25040389.7884   25040414.7914
        35.200          15.7004
 129340357.344 7                  24612657.664
        47.200
 109444072.263 6  85123347.775 7  20466528.302    20466528.122    20466537.623
        38.800          46.100
 120354236.643 7  93608826.639 7  22475335.088    22475335.075    22475351.276
        42.200          43.200
 108700873.674 8                  20391959.822    20391959.547
        48.700
 139990622.751 7                  26639256.408
        42.800
 110007776.260 8  85561767.752 8  20586404.041    20586403.939    20586409.337
        51.100          48.200
 116333860.853 7  90649912.91344  22137543.981    22137542.6494   22137547.0324
        42.000          27.5004
 138790383.726 7                  26410873.388
        44.000
 116438974.676 7  90563839.408 7  21759360.883    21759360.610    21759373.923
        47.700          44.400
 122377776.115 7  95182781.867 7  22917421.554    22917422.199    22917434.330
        44.300          42.600
 128959557.547 7                  24540188.028
        47.700
 126127562.782 7  98099311.813 6  23636231.440    23636231.534    23636239.383
        42.700          40.200
 126751027.469 6  98767044.55143  24119917.570    24119916.9534   24119919.8914
        40.800          20.1004
 117901002.213 7  91871068.88445  22435755.176    22435754.7564   22435756.9454
        44.500          32.7004
 120708238.727 7  94058500.02245  22969967.895    22969966.5994   22969974.2724
        44.700          30.2004
 25  1  1 20  3 15.0000000  0 33G09E05G17G08S31S35G07E13E33S48S33R19
                                G30E04E31G27R01G04E06R20R08R10E26R11
                                G21E24R21R09E09R02G13G14G02
 122160170.076 6  95189706.63246  23246342.145    23246341.5694   23246356.2834
        40.800          38.1004
 132030326.045 7                  25124537.254
        42.200
 125720978.524 6  97964501.09445  23923890.029    23923889.4534   23923911.2624
        40.800          34.1004
 110374752.063 8  86006441.14048  21003565.376    21003564.6484   21003568.7734
        49.100          48.8004
 198975522.049 7                  37863788.331
        46.000
 200894587.762 7                  38228977.348
        43.600
 106924265.989 8  83317656.95348  20346992.327    20346991.6934   20346992.2514
        50.700          51.6004
 150643654.728 6                  28666480.728
        39.100
 140101701.252 6                  26660423.178
        40.800
 412940343.395 5                  78579822.127
        33.500
 202125547.989 7                  38463191.717
        44.800
 126483622.946 6  98376348.987 6  23644726.370    23644724.901    23644738.119
        36.400          40.200
 111370106.885 8  86781937.70748  21193017.455    21193016.5924   21193020.1754
        49.900          49.0004
 135703522.849 7                  25823543.107
        43.400
 123546175.546 8                  23510000.899
        48.700
 125000065.718 6  97402803.97546  23786666.345    23786665.5994   23786672.3514
        41.400          36.4004
 115924304.119 7  90163377.084 6  21686039.746    21686039.384    21686047.999
        45.900          37.800
 131644450.798 5 102579999.79042  25051179.156    25051178.8434   25051203.2834
        34.900          15.4004
 129370867.381 7                  24618463.423
        47.000
 109433486.991 6  85115114.793 7  20464548.548    20464548.786    20464557.929
        38.900          46.300
 120410990.494 7  93652968.173 7  22485933.132    22485933.822    22485950.005
        42.500          43.300
 108717060.115 8                  20394996.367    20394996.105
        48.300
 139979387.642 7                  26637118.427
        42.900
 109982780.087 8  85542326.274 8  20581726.194    20581726.443    20581731.814
        51.400          48.200
 116308868.309 6  90630438.34944  22132787.471    22132786.1484   22132791.2204
        41.700          27.5004
 138763513.917 7                  26405760.309
        43.900
 116379141.548 8  90517302.812 7  21748178.867    21748179.340    21748192.609
        48.300          44.600
 122416954.585 7  95213253.835 7  22924758.452    22924759.572    22924771.940
        44.300          42.400
 128972714.547 8                  24542691.696
        48.000
 126089753.396 7  98069904.588 6  23629145.116    23629144.933    23629154.003
        42.600          40.400
 126707330.045 6  98732994.64243  24111601.908    24111601.2964   24111604.5644
        40.500          19.1004
 117867699.279 7  91845118.57845  22429417.806    22429417.3954   22429419.6454
        44.700          32.5004
 120669741.215 7  94028502.22045  22962642.121    22962640.8204   22962648.0824
        44.200          30.0004
 25  1  1 20  3 30.0000000  0 33G09E05G17G08S31S35G07E13E33S48S33R19
                                G30E04E31G27R01G04E06R20R08R10E26R11
                                G21E24R21R09E09R02G13G14G02
 122213669.070 7  95231393.86546  23256523.126    23256522.5634   23256537.1124
        42.500          38.2004
 132003956.824 7                  25119519.616
        42.300
 125667311.301 6  97922682.98745  23913677.105    23913676.5334   23913697.8394
        40.500          32.9004
 110408636.962 8  86032844.95148  21010013.367    21010012.6344   21010016.8574
        48.900          48.8004
 198975514.572 7                  37863787.585
        45.900
 200894569.028 7                  38228978.712
        43.800
 106921345.411 8  83315381.17548  20346436.501    20346435.8674   20346436.4774
        50.600          51.6004
 150665801.327 6                  28670695.206
        38.900
 140063211.620 6                  26653098.898
        40.600
 412940911.395 5                  78579855.982
        33.800
 202125562.082 7                  38463198.420
        45.400
 126535074.804 5  98416367.046 6  23654344.809    23654343.773    23654356.516
        35.700          40.000
 111339187.938 8  86757845.02748  21187133.993    21187133.1304   21187136.4864
        49.300          49.0004
 135746731.607 7                  25831765.366
        43.300
 123544909.229 8                  23509759.909
        48.800
 125054651.438 7  97445338.29646  23797053.869    23797053.1274   23797059.8454
        42.300          36.5004
 115936589.428 7  90172932.304 6  21688338.016    21688337.968    21688345.706
        46.200          37.500
 131701123.615 5 102624160.35542  25061963.006    25061962.6894   25061987.9194
        35.100          14.3004
 129401455.370 7                  24624284.261
        47.000
 109423109.406 6  85107043.369 7  20462607.709    20462608.227    20462617.410
        39.600          46.400
 120467804.141 7  93697156.195 7  22496543.604    22496543.802    22496560.307
        42.700          43.600
 108733305.977 8                  20398044.347    20398043.977
        48.800
 139968254.301 7                  26634999.651
        42.800
 109957823.907 8  85522915.910 8  20577055.852    20577056.267    20577061.679
        51.800          48.200
 116284000.037 7  90611060.59244  22128055.275    22128053.9344   22128059.0014
        42.200          27.7004
 138736668.927 7                  26400651.760
        44.400
 116319390.905 7  90470830.386 7  21737012.565    21737012.657    21737026.811
        47.200          44.600
 122456165.628 7  95243751.149 7  22932102.988    22932103.680    22932115.212
        45.600          42.600
 128985976.002 8                  24545215.146
        48.000
 126052092.368 7  98040612.718 6  23622087.379    23622087.908    23622096.254
        43.600          40.100
 126663721.779 6  98699014.19643  24103303.815    24103303.1854   24103305.9304
        40.100          19.0004
 117834433.096 7  91819196.91345  22423087.442    22423087.0364   22423089.2994
        44.800          32.4004
 120631313.075 7  93998558.47645  22955329.532    22955328.2184   22955335.4144
        44.700          30.0004
 25  1  1 20  3 45.0000000  0 33G09E05G17G08S31S35G07E13E33S48S33R19
                                G30E04E31G27R01G04E06R20R08R10E26R11
                                G21E24R21R09E09R02G13G14G02
 122267194.771 6  95273101.90846  23266708.610    23266708.0474   23266723.2274
        41.400          38.4004
 131977670.419 7                  25114517.400
        42.100
 125613681.842 6  97880894.30045  23903471.571    23903470.9634   23903491.7144
        40.700          33.3004
 110442628.312 8  86059331.70948  21016481.715    21016480.9784   21016485.1894
        48.900          48.9004
 198975505.977 7                  37863780.332
        45.500
 200894549.372 7                  38228970.113
        43.700
 106918528.723 8  83313186.34848  20345900.539    20345899.9054   20345900.4864
        50.700          51.6004
 150688038.258 6                  28674927.081
        39.300
 140024758.008 6                  26645781.226
        41.300
 412941478.015 5                  78579878.349
        33.100
 202125574.947 7                  38463201.564
        45.000
 126586640.563 5  98456473.758 6  23663984.002    23663983.634    23663996.208
        35.800          39.600
 111308342.267 8  86733809.43948  21181264.045    21181263.1784   21181266.7444
        49.500          49.0004
 135789976.205 7                  25839994.975
        43.300
 123543676.816 8                  23509525.316
        48.800
 125109276.465 6  97487903.22846  23807448.338    23807447.5784   23807454.8744
        41.200          36.3004
 115949061.154 7  90182632.532 6  21690671.095    21690670.519    21690679.200
        45.600          37.400
 131757773.354 5 102668302.92142  25072743.934    25072743.6264   25072767.7764
        35.000          14.6004
 129432119.978 7                  24630119.577
        47.200
 109412938.426 6  85099132.638 7  20460706.088    20460706.280    20460715.419
        39.400          46.300
 120524675.676 7  93741389.262 7  22507163.756    22507164.473    22507180.732
        43.200          43.000
 108749609.994 8                  20401102.789    20401102.513
        48.500
 139957221.682 7                  26632900.790
        42.800
 109932906.634 8  85503535.832 8  20572393.143    20572393.370    20572398.223
        51.500          48.000
 116259255.450 7  90591779.21944  22123346.072    22123344.7314   22123350.0384
        42.100          27.7004
 138709847.595 7                  26395547.733
        44.200
 116259722.069 8  90424421.589 7  21725861.804    21725862.313    21725875.090
        48.000          44.100
 122495408.034 7  95274272.878 7  22939451.270    22939451.804    22939463.367
        44.600          42.400
 128999340.697 7                  24547758.579
        47.900
 126014579.378 7  98011436.053 6  23615057.654    23615058.003    23615067.073
        43.200          40.500
 126620201.763 6  98665102.51943  24095022.524    24095021.9074   24095023.9084
        39.000          18.7004
 117801202.543 7  91793303.01145  22416763.797    22416763.4044   22416765.7804
        44.800          32.5004
 120592953.537 7  93968668.18645  22948029.195    22948027.8584   22948035.5524
        44.000          30.2004
 25  1  1 20  4  0.0000000  0 33G09E05G17G08S31S35G07E13E33S48S33R19
                                G30E04E31G27R01G04E06R20R08R10E26R11
                                G21E24R21R09E09R02G13G14G02
 122320746.440 6  95314830.17846  23276899.565    23276899.0074   23276914.0374
        41.000          37.9004
 131951466.619 6                  25109531.013
        41.200
 125560090.089 6  97839135.01345  23893273.126    23893272.5184   23893293.3614
        39.800          33.3004
 110476725.446 8  86085900.89148  21022970.013    21022969.2804   21022973.6524
        48.500          48.8004
 198975496.320 7                  37863787.692
        45.900
 200894528.577 7                  38228967.985
        43.500
 106915815.890 8  83311072.42848  20345384.363    20345383.7374   20345384.2554
        50.600          51.6004
 150710365.309 6                  28679175.568
        38.600
 139986340.407 6                  26638470.521
        40.600
 412940443.934 5                  78579912.593
        33.100
 202125586.706 7                  38463203.616
        44.900
 126638319.134 6  98496668.235 6  23673644.166    23673644.181    23673656.647
        36.000          39.800
 111277569.797 8  86709830.90048  21175408.022    21175407.1554   21175410.9304
        49.500          49.0004
 135833256.062 7                  25848230.865
        42.800
 123542477.916 8                  23509297.189
        48.300
 125163940.082 6  97530498.19046  23817850.846    23817850.0774   23817857.0094
        41.800          36.4004
 115961718.935 7  90192477.427 6  21693039.294    21693038.847    21693046.880
        45.600          37.600
 131814399.358 5 102712427.00242  25083519.478    25083519.1614   25083543.6764
        34.300          14.2004
 129462860.682 7                  24635969.178
        46.600
 109402973.641 6  85091382.281 7  20458841.403    20458842.508    20458851.933
        38.600          46.300
 120581604.253 7  93785666.675 7  22517795.283    22517796.024    22517811.948
        42.400          43.100
 108765972.201 7                  20404172.028    20404172.014
        47.900
 139946289.664 7                  26630820.358
        42.400
 109908028.109 8  85484185.871 7  20567737.282    20567737.584    20567743.023
        51.100          47.900
 116234634.096 7  90572593.86144  22118661.054    22118659.7004   22118664.7394
        42.000          27.9004
 138683049.530 7                  26390448.181
        43.100
 116200135.402 8  90378076.640 7  21714726.656    21714727.422    21714740.262
        48.500          44.700
 122534681.538 7  95304818.765 7  22946805.769    22946806.353    22946818.636
        43.500          42.500
 129012808.213 7                  24550321.301
        47.400
 125977214.401 7  97982374.475 6  23608056.124    23608055.992    23608063.860
        44.200          40.100
 126576770.080 6  98631259.66243  24086757.612    24086757.0184   24086759.2954
        40.000          19.3004
 117768007.323 7  91767436.62845  22410446.746    22410446.3574   22410449.0374
        44.600          32.5004
 120554662.582 7  93938831.33545  22940742.541    22940741.2134   22940748.8474
        43.700          30.0004
 25  1  1 20  4 15.0000000  0 33G09E05G17G08S31S35G07E13E33S48S33R19
                                G30E04E31G27R01G04E06R20R08R10E26R11
                                G21E24R21R09E09R02G13G14G02
 122374324.616 6  95356579.10546  23287095.794    23287095.2364   23287109.7754
        41.900          38.2004
 131925346.544 6                  25104560.320
        41.200
 125506537.274 6  97797406.07545  23883081.964    23883081.3704   23883102.1754
        39.600          33.5004
 110510928.967 8  86112552.96048  21029478.839    21029478.1154   21029482.3854
        48.800          48.8004
 198975485.701 7                  37863783.650
        45.700
 200894507.958 7                  38228965.579
        43.900
 106913207.987 8  83309040.28548  20344887.951    20344887.3254   20344887.9954
        50.600          51.6004
 150732783.089 6                  28683441.341
        39.100
 139947959.950 6                  26631166.765
        40.800
 412941008.340 5                  78579940.531
        33.000
 202125598.369 7                  38463203.429
        45.000
 126690110.672 5  98536950.658 6  23683326.757    23683325.512    23683338.318
        35.500          39.800
 111246871.691 8  86685910.30148  21169566.933    21169566.0704   21169569.2654
        49.200          49.0004
 135876571.896 7                  25856473.641
        43.000
 123541313.378 8                  23509075.778
        48.400
 125218642.940 6  97573123.72546  23828260.466    23828259.6844   23828266.6604
        41.600          36.4004
 115974563.201 7  90202467.405 6  21695441.184    21695441.579    21695450.524
        45.800          38.200
 131871002.289 5 102756533.13842  25094290.646    25094290.3564   25094314.8404
        35.300          14.1004
 129493678.199 7                  24641834.065
        46.500
 109393216.682 6  85083793.541 7  20457018.238    20457018.354    20457027.301
        39.000          46.300
 120638590.288 7  93829988.769 7  22528437.862    22528438.271    22528453.864
        43.000          43.100
 108782393.299 8                  20407252.952    20407252.725
        48.500
 139935459.195 6                  26628759.292
        41.900
 109883189.335 8  85464866.825 8  20563089.285    20563089.037    20563094.659
        51.400          48.000
 116210136.771 7  90553505.15244  22113999.337    22113997.9654   22114002.9744
        42.300          27.8004
 138656275.688 7                  26385353.084
        43.700
 116140632.480 8  90331796.885 7  21703606.523    21703606.595    21703620.204
        48.000          44.600
 122573987.249 7  95335389.698 7  22954166.892    22954167.364    22954179.705
        44.500          42.500
 129026379.404 7                  24552903.898
        47.600
 125939998.550 7  97953428.912 6  23601080.486    23601080.847    23601089.971
        43.300          40.200
 126533427.966 6  98597486.62443  24078510.158    24078509.5644   24078511.5264
        40.400          19.4004
 117734848.362 7  91741598.50945  22404136.695    22404136.3154   22404139.0594
        44.800          32.6004
 120516441.594 7  93909048.99644  22933469.640    22933468.3304   22933475.3914
        44.200          29.9004
 25  1  1 20  4 30.0000000  0 33G09E05G17G08S31S35G07E13E33S48S33R19
                                G30E04E31G27R01G04E06R20R08R10E26R11
                                G21E24R21R09E09R02G13G14G02
 122427930.821 6  95398349.86846  23297296.914    23297296.3604   23297310.9774
        41.000          37.9004
 131899312.279 6                  25099606.597
        41.300
 125453025.405 6  97755709.03145  23872898.574    23872897.9984   23872918.4624
        41.600          33.4004
 110545240.438 8  86139289.14148  21036007.966    21036007.2424   21036011.6694
        49.000          48.8004
 198975477.467 7                  37863784.629
        46.000
 200894487.884 7                  38228959.453
        43.800
 106910706.878 8  83307091.36148  20344412.196    20344411.5664   20344412.0714
        50.500          51.6004
 150755293.285 6                  28687724.470
        38.300
 139909618.824 6                  26623870.068
        40.500
 412941572.638 5                  78579971.175
        33.400
 202125611.278 7                  38463207.985
        45.100
 126742016.911 5  98577322.323 6  23693030.043    23693029.027    23693041.941
        35.800          40.000
 111216250.085 8  86662049.31348  21163739.509    21163738.6514   21163742.1604
        49.700          49.0004
 135919925.356 7                  25864723.491
        42.800
 123540185.133 8                  23508860.859
        48.200
 125273386.521 7  97615780.95846  23838677.619    23838676.8414   23838683.9574
        42.100          36.2004
 115987595.769 7  90212603.812 6  21697879.440    21697879.517    21697887.568
        46.000          37.600
 131927583.675 5 102800622.46942  25105057.694    25105057.4584   25105081.7064
        35.900          15.1004
 129524574.214 7                  24647712.997
        46.600
 109383669.599 6  85076368.037 7  20455232.679    20455232.786    20455241.943
        39.200          46.400
 120695635.121 7  93874356.615 7  22539090.499    22539090.785    22539107.822
        42.100          43.200
 108798875.602 8                  20410345.438    20410345.048
        48.800
 139924732.313 7                  26626718.070
        42.300
 109858392.261 8  85445580.206 8  20558448.724    20558449.027    20558454.425
        52.000          48.100
 116185765.815 7  90534514.90944  22109361.354    22109359.9734   22109365.0654
        42.500          27.9004
 138629527.840 7                  26380263.253
        43.600
 116081215.619 8  90285584.031 7  21692503.569    21692503.508    21692516.799
        48.100          44.500
 122613326.894 7  95365987.025 7  22961533.669    22961534.675    22961546.546
        44.600          42.300
 129040056.018 7                  24555506.790
        47.500
 125902934.326 7  97924601.252 6  23594135.866    23594135.429    23594144.141
        44.100          40.500
 126490177.602 6  98563785.04243  24070278.850    24070278.2564   24070281.1514
        39.400          19.2004
 117701727.552 7  91715790.11745  22397833.923    22397833.5394   22397836.2354
        46.000          32.6004
 120478292.705 7  93879322.82645  22926209.668    22926208.3674   22926215.6314
        43.800          30.2004
 25  1  1 20  4 45.0000000  0 33G09E05G17G08S31S35G07E13E33S48S33R19
                                G30E04E31G27R01G04E06R20R08R10E26R11
                                G21E24R21R09E09R02G13G14G02
 122481561.718 6  95440139.85946  23307502.135    23307501.5994   23307516.9994
        41.000          37.8004
 131873361.015 7                  25094667.829
        42.000
 125399551.734 6  97714041.76945  23862722.213    23862721.6234   23862743.1064
        40.400          34.2004
 110579656.531 8  86166106.84048  21042557.263    21042556.5264   21042560.8754
        49.100          48.7004
 198975467.525 7                  37863776.410
        45.700
 200894467.891 7                  38228957.150
        43.700
 106908309.719 8  83305223.43748  20343956.035    20343955.4094   20343955.9214
        50.600          51.5004
 150777892.672 6                  28692025.108
        38.000
 139871314.356 6                  26616580.642
        40.600
 412942135.494 5                  78580001.041
        33.500
 202125622.638 7                  38463205.499
        44.900
 126794034.229 5  98617780.369 6  23702752.247    23702752.919    23702766.003
        35.900          40.000
 111185702.269 8  86638245.82148  21157926.377    21157925.5144   21157929.0954
        49.600          48.9004
 135963313.240 7                  25872980.058
        42.800
 123539090.089 8                  23508652.752
        48.500
 125328167.550 6  97658467.34246  23849102.505    23849101.7184   23849108.2754
        41.400          36.1004
 116000813.478 7  90222884.220 6  21700352.063    21700351.497    21700361.252
        44.900          38.200
 131984140.307 5 102844692.51842  25115819.435    25115819.2074   25115844.2584
        35.600          15.8004
 129555545.569 7                  24653606.618
        46.500
 109374328.933 6  85069103.069 7  20453486.060    20453485.925    20453495.054
        39.200          46.500
 120752735.065 7  93918767.268 7  22549754.117    22549754.581    22549771.109
        42.500          43.400
 108815415.704 8                  20413448.011    20413447.621
        48.400
 139914106.141 7                  26624695.499
        42.100
 109833633.868 8  85426323.666 8  20553815.354    20553815.657    20553821.060
        51.800          48.000
 116161518.863 6  90515621.28044  22104747.079    22104745.6894   22104751.1334
        41.900          27.9004
 138602803.045 7                  26375177.488
        43.700
 116021882.350 7  90239436.160 7  21681415.076    21681415.730    21681428.261
        47.900          44.300
 122652697.327 7  95396608.274 7  22968908.203    22968907.638    22968919.255
        44.700          42.200
 129053835.033 7                  24558128.686
        47.900
 125866018.894 7  97895889.300 6  23587218.503    23587218.070    23587225.956
        44.900          40.400
 126447016.318 6  98530152.91543  24062066.562    24062065.9774   24062067.6844
        40.200          19.2004
 117668641.927 7  91690009.13845  22391537.921    22391537.5324   22391540.1904
        44.700          32.6004
 120440213.478 7  93849650.93845  22918963.454    22918962.1894   22918968.9914
        43.900          30.1004
 25  1  1 20  5  0.0000000  0 33G09E05G17G08S31S35G07E13E33S48S33R19
                                G30E04E31G27R01G04E06R20R08R10E26R11
                                G21E24R21R09E09R02G13G14G02
 122535218.488 6  95481950.01946  23317713.440    23317712.8994   23317727.7034
        40.100          37.6004
 131847494.500 6                  25089745.501
        41.300
 125346118.224 6  97672405.81845  23852553.536    23852552.9334   23852574.4974
        40.300          33.7004
 110614178.561 8  86193007.08448  21049126.659    21049125.9134   21049130.2304
        48.300          48.7004
 198975457.575 7                  37863779.343
        45.700
 200894447.713 7                  38228950.666
        43.500
 106906018.404 8  83303437.99048  20343519.740    20343519.1104   20343519.9154
        50.100          51.5004
 150800582.879 6                  28696342.500
        37.300
 139833048.387 6                  26609298.859
        40.200
 412941000.854 5                  78580025.631
        33.000
 202125635.038 7                  38463208.562
        44.800
 126846163.744 6  98658325.703 6  23712499.877    23712499.062    23712511.166
        36.300          40.300
 111155230.128 8  86614501.29348  21152127.869    21152126.9934   21152130.4074
        49.000          48.9004
 136006736.884 7                  25881243.718
        42.300
 123538029.757 8                  23508450.614
        48.200
 125382987.219 6  97701183.79346  23859534.329    23859533.5514   23859540.3924
        41.100          36.2004
 116014217.621 7  90233309.618 6  21702859.768    21702860.086    21702868.168
        45.800          37.600
 132040673.418 5 102888744.24342  25126577.287    25126577.0644   25126602.3154
        35.100          15.1004
 129586593.674 7                  24659515.204
        46.300
 109365197.107 6  85062000.539 7  20451778.438    20451778.270    20451787.538
        39.200          46.500
 120809891.225 7  93963221.671 7  22560426.660    22560426.940    22560444.371
        42.500          43.100
 108832015.452 8                  20416562.484    20416561.936
        48.700
 139903582.432 7                  26622693.273
        42.300
 109808916.071 8  85407098.701 8  20549189.730    20549190.193    20549195.497
        51.400          48.100
 116137398.371 6  90496826.19944  22100157.051    22100155.6654   22100161.2234
        41.300          28.0004
 138576102.865 7                  26370097.129
        43.500
 115962634.883 7  90193355.032 7  21670343.102    21670343.040    21670356.618
        47.500          44.400
 122692100.369 7  95427254.901 7  22976285.406    22976286.491    22976298.863
        44.200          42.600
 129067717.937 7                  24560770.351
        47.400
 125829254.344 7  97867294.700 6  23580327.631    23580328.145    23580336.084
        45.000          40.000
 126403946.030 6  98496591.65643  24053870.057    24053869.4454   24053871.4774
        39.900          18.9004
 117635593.115 7  91664256.84445  22385249.503    22385249.1324   22385251.1224
        44.400          32.6004
 120402205.761 7  93820034.77345  22911730.179    22911728.9014   22911736.0524
        44.300          30.1004
 25  1  1 20  5 15.0000000  0 33G09E05G17G08S31S35G07E13E33S48S33R19
                                G30E04E31G27R01G04E06R20R08R10E26R11
                                G21E24R21R09E09R02G13G14G02
 122588903.339 6  95523782.04746  23327929.188    23327928.6384   23327944.2924
        41.900          38.0004
 131821715.477 6                  25084839.698
        41.800
 125292727.694 6  97630803.35145  23842393.261    23842392.6674   23842413.5854
        40.300          33.8004
 110648808.749 8  86219991.61648  21055716.476    21055715.7214   21055720.1634
        48.300          48.7004
 198975450.610 7                  37863775.811
        45.600
 200894429.798 7                  38228950.608
        43.800
 106903835.607 8  83301737.10048  20343104.626    20343103.9964   20343104.5554
        50.100          51.5004
 150823366.403 6                  28700677.831
        38.100
 139794823.750 6                  26602024.677
        40.400
 412941569.047 5                  78580054.276
        32.900
 202125649.361 7                  38463217.031
        45.000
 126898407.303 5  98698959.713 6  23722264.356    23722263.722    23722276.846
        34.800          39.600
 111124836.478 8  86590817.92748  21146344.086    21146343.2194   21146346.7074
        49.000          48.9004
 136050198.660 7                  25889514.154
        42.300
 123537006.658 8                  23508256.056
        48.200
 125437847.730 6  97743932.01846  23869974.253    23869973.4714   23869980.5844
        40.700          36.0004
 116027810.499 7  90243881.837 6  21705402.965    21705402.405    21705411.252
        45.100          37.600
 132097185.264 5 102932779.38142  25137330.817    25137330.6304   25137356.3534
        35.400          15.1004
 129617720.888 7                  24665438.244
        46.200
 109356276.531 6  85055062.336 7  20450110.333    20450110.275    20450119.190
        39.400          46.500
 120867105.616 6  94007721.382 7  22571112.015    22571112.110    22571129.545
        41.900          43.300
 108848677.542 8                  20419688.328    20419687.404
        48.500
 139893163.847 7                  26620710.341
        42.400
 109784241.508 8  85387907.377 8  20544572.500    20544572.272    20544577.836
        51.200          48.000
 116113406.968 6  90478131.70744  22095591.699    22095590.3224   22095595.6744
        41.900          28.0004
 138549429.805 7                  26365021.443
        43.200
 115903476.532 7  90147343.246 7  21659287.403    21659287.696    21659300.858
        47.200          44.100
 122731538.511 7  95457928.839 7  22983671.183    22983671.711    22983684.172
        44.500          42.300
 129081707.202 7                  24563432.455
        47.400
 125792643.809 7  97838819.885 6  23573466.605    23573467.191    23573475.207
        44.300          40.100
 126360969.736 6  98463103.65443  24045691.036    24045690.4514   24045693.8674
        38.900          19.6004
 117602583.690 7  91638535.23845  22378967.818    22378967.4614   22378969.7354
        44.500          32.7004
 120364272.598 7  93790476.70045  22904511.658    22904510.3624   22904517.3154
        43.900          30.0004
 25  1  1 20  5 30.0000000  0 34G09E05G17G08S31S35G07E13E33S48S33R19
                                G30E04E31G27R01G04E06R20R08R10E26R11
                                G21E24R21R09E09R02G13G14G02R12
 122642611.296 6  95565632.09846  23338149.835    23338149.2854   23338164.8884
        40.000          37.6004
 131796019.419 6                  25079950.025
        41.000
 125239375.793 6  97589231.00345  23832240.855    23832240.2524   23832260.8104
        40.300          34.4004
 110683542.121 8  86247056.54948  21062326.117    21062325.3484   21062329.7404
        48.400          48.7004
 198975441.747 7                  37863772.953
        45.700
 200894410.325 7                  38228946.749
        43.900
 106901757.012 8  83300117.40148  20342709.197    20342708.5674   20342709.0314
        50.700          51.6004
 150846238.082 6                  28705030.428
        37.500
 139756636.106 6                  26594757.862
        40.300
 412942135.719 5                  78580080.627
        32.700
 202125662.721 7                  38463218.511
        44.900
 126950759.640 5  98739678.159 6  23732051.813    23732051.956    23732063.944
        35.800          39.100
 111094516.905 8  86567192.28548  21140574.759    21140573.8884   21140577.0804
        49.300          49.0004
 136093693.689 7                  25897791.191
        42.100
 123536016.080 8                  23508067.546
        48.000
 125492744.205 6  97786708.24246  23880420.949    23880420.1764   23880427.1314
        41.200          36.0004
 116041587.140 7  90254596.965 6  21707980.201    21707979.920    21707988.547
        45.700          37.800
 132153670.920 5 102976794.13342  25148080.273    25148080.0724   25148105.1414
        35.400          13.9004
 129648922.386 7                  24671376.005
        46.300
 109347562.901 6  85048285.070 7  20448481.103    20448480.646    20448489.802
        39.000          46.400
 120924372.796 6  94052262.096 7  22581805.326    22581806.013    22581823.856
        41.900          43.100
 108865397.178 8                  20422824.762    20422824.479
        48.600
 139882845.853 7                  26618746.952
        42.200
 109759605.510 8  85368746.040 8  20539962.208    20539962.485    20539967.964
        51.900          48.000
 116089539.274 6  90459533.61244  22091049.568    22091048.1824   22091053.7494
        41.600          28.1004
 138522779.223 7                  26359949.475
        43.100
 115844403.055 7  90101397.446 7  21648248.580    21648248.244    21648261.848
        46.900          44.400
 122771007.254 7  95488626.547 7  22991063.493    22991063.969    22991076.279
        44.800          42.300
 129095798.095 7                  24566114.078
        47.100
 125756182.513 7  97810461.128 6  23566633.854    23566635.093    23566642.227
        44.600          40.300
 126318083.061 6  98429685.49143  24037530.720    24037530.1484   24037532.7454
        39.500          19.4004
 117569609.046 7  91612840.73845  22372693.159    22372692.8024   22372694.8194
        45.000          32.7004
 120326409.728 7  93760973.39845  22897306.811    22897305.5194   22897312.0694
        43.300          30.3004
 131804710.129 6 102514812.649 5  24674118.381    24674117.691    24674127.363
        40.900          35.200
 25  1  1 20  5 45.0000000  0 34G09E05G17G08S31S35G07E13E33S48S33R19
                                G30E04E31G27R01G04E06R20R08R10E26R11
                                G21E24R21R09E09R02G13G14G02R12
 122696340.155 6  95607498.42946  23348374.278    23348373.7424   23348389.2394
        41.900          37.7004
 131770404.776 6                  25075075.971
        41.300
 125186060.958 6  97547687.53445  23822094.544    23822093.9454   23822114.8114
        41.200          34.3004
 110718376.572 8  86274200.24548  21068955.074    21068954.3144   21068958.5534
        48.600          48.6004
 198975429.113 7                  37863767.883
        45.500
 200894387.586 7                  38228941.016
        43.600
 106899780.837 8  83298577.51348  20342332.940    20342332.3104   20342332.9954
        50.400          51.6004
 150869196.402 6                  28709399.290
        39.200
 139718483.933 6                  26587497.543
        40.800
 412942697.439 5                  78580106.513
        33.200
 202125671.789 7                  38463216.758
        44.800
 127003218.738 6  98780479.654 6  23741857.858    23741858.148    23741870.516
        36.300          39.400
 111064269.924 8  86543623.20948  21134818.559    21134817.6884   21134821.2664
        49.500          49.0004
 136137219.938 7                  25906074.000
        42.400
 123535056.203 8                  23507884.747
        48.300
 125547674.539 7  97829510.82346  23890873.907    23890873.1524   23890879.9204
        42.000          36.0004
 116055545.478 7  90265453.429 6  21710590.987    21710591.204    21710599.841
        46.000          37.600
 132210128.296 5 103020786.82442  25158823.853    25158823.6214   25158849.0374
        35.200          15.5004
 129680196.166 7                  24677327.298
        46.400
 109339054.142 6  85041667.203 7  20446888.814    20446889.580    20446898.763
        39.000          46.500
 120981690.492 7  94096842.148 7  22592509.843    22592510.344    22592527.909
        42.400          42.600
 108882172.640 8                  20425971.446    20425971.263
        48.600
 139872626.796 7                  26616802.411
        42.100
 109735006.373 8  85349613.389 8  20535358.145    20535358.892    20535364.339
        51.800          48.200
 116065794.389 6  90441031.22544  22086531.547    22086530.1574   22086535.1074
        41.600          28.1004
 138496149.344 7                  26354882.038
        43.100
 115785413.307 7  90055516.800 7  21637224.518    21637224.889    21637237.510
        47.700          43.900
 122810504.519 7  95519346.465 7  22998458.933    22998459.885    22998472.839
        44.500          42.300
 129109988.754 7                  24568814.281
        47.600
 125719869.440 7  97782217.659 6  23559828.962    23559829.033    23559836.829
        44.200          39.900
 126275284.534 6  98396336.00643  24029386.397    24029385.8474   24029388.6644
        39.700          19.5004
 117536667.368 7  91587171.93845  22366424.109    22366423.7474   22366426.0834
        45.100          32.7004
 120288615.761 7  93731523.80045  22890114.561    22890113.2834   22890120.2384
        43.700          30.3004
 131761556.577 7 102481248.844 6  24666039.269    24666039.217    24666049.005
        43.700          38.000
 25  1  1 20  6  0.0000000  0 34G09E05G17G08S31S35G07E13E33S48S33R19
                                G30E04E31G27R01G04E06R20R08R10E26R11
                                G21E24R21R09E09R02G13G14G02R12
 122750097.542 6  95649386.99446  23358604.282    23358603.7374   23358619.1854
        41.200          37.9004
 131744879.714 6                  25070218.903
        41.800
 125132791.782 6  97506179.65245  23811957.599    23811957.0054   23811976.8824
        40.900          34.6004
 110753319.780 8  86301428.68648  21075604.484    21075603.7244   21075608.0354
        48.600          48.6004
 198975421.026 7                  37863768.155
        45.600
 200894369.123 7                  38228931.603
        43.400
 106897915.327 8  83297123.85948  20341978.098    20341977.4774   20341978.0194
        50.400          51.6004
 150892249.076 6                  28713785.904
        38.100
 139680375.524 6                  26580244.920
        41.000
 412941663.019 5                  78580143.521
        33.200
 202125685.931 7                  38463222.030
        45.200
 127055792.147 6  98821369.968 6  23751687.771    23751686.860    23751698.655
        36.800          39.700
 111034103.834 8  86520117.17048  21129078.521    21129077.6584   21129080.8564
        49.400          49.1004
 136180785.187 7                  25914364.450
        42.100
 123534134.958 8                  23507709.442
        48.500
 125602646.584 6  97872345.98846  23901334.698    23901333.9294   23901341.2904
        41.400          36.2004
 116069693.453 7  90276457.385 6  21713238.052    21713237.859    21713246.062
        45.800          37.300
 132266565.104 5 103064763.50942  25169563.430    25169563.2164   25169588.7474
        35.700          14.7004
 129711550.088 7                  24683293.690
        46.400
 109330758.989 6  85035215.435 7  20445337.153    20445338.025    20445347.454
        39.200          46.600
 121039066.321 7  94141467.383 7  22603225.961    22603225.828    22603242.691
        42.400          42.700
 108899012.182 8                  20429130.224    20429130.286
        48.400
 139862514.815 7                  26614878.189
        42.000
 109710452.329 8  85330515.805 8  20530763.949    20530763.884    20530769.318
        51.600          48.200
 116042181.294 6  90422631.51844  22082037.871    22082036.4854   22082041.3234
        41.600          28.2004
 138469548.092 7                  26349820.251
        43.100
 115726515.837 7  90009707.914 7  21626217.108    21626217.820    21626231.058
        47.100          44.100
 122850038.821 7  95550095.183 6  23005862.993    23005863.390    23005875.860
        43.900          41.900
 129124287.089 7                  24571535.236
        47.900
 125683713.192 7  97754096.182 6  23553053.584    23553053.948    23553061.221
        44.200          39.700
 126232582.600 6  98363061.80543  24021260.236    24021259.6864   24021262.1964
        38.400          19.3004
 117503766.767 7  91561535.14645  22360163.204    22360162.8294   22360165.3154
        44.800          32.7004
 120250898.991 7  93702134.35145  22882937.309    22882936.0354   22882942.5724
        44.400          30.4004
 131718393.672 6 102447677.788 6  24657959.153    24657958.964    24657968.810
        41.900          37.700
 25  1  1 20  6 15.0000000  0 34G09E05G17G08S31S35G07E13E33S48S33R19
                                G30E04E31G27R01G04E06R20R08R10E26R11
                                G21E24R21R09E09R02G13G14G02R12
 122803875.166 6  95691291.30146  23368838.101    23368837.5514   23368853.2044
        40.500          37.7004
 131719436.484 6                  25065377.027
        41.600
 125079560.292 6  97464701.18045  23801827.445    23801826.8694   23801847.1144
        41.200          34.6004
 110788363.532 8  86328735.48148  21082273.104    21082272.3354   21082276.6784
        48.100          48.5004
 198975409.405 7                  37863766.948
        46.100
 200894347.000 7                  38228938.043
        44.400
 106896152.700 8  83295750.39648  20341642.472    20341641.8464   20341642.6214
        50.100          51.4004
 150915388.062 6                  28718188.802
        38.300
 139642303.181 6                  26573000.287
        40.300
 412942224.340 5                  78580170.762
        33.200
 202125695.215 7                  38463228.005
        45.300
 127108471.254 6  98862342.473 6  23761533.847    23761535.126    23761546.385
        36.400          38.700
 111004010.922 8  86496668.14948  21123351.721    21123350.8544   21123354.3674
        49.400          48.9004
 136224381.285 7                  25922660.434
        42.700
 123533244.385 8                  23507540.131
        48.200
 125657652.097 6  97915207.31046  23911801.881    23911801.1084   23911808.9334
        41.500          36.2004
 116084022.877 7  90287602.462 6  21715918.921    21715917.944    21715926.957
        45.500          37.600
 132322973.120 5 103108717.76542  25180297.661    25180297.3844   25180322.8244
        35.900          15.2004
 129742976.007 7                  24689273.807
        46.300
 109322669.070 6  85028923.280 7  20443826.036    20443825.266    20443834.467
        39.200          46.700
 121096491.595 7  94186131.029 7  22613949.452    22613950.160    22613967.041
        42.000          43.100
 108915907.883 8                  20432300.307    20432299.955
        48.700
 139852502.063 7                  26612972.658
        42.200
 109685935.477 8  85311447.141 8  20526175.675    20526175.717    20526181.241
        51.600          48.200
 116018692.479 6  90404328.65444  22077567.888    22077566.4934   22077571.3284
        41.500          28.1004
 138442967.565 7                  26344762.011
        43.200
 115667703.125 7  89963964.943 7  21615227.120    21615227.654    21615240.038
        47.500          44.000
 122889601.705 7  95580866.143 7  23013271.606    23013272.162    23013285.522
        43.100          42.300
 129138685.088 7                  24574274.997
        47.600
 125647705.911 7  97726090.572 6  23546305.585    23546305.859    23546313.427
        44.600          40.000
 126189969.626 6  98329856.91443  24013151.745    24013151.2224   24013153.3784
        39.400          19.6004
 117470899.279 7  91535924.15145  22353909.122    22353908.7654   22353910.8524
        44.300          32.6004
 120213251.863 7  93672799.16945  22875772.878    22875771.5914   22875778.4114
        43.700          30.3004
 131675213.194 6 102414093.074 6  24649875.261    24649875.084    24649884.631
        38.900          36.600
 25  1  1 20  6 30.0000000  0 34G09E05G17G08S31S35G07E13E33S48S33R19
                                G30E04E31G27R01G04E06R20R08R10E26R11
                                G21E24R21R09E09R02G13G14G02R12
 122857674.492 6  95733212.50646  23379075.896    23379075.3514   23379091.4314
        41.100          37.7004
 131694077.115 6                  25060550.838
        41.800
 125026368.620 6  97423253.72145  23791704.437    23791703.8434   23791724.5374
        40.700          34.7004
 110823509.307 8  86356121.78648  21088961.112    21088960.3434   21088964.7144
        48.000          48.5004
 198975395.828 7                  37863760.366
        45.900
 200894323.631 7                  38228928.777
        43.900
 106894494.918 8  83294458.60348  20341327.198    20341326.5724   20341327.1574
        50.100          51.5004
 150938615.069 6                  28722608.928
        38.600
 139604269.077 6                  26565762.467
        40.200
 412942784.159 5                  78580195.879
        33.400
 202125704.386 7                  38463230.312
        45.600
 127161256.976 6  98903397.749 6  23771402.735    23771402.749    23771414.607
        36.000          39.500
 110973993.314 8  86473277.80048  21117639.654    21117638.7784   21117642.1954
        49.300          49.0004
 136268009.842 7                  25930962.500
        42.800
 123532386.240 8                  23507376.815
        48.200
 125712692.462 6  97958095.83245  23922276.045    23922275.2724   23922282.5874
        40.500          35.8004
 116098535.287 7  90298889.865 6  21718633.218    21718632.921    21718641.299
        45.300          37.100
 132379353.879 5 103152650.76442  25191026.513    25191026.2364   25191051.7714
        34.000          13.6004
 129774475.559 7                  24695267.829
        46.500
 109314786.569 6  85022792.459 7  20442350.433    20442351.455    20442360.428
        39.500          46.600
 121153967.740 7  94230834.227 7  22624683.051    22624683.709    22624700.916
        42.700          42.900
 108932861.253 7                  20435480.738    20435480.307
        47.900
 139842590.470 6                  26611086.536
        41.800
 109661457.806 8  85292408.943 8  20521595.212    20521595.381    20521600.654
        51.900          48.100
 115995328.983 6  90386123.44144  22073121.772    22073120.3734   22073125.4224
        41.800          28.1004
 138416409.534 7                  26339708.036
        43.400
 115608977.727 7  89918289.852 7  21604252.641    21604253.188    21604265.491
        47.800          44.100
 122929195.434 7  95611661.060 7  23020687.810    23020687.860    23020701.091
        44.700          42.500
 129153184.450 7                  24577034.456
        47.500
 125611849.801 7  97698202.554 6  23539586.352    23539585.882    23539594.161
        43.700          40.000
 126147447.655 6  98296722.95343  24005059.507    24005058.9624   24005061.9064
        37.900          18.8004
 117438066.734 7  91510340.38745  22347661.213    22347660.8604   22347662.8954
        43.800          32.7004
 120175676.663 7  93643520.02745  22868622.588    22868621.3144   22868627.8894
        44.000          30.4004
 131632017.057 6 102380496.187 5  24641788.998    24641788.584    24641798.605
        39.300          33.600
 25  1  1 20  6 45.0000000  0 34G09E05G17G08S31S35G07E13E33S48S33R19
                                G30E04E31G27R01G04E06R20R08R10E26R11
                                G21E24R21R09E09R02G13G14G02R12
 122911503.178 6  95775156.60146  23389319.541    23389318.9914   23389334.5994
        41.000          37.4004
 131668809.754 7                  25055742.862
        42.000
 124973224.995 6  97381843.71945  23781591.983    23781591.3804   23781611.0414
        40.400          34.5004
 110858764.781 8  86383593.57048  21095670.014    21095669.2504   21095673.6324
        48.100          48.5004
 198975388.798 7                  37863765.222
        46.000
 200894306.078 7                  38228922.468
        43.700
 106892950.136 8  83293254.86048  20341033.207    20341032.5814   20341033.2244
        50.600          51.5004
 150961937.761 6                  28727046.659
        38.700
 139566281.454 6                  26558533.319
        40.600
 412943350.816 5                  78580229.268
        33.000
 202125719.135 7                  38463229.216
        45.300
 127214158.001 5  98944542.840 6  23781291.290    23781291.595    23781303.940
        35.900          38.900
 110944059.257 8  86449952.56548  21111943.445    21111942.5564   21111945.9294
        49.300          49.0004
 136311678.620 7                  25939272.524
        42.500
 123531568.508 8                  23507221.236
        48.300
 125767775.334 6  98001017.50246  23932758.063    23932757.2944   23932764.8174
        41.400          36.2004
 116113238.154 7  90310325.369 6  21721384.347    21721384.168    21721392.625
        46.100          38.000
 132435715.112 5 103196568.56442  25201752.069    25201751.7834   25201777.0834
        34.700          14.1004
 129806056.572 7                  24701277.742
        46.700
 109307119.404 6  85016829.136 7  20440916.933    20440917.236    20440926.504
        39.000          46.600
 121211502.037 7  94275582.666 7  22635426.887    22635428.079    22635445.550
        42.700          43.100
 108949880.911 8                  20438673.839    20438673.265
        48.300
 139832788.147 7                  26609221.330
        42.100
 109637027.383 8  85273407.503 8  20517023.315    20517023.553    20517029.269
        52.300          48.300
 115972099.832 6  90368022.89444  22068701.291    22068699.9104   22068704.9774
        41.100          28.2004
 138389881.987 7                  26334659.880
        43.800
 115550348.459 7  89872689.552 7  21593296.046    21593296.510    21593309.166
        47.400          44.100
 122968827.817 7  95642486.050 7  23028108.504    23028109.046    23028121.892
        43.600          42.100
 129167793.153 7                  24579814.151
        47.900
 125576153.184 7  97670438.589 6  23532895.985    23532895.856    23532904.855
        43.900          39.600
 126105025.234 6  98263666.53143  23996987.088    23996986.5164   23996988.9014
        39.300          18.7004
 117405277.185 7  91484790.12445  22341421.668    22341421.3244   22341423.2024
        44.700          32.6004
 120138181.729 7  93614303.42745  22861487.392    22861486.1094   22861492.6064
        44.200          30.5004
 131588813.273 6 102346893.351 5  24633700.956    24633700.939    24633710.705
        41.300          31.700
 25  1  1 20  7  0.0000000  0 34G09E05G17G08S31S35G07E13E33S48S33R19
                                G30E04E31G27R01G04E06R20R08R10E26R11
                                G21E24R21R09E09R02G13G14G02R12
 122965353.341 6  95817117.42046  23399567.207    23399566.6574   23399582.6684
        41.300          37.9004
 131643627.049 7                  25050950.727
        42.000
 124920122.212 6  97340465.53845  23771486.040    23771485.4774   23771504.9604
        41.800          35.1004
 110894122.072 8  86411144.69848  21102398.414    21102397.6504   21102401.9264
        48.200          48.6004
 198975380.520 7                  37863760.276
        45.600
 200894288.005 7                  38228923.170
        44.000
 106891511.211 8  83292133.60448  20340759.339    20340758.7094   20340759.4314
        50.300          51.6004
 150985348.474 6                  28731501.719
        37.400
 139528333.048 6                  26551311.999
        40.200
 412942316.228 5                  78580253.889
        32.800
 202125732.931 7                  38463233.093
        45.200
 127267165.593 6  98985770.853 6  23791201.561    23791201.462    23791213.955
        36.100          39.400
 110914201.517 8  86426686.79448  21106261.632    21106260.7434   21106264.1744
        49.500          49.2004
 136355379.858 7                  25947588.597
        42.400
 123530783.585 8                  23507071.931
        48.300
 125822892.781 6  98043966.11046  23943246.452    23943245.6794   23943253.2364
        41.800          36.1004
 116128124.097 7  90321903.316 6  21724168.497    21724168.343    21724177.633
        45.700          38.200
 132492048.949 5 103240465.00342  25212472.158    25212471.8374   25212497.1544
        35.000          13.9004
 129837711.292 7                  24707301.604
        46.400
 109299660.823 6  85011028.024 7  20439522.657    20439522.801    20439531.931
        39.300          46.700
 121269086.320 7  94320369.971 7  22646180.996    22646181.093    22646199.328
        42.000          43.100
 108966959.241 8                  20441877.494    20441876.941
        48.400
 139823087.667 6                  26607375.283
        41.700
 109612636.775 8  85254437.047 8  20512458.495    20512458.809    20512464.494
        51.800          48.200
 115948998.184 6  90350021.69844  22064305.428    22064304.0604   22064308.8984
        41.700          28.4004
 138363377.387 7                  26329616.308
        43.700
 115491808.051 8  89827158.342 7  21582356.405    21582357.280    21582369.248
        48.300          44.100
 123008491.442 7  95673335.335 7  23035537.256    23035537.014    23035550.657
        44.000          42.100
 129182503.528 7                  24582613.360
        47.700
 125540608.926 7  97642793.123 6  23526235.130    23526234.722    23526244.136
        43.400          40.600
 126062695.198 6  98230682.12143  23988931.960    23988931.3884   23988933.4924
        40.100          19.2004
 117372523.114 7  91459267.51345  22335188.454    22335188.1014   22335190.3284
        45.000          32.8004
 120100759.820 7  93585143.72245  22854365.803    22854364.5204   22854371.3014
        43.900          30.7004
 131545594.296 7 102313278.535 5  24625610.020    24625610.468    24625620.060
        42.600          34.100
 25  1  1 20  7 15.0000000  0 34G09E05G17G08S31S35G07E13E33S48S33R19
                                G30E04E31G27R01G04E06R20R08R10E26R11
                                G21E24R21R09E09R02G13G14G02R12
 123019221.832 6  95859092.52146  23409818.170    23409817.6204   23409833.9124
        40.800          37.6004
 131618526.465 6                  25046174.383
        41.800
 124867057.744 6  97299117.18945  23761387.189    23761386.5954   23761406.8114
        40.400          35.0004
 110929578.175 8  86438772.82548  21109145.397    21109144.6194   21109149.0144
        48.300          48.5004
 198975368.283 7                  37863754.723
        45.400
 200894265.470 7                  38228921.117
        43.900
 106890175.243 8  83291092.57848  20340505.191    20340504.5614   20340505.2284
        50.300          51.6004
 151008844.490 6                  28735972.763
        38.000
 139490421.452 6                  26544097.594
        40.400
 412942876.423 5                  78580283.044
        33.100
 202125741.914 7                  38463235.016
        45.100
 127320276.717 5  99027079.510 6  23801128.276    23801129.555    23801143.273
        35.500          40.100
 110884417.620 8  86403478.56048  21100593.852    21100592.9584   21100596.4864
        49.200          49.2004
 136399110.610 7                  25955910.310
        42.000
 123530028.718 8                  23506928.185
        48.200
 125878041.780 6  98086939.27546  23953740.790    23953740.0124   23953747.5484
        40.800          36.2004
 116143189.831 7  90333621.067 6  21726987.085    21726986.713    21726995.694
        45.100          37.900
 132548352.479 6 103284337.81042  25223186.173    25223185.8604   25223211.2514
        36.100          14.5004
 129869436.836 7                  24713338.634
        46.300
 109292407.866 6  85005386.861 7  20438166.025    20438166.196    20438175.509
        39.300          46.500
 121326717.270 7  94365193.497 7  22656943.763    22656944.154    22656961.876
        42.300          42.800
 108984093.561 7                  20445091.551    20445091.179
        47.900
 139813486.468 7                  26605548.137
        42.200
 109588283.278 8  85235495.433 8  20507901.400    20507901.515    20507907.195
        51.800          48.200
 115926020.595 6  90332117.17544  22059932.941    22059931.5914   22059936.3454
        41.500          28.3004
 138336892.965 7                  26324576.334
        43.700
 115433354.312 7  89781694.531 7  21571432.414    21571433.312    21571445.472
        47.900          43.900
 123048183.682 7  95704206.867 7  23042970.230    23042970.573    23042983.553
        43.400          42.300
 129197312.787 7                  24585431.809
        47.900
 125505214.874 7  97615264.464 6  23519603.203    23519602.670    23519611.106
        44.700          40.100
 126020455.025 6  98197767.74943  23980893.460    23980892.8484   23980895.9834
        38.900          19.0004
 117339801.814 7  91433770.42345  22328961.529    22328961.1724   22328963.6164
        45.300          32.8004
 120063408.800 7  93556039.26245  22847258.230    22847256.9524   22847263.2994
        44.400          30.8004
 131502357.293 6 102279649.854 6  24617516.012    24617516.344    24617526.087
        41.900          36.700
 25  1  1 20  7 30.0000000  0 34G09E05G17G08S31S35G07E13E33S48S33R19
                                G30E04E31G27R01G04E06R20R08R10E26R11
                                G21E24R21R09E09R02G13G14G02R12
 123073114.844 6  95901086.74446  23420074.197    23420073.6524   23420089.5784
        41.200          37.6004
 131593514.640 6                  25041414.725
        41.800
 124814038.537 6  97257804.13845  23751298.701    23751298.1294   23751317.0644
        41.100          35.0004
 110965139.212 8  86466482.72048  21115912.375    21115911.5974   21115916.0864
        48.300          48.5004
 198975358.545 7                  37863754.110
        45.600
 200894246.180 7                  38228915.546
        44.000
 106888948.959 8  83290137.01948  20340272.023    20340271.3974   20340271.8904
        50.300          51.5004
 151032432.002 6                  28740460.824
        36.700
 139452553.345 6                  26536891.137
        40.900
 412943439.599 5                  78580315.083
        33.100
 202125754.826 7                  38463230.647
        44.900
 127373497.709 6  99068473.700 6  23811077.674    23811078.759    23811091.690
        36.000          40.000
 110854714.304 8  86380333.11148  21094941.649    21094940.7644   21094944.1184
        49.400          49.1004
 136442877.112 7                  25964239.199
        42.500
 123529310.325 8                  23506791.585
        48.500
 125933228.448 6  98129941.79346  23964243.045    23964242.2584   23964249.7044
        41.400          36.1004
 116158442.112 7  90345483.904 6  21729839.834    21729839.563    21729848.840
        44.500          38.100
 132604631.780 5 103328191.75342  25233895.639    25233895.2864   25233920.9394
        35.400          14.9004
 129901239.474 7                  24719390.600
        46.800
 109285366.994 6  84999910.623 7  20436850.075    20436849.522    20436858.754
        39.300          46.600
 121384401.044 7  94410058.098 7  22667716.956    22667716.838    22667734.690
        42.000          42.800
 109001290.334 8                  20448318.080    20448317.441
        48.200
 139803991.112 7                  26603741.578
        42.400
 109563973.556 8  85216587.858 8  20503352.391    20503352.377    20503357.655
        51.800          48.300
 115903174.200 6  90314314.87544  22055585.654    22055584.3264   22055588.6584
        41.600          28.2004
 138310435.183 7                  26319541.583
        43.700
 115374994.517 7  89736303.811 7  21560526.676    21560526.376    21560538.983
        46.500          43.400
 123087910.884 7  95735105.593 7  23050410.064    23050410.320    23050423.653
        44.300          42.000
 129212227.273 8                  24588269.792
        48.000
 125469977.573 7  97587857.711 6  23512998.565    23512998.804    23513006.654
        44.700          39.700
 125978311.474 6  98164928.64043  23972874.177    23972873.5474   23972876.2314
        39.700          18.8004
 117307119.764 7  91408303.91545  22322742.262    22322741.8914   22322744.3004
        44.600          32.9004
 120026135.435 7  93526995.29245  22840164.882    22840163.5954   22840170.0724
        44.200          30.9004
 131459108.884 6 102246012.281 5  24609420.120    24609419.501    24609429.455
        40.300          35.400
 25  1  1 20  7 45.0000000  0 34G09E05G17G08S31S35G07E13E33S48S33R19
                                G30E04E31G27R01G04E06R20R08R10E26R11
                                G21E24R21R09E09R02G13G14G02R12
 123127030.020 6  95943098.24946  23430334.020    23430333.4664   23430349.4884
        41.600          37.6004
 131568589.789 6                  25036672.128
        41.600
 124761062.475 6  97216524.71245  23741216.114    23741215.5564   23741235.3394
        40.500          35.4004
 111000802.910 8  86494272.60748  21122698.993    21122698.2024   21122702.6544
        48.600          48.5004
 198975349.454 7                  37863753.873
        45.700
 200894226.667 7                  38228909.724
        43.900
 106887830.468 8  83289265.45648  20340059.096    20340058.4754   20340059.0634
        50.300          51.5004
 151056108.988 6                  28744966.647
        37.000
 139414727.152 6                  26529692.508
        40.900
 412944003.438 5                  78580344.909
        33.500
 202125767.153 7                  38463240.167
        45.300
 127426825.481 5  99109951.011 6  23821047.462    23821047.499    23821059.482
        35.100          38.100
 110825089.900 8  86357249.15548  21089304.273    21089303.3844   21089306.7984
        49.600          49.2004
 136486677.216 7                  25972574.073
        42.600
 123528626.417 8                  23506661.270
        48.400
 125988450.534 6  98172971.89645  23974750.793    23974750.0064   23974757.7484
        41.100          35.9004
 116173878.020 7  90357489.600 6  21732727.971    21732727.650    21732736.524
        45.600          37.900
 132660884.574 5 103372025.05642  25244600.398    25244600.0094   25244625.5034
        35.300          14.2004
 129933117.076 7                  24725456.873
        46.700
 109278536.353 6  84994597.895 7  20435571.146    20435571.997    20435581.266
        39.400          46.400
 121442134.990 6  94454961.749 7  22678498.968    22678498.162    22678516.702
        41.200          42.800
 109018547.513 8                  20451555.421    20451555.035
        48.300
 139794599.766 7                  26601953.993
        42.100
 109539705.894 8  85197713.000 8  20498810.503    20498810.921    20498816.664
        51.800          48.300
 115880457.338 6  90296613.50244  22051262.243    22051260.9384   22051265.6004
        41.800          28.3004
 138284002.070 7                  26314511.412
        43.400
 115316727.198 8  89690984.984 7  21549638.044    21549638.279    21549650.399
        48.200          44.000
 123127671.098 7  95766029.994 7  23057855.564    23057856.202    23057868.659
        43.800          42.000
 129227244.991 7                  24591127.521
        47.900
 125434895.595 7  97560571.759 6  23506425.831    23506425.689    23506431.920
        45.400          39.600
 125936262.881 6  98132163.52943  23964872.244    23964871.6054   23964874.6204
        39.200          19.1004
 117274475.062 7  91382866.51645  22316530.348    22316529.9774   22316532.2414
        45.300          32.7004
 119988938.152 7  93498010.61145  22833086.749    22833085.4844   22833091.6194
        44.200          31.1004
 131415847.064 7 102212364.283 5  24601321.181    24601321.603    24601330.877
        42.200          35.700
 25  1  1 20  8  0.0000000  0 34G09E05G17G08S31S35G07E13E33S48S33R19
                                G30E04E31G27R01G04E06R20R08R10E26R11
                                G21E24R21R09E09R02G13G14G02R12
 123180961.951 7  95985122.78246  23440596.906    23440596.3434   23440612.8244
        42.100          37.8004
 131543747.089 6                  25031944.406
        41.900
 124708125.068 6  97175275.42145  23731142.978    23731142.4284   23731161.0384
        40.900          34.8004
 111036563.929 8  86522138.31848  21129504.063    21129503.2684   21129507.7624
        48.200          48.5004
 198975335.953 7                  37863756.033
        45.300
 200894203.440 7                  38228910.238
        43.900
 106886815.022 8  83288474.18848  20339865.868    20339865.2474   20339865.8404
        50.400          51.6004
 151079870.295 5                  28749487.922
        35.400
 139376938.107 6                  26522501.488
        40.600
 412942961.995 5                  78580374.815
        33.800
 202125775.451 7                  38463239.631
        44.900
 127480254.561 5  99151507.015 6  23831034.993    23831034.935    23831047.822
        35.800          38.800
 110795539.689 8  86334223.00548  21083681.001    21083680.1124   21083683.5624
        49.500          49.3004
 136530505.672 7                  25980914.314
        42.300
 123527971.940 8                  23506536.841
        48.100
 126043702.606 6  98216025.30845  23985265.716    23985264.9434   23985272.1344
        40.900          35.9004
 116189492.578 7  90369634.181 6  21735649.470    21735649.198    21735657.567
        46.100          37.900
 132717105.680 5 103415833.63542  25255299.468    25255299.0974   25255324.1014
        34.700          12.7004
 129965064.432 7                  24731536.225
        46.400
 109271911.494 6  84989445.233 7  20434333.499    20434333.318    20434342.438
        39.900          46.700
 121499913.625 6  94499900.158 7  22689288.121    22689288.751    22689306.942
        41.800          43.000
 109035860.202 8                  20454803.251    20454802.886
        48.400
 139785307.545 6                  26600185.892
        41.700
 109515475.173 8  85178866.882 8  20494276.747    20494276.834    20494282.206
        52.300          48.400
 115857865.440 7  90279009.50844  22046962.974    22046961.6464   22046966.5024
        42.400          28.3004
 138257588.633 7                  26309485.458
        43.300
 115258547.702 7  89645734.461 7  21538765.275    21538765.909    21538778.159
        47.800          44.000
 123167459.268 7  95796976.115 6  23065307.815    23065307.450    23065320.408
        44.400          41.700
 129242360.826 7                  24594004.211
        47.300
 125399964.175 7  97533402.926 6  23499878.004    23499878.826    23499887.074
        45.400          40.000
 125894304.692 6  98099468.84343  23956888.142    23956887.5084   23956890.0554
        40.200          19.3004
 117241862.739 7  91357454.33645  22310324.186    22310323.7974   22310326.2284
        45.300          32.7004
 119951812.276 7  93469081.56545  22826021.896    22826020.6444   22826026.6834
        44.500          31.1004
 131372566.632 6 102178701.846 6  24593219.544    24593219.264    24593228.310
        40.500          36.200
 25  1  1 20  8 15.0000000  0 34G09E05G17G08S31S35G07E13E33S48S33R19
                                G30E04E31G27R01G04E06R20R08R10E26R11
                                G21E24R21R09E09R02G13G14G02R12
 123234919.223 6  96027167.07046  23450865.338    23450864.7484   23450880.7424
        41.400          37.5004
 131518995.660 6                  25027233.991
        41.600
 124655235.565 6  97134063.45345  23721077.614    23721077.0514   23721095.6524
        41.100          35.2004
 111072430.843 8  86550086.54048  21136329.357    21136328.5664   21136333.0634
        48.300          48.4004
 198975327.122 7                  37863754.682
        45.500
 200894184.385 7                  38228903.683
        43.500
 106885911.658 8  83287770.25348  20339693.874    20339693.2484   20339693.9374
        50.500          51.5004
 151103724.566 6                  28754027.611
        36.800
 139339195.371 6                  26515319.470
        41.300
 412943523.654 5                  78580399.821
        32.700
 202125788.540 7                  38463246.396
        45.200
 127533793.560 6  99193148.491 6  23841044.631    23841043.826    23841057.088
        36.000          39.900
 110766072.831 8  86311261.80548  21078073.846    21078072.9614   21078076.2064
        49.400          49.2004
 136574371.187 7                  25989262.053
        42.200
 123527355.743 8                  23506419.581
        48.400
 126098993.311 6  98259108.81045  23995787.273    23995786.4914   23995793.8534
        40.800          35.2004
 116205294.594 7  90381924.626 6  21738605.005    21738605.200    21738614.038
        45.700          37.900
 132773303.686 5 103459624.24042  25265992.631    25265992.2514   25266018.1524
        35.300          13.2004
 129997090.288 7                  24737630.487
        46.600
 109265501.038 6  84984459.336 7  20433134.063    20433134.789    20433143.842
        39.500          46.800
 121557745.191 7  94544879.732 7  22700088.415    22700088.475    22700107.207
        42.600          43.100
 109053237.447 8                  20458063.291    20458062.770
        48.500
 139776123.480 7                  26598438.187
        42.300
 109491290.487 8  85160056.591 8  20489750.822    20489750.810    20489756.200
        51.600          48.200
 115835407.496 7  90261509.89344  22042689.412    22042688.0754   22042692.7984
        42.000          28.2004
 138231203.724 7                  26304464.290
        43.300
 115200465.878 8  89600559.902 7  21527911.946    21527912.275    21527923.751
        48.700          43.900
 123207284.587 7  95827951.168 6  23072765.236    23072766.174    23072778.618
        45.000          41.400
 129257583.608 7                  24596900.957
        47.400
 125365192.848 7  97506358.616 6  23493361.851    23493362.805    23493370.154
        45.000          40.100
 125852446.126 6  98066851.78143  23948922.605    23948921.9714   23948924.9774
        40.000          19.8004
 117209291.715 7  91332074.33945  22304126.607    22304126.2184   22304128.1884
        44.800          32.8004
 119914767.259 7  93440215.52945  22818971.970    22818970.7234   22818977.1214
        44.600          31.3004
 131329276.819 6 102145031.999 5  24585114.054    24585114.958    24585124.040
        40.400          35.000
 25  1  1 20  8 30.0000000  0 34G09E05G17G08S31S35G07E13E33S48S33R19
                                G30E04E31G27R01G04E06R20R08R10E26R11
                                G21E24R21R09E09R02G13G14G02R12
 123288902.250 6  96069231.42046  23461138.072    23461137.4734   23461154.0764
        41.900          37.9004
 131494336.427 7                  25022541.627
        42.000
 124602395.052 7  97092889.68145  23711021.678    23711021.0974   23711039.8854
        42.700          35.4004
 111108404.151 8  86578117.66348  21143174.677    21143173.8904   21143178.5584
        48.200          48.4004
 198975323.784 7                  37863744.670
        45.300
 200894171.239 7                  38228903.387
        44.000
 106885121.458 8  83287154.50148  20339543.571    20339542.9504   20339543.5974
        50.500          51.6004
 151127672.544 6                  28758584.814
        38.300
 139301500.044 6                  26508145.901
        40.900
 412944091.528 5                  78580436.059
        33.100
 202125806.600 7                  38463250.260
        45.400
 127587442.827 5  99234875.649 6  23851071.609    23851072.759    23851085.815
        34.300          39.300
 110736690.399 8  86288366.40348  21072482.405    21072481.5254   21072484.9384
        49.900          49.4004
 136618274.273 7                  25997616.853
        42.200
 123526778.604 8                  23506309.683
        48.400
 126154323.089 6  98302222.70845  24006315.883    24006315.0834   24006323.1824
        41.000          35.8004
 116221284.532 7  90394361.242 6  21741595.793    21741596.027    21741605.138
        45.800          37.600
 132829479.071 5 103503397.20142  25276683.286    25276682.9514   25276707.9194
        34.700          14.0004
 130029195.191 7                  24743740.003
        46.200
 109259305.784 6  84979640.811 7  20431975.941    20431976.129    20431985.200
        39.500          46.700
 121615630.154 7  94589900.858 7  22710899.019    22710898.430    22710917.086
        42.300          42.400
 109070680.520 8                  20461335.211    20461334.880
        48.200
 139767048.524 7                  26596711.380
        42.000
 109467152.921 8  85141282.904 8  20485233.852    20485233.729    20485239.101
        52.000          48.400
 115813084.912 6  90244115.75544  22038441.154    22038439.8174   22038444.7704
        41.800          28.3004
 138204848.122 7                  26299449.047
        43.000
 115142482.858 8  89555462.197 7  21517075.591    21517075.870    21517088.120
        48.500          44.200
 123247147.922 7  95858955.755 7  23080231.290    23080231.960    23080244.243
        44.400          42.200
 129272913.993 7                  24599818.311
        47.500
 125330582.727 7  97479439.690 6  23486876.688    23486877.772    23486885.138
        45.300          40.300
 125810688.292 6  98034313.22843  23940976.067    23940975.4504   23940978.6364
        39.900          19.3004
 117176762.818 7  91306727.16645  22297936.197    22297935.8084   22297938.1264
        45.100          32.9004
 119877804.321 7  93411413.45245  22811937.803    22811936.5514   22811943.1024
        44.900          31.4004
 131285978.167 6 102111355.354 6  24577009.438    24577009.051    24577019.166
        40.400          36.100
 25  1  1 20  8 45.0000000  0 34G09E05G17G08S31S35G07E13E33S48S33R19
                                G30E04E31G27R01G04E06R20R08R10E26R11
                                G21E24R21R09E09R02G13G14G02R12
 123342899.011 6  96111306.45446  23471413.420    23471412.8034   23471429.3234
        41.200          37.5004
 131469757.951 6                  25017864.655
        41.400
 124549592.199 6  97051745.24945  23700972.921    23700972.3094   23700991.1084
        41.100          35.1004
 111144471.910 8  86606222.38648  21150038.581    21150037.7944   21150042.0344
        48.200          48.4004
 198975313.597 7                  37863740.767
        45.300
 200894151.457 7                  38228899.278
        44.100
 106884432.806 8  83286617.87748  20339412.460    20339411.8394   20339412.5654
        50.500          51.5004
 151151702.482 6                  28763157.099
        37.600
 139263840.789 6                  26500979.574
        41.100
 412944652.906 5                  78580458.385
        32.700
 202125818.621 7                  38463252.272
        45.300
 127641190.177 5  99276679.256 6  23861121.092    23861120.727    23861132.827
        35.800          39.600
 110707381.048 8  86265527.94548  21066904.974    21066904.0804   21066907.5644
        49.700          49.3004
 136662203.138 7                  26005975.959
        42.400
 123526228.818 8                  23506205.081
        48.100
 126209680.114 6  98345357.82245  24016850.478    24016849.6834   24016857.7264
        40.500          35.7004
 116237450.277 7  90406934.565 6  21744620.026    21744620.235    21744628.872
        45.000          37.700
 132885619.994 5 103547143.28042  25287365.763    25287365.4554   25287391.4884
        34.500          14.2004
 130061367.373 7                  24749862.202
        46.300
 109253314.390 6  84974980.835 7  20430854.318    20430855.527    20430864.862
        39.700          46.800
 121673555.893 7  94634953.659 7  22721716.167    22721716.644    22721734.943
        43.100          43.100
 109088177.253 8                  20464617.588    20464617.141
        48.300
 139758071.081 6                  26595002.936
        41.200
 109443050.732 8  85122536.738 8  20480723.563    20480723.592    20480728.892
        52.600          48.600
 115790886.809 7  90226818.60944  22034217.178    22034215.8554   22034220.5584
        42.400          28.3004
 138178510.161 7                  26294437.249
        43.000
 115084587.861 8  89510432.944 7  21506256.189    21506256.721    21506268.452
        48.100          44.100
 123287037.324 7  95889980.620 6  23087701.048    23087701.125    23087714.388
        45.000          41.400
 129288340.296 7                  24602753.814
        47.500
 125296122.453 7  97452637.288 6  23480418.349    23480418.178    23480426.631
        44.400          40.600
 125769020.102 6  98001844.51743  23933047.103    23933046.4954   23933049.2514
        39.400          19.6004
 117144264.413 7  91281403.75345  22291751.863    22291751.4794   22291753.8544
        45.100          32.8004
 119840912.053 7  93382666.44545  22804917.278    22804916.0224   22804922.6504
        44.400          31.4004
 131242659.002 6 102077662.746 5  24568900.187    24568899.911    24568908.827
        41.700          35.000
 25  1  1 20  9  0.0000000  0 35G09E05G17G08S31S35G07E13E33S48S33R19
                                G30E04E31G27E12R01G04E06R20R08R10E26
                                R11G21E24R21R09E09R02G13G14G02R12
 123396912.511 6  96153394.52846  23481692.322    23481691.7194   23481708.0234
        41.600          37.7004
 131445263.723 7                  25013203.579
        42.000
 124496830.476 7  97010632.85745  23690932.511    23690931.9084   23690950.3074
        42.100          35.4004
 111180637.080 8  86634403.01148  21156920.369    21156919.5824   21156924.0534
        48.400          48.4004
 198975301.412 7                  37863747.054
        45.500
 200894129.095 7                  38228898.209
        44.000
 106883849.337 8  83286163.21348  20339301.639    20339301.0094   20339301.5394
        50.500          51.6004
 151175817.515 6                  28767746.416
        38.200
 139226221.188 6                  26493820.334
        40.900
 412943610.991 5                  78580485.948
        33.000
 202125827.551 7                  38463250.702
        45.000
 127695038.195 5  99318561.168 6  23871187.178    23871186.819    23871199.093
        35.600          39.200
 110678148.347 8  86242749.21548  21061342.144    21061341.2504   21061344.7584
        49.800          49.5004
 136706160.862 7                  26014341.090
        42.300
 123525709.682 8                  23506106.310
        48.100
 126265067.390 6  98388516.55645  24027390.424    24027389.6464   24027397.2114
        40.400          35.6004


 116253794.756 7  90419646.895 6  21747678.037    21747677.966    21747686.746
        44.900          37.300
 132941729.429 5 103590864.87542  25298044.334    25298044.1294   25298068.7574
        35.900          14.0004
 130093609.933 7                  24755997.765
        46.300
 109247530.191 6  84970482.037 7  20429773.460    20429773.980    20429783.163
        39.800          47.000
 121731525.362 7  94680040.519 7  22732542.008    22732542.344    22732561.671
        42.000          43.500
 109105731.283 8                  20467910.617    20467910.285
        48.100
 139749194.583 6                  26593313.984
        41.200
 109418987.312 8  85103820.747 8  20476219.783    20476220.230    20476226.058
        52.000          48.600
 115768816.075 7  90209620.71144  22030016.925    22030015.5974   22030020.4524
        42.200          28.4004
 138152193.183 7                  26289429.127
        43.300
 115026784.476 8  89465474.943 7  21495454.989    21495455.423    21495466.608
        48.600          44.300
 123326956.208 7  95921028.414 6  23095177.436    23095177.173    23095189.921
        44.900          41.200
 129303865.733 7                  24605708.264
        47.500
 125261815.735 7  97425954.325 6  23473989.745    23473990.014    23473997.100
        45.000          39.800
 125727445.196 6  97969448.50843  23925136.111    23925135.5174   23925137.9094
        40.300          20.3004
 117111799.881 7  91256106.73245  22285574.318    22285573.9384   22285576.0754
        45.400          32.8004
 119804094.085 7  93353977.32845  22797910.934    22797909.6914   22797916.1774
        44.700          31.7004
 131199322.725 6 102043956.823 5  24560786.571    24560787.283    24560796.897
        41.500          34.900
 25  1  1 20  9 15.0000000  0 35G09E05G17G08S31S35G07E13E33S48S33R19
                                G30E04E31G27E12R01G04E06R20R08R10E26
                                R11G21E24R21R09E09R02G13G14G02R12
 123450950.326 7  96195501.55746  23491975.656    23491975.0484   23491991.7354
        42.300          37.8004
 131420861.837 6                  25008559.703
        41.400
 124444118.166 6  96969558.95845  23680900.980    23680900.3684   23680918.7994
        41.900          35.5004
 111216907.295 8  86662665.49448  21163822.436    21163821.6454   21163826.0924
        48.300          48.3004
 198975293.734 7                  37863741.898
        45.500
 200894111.580 7                  38228891.775
        44.100
 106883379.241 8  83285796.89048  20339212.074    20339211.4444   20339212.0934
        50.300          51.5004
 151200025.639 6                  28772352.564
        36.500
 139188649.445 6                  26486670.742
        41.400
 412944173.346 5                  78580518.444
        33.300
 202125841.532 7                  38463252.643
        45.000
 127748994.548 5  99360527.278 6  23881273.364    23881272.394    23881286.175
        34.000          39.400
 110649000.514 8  86220036.61348  21055795.596    21055794.6984   21055798.1134
        49.600          49.4004
 136750155.163 7                  26022713.013
        42.100
 123525229.083 8                  23506014.852
        48.100
 126320492.422 6  98431704.67945  24037937.480    24037936.7254   24037944.4364
        40.700          35.4004


 116270326.023 7  90432504.512 6  21750770.474    21750770.545    21750779.910
        45.700          37.800
 132997815.044 5 103634567.83742  25308716.033    25308715.8104   25308741.5864
        34.600          14.1004
 130125930.633 7                  24762148.104
        46.500
 109241961.234 6  84966150.636 7  20428731.864    20428732.548    20428741.834
        39.300          46.800
 121789546.077 6  94725167.265 7  22743377.834    22743377.184    22743396.032
        41.500          42.900
 109123350.618 8                  20471216.137    20471215.789
        48.300
 139740427.105 6                  26591645.319
        41.400
 109394970.889 8  85085141.309 8  20471725.811    20471726.004    20471731.344
        52.300          48.400
 115746881.486 7  90192528.88844  22025842.916    22025841.5624   22025846.4034
        42.100          28.3004
 138125905.050 7                  26284426.538
        42.800
 114969081.377 8  89420594.970 7  21484671.038    21484671.341    21484683.152
        49.000          44.100
 123366912.625 7  95952105.452 6  23102659.414    23102660.094    23102672.694
        44.900          41.600
 129319498.154 7                  24608682.841
        47.400
 125227670.703 7  97399397.118 6  23467591.248    23467590.327    23467598.534
        44.700          40.200
 125685971.580 6  97937131.40243  23917243.812    23917243.2094   23917245.3384
        39.800          19.6004
 117079377.153 7  91230842.28045  22279404.025    22279403.6194   22279406.1124
        45.100          32.8004
 119767358.830 7  93325352.65245  22790920.322    22790919.0844   22790925.4744
        44.500          31.7004
 131155977.235 6 102010243.720 5  24552672.829    24552672.911    24552682.252
        41.600          34.000
 25  1  1 20  9 30.0000000  0 35G09E05G17G08S31S35G07E13E33S48S33R19
                                G30E04E31G27E12R01G04E06R20R08R10E26
                                R11G21E24R21R09E09R02G13G14G02R12
 123505003.314 6  96237620.41546  23502261.277    23502260.6604   23502278.1354
        41.300          37.8004
 131396543.680 6                  25003932.878
        41.200
 124391446.664 6  96928516.87645  23670877.650    23670877.0424   23670895.3174
        41.800          35.7004
 111253273.482 8  86691002.75848  21170742.703    21170741.9214   21170746.3714
        48.400          48.3004
 198975282.171 7                  37863738.459
        45.400
 200894089.901 7                  38228887.594
        44.000
 106883013.641 8  83285511.99748  20339142.545    20339141.9154   20339142.5424
        50.400          51.5004
 151224318.000 6                  28776975.055
        37.600
 139151117.095 6                  26479528.434
        40.900
 412944731.290 5                  78580543.100
        33.300
 202125851.876 7                  38463257.996
        45.200
 127803050.077 5  99402570.638 6  23891378.546    23891378.552    23891390.633
        34.600          39.000
 110619929.047 8  86197383.52348  21050263.670    21050262.7724   21050266.0004
        49.700          49.5004
 136794176.998 6                  26031090.474
        41.600
 123524778.169 8                  23505929.007
        48.100
 126375946.204 6  98474915.21645  24048489.994    24048489.2344   24048497.5194
        41.500          35.8004


 116287034.904 7  90445500.268 6  21753896.043    21753895.668    21753904.537
        43.900          37.200
 133053867.774 5 103678245.22142  25319383.284    25319382.9894   25319408.0474
        32.900          12.8004
 130158320.488 7                  24768311.968
        46.200
 109236599.135 6  84961980.116 7  20427729.617    20427729.599    20427738.791
        39.500          46.900
 121847608.473 6  94770326.377 7  22754220.729    22754220.529    22754239.261
        41.500          42.900
 109141026.343 8                  20474532.013    20474531.569
        48.200
 139731759.956 6                  26589996.163
        41.600
 109370992.629 8  85066491.509 8  20467238.795    20467238.587    20467243.914
        51.900          48.400
 115725074.037 6  90175536.14644  22021693.196    22021691.8514   22021696.4464
        41.800          28.1004
 138099637.066 7                  26279428.099
        42.700
 114911470.145 8  89375786.426 7  21473904.720    21473905.574    21473917.587
        48.500          44.200
 123406897.871 7  95983204.836 6  23110148.741    23110148.107    23110160.904
        44.500          41.500
 129335228.667 7                  24611676.595
        47.400
 125193679.057 7  97372959.218 6  23461219.910    23461220.085    23461228.618
        45.100          39.800
 125644590.865 6  97904886.71543  23909369.750    23909369.1694   23909371.3484
        40.100          20.0004
 117046987.502 7  91205603.61445  22273240.641    22273240.2214   22273242.5044
        45.100          32.9004
 119730697.800 7  93296785.81045  22783943.976    22783942.7514   22783948.7644
        44.900          31.6004
 131112613.787 7 101976516.643 5  24544554.767    24544555.320    24544564.049
        42.200          35.900
 25  1  1 20  9 45.0000000  0 35G09E05G17G08S31S35G07E13E33S48S33R19
                                G30E04E31G27E12R01G04E06R20R08R10E26
                                R11G21E24R21R09E09R02G13G14G02R12
 123559073.998 6  96279753.06146  23512551.337    23512550.7204   23512567.3574
        41.600          37.3004
 131372312.384 6                  24999321.609
        41.700
 124338819.127 6  96887509.03245  23660862.205    23660861.6114   23660879.8714
        41.200          35.3004
 111289738.173 8  86719416.78048  21177681.498    21177680.7204   21177685.3594
        48.400          48.2004
 198975269.752 7                  37863739.501
        45.600
 200894068.368 7                  38228888.287
        43.700
 106882755.640 8  83285310.94348  20339093.336    20339092.7064   20339093.4664
        50.400          51.4004
 151248697.062 6                  28781614.052
        36.900
 139113627.327 6                  26472394.028
        41.100
 412945287.938 5                  78580572.626
        33.300
 202125860.982 7                  38463255.559
        45.100
 127857206.944 5  99444692.737 6  23901501.711    23901501.688    23901514.637
        35.000          39.300
 110590937.118 8  86174792.41548  21044746.685    21044745.7914   21044748.9974
        49.700          49.4004
 136838229.104 7                  26039473.228
        42.000
 123524359.827 8                  23505849.356
        48.300
 126431431.342 6  98518150.19045  24059048.903    24059048.1304   24059055.9814
        41.700          35.6004


 116303923.974 7  90458636.183 6  21757055.788    21757055.415    21757064.392
        45.000          38.200
 133109890.232 5 103721898.95842  25330044.041    25330043.7604   25330068.8374
        34.900          13.5004
 130190782.230 7                  24774489.273
        46.200
 109231446.754 6  84957972.719 7  20426765.433    20426765.911    20426775.318
        39.200          46.800
 121905714.994 6  94815519.860 7  22765071.038    22765071.637    22765090.686
        41.100          42.600
 109158761.376 8                  20477859.140    20477858.711
        48.100
 139723196.162 6                  26588366.698
        41.500
 109347055.651 8  85047873.881 8  20462758.841    20462759.323    20462764.730
        52.000          48.300
 115703396.725 7  90158644.82144  22017568.259    22017566.9224   22017571.2544
        42.300          28.1004
 138073392.032 7                  26274433.652
        42.900
 114853954.364 8  89331052.146 7  21463156.577    21463156.576    21463169.031
        48.700          44.400
 123446914.752 7  96014328.892 7  23117641.539    23117641.496    23117655.661
        44.400          42.000
 129351060.089 7                  24614688.957
        47.300
 125159844.022 7  97346643.118 6  23454880.110    23454879.230    23454887.397
        44.500          40.000
 125603306.322 6  97872716.94143  23901513.303    23901512.7314   23901515.0114
        41.000          20.8004
 117014633.865 7  91180393.00645  22267084.065    22267083.6414   22267085.8264
        45.300          32.9004
 119694114.450 7  93268279.49645  22776982.015    22776980.7724   22776986.9494
        44.800          31.6004
 131069235.283 6 101942777.848 5  24536433.239    24536433.678    24536443.967
        41.100          35.200
 25  1  1 20 10  0.0000000  0 35G09E05G17G08S31S35G07E13E33S48S33R19
                                G30E04E31G27E12R01G04E06R20R08R10E26
                                R11G21E24R21R09E09R02G13G14G02R12
 123613166.434 7  96321902.65946  23522845.552    23522844.9314   23522861.2464
        42.000          37.5004
 131348172.463 7                  24994728.009
        42.200
 124286240.366 6  96846539.18345  23650857.465    23650856.8894   23650873.4034
        41.700          35.0004
 111326305.475 8  86747910.75948  21184640.211    21184639.4334   21184643.8834
        48.400          48.2004
 198975261.014 7                  37863737.771
        45.900
 200894049.789 7                  38228876.737
        43.700
 106882609.830 8  83285197.31148  20339065.831    20339065.2054   20339065.7464
        50.800          51.5004
 151273166.861 6                  28786270.766
        38.500
 139076184.783 6                  26465268.763
        41.000
 412944248.100 5                  78580593.563
        32.400
 202125873.664 7                  38463263.075
        45.200
 127911469.503 5  99486897.293 6  23911646.209    23911646.226    23911658.191
        34.800          39.100
 110562029.379 8  86152266.91248  21039245.712    21039244.8184   21039248.0434
        49.900          49.6004
 136882315.583 7                  26047862.806
        42.600
 123523978.381 8                  23505776.885
        48.300
 126486951.848 6  98561412.73545  24069613.442    24069612.6824   24069621.3034
        41.500          35.2004


 116320997.459 7  90471915.535 6  21760249.579    21760249.647    21760258.673
        45.600          37.900
 133165886.570 5 103765532.37042  25340699.265    25340698.9754   25340724.5754
        35.900          12.5004
 130223320.031 7                  24780681.153
        46.800
 109226508.584 6  84954131.938 7  20425842.364    20425842.418    20425851.762
        39.000          46.900
 121963869.493 7  94860750.618 7  22775932.232    22775932.331    22775950.911
        42.200          42.500
 109176560.547 8                  20481198.392    20481198.123
        48.600
 139714740.219 6                  26586757.167
        41.600
 109323164.533 8  85029291.884 8  20458287.968    20458288.331    20458294.033
        52.000          48.400
 115681854.710 7  90141858.91644  22013469.035    22013467.6854   22013471.9124
        42.500          28.1004
 138047174.346 7                  26269444.497
        43.300
 114796539.102 8  89286396.036 7  21452427.177    21452427.660    21452439.181
        49.100          44.400
 123486967.868 7  96045481.099 6  23125142.308    23125142.822    23125156.218
        44.900          41.700
 129366996.715 7                  24617721.770
        47.300
 125126170.574 7  97320452.666 6  23448568.988    23448569.024    23448577.128
        44.700          39.900
 125562122.787 6  97840625.88643  23893676.013    23893675.4234   23893678.3944
        41.000          20.1004
 116982320.627 7  91155213.88145  22260935.019    22260934.5954   22260936.8894
        45.300          32.9004
 119657613.493 7  93239837.38645  22770035.944    22770034.6974   22770040.8694
        45.100          31.7004
 131025846.092 6 101909030.755 5  24528312.491    24528312.030    24528321.166
        41.400          35.000
 25  1  1 20 10 15.0000000  0 35G09E05G17G08S31S35G07E13E33S48S33R19
                                G30E04E31G27E12R01G04E06R20R08R10E26
                                R11G21E24R21R09E09R02G13G14G02R12
 123667275.165 6  96364064.95346  23533141.997    23533141.3764   23533158.8344
        41.300          37.9004
 131324119.002 7                  24990150.078
        42.000
 124233705.454 7  96805603.50646  23640858.853    23640858.2814   23640876.0144
        42.800          36.1004
 111362969.974 8  86776480.48548  21191617.057    21191616.2794   21191620.9384
        48.800          48.2004
 198975250.730 7                  37863732.364
        45.800
 200894029.216 7                  38228871.594
        43.800
 106882571.282 8  83285167.25948  20339058.413    20339057.7924   20339058.4134
        50.800          51.5004
 151297722.400 6                  28790943.154
        37.100
 139038784.705 6                  26458151.490
        41.500
 412944805.581 5                  78580617.030
        32.400
 202125885.349 7                  38463260.079
        45.500
 127965831.655 5  99529179.109 6  23921808.643    23921807.711    23921820.468
        33.700          38.900
 110533201.026 8  86129803.26848  21033759.845    21033758.9564   21033762.2124
        49.900          49.7004
 136926431.190 7                  26056257.343
        42.400
 123523628.750 8                  23505710.264
        48.100
 126542502.386 6  98604698.69745  24080185.258    24080184.4894   24080192.5854
        41.600          35.5004


 116338249.852 7  90485334.030 6  21763477.425    21763476.844    21763485.601
        45.100          38.000
 133221851.448 5 103809141.26342  25351349.445    25351349.1594   25351374.3444
        34.800          12.4004
 130255928.621 7                  24786886.136
        46.400
 109221779.626 6  84950453.871 7  20424959.113    20424958.571    20424967.512
        39.300          46.700
 122022066.264 7  94906014.243 7  22786801.097    22786801.379    22786819.601
        42.600          42.800
 109194418.514 8                  20484548.252    20484548.012
        48.200
 139706387.173 6                  26585167.924
        41.400
 109299314.243 8  85010741.660 8  20453825.342    20453824.999    20453830.706
        52.000          48.300
 115660443.350 7  90125174.80544  22009394.485    22009393.1314   22009397.6024
        42.100          28.3004
 138020978.904 7                  26264459.557
        43.100
 114739219.738 8  89241814.511 7  21441715.503    21441715.857    21441726.971
        48.700          44.200
 123527051.892 7  96076657.355 6  23132649.764    23132649.603    23132662.105
        44.000          41.400
 129383033.379 7                  24620773.407
        47.500
 125092653.622 7  97294383.942 6  23442288.255    23442288.353    23442295.997
        44.200          39.900
 125521035.425 6  97808609.77943  23885857.587    23885856.9794   23885859.3284
        40.500          20.0004
 116950042.760 7  91130062.31645  22254792.780    22254792.3654   22254794.5524
        45.300          33.0004
 119621190.266 7  93211455.83845  22763104.870    22763103.6234   22763109.5724
        44.700          31.8004
 130982441.040 7 101875271.323 6  24520186.317    24520186.323    24520196.102
        42.000          36.800
 25  1  1 20 10 30.0000000  0 35G09E05G17G08S31S35G07E13E33S48S33R19
                                G30E04E31G27E12R01G04E06R20R08R10E26
                                R11G21E24R21R09E09R02G13G14G02R12
 123721399.649 6  96406239.52546  23543442.164    23543441.5704   23543458.3764
        41.700          37.3004
 131300152.028 7                  24985589.613
        42.300
 124181214.505 7  96764702.11445  23630869.255    23630868.6834   23630887.0444
        42.100          35.6004
 111399731.128 8  86805125.51948  21198612.708    21198611.9264   21198616.3674
        48.600          48.2004
 198975238.952 7                  37863730.469
        46.000
 200894008.414 7                  38228872.676
        44.200
 106882639.983 8  83285220.78048  20339071.224    20339070.6034   20339071.4884
        50.700          51.4004
 151322363.353 5                  28795632.029
        35.800
 139001427.107 6                  26451042.510
        41.100
 412945361.812 5                  78580650.267
        33.000
 202125894.746 7                  38463262.968
        45.200
 128020293.048 5  99571538.458 6  23931988.874    23931988.138    23932000.689
        34.100          38.700
 110504452.145 8  86107401.54548  21028289.106    21028288.2214   21028291.5044
        50.400          49.6004
 136970575.465 7                  26064658.115
        42.100
 123523310.666 8                  23505649.857
        48.400
 126598082.406 6  98648007.64145  24090761.726    24090760.9574   24090769.2204
        41.000          35.4004


 116355680.725 7  90498891.326 6  21766738.258    21766737.976    21766747.046
        45.200          37.500
 133277784.335 5 103852725.19442  25361993.253    25361992.9724   25362018.1114
        35.600          12.5004
 130288607.622 7                  24793104.944
        46.700
 109217259.773 6  84946938.428 7  20424113.180    20424112.978    20424122.309
        39.600          46.800
 122080304.506 6  94951310.179 7  22797676.252    22797675.842    22797695.710
        41.600          42.600
 109212335.405 8                  20487909.654    20487909.223
        48.500
 139698136.927 6                  26583597.672
        41.600
 109275504.673 8  84992223.082 8  20449369.428    20449369.460    20449374.837
        52.000          48.100
 115639162.439 7  90108592.34144  22005344.481    22005343.1404   22005347.8414
        42.800          28.2004
 137994805.495 7                  26259478.749
        43.300
 114681996.808 8  89197307.980 7  21431021.956    21431022.566    21431034.315
        48.800          44.600
 123567166.742 7  96107857.598 6  23140161.833    23140161.419    23140175.414
        44.300          41.700
 129399169.789 7                  24623844.033
        47.500
 125059293.550 7  97268437.251 6  23436036.667    23436036.135    23436044.373
        44.300          39.700
 125480044.382 6  97776668.72743  23878057.348    23878056.7224   23878058.9004
        40.500          20.0004
 116917800.075 7  91104938.16445  22248657.454    22248657.0484   22248659.0394
        45.500          33.0004
 119584844.805 7  93183134.88445  22756188.290    22756187.0564   22756193.0854
        44.700          31.4004
 130939019.943 7 101841499.391 6  24512057.552    24512057.656    24512066.684
        42.200          36.000
 25  1  1 20 10 45.0000000  0 35G09E05G17G08S31S35G07E13E33S48S33R19
                                G30E04E31G27E12R01G04E06R20R08R10E26
                                R11G21E24R21R09E09R02G13G14G02R12
 123775543.147 6  96448428.91946  23553745.214    23553744.6334   23553761.4064
        41.900          37.2004
 131276275.323 7                  24981046.197
        42.400
 124128771.435 7  96723838.02445  23620889.711    23620889.1444   23620906.8204
        42.300          35.4004
 111436592.275 8  86833848.47648  21205627.172    21205626.3904   21205630.8404
        48.700          48.1004
 198975228.586 7                  37863728.273
        45.800
 200893988.213 7                  38228865.598
        44.000
 106882819.739 8  83285360.83248  20339105.867    20339105.2464   20339105.6964
        50.800          51.3004
 151347093.203 5                  28800337.353
        35.900
 138964115.983 6                  26443942.610
        41.700
 412944320.356 5                  78580674.629
        32.900
 202125905.838 7                  38463268.312
        45.600
 128074856.179 5  99613976.496 6  23942188.799    23942188.897    23942200.500
        35.500          38.300
 110475786.621 8  86085064.76648  21022834.143    21022833.2544   21022836.6204
        49.900          49.7004
 137014751.850 7                  26073064.952
        42.400
 123523027.729 8                  23505595.989
        48.400
 126653695.315 6  98691342.24845  24101344.939    24101344.1884   24101352.2814
        41.100          35.5004
 153277087.129 5                  29167655.744
        31.400
 116373293.425 7  90512590.054 6  21770032.384    21770032.757    21770041.586
        45.400          37.700
 133333688.631 5 103896286.87442  25372631.406    25372631.1204   25372656.6244
        35.200          13.5004
 130321360.486 7                  24799337.745
        46.900
 109212952.767 6  84943588.551 7  20423307.369    20423307.746    20423316.894
        39.600          47.000
 122138587.510 7  94996640.892 7  22808561.010    22808561.171    22808580.390
        42.400          43.200
 109230314.893 8                  20491282.765    20491282.200
        48.600
 139689993.218 6                  26582047.945
        41.900
 109251739.559 8  84973739.091 8  20444921.984    20444922.029    20444927.303
        51.900          48.200
 115618016.517 6  90092115.07044  22001320.695    22001319.3504   22001323.6454
        41.800          28.3004
 137968657.738 7                  26254503.565
        43.600
 114624874.370 7  89152879.631 7  21420347.047    21420346.974    21420358.517
        47.900          44.300
 123607316.245 7  96139084.788 6  23147680.802    23147680.662    23147693.473
        44.900          41.600
 129415409.448 7                  24626934.678
        47.600
 125026094.420 7  97242615.726 6  23429815.018    23429815.280    23429823.667
        45.000          40.300
 125439153.505 6  97744805.73643  23870275.656    23870275.0134   23870277.5974
        40.800          20.2004
 116885596.260 7  91079844.30045  22242528.756    22242528.3504   22242530.8634
        46.000          33.3004
 119548581.208 7  93154877.71845  22749287.238    22749286.0224   22749292.2814
        44.600          31.6004
 130895586.652 6 101807717.994 5  24503926.920    24503926.627    24503935.677
        41.000          35.500
 25  1  1 20 11  0.0000000  0 35G09E05G17G08S31S35G07E13E33S48S33R19
                                G30E04E31G27E12R01G04E06R20R08R10E26
                                R11G21E24R21R09E09R02G13G14G02R12
 123829706.270 6  96490633.59946  23564052.861    23564052.2944   23564068.7644
        41.200          37.4004
 131252489.991 6                  24976519.964
        41.900
 124076377.429 6  96683012.13745  23610919.118    23610918.5514   23610935.2004
        41.500          35.5004
 111473554.037 8  86862649.83748  21212660.671    21212659.8844   21212664.4214
        48.100          48.1004
 198975220.992 7                  37863730.129
        46.000
 200893971.190 7                  38228859.355
        43.700
 106883111.615 8  83285588.25448  20339160.903    20339160.2824   20339161.2474
        50.600          51.4004
 151371912.588 6                  28805060.705
        36.600
 138926852.523 6                  26436851.412
        41.300
 412944881.092 5                  78580712.266
        32.900
 202125920.317 7                  38463266.917
        45.200
 128129521.906 5  99656494.389 6  23952408.133    23952407.270    23952418.900
        34.800          38.000
 110447205.683 8  86062793.89648  21017395.509    21017394.6294   21017397.8714
        49.900          49.8004
 137058961.046 7                  26081477.759
        42.500
 123522780.852 8                  23505549.050
        48.300
 126709341.703 6  98734702.96545  24111934.123    24111933.3634   24111941.1374
        41.000          34.8004
 153235012.424 4                  29159649.724
        28.600
 116391088.639 7  90526430.740 6  21773362.115    21773361.884    21773371.241
        45.400          38.400
 133389565.016 5 103939826.78442  25383264.420    25383264.1034   25383289.7404
        35.000          12.9004
 130354187.952 7                  24805584.623
        46.700
 109208859.482 6  84940404.887 7  20422542.005    20422542.526    20422551.388
        39.800          47.100
 122196915.505 7  95042006.611 7  22819453.721    22819454.307    22819472.892
        42.600          42.900
 109248357.953 8                  20494667.059    20494666.874
        48.000
 139681957.094 6                  26580518.978
        41.700
 109228020.102 8  84955290.616 8  20440483.200    20440483.689    20440488.918
        52.000          48.100
 115597006.150 7  90075743.42744  21997322.533    21997321.2054   21997325.4644
        42.400          28.3004
 137942536.571 7                  26249532.423
        43.700
 114567854.002 8  89108530.649 7  21409691.302    21409691.836    21409703.526
        48.300          44.800
 123647501.463 7  96170339.754 6  23155205.625    23155206.510    23155219.965
        44.500          41.800
 129431753.233 7                  24630044.540
        47.700
 124993057.407 7  97216920.305 6  23423623.555    23423623.098    23423631.967
        44.000          40.200
 125398364.161 6  97713021.86143  23862514.533    23862513.9034   23862515.7414
        40.900          21.0004
 116853432.279 7  91054781.47545  22236408.522    22236408.1074   22236410.2234
        45.500          33.2004
 119512400.731 7  93126685.31745  22742402.448    22742401.2464   22742407.1984
        44.900          31.9004
 130852142.075 6 101773927.779 5  24495793.461    24495793.497    24495803.017
        41.800          35.000
 25  1  1 20 11 15.0000000  0 35G09E05G17G08S31S35G07E13E33S48S33R19
                                G30E04E31G27E12R01G04E06R20R08R10E26
                                R11G21E24R21R09E09R02G13G14G02R12
 123883883.889 6  96532849.56046  23574361.858    23574361.2914   23574378.9584
        41.500          37.1004
 131228791.486 7                  24972010.414
        42.500
 124024028.070 6  96642221.05245  23600956.854    23600956.2824   23600973.1954
        41.700          35.7004
 111510611.336 8  86891525.63648  21219712.647    21219711.8654   21219716.2054
        48.500          48.0004
 198975212.448 7                  37863724.329
        45.600
 200893953.042 7                  38228855.715
        43.600
 106883510.998 8  83285899.44748  20339237.043    20339236.4224   20339237.2694
        50.300          51.4004
 151396817.092 6                  28809799.646
        36.700
 138889632.268 6                  26429768.434
        41.800
 412945439.690 5                  78580741.175
        33.400
 202125933.527 7                  38463271.701
        45.500
 128184284.745 5  99699087.738 6  23962645.433    23962644.902    23962657.436
        35.000          38.000
 110418704.897 8  86040585.48448  21011972.069    21011971.1934   21011974.3924
        49.900          49.8004
 137103198.110 7                  26089895.863
        42.100
 123522565.280 8                  23505507.958
        48.200
 126765016.619 6  98778085.98645  24122528.243    24122527.4704   24122535.5914
        41.400          35.6004
 153192892.710 4                  29151634.928
        27.800
 116409061.272 7  90540409.432 6  21776724.265    21776724.227    21776733.369
        45.600          38.100
 133445408.490 6 103983341.01842  25393892.109    25393891.8014   25393916.5874
        36.000          14.5004
 130387085.098 7                  24811844.689
        46.500
 109204974.985 6  84937383.633 7  20421815.417    20421815.870    20421825.004
        39.000          46.900
 122255283.110 7  95087403.158 7  22830353.995    22830353.869    22830372.923
        42.600          42.600
 109266459.785 8                  20498063.483    20498062.677
        48.600
 139674023.940 6                  26579009.058
        41.200
 109204341.545 8  84936873.946 8  20436052.437    20436052.544    20436057.772
        52.500          48.100
 115576126.878 6  90059473.92544  21993349.175    21993347.8434   21993352.2354
        41.800          28.2004
 137916437.242 7                  26244566.153
        43.400
 114510931.579 8  89064257.845 7  21399053.213    21399054.060    21399065.764
        48.900          44.500
 123687717.224 7  96201618.488 6  23162737.823    23162737.447    23162750.240
        44.300          41.300
 129448196.299 7                  24633173.470
        47.400
 124960178.255 7  97191347.673 6  23417462.150    23417461.694    23417471.377
        44.400          40.000
 125357672.018 6  97681313.72843  23854770.885    23854770.2594   23854771.5934
        40.700          19.9004
 116821303.407 7  91029746.01045  22230294.510    22230294.0904   22230296.2184
        45.100          33.2004
 119476299.069 7  93098554.32145  22735532.187    22735530.9714   22735537.1054
        44.800          31.7004
 130808681.249 6 101740125.003 5  24487657.718    24487657.912    24487667.610
        41.700          35.500
 25  1  1 20 11 30.0000000  0 35G09E05G17G08S31S35G07E13E33S48S33R19
                                G30E04E31G27E12R01G04E06R20R08R10E26
                                R11G21E24R21R09E09R02G13G14G02R12
 123938073.200 6  96575074.62946  23584674.435    23584673.8724   23584691.3914
        40.800          37.2004
 131205177.489 7                  24967516.766
        42.400
 123971721.118 7  96601462.99845  23591002.268    23591001.6834   23591019.0104
        42.300          35.6004
 111547761.406 8  86920473.73348  21226781.752    21226780.9704   21226785.6084
        48.500          48.1004
 198975199.042 7                  37863721.226
        45.500
 200893929.443 7                  38228853.632
        43.700
 106884015.647 8  83286292.67048  20339333.321    20339332.6954   20339333.3334
        50.400          51.5004
 151421803.665 6                  28814554.509
        37.000
 138852453.039 6                  26422693.400
        41.500
 412945994.284 5                  78580764.727
        32.700
 202125941.127 7                  38463279.509
        45.400
 128239142.087 5  99741754.603 6  23972899.930    23972900.001    23972912.601
        34.700          38.300
 110390282.038 8  86018437.79848  21006563.276    21006562.4054   21006565.7234
        49.700          50.0004
 137147460.336 7                  26098318.951
        42.100
 123522378.450 8                  23505472.535
        48.200
 126820717.074 6  98821488.87145  24133127.981    24133127.2034   24133135.2864
        40.900          35.5004
 153150725.783 5                  29143611.169
        31.300
 116427208.598 7  90554523.983 6  21780119.397    21780118.967    21780127.903
        45.700          37.800
 133501216.224 5 104026827.46941  25404511.197    25404510.8444   25404536.5164
        34.700          11.8004
 130420049.255 7                  24818117.500
        46.500
 109201297.381 6  84934523.254 7  20421128.379    20421127.835    20421137.157
        38.800          46.900
 122313687.384 7  95132828.187 7  22841259.957    22841261.360    22841280.306
        42.500          42.700
 109284617.825 8                  20501469.636    20501469.119
        48.400
 139666191.342 6                  26577518.762
        41.800
 109180701.513 8  84918487.227 8  20431628.189    20431628.334    20431633.826
        51.900          48.200
 115555376.454 7  90043304.82144  21989400.622    21989399.2854   21989403.5074
        42.100          28.3004
 137890357.232 7                  26239602.847
        43.700
 114454105.069 8  89020059.632 7  21388433.676    21388434.163    21388446.032
        48.000          44.600
 123727961.354 7  96232919.254 6  23170273.484    23170274.465    23170287.549
        44.900          41.800
 129464736.073 7                  24636321.163
        47.500
 124927454.582 7  97165895.927 6  23411329.539    23411329.360    23411337.988
        45.100          39.500
 125317074.987 6  97649679.68543  23847045.164    23847044.5214   23847046.6064
        41.900          20.6004
 116789207.226 7  91004736.02145  22224186.775    22224186.3604   22224188.5144
        45.500          33.4004
 119440274.131 7  93070483.11545  22728676.698    22728675.4604   22728681.5844
        44.300          31.8004
 130765201.783 6 101706307.674 5  24479518.069    24479518.731    24479528.256
        40.800          35.200
 25  1  1 20 11 45.0000000  0 35G09E05G17G08S31S35G07E13E33S48S33R19
                                G30E04E31G27E12R01G04E06R20R08R10E26
                                R11G21E24R21R09E09R02G13G14G02R12
 123992285.520 7  96617317.62946  23594991.274    23594990.6984   23595008.0104
        42.100          37.4004
 131181659.914 7                  24963041.586
        42.400
 123919468.572 7  96560747.32346  23581058.766    23581058.1634   23581075.1904
        42.500          36.1004
 111585015.599 8  86949502.95948  21233871.182    21233870.4004   21233874.8564
        48.500          48.3004
 198975192.604 7                  37863720.667
        45.600
 200893914.353 7                  38228856.136
        44.000
 106884637.344 8  83286777.09548  20339451.616    20339450.9864   20339451.6434
        50.600          51.7004
 151446883.880 6                  28819326.934
        36.800
 138815326.858 6                  26415628.106
        41.400
 412944955.150 5                  78580790.497
        32.600
 202125956.836 7                  38463284.656
        45.500
 128294105.426 5  99784503.973 6  23983175.095    23983174.640    23983186.838
        34.300          37.600
 110361949.113 8  85996360.19148  21001171.488    21001170.6214   21001174.1624
        50.200          50.3004
 137191759.203 7                  26106749.065
        42.200
 123522232.059 8                  23505444.356
        48.100
 126876454.413 6  98864920.46445  24143734.918    24143734.1314   24143742.0464
        41.100          35.7004
 153108523.542 4                  29135579.649
        29.600
 116445542.076 7  90568783.309 6  21783548.508    21783548.916    21783558.165
        46.400          37.400
 133556999.832 5 104070295.05642  25415127.181    25415126.8464   25415152.0144
        35.400          13.9004
 130453091.939 7                  24824405.610
        46.900
 109197838.617 6  84931833.116 7  20420481.054    20420481.355    20420490.354
        39.300          47.000
 122372139.521 6  95178290.440 7  22852176.117    22852176.380    22852195.846
        41.600          42.300
 109302844.219 8                  20504888.871    20504888.560
        48.200
 139658471.153 6                  26576049.554
        41.800
 109157111.984 8  84900139.806 8  20427213.785    20427214.131    20427219.297
        52.300          48.200
 115534767.066 7  90027245.63444  21985478.651    21985477.3104   21985481.6704
        43.100          28.9004
 137864308.314 7                  26234646.305
        43.500
 114397386.967 8  88975945.722 7  21377835.095    21377835.608    21377846.601
        48.600          44.800
 123768245.603 7  96264251.257 6  23177818.235    23177817.856    23177831.677
        43.800          41.300
 129481384.189 7                  24639489.054
        47.400
 124894898.861 7  97140574.842 6  23405228.164    23405228.788    23405237.242
        44.100          40.500
 125276585.170 6  97618129.18043  23839339.800    23839339.1614   23839341.3884
        41.900          20.6004
 116757155.483 7  90979760.65645  22218087.448    22218087.0374   22218089.2524
        46.100          33.7004
 119404338.104 7  93042481.19445  22721838.371    22721837.1374   22721843.0654
        44.700          32.0004
 130721715.633 7 101672485.167 6  24471377.843    24471377.347    24471387.703
        42.200          37.100
 25  1  1 20 12  0.0000000  0 35G09E05G17G08S31S35G07E13E33S48S33R19
                                G30E04E31G27E12R01G04E06R20R08R10E26
                                R11G21E24R21R09E09R02G13G14G02R12
 124046509.162 6  96659569.44746  23605309.594    23605309.0184   23605326.6014
        41.900          37.0004
 131158227.524 7                  24958582.327
        42.400
 123867259.163 7  96520065.27545  23571123.413    23571122.7834   23571139.3794
        42.400          35.9004
 111622362.236 8  86978604.20848  21240978.089    21240977.3074   21240981.6774
        48.500          48.1004
 198975183.532 7                  37863725.492
        45.900
 200893895.072 7                  38228844.738
        43.900
 106885364.844 8  83287343.96448  20339589.896    20339589.2664   20339590.0804
        50.500          51.5004
 151472046.374 5                  28824115.110
        34.600
 138778242.605 6                  26408571.487
        41.600
 412945512.329 5                  78580827.934
        33.600
 202125968.530 7                  38463274.720
        45.200
 128349162.079 5  99827325.883 6  23993468.034    23993466.902    23993478.532
        34.700          37.400
 110333695.014 8  85974344.00648  20995795.044    20995794.1904   20995797.6004
        49.900          50.2004
 137236083.151 7                  26115183.459
        42.900
 123522114.689 8                  23505422.351
        48.400
 126932217.175 6  98908371.87545  24154346.112    24154345.3254   24154353.4754
        40.100          35.1004
 153066274.800 5                  29127539.613
        30.300
 116464049.907 7  90583178.261 6  21787010.760    21787011.146    21787020.060
        45.900          37.800
 133612747.641 5 104113734.79442  25425735.004    25425734.7004   25425760.6084
        33.500          12.4004
 130486201.591 7                  24830706.238
        46.900
 109194587.005 6  84929304.094 7  20419871.950    20419873.004    20419882.460
        39.300          47.200
 122430627.560 6  95223780.647 7  22863099.073    22863099.557    22863119.063
        41.700          42.400
 109321127.214 8                  20508318.574    20508318.433
        48.200
 139650852.096 7                  26574599.693
        42.000
 109133561.673 8  84881822.878 8  20422806.608    20422806.739    20422812.254
        51.600          48.200
 115514287.745 7  90011287.79044  21981581.177    21981579.8234   21981584.4454
        42.300          28.4004
 137838279.016 7                  26229692.570
        43.800
 114340766.339 8  88931907.635 7  21367254.205    21367254.309    21367265.785
        48.300          44.800
 123808558.602 7  96295605.597 6  23185367.733    23185367.515    23185380.961
        44.400          41.600
 129498129.147 7                  24642675.515
        47.500
 124862499.648 7  97115375.484 6  23399157.417    23399157.778    23399165.583
        46.200          39.900
 125236191.441 6  97586653.56843  23831653.461    23831652.8274   23831654.3564
        41.200          20.3004
 116725136.795 7  90954811.04345  22211994.154    22211993.7214   22211996.3314
        46.100          33.7004
 119368479.925 7  93014539.92145  22715014.555    22715013.3214   22715019.1814
        44.900          31.9004
 130678211.056 7 101638648.353 6  24463233.484    24463232.988    24463242.164
        42.300          36.300
 25  1  1 20 12 15.0000000  0 35G09E05G17G08S31S35G07E13E33S48S33R19
                                G30E04E31G27E12R01G04E06R20R08R10E26
                                R11G21E24R21R09E09R02G13G14G02R12
 124100748.576 6  96701833.57246  23615631.418    23615630.8464   23615648.1934
        41.000          36.8004
 131134885.294 7                  24954140.840
        42.500
 123815098.082 7  96479420.88846  23561197.013    23561196.3794   23561213.0164
        42.500          36.1004
 111659805.767 8  87007780.96148  21248103.558    21248102.7714   21248106.9584
        48.200          48.0004
 198975174.104 7                  37863723.135
        46.200
 200893876.514 7                  38228851.427
        44.200
 106886203.082 8  83287997.12148  20339749.656    20339749.0304   20339749.6184
        50.300          51.6004
 151497295.671 6                  28828919.805
        36.800
 138741205.327 7                  26401523.177
        42.100
 412946070.929 5                  78580852.823
        33.000
 202125981.212 7                  38463277.760
        45.400
 128404317.039 5  99870224.278 6  24003778.206    24003778.504    24003788.837
        34.700          38.000
 110305524.801 8  85952393.18948  20990434.573    20990433.7154   20990437.0014
        49.800          50.2004
 137280436.695 7                  26123623.625
        43.200
 123522031.092 8                  23505406.383
        48.400
 126988009.716 6  98951846.51345  24164963.330    24164962.5524   24164970.4624
        40.500          35.3004
 153023984.518 5                  29119491.843
        31.000
 116482736.793 7  90597712.468 6  21790507.119    21790506.569    21790515.997
        45.500          37.400
 133668464.202 5 104157150.09541  25436337.802    25436337.5484   25436363.1154
        33.100          10.7004
 130519382.781 7                  24837020.537
        46.900
 109191547.738 6  84926940.224 7  20419304.491    20419304.683    20419314.076
        39.300          47.200
 122489155.605 6  95269301.938 7  22874029.286    22874029.432    22874049.336
        41.400          42.400
 109339472.122 8                  20511760.566    20511759.821
        48.000
 139643339.054 6                  26573169.961
        41.800
 109110055.440 8  84863540.258 8  20418408.036    20418407.937    20418413.693
        51.800          48.300
 115493943.555 6  89995435.23544  21977709.991    21977708.6414   21977713.1204
        41.800          28.4004
 137812274.135 7                  26224744.236
        44.100
 114284248.471 8  88887949.467 7  21356691.758    21356692.569    21356703.794
        49.000          44.600
 123848905.231 7  96326986.071 7  23192923.223    23192923.216    23192937.162
        44.200          42.100
 129514975.634 7                  24645881.369
        47.600
 124830262.150 7  97090301.894 6  23393116.125    23393116.080    23393123.129
        44.200          39.200
 125195898.803 6  97555256.72943  23823985.980    23823985.3814   23823987.4594
        40.700          20.8004
 116693155.998 7  90929890.96645  22205908.600    22205908.1674   22205910.7034
        45.200          33.8004
 119332704.728 7  92986663.30645  22708206.584    22708205.3554   22708211.2794
        44.400          32.1004
 130634693.044 7 101604801.040 5  24455087.214    24455087.127    24455095.918
        42.300          34.800
 25  1  1 20 12 30.0000000  0 35G09E05G17G08S31S35G07E13E33S48S33R19
                                G30E04E31G27E12R01G04E06R20R08R10E26
                                R11G21E24R21R09E09R02G13G14G02R12
 124155001.807 6  96744108.46046  23625956.072    23625955.4874   23625972.5664
        41.100          36.5004
 131111631.847 7                  24949715.563
        42.600
 123762984.170 6  96438813.24945  23551279.628    23551278.9854   23551295.0024
        40.800          35.3004
 111697344.289 8  87037031.72847  21255246.568    21255245.7814   21255250.3084
        48.400          47.8004
 198975164.296 7                  37863715.354
        45.700
 200893857.756 7                  38228844.080
        44.200
 106887150.656 8  83288735.47748  20339929.847    20339929.2214   20339929.9414
        50.300          51.4004
 151522630.078 6                  28833740.521
        36.900
 138704213.741 7                  26394483.657
        42.500
 412946628.962 5                  78580874.497
        32.600
 202125993.128 7                  38463282.536
        45.100
 128459567.933 5  99913197.287 6  24014106.113    24014106.177    24014118.277
        32.600          37.900
 110277437.179 8  85930506.72848  20985089.673    20985088.8154   20985092.1204
        49.800          50.1004
 137324818.073 7                  26132069.289
        42.400
 123521979.668 8                  23505396.630
        48.400
 127043830.104 6  98995342.83645  24175585.123    24175584.3414   24175592.3904
        40.900          34.9004
 152981651.289 4                  29111436.057
        29.700
 116501600.578 7  90612384.252 6  21794035.377    21794035.663    21794044.219
        45.300          37.600
 133724147.649 5 104200539.67342  25446935.014    25446934.7284   25446959.5734
        33.900          12.2004
 130552633.774 7                  24843347.785
        46.600
 109188718.988 6  84924740.082 7  20418775.291    20418775.663    20418785.061
        39.300          47.100
 122547721.837 7  95314852.895 7  22884966.520    22884966.860    22884986.612
        42.900          42.300
 109357877.284 8                  20515212.620    20515212.370
        48.200
 139635930.594 7                  26571759.881
        42.000
 109086591.873 8  84845290.788 8  20414017.214    20414017.309    20414022.591
        52.300          48.200
 115473733.195 7  89979686.96144  21973864.270    21973862.9294   21973867.0204
        42.100          28.4004
 137786292.080 7                  26219799.985
        43.900
 114227832.430 8  88844070.516 7  21346148.591    21346149.221    21346160.773
        48.300          44.900
 123889283.835 7  96358391.466 6  23200485.117    23200485.557    23200498.354
        44.200          41.800
 129531921.988 7                  24649106.279
        47.800
 124798185.154 7  97065353.164 6  23387104.938    23387104.225    23387112.964
        44.200          39.100
 125155706.121 6  97523937.76743  23816337.533    23816336.9164   23816338.4854
        41.000          19.8004
 116661211.568 7  90904999.21645  22199830.003    22199829.5654   22199831.7784
        45.000          33.7004
 119297011.293 7  92958850.40345  22701414.058    22701412.8424   22701418.8354
        44.400          32.0004
 130591159.925 7 101570941.982 5  24446937.472    24446937.962    24446946.851
        43.000          35.100
 25  1  1 20 12 45.0000000  0 35G09E05G17G08S31S35G07E13E33S48S33R19
                                G30E04E31G27E12R01G04E06R20R08R10E26
                                R11G21E24R21R09E09R02G13G14G02R12
 124209268.509 6  96786393.84146  23636282.870    23636282.2714   23636299.8724
        41.400          36.6004
 131088467.287 7                  24945307.452
        42.400
 123710917.594 7  96398242.50646  23541371.572    23541370.9424   23541386.5574
        42.500          36.1004
 111734977.499 8  87066356.27847  21262407.869    21262407.0784   21262411.6604
        48.300          47.7004
 198975154.834 7                  37863713.329
        45.600
 200893838.119 7                  38228837.583
        44.000
 106888207.714 8  83289559.14248  20340131.002    20340130.3724   20340131.1114
        50.100          51.4004
 151548049.287 6                  28838577.431
        36.000
 138667268.142 7                  26387453.103
        42.300
 412945585.615 5                  78580904.390
        32.600
 202126004.021 7                  38463278.002
        44.900
 128514914.001 5  99956244.347 6  24024451.602    24024452.649    24024463.174
        33.600          36.300
 110249432.404 8  85908684.82148  20979760.459    20979759.6014   20979763.0104
        50.000          50.1004
 137369227.051 7                  26140520.424
        42.500
 123521960.336 8                  23505392.776
        48.200
 127099678.076 6  99038860.60845  24186212.929    24186212.1474   24186220.1584
        40.500          35.0004
 152939275.341 5                  29103372.433
        30.500
 116520641.338 7  90627193.732 6  21797598.030    21797597.221    21797606.734
        44.700          37.700
 133779797.626 5 104243903.11142  25457524.531    25457524.2504   25457549.4804
        34.800          12.8004
 130585954.330 7                  24849688.789
        46.700
 109186101.065 6  84922703.935 7  20418285.277    20418286.195    20418295.535
        38.900          47.300
 122606325.367 6  95360432.899 7  22895911.306    22895911.076    22895931.167
        41.900          42.700
 109376342.908 7                  20518676.893    20518676.415
        47.700
 139628626.782 6                  26570370.352
        41.800
 109063170.958 8  84827074.543 8  20409633.848    20409634.198    20409639.614
        52.300          48.300
 115453657.010 6  89964043.22844  21970044.014    21970042.6694   21970046.5554
        41.000          28.4004
 137760332.819 7                  26214860.257
        43.600
 114171518.912 8  88800271.269 7  21335625.872    21335626.044    21335637.413
        48.900          45.200
 123929694.064 7  96389821.438 6  23208052.027    23208052.669    23208066.584
        43.600          41.400
 129548968.078 7                  24652350.036
        47.500
 124766269.049 7  97040529.544 6  23381123.874    23381124.494    23381131.530
        46.400          39.200
 125115613.650 6  97492696.88843  23808708.012    23808707.4184   23808709.2484
        40.700          20.3004
 116629303.495 7  90880135.80345  22193757.927    22193757.4894   22193759.8514
        45.500          33.7004
 119261399.987 7  92931101.49045  22694637.572    22694636.3564   22694641.9664
        43.900          31.9004
 130547611.851 7 101537071.354 6  24438784.627    24438785.273    24438795.168
        43.400          37.600
 25  1  1 20 13  0.0000000  0 35G09E05G17G08S31S35G07E13E33S48S33R19
                                G30E04E31G27E12R01G04E06R20R08R10E26
                                R11G21E24R21R09E09R02G13G14G02R12
 124263549.334 6  96828690.22346  23646612.121    23646611.5274   23646629.2444
        41.500          36.5004
 131065392.881 7                  24940916.717
        42.100
 123658899.609 6  96357709.62646  23531471.663    23531471.0154   23531487.3464
        41.000          36.0004
 111772706.133 7  87095755.18447  21269587.679    21269586.8924   21269591.1724
        47.900          47.9004
 198975144.574 7                  37863719.124
        46.000
 200893818.588 7                  38228836.546
        43.900
 106889375.503 8  83290469.09048  20340353.305    20340352.6794   20340353.3594
        50.000          51.6004
 151573554.338 6                  28843431.045
        37.400
 138630369.870 6                  26380431.225
        41.800
 412946141.446 5                  78580930.853
        32.600
 202126015.642 7                  38463281.637
        44.800
 128570356.135 5  99999365.974 6  24034815.241    24034817.539    24034828.592
        34.200          37.100
 110221511.800 8  85886928.50148  20974447.315    20974446.4574   20974449.9264
        50.100          50.4004
 137413664.481 7                  26148976.725
        42.000
 123521974.154 8                  23505395.570
        48.200
 127155554.352 6  99082400.43645  24196846.600    24196845.8314   24196853.4044
        40.500          35.4004
 152896857.913 5                  29095300.108
        30.100
 116539859.482 7  90642141.140 6  21801192.693    21801192.758    21801201.887
        46.000          37.800
 133835414.941 5 104287241.21841  25468107.091    25468106.8194   25468133.0904
        32.600           9.1004
 130619345.338 7                  24856042.812
        46.400
 109183694.643 6  84920832.286 7  20417835.451    20417836.180    20417845.448
        39.100          47.300
 122664966.870 6  95406042.440 7  22906861.054    22906861.306    22906883.258
        41.800          42.900
 109394869.723 8                  20522152.945    20522152.373
        48.100
 139621428.776 6                  26569000.542
        41.400
 109039794.046 8  84808892.514 8  20405259.002    20405259.520    20405264.909
        51.700          48.200
 115433716.345 6  89948505.09844  21966249.435    21966248.1124   21966251.9234
        41.400          28.6004
 137734397.430 7                  26209924.935
        43.400
 114115309.288 8  88756552.868 7  21325121.404    21325121.474    21325133.111
        48.700          45.000
 123970137.487 7  96421277.231 6  23215626.448    23215627.115    23215640.453
        44.800          41.700
 129566114.872 7                  24655612.922
        47.100
 124734515.417 7  97015832.314 6  23375173.696    23375174.056    23375181.209
        46.200          39.700
 125075622.728 6  97461535.12743  23801098.561    23801097.9854   23801098.9404
        41.100          20.8004
 116597432.876 7  90855301.56645  22187693.194    22187692.7524   22187695.0924
        45.400          34.1004
 119225872.400 7  92903417.81245  22687877.212    22687876.0104   22687881.2664
        44.500          32.3004
 130504049.890 7 101503189.869 6  24430629.558    24430629.699    24430639.765
        42.000          36.300
 25  1  1 20 13 15.0000000  0 35G09E05G17G08S31S35G07E13E33S48S33R19
                                G30E04E31G27E12R01G04E06R20R08R10E26
                                R11G21E24R21R09E09R02G13G14G02R12
 124317846.934 6  96870999.68346  23656945.171    23656944.5634   23656962.1534
        41.000          36.4004
 131042411.722 7                  24936543.461
        42.100
 123606933.547 7  96317217.21446  23521582.969    23521582.3264   23521597.9644
        42.100          36.4004
 111810532.810 8  87125230.48547  21276785.954    21276785.1674   21276789.3534
        48.300          47.9004
 198975137.550 7                  37863717.188
        46.000
 200893802.867 7                  38228830.925
        44.200
 106890657.211 8  83291467.80548  20340597.267    20340596.6464   20340597.2864
        50.200          51.6004
 151599148.139 5                  28848301.287
        35.400
 138593522.173 6                  26373419.417
        41.600
 412946700.052 5                  78580963.437
        33.700
 202126030.148 7                  38463289.230
        45.400
 128625896.868 5 100042564.447 6  24045201.666    24045200.427    24045210.716
        34.800          36.600
 110193678.611 8  85865240.29548  20969150.676    20969149.8094   20969153.4504
        50.100          50.4004
 137458133.083 7                  26157439.096
        42.100
 123522024.011 7                  23505405.010
        47.900
 127211461.586 6  99125964.38845  24207485.065    24207484.3054   24207491.7694
        40.300          35.0004
 152854402.410 4                  29087221.677
        29.500
 116559257.702 7  90657228.595 6  21804822.127    21804821.596    21804830.363
        45.600          37.800
 133891002.526 5 104330556.04641  25478685.557    25478685.2224   25478711.1474
        35.100          11.1004
 130652809.557 7                  24862411.145
        45.900
 109181503.165 6  84919127.805 7  20417427.138    20417426.244    20417435.839
        38.800          47.200
 122723648.730 7  95451683.361 6  22917821.124    22917821.320    22917840.173
        42.300          41.600
 109413461.144 8                  20525640.668    20525640.050
        48.000
 139614339.617 6                  26567651.716
        41.100
 109016464.114 8  84790746.996 8  20400893.581    20400893.776    20400899.246
        52.100          48.200
 115413914.350 7  89933075.02344  21962481.372    21962480.0534   21962483.6244
        42.300          28.9004
 137708488.819 7                  26204994.747
        43.000
 114059207.396 8  88712918.246 7  21314636.896    21314637.205    21314648.868
        48.000          44.900
 124010616.965 7  96452761.041 6  23223207.524    23223207.481    23223220.488
        44.300          40.900
 129583365.188 7                  24658895.736
        47.000
 124702927.294 7  96991263.820 6  23369252.708    23369254.093    23369261.026
        45.800          39.500
 125035736.745 6  97430455.14543  23793508.340    23793507.7374   23793509.3364
        40.500          20.5004
 116565602.687 7  90830498.83045  22181636.251    22181635.8224   22181638.0514
        45.500          34.2004
 119190431.819 7  92875801.92545  22681132.598    22681131.4054   22681136.9954
        44.900          32.2004
 130460476.887 7 101469299.813 6  24422473.411    24422473.321    24422481.924
        42.100          36.100
 25  1  1 20 13 30.0000000  0 35G09E05G17G08S31S35G07E13E33S48S33R19
                                G30E04E31G27E12R01G04E06R20R08R10E26
                                R11G21E24R21R09E09R02G13G14G02R12
 124372153.899 6  96913316.44746  23667279.464    23667278.8614   23667296.8024
        41.000          36.3004
 131019516.968 7                  24932186.504
        42.200
 123555012.551 7  96276759.91346  23511702.049    23511701.4064   23511717.0514
        42.200          36.3004
 111848450.170 8  87154776.45247  21284001.400    21284000.6184   21284004.7994
        48.100          47.7004
 198975127.671 7                  37863711.759
        46.000
 200893783.075 7                  38228827.285
        43.700
 106892045.955 8  83292549.92548  20340861.674    20340861.0484   20340861.5774
        50.200          51.4004
 151624823.626 5                  28853186.842
        35.100
 138556718.253 6                  26366415.424
        41.800
 412947254.947 5                  78580988.657
        33.000
 202126041.536 7                  38463294.529
        45.400
 128681528.323 5 100085833.367 6  24055599.315    24055599.011    24055610.811
        33.400          37.200
 110165926.067 8  85843614.93348  20963869.609    20963868.7334   20963872.3124
        50.200          50.3004
 137502625.600 7                  26165905.584
        42.000
 123522102.870 8                  23505420.196
        48.000
 127267392.517 6  99169546.79745  24218128.311    24218127.5474   24218135.5774
        40.800          34.8004
 152811901.840 5                  29079133.626
        30.700
 116578828.860 7  90672450.582 6  21808482.659    21808482.997    21808491.750
        45.800          38.000
 133946552.990 5 104373841.94541  25489256.570    25489256.2264   25489282.1614
        34.200          11.9004
 130686339.723 7                  24868791.575
        46.000
 109179519.663 6  84917585.092 7  20417055.233    20417055.202    20417064.784
        39.100          47.200
 122782363.281 7  95497349.695 7  22928785.179    22928786.423    22928807.136
        43.000          42.700
 109432109.744 8                  20529138.620    20529138.442
        48.500
 139607352.394 6                  26566321.950
        41.300
 108993174.186 8  84772632.593 8  20396534.935    20396535.389    20396540.801
        52.100          48.200
 115394244.058 6  89917747.56844  21958737.680    21958736.3434   21958740.4334
        41.500          28.5004
 137682599.917 7                  26200067.900
        43.600
 114003206.624 8  88669362.257 7  21304172.281    21304172.499    21304183.608
        49.100          45.100
 124051125.435 7  96484267.425 6  23230792.236    23230793.262    23230806.963
        45.000          40.900
 129600711.917 7                  24662196.464
        46.800
 124671497.867 7  96966818.708 6  23363363.651    23363363.714    23363370.755
        45.500          38.800
 124995949.082 6  97399451.78143  23785936.749    23785936.1284   23785938.0074
        40.500          20.5004
 116533805.949 7  90805722.17145  22175585.436    22175585.0164   22175587.2314
        45.600          34.1004
 119155071.520 7  92848248.58845  22674403.509    22674402.3204   22674407.9054
        44.400          32.2004
 130416885.790 7 101435395.616 6  24414312.635    24414312.686    24414322.269
        42.700          36.200
 25  1  1 20 13 45.0000000  0 34G09E05G17G08S31S35G07E13E33S48S33R19
                                G30E04E31G27E12R01E06R20R08R10E26R11
                                G21E24R21R09E09R02G13G14G02R12
 124426473.341 6  96955642.92946  23677616.032    23677615.4154   23677634.0934
        40.700          36.3004
 130996712.226 7                  24927846.846
        42.000
 123503140.358 7  96236340.64446  23501830.685    23501830.0334   23501845.5864
        42.000          36.4004
 111886461.347 8  87184395.52947  21291234.663    21291233.8724   21291238.1094
        48.300          47.6004
 198975116.986 7                  37863710.901
        45.600
 200893763.161 7                  38228827.084
        44.000
 106893545.200 8  83293718.15348  20341146.661    20341146.0404   20341146.9074
        50.300          51.4004
 151650583.837 5                  28858088.894
        35.000
 138519961.888 6                  26359421.077
        41.900
 412946209.762 5                  78581027.542
        33.000
 202126052.437 7                  38463293.585
        45.000
 128737253.501 5 100129175.170 6  24066015.813    24066015.531    24066028.561
        32.900          38.300
 110138257.888 8  85822055.31048  20958604.409    20958603.5294   20958607.2544
        50.000          50.4004
 137547145.242 6                  26174377.542
        41.700
 123522214.103 7                  23505440.944
        47.800
 127323350.220 6  99213150.08745  24228776.897    24228776.1424   24228784.1204
        39.700          34.5004
 152769359.922 5                  29071038.202
        30.800
 116598575.830 7  90687809.281 6  21812177.011    21812176.584    21812186.281
        45.200          38.200
 130719939.119 7                  24875185.296
        46.200
 109177747.471 6  84916206.718 7  20416723.632    20416723.493    20416733.383
        38.900          47.100
 122841113.302 6  95543043.643 7  22939756.786    22939756.806    22939777.510
        41.900          42.200
 109450819.171 8                  20532648.522    20532648.362
        48.100
 139600470.631 6                  26565012.591
        40.900
 108969927.937 8  84754552.120 8  20392184.802    20392185.225    20392190.717
        52.000          48.300
 115374709.346 7  89902525.77644  21955020.401    21955019.0694   21955023.1824
        42.200          28.6004
 137656734.214 7                  26195145.962
        43.100
 113947310.892 8  88625887.971 7  21293726.373    21293726.789    21293738.032
        49.600          45.000
 124091666.441 7  96515799.104 6  23238385.141    23238385.465    23238399.286
        44.100          41.500
 129618158.405 7                  24665516.614
        46.800
 124640231.315 7  96942500.294 6  23357503.244    23357504.494    23357512.379
        45.300          39.700
 124956263.398 6  97368527.88043  23778385.174    23778384.5174   23778386.0674
        40.700          19.9004
 116502046.121 7  90780974.27145  22169542.210    22169541.8044   22169543.4574
        45.300          34.1004
 119119795.248 7  92820760.74145  22667690.787    22667689.5854   22667694.9494
        44.900          32.2004
 130373280.166 7 101401480.194 6  24406149.222    24406149.998    24406158.298
        42.300          36.400
 25  1  1 20 14  0.0000000  0 34G09E05G17G08S31S35G07E13E33S48S33R19
                                G30E04E31G27E12R01E06R20R08R10E26R11
                                G21E24R21R09E09R02G13G14G02R12
 124480808.725 6  96997981.83845  23687956.533    23687955.9074   23687973.8084
        40.200          35.4004
 130974001.470 7                  24923525.306
        42.100
 123451320.988 7  96195962.53646  23491969.684    23491969.0324   23491984.1784
        42.300          36.1004
 111924569.847 7  87214090.43447  21298486.519    21298485.7374   21298489.9324
        47.900          47.2004
 198975109.937 7                  37863709.908
        45.500
 200893746.982 7                  38228820.882
        43.400
 106895158.898 8  83294975.56248  20341453.854    20341453.2334   20341453.9964
        50.100          51.2004
 151676432.512 6                  28863007.606
        36.100
 138483257.180 7                  26352436.161
        42.000
 412946767.302 5                  78581054.833
        33.300
 202126067.331 7                  38463298.518
        44.900
 128793075.830 5 100172592.309 6  24076454.685    24076452.455    24076463.736
        33.700          37.100
 110110678.205 8  85800564.64648  20953356.249    20953355.3644   20953359.0044
        49.900          50.2004
 137591695.638 7                  26182855.452
        42.600
 123522361.501 8                  23505469.092
        48.000
 127379338.187 6  99256776.93745  24239431.150    24239430.4044   24239438.2264
        40.500          34.6004
 152726780.589 4                  29062934.798
        28.600
 116618502.389 7  90703307.692 6  21815904.077    21815904.133    21815912.926
        44.900          37.800
 130753611.387 7                  24881593.141
        46.300
 109176190.731 6  84914995.952 7  20416432.123    20416432.618    20416442.088
        38.700          47.000
 122899902.504 7  95588768.033 6  22950736.078    22950736.840    22950756.225
        43.500          41.800
 109469593.886 7                  20536170.643    20536170.216
        47.900
 139593698.266 6                  26563723.371
        41.400
 108946729.404 8  84736508.797 8  20387843.701    20387843.784    20387849.384
        52.200          48.300
 115355314.392 7  89887412.88444  21951329.507    21951328.1704   21951332.5244
        42.300          28.4004
 137630895.476 7                  26190228.992
        43.600
 113891524.770 8  88582498.983 7  21283300.854    21283301.541    21283312.882
        49.300          45.000
 124132243.815 7  96547359.100 6  23245984.230    23245984.316    23245998.674
        44.500          41.600
 129635708.360 7                  24668856.119
        46.900
 124609131.490 7  96918311.582 6  23351675.781    23351676.749    23351683.373
        45.400          39.800
 124916683.826 6  97337686.66043  23770853.238    23770852.5724   23770853.7664
        40.400          19.9004
 116470327.069 7  90756258.13945  22163505.705    22163505.3034   22163507.4424
        45.600          33.9004
 119084607.333 7  92793341.72245  22660994.647    22660993.4364   22660998.7794
        44.600          32.2004
 130329663.938 7 101367556.523 6  24397984.352    24397984.664    24397994.099
        42.200          36.000
 25  1  1 20 14 15.0000000  0 34G09E05G17G08S31S35G07E13E33S48S33R19
                                G30E04E31G27E12R01E06R20R08R10E26R11
                                G21E24R21R09E09R02G13G14G02R12
 124535153.862 6  97040328.35045  23698297.949    23698297.3324   23698315.5534
        40.900          35.4004
 130951379.088 7                  24919220.569
        42.200
 123399549.044 6  96155621.36846  23482116.215    23482115.5364   23482131.5884
        41.600          36.2004
 111962769.530 7  87243856.39847  21305755.606    21305754.8284   21305759.1184
        47.900          47.1004
 198975101.496 7                  37863706.188
        45.500
 200893728.826 7                  38228817.541
        43.500
 106896881.455 8  83296317.79748  20341781.589    20341780.9684   20341781.8064
        50.400          51.1004
 151702363.563 5                  28867941.808
        35.800
 138446598.548 7                  26345460.261
        42.300
 412947322.825 5                  78581067.675
        32.400
 202126079.626 7                  38463297.807
        44.900
 128848989.242 5 100216080.438 6  24086904.838    24086904.613    24086915.841
        34.200          36.000
 110083181.456 8  85779138.60348  20948124.059    20948123.1744   20948126.5584
        50.000          50.1004
 137636270.718 7                  26191337.723
        42.100
 123522539.239 8                  23505503.135
        48.100
 127435350.515 6  99300422.81545  24250089.696    24250088.9594   24250097.2824
        39.700          34.1004
 152684158.322 4                  29054824.831
        29.800
 116638602.097 7  90718940.770 6  21819664.840    21819664.799    21819673.404
        45.400          38.300
 130787350.478 7                  24888013.329
        46.300
 109174843.128 6  84913947.818 7  20416181.081    20416180.795    20416190.268
        39.200          47.100
 122958724.137 7  95634517.653 7  22961719.949    22961721.461    22961742.965
        42.700          42.900
 109488427.494 7                  20539703.958    20539703.335
        47.800
 139587029.579 6                  26562454.484
        41.200
 108923572.804 8  84718498.087 8  20383510.401    20383510.281    20383515.729
        51.700          48.300
 115336053.733 7  89872404.63844  21947664.410    21947663.0604   21947667.2654
        42.400          28.3004
 137605077.927 7                  26185315.889
        43.500
 113835842.859 8  88539191.021 7  21272895.291    21272896.084    21272907.278
        49.100          45.200
 124172851.608 7  96578942.743 6  23253589.469    23253589.437    23253603.415
        44.000          41.700
 129653355.870 7                  24672214.522
        47.200
 124578193.215 7  96894248.551 6  23345877.982    23345877.703    23345886.416
        44.400          39.700
 124877204.970 6  97306923.89743  23763340.965    23763340.3044   23763340.5874
        39.600          19.3004
 116438642.991 7  90731569.26245  22157476.576    22157476.1744   22157478.1884
        45.500          33.9004
 119049502.371 7  92765987.34645  22654314.521    22654313.3234   22654318.3854
        44.800          32.1004
 130286031.126 7 101333619.907 5  24389816.167    24389816.163    24389825.298
        42.600          35.200
 25  1  1 20 14 30.0000000  0 34G09E05G17G08S31S35G07E13E33S48S33R19
                                G30E04E31G27E12R01E06R20R08R10E26R11
                                G21E24R21R09E09R02G13G14G02R12
 124589509.392 6  97082682.95245  23708641.989    23708641.3954   23708659.3604
        41.200          35.5004
 130928846.195 7                  24914932.453
        42.600
 123347825.686 7  96115318.05946  23472273.934    23472273.2914   23472288.4114
        42.100          36.4004
 112001061.028 8  87273693.90147  21313042.490    21313041.7124   21313045.7434
        48.200          47.2004
 198975091.130 7                  37863707.972
        45.700
 200893709.501 7                  38228811.768
        43.400
 106898713.957 8  83297745.70048  20342130.329    20342129.6994   20342130.5524
        50.300          51.2004
 151728378.020 6                  28872892.157
        36.400
 138409987.273 7                  26338493.322
        42.100
 412947877.652 5                  78581110.004
        33.000
 202126090.987 7                  38463297.337
        45.000
 128904994.117 5 100259639.869 6  24097373.044    24097373.504    24097385.420
        33.900          37.000
 110055768.865 8  85757778.12748  20942907.350    20942906.4614   20942910.1334
        50.100          50.2004
 137680871.283 7                  26199825.323
        42.000
 123522748.253 8                  23505542.858
        48.200
 127491387.536 6  99344087.87945  24260753.713    24260752.9854   24260760.7244
        40.400          34.4004
 152641494.260 4                  29046705.740
        29.500
 116658875.781 7  90734709.152 6  21823457.331    21823456.985    21823466.901
        44.800          38.300
 130821157.176 7                  24894446.729
        46.400
 109173705.864 6  84913063.293 7  20415967.367    20415968.232    20415977.473
        39.000          47.100
 123017578.656 7  95680292.873 7  22972710.913    22972711.855    22972733.516
        42.000          42.400
 109507321.244 7                  20543248.417    20543247.829
        47.500
 139580465.633 6                  26561205.503
        41.400
 108900459.254 8  84700520.870 8  20379184.930    20379184.818    20379190.445
        51.700          48.400
 115316928.416 6  89857501.85144  21944025.028    21944023.6744   21944027.8564
        41.800          28.4004
 137579282.456 7                  26180407.285
        43.700
 113780266.799 8  88495965.383 7  21262509.773    21262510.164    21262520.812
        48.600          44.900
 124213491.067 7  96610551.009 6  23261200.066    23261200.197    23261214.305
        44.600          41.800
 129671101.798 7                  24675591.406
        47.300
 124547417.413 7  96870311.848 6  23340111.154    23340110.982    23340118.810
        45.500          39.500
 124837828.034 6  97276240.61943  23755847.555    23755846.9294   23755848.1644
        40.900          20.7004
 116406994.933 7  90706908.45245  22151454.224    22151453.8224   22151455.8294
        46.100          34.1004
 119014481.619 7  92738698.58945  22647649.931    22647648.7204   22647654.0854
        44.800          32.3004
 130242382.785 7 101299671.280 6  24381644.841    24381645.864    24381654.477
        43.100          37.200
 25  1  1 20 14 45.0000000  0 34G09E05G17G08S31S35G07E13E33S48S33R19
                                G30E04E31G27E12R01E06R20R08R10E26R11
                                G21E24R21R09E09R02G13G14G02R12
 124643876.802 6  97125046.81045  23718988.048    23718987.4364   23719005.8584
        40.400          35.3004
 130906404.783 7                  24910662.021
        42.800
 123296152.939 7  96075054.17946  23462440.132    23462439.4754   23462454.7684
        42.700          36.4004
 112039445.823 8  87303604.10547  21320346.701    21320345.9284   21320350.1484
        48.500          47.1004
 198975081.068 7                  37863704.609
        45.700
 200893690.782 7                  38228807.400
        43.600
 106900658.303 8  83299260.75348  20342500.349    20342499.7194   20342500.5744
        50.300          51.2004
 151754477.408 5                  28877858.711
        34.300
 138373425.458 7                  26331535.680
        42.300
 412946832.188 5                  78581131.977
        32.600
 202126102.542 7                  38463299.054
        44.700
 128961091.802 5 100303271.475 6  24107861.368    24107860.613    24107872.028
        32.800          36.800
 110028442.522 8  85736484.86048  20937707.455    20937706.5664   20937710.1054
        50.200          50.3004
 137725498.876 7                  26208317.990
        42.500
 123522990.296 8                  23505588.869
        48.200
 127547451.045 6  99387773.63545  24271421.883    24271421.1594   24271429.4664
        39.700          34.3004
 152598790.421 4                  29038579.915
        27.800
 116679324.872 7  90750613.957 6  21827282.927    21827283.120    21827292.312
        45.800          38.300
 130855033.120 7                  24900892.896
        46.200
 109172781.187 6  84912344.096 7  20415795.300    20415794.956    20415804.627
        39.400          47.200
 123076467.363 7  95726094.686 6  22983709.172    22983710.339    22983731.025
        42.400          41.800
 109526276.943 8                  20546804.947    20546803.958
        48.000
 139574008.306 6                  26559976.412
        41.400
 108877390.680 8  84682578.646 8  20374867.584    20374868.079    20374873.665
        52.000          48.200
 115297940.734 7  89842706.31044  21940411.364    21940410.0234   21940414.4054
        42.200          28.3004
 137553510.906 7                  26175502.862
        43.800
 113724798.851 8  88452823.837 7  21252143.488    21252144.290    21252155.815
        48.800          45.200
 124254163.917 7  96642185.256 6  23268816.558    23268816.837    23268831.226
        44.000          41.800
 129688947.839 7                  24678987.216
        47.200
 124516806.487 7  96846503.368 6  23334373.836    23334374.096    23334382.237
        45.000          39.300
 124798555.281 6  97245638.47843  23748374.175    23748373.5414   23748374.9294
        41.000          20.0004
 116375384.710 7  90682277.12345  22145438.823    22145438.4264   22145440.5754
        46.000          34.1004
 118979547.272 7  92711477.15445  22641001.899    22641000.6884   22641006.1374
        44.900          32.3004
 130198720.686 7 101265711.906 6  24373472.015    24373471.846    24373481.187
        42.600          37.900
 25  1  1 20 15  0.0000000  0 34G09E05G17G08S31S35G07E13E33S48S33R19
                                G30E04E31G27E12R01E06R20R08R10E26R11
                                G21E24R21R09E09R02G13G14G02R12
 124698254.540 6  97167418.72545  23729335.829    23729335.2394   23729353.5824
        40.800          34.9004
 130884053.848 7                  24906408.890
        42.300
 123244529.617 7  96034828.79646  23452616.463    23452615.7794   23452630.2824
        42.200          36.6004
 112077922.463 8  87333585.87047  21327668.450    21327667.6724   21327672.0364
        48.100          47.2004
 198975071.353 7                  37863704.971
        45.800
 200893671.415 7                  38228807.417
        44.000
 106902713.575 8  83300862.24448  20342891.485    20342890.8644   20342891.7074
        50.100          51.3004
 151780660.406 5                  28882840.692
        34.800
 138336912.226 7                  26324587.285
        42.600
 412947385.574 5                  78581153.633
        33.100
 202126113.560 7                  38463304.192
        44.900
 129017280.588 5 100346973.953 6  24118364.461    24118365.272    24118376.290
        33.500          37.400
 110001201.577 8  85715258.13848  20932523.674    20932522.7894   20932526.3454
        49.900          50.4004
 137770152.098 7                  26216815.295
        42.300
 123523264.160 8                  23505640.871
        48.100
 127603539.371 6  99431478.68345  24282095.761    24282095.0014   24282102.7644
        40.200          34.1004
 152556046.075 5                  29030445.745
        30.400
 116699947.983 7  90766654.131 6  21831139.723    21831140.051    21831150.293
        44.700          37.700
 130888976.942 7                  24907352.297
        46.200
 109172067.849 6  84911789.301 7  20415661.321    20415661.952    20415671.270
        38.900          47.100
 123135388.569 7  95771921.785 6  22994712.083    22994713.218    22994734.507
        42.800          41.500
 109545293.929 7                  20550372.182    20550371.361
        47.100
 139567656.573 6                  26558767.966
        41.200
 108854366.031 8  84664670.572 8  20370559.089    20370559.233    20370564.586
        51.700          48.100
 115279089.629 7  89828017.19944  21936824.371    21936823.0344   21936827.2204
        42.000          28.7004
 137527762.071 7                  26170603.325
        43.400
 113669438.441 8  88409765.935 7  21241798.279    21241798.945    21241809.665
        48.700          45.000
 124294869.093 7  96673844.680 6  23276439.285    23276439.040    23276453.004
        43.200          41.300
 129706892.696 7                  24682402.204
        47.200
 124486359.330 7  96822822.287 6  23328667.851    23328668.199    23328676.460
        45.300          39.600
 124759385.813 6  97215116.82843  23740919.732    23740919.1474   23740921.6874
        41.700          20.8004
 116343811.167 7  90657674.38045  22139430.724    22139430.3314   22139432.3964
        45.600          34.3004
 118944698.580 7  92684322.47045  22634370.769    22634369.5624   22634374.3944
        44.400          32.4004
 130155043.768 7 101231741.066 6  24365294.994    24365295.394    24365304.338
        43.300          37.200
 25  1  1 20 15 15.0000000  0 34G09E05G17G08S31S35G07E13E33S48S33R19
                                G30E04E31G27E12R01E06R20R08R10E26R11
                                G21E24R21R09E09R02G13G14G02R12
 124752641.921 6  97209798.15545  23739685.337    23739684.7474   23739703.4614
        40.800          35.3004
 130861793.210 7                  24902172.857
        43.100
 123192956.138 6  95994642.25046  23442801.832    23442801.1664   23442815.8224
        41.800          36.9004
 112116490.258 7  87363638.67047  21335007.737    21335006.9644   21335011.2704
        47.900          47.3004
 198975060.390 7                  37863701.255
        45.800
 200893651.298 7                  38228795.474
        43.300
 106904879.658 8  83302550.08248  20343303.838    20343303.2174   20343303.9244
        50.100          51.4004
 151806926.412 6                  28887838.942
        37.700
 138300447.520 7                  26317648.046
        42.700
 412947937.451 5                  78581187.059
        32.600
 202126124.470 7                  38463302.971
        44.900
 129073559.664 5 100390746.721 6  24128885.035    24128885.212    24128897.204
        34.200          38.000
 109974045.983 8  85694097.93248  20927356.183    20927355.2984   20927358.8454
        50.200          50.4004
 137814830.450 7                  26225317.201
        42.400
 123523569.487 8                  23505699.202
        48.200
 127659652.016 6  99475202.72845  24292773.324    24292772.5694   24292780.7264
        40.400          34.7004
 152513260.884 5                  29022303.234
        30.100
 116720744.463 7  90782829.101 6  21835031.893    21835031.092    21835040.140
        45.200          38.200
 130922988.092 7                  24913824.607
        46.000
 109171565.159 6  84911398.313 7  20415568.526    20415567.816    20415577.254
        39.300          47.000
 123194341.277 6  95817773.363 7  23005721.805    23005722.223    23005743.875
        41.600          42.200
 109564371.455 7                  20553951.063    20553950.336
        47.700
 139561410.162 6                  26557579.111
        41.700
 108831385.201 8  84646796.544 8  20366258.538    20366258.815    20366264.312
        51.900          48.200
 115260375.042 6  89813434.47044  21933262.731    21933261.3814   21933265.8724
        41.700          28.7004
 137502035.599 7                  26165707.547
        43.700
 113614185.913 8  88366791.912 7  21231473.403    21231473.633    21231484.734
        49.400          45.400
 124335606.188 7  96705528.868 6  23284068.203    23284068.451    23284082.674
        43.400          41.500
 129724935.968 7                  24685835.739
        47.500
 124456076.182 7  96799268.736 6  23322993.631    23322993.924    23323001.577
        44.400          39.400
 124720319.544 6  97184675.57043  23733486.490    23733485.8734   23733487.9454
        39.100          19.7004
 116312274.031 7  90633100.00145  22133429.666    22133429.2914   22133430.9734
        46.000          34.5004
 118909935.568 7  92657234.53645  22627755.333    22627754.1314   22627759.0584
        45.000          32.5004
 130111351.578 7 101197758.280 6  24357114.642    24357115.151    24357124.604
        43.000          36.200
 25  1  1 20 15 30.0000000  0 34G09E05G17G08S31S35G07E13E33S48S33R19
                                G30E04E31G27E12R01E06R20R08R10E26R11
                                G21E24R21R09E09R02G13G14G02R12
 124807039.594 6  97252185.60345  23750037.296    23750036.7244   23750055.5314
        40.700          35.2004
 130839624.018 7                  24897954.171
        42.900
 123141433.798 6  95954495.55046  23432997.303    23432996.6604   23433010.9584
        40.600          36.7004
 112155149.903 8  87393763.04147  21342364.452    21342363.6794   21342367.9924
        48.100          47.1004
 198975049.156 7                  37863700.996
        45.700
 200893632.001 7                  38228796.453
        43.600
 106907157.552 8  83304325.04448  20343737.062    20343736.4414   20343737.4164
        50.100          51.2004
 151833276.429 5                  28892853.519
        35.600
 138264032.558 7                  26310718.443
        42.500
 412948489.289 5                  78581210.888
        32.400
 202126134.745 7                  38463311.669
        44.900
 129129929.206 5 100434589.861 6  24139421.793    24139423.315    24139434.185
        33.800          37.800
 109946976.955 8  85673005.17448  20922205.128    20922204.2394   20922207.7774
        49.800          50.3004
 137859534.681 7                  26233824.495
        42.600
 123523907.245 8                  23505763.333
        48.400
 127715789.665 6  99518946.25445  24303455.911    24303455.1564   24303463.7724
        39.300          34.4004
 152470436.073 5                  29014153.524
        30.000
 116741714.849 7  90799139.387 6  21838954.347    21838953.930    21838963.318
        44.800          38.000
 130957067.353 7                  24920309.777
        46.400
 109171274.548 6  84911172.302 7  20415513.066    20415513.517    20415522.808
        39.200          47.200
 123253326.065 7  95863649.903 6  23016737.373    23016738.221    23016759.440
        42.300          41.900
 109583510.890 7                  20557541.021    20557541.084
        47.800
 139555270.149 6                  26556410.698
        41.500
 108808449.194 8  84628957.435 8  20361966.489    20361966.496    20361972.238
        51.800          48.200
 115241798.324 6  89798959.16544  21929728.021    21929726.6804   21929730.5494
        41.900          28.6004
 137476332.465 7                  26160816.640
        44.000
 113559042.859 8  88323903.067 7  21221167.505    21221168.363    21221179.173
        48.700          45.000
 124376376.009 7  96737238.541 6  23291704.076    23291704.243    23291717.447
        44.400          41.500
 129743078.499 7                  24689288.366
        47.200
 124425958.134 7  96775843.614 6  23317350.027    23317349.798    23317357.822
        43.900          39.600
 124681357.922 6  97154315.87443  23726072.720    23726072.1624   23726073.4674
        40.100          20.2004
 116280774.311 7  90608554.77745  22127435.127    22127434.7524   22127436.6694
        46.300          34.3004
 118875259.601 7  92630214.43045  22621156.750    22621155.5524   22621160.4104
        44.600          32.5004
 130067645.243 7 101163764.520 6  24348933.488    24348933.777    24348943.914
        42.700          37.100
 25  1  1 20 15 45.0000000  0 34G09E05G17G08S31S35G07E13E33S48S33R19
                                G30E04E31G27E12R01E06R20R08R10E26R11
                                G21E24R21R09E09R02G13G14G02R12
 124861448.611 6  97294581.90645  23760391.397    23760390.8124   23760409.2104
        40.500          34.9004
 130817547.839 7                  24893753.124
        42.600
 123089964.100 7  95914389.87346  23423202.684    23423202.0584   23423216.2044
        42.200          37.2004
 112193902.469 8  87423959.82347  21349738.813    21349738.0264   21349742.3554
        48.300          47.2004
 198975040.164 7                  37863697.776
        45.900
 200893613.739 7                  38228794.468
        43.500
 106909548.879 8  83306188.40048  20344192.282    20344191.6614   20344192.5204
        49.800          51.5004
 151859711.558 5                  28897883.664
        33.700
 138227669.100 7                  26303798.710
        42.800
 412947442.778 5                  78581240.454
        32.600
 202126146.827 7                  38463311.378
        45.100
 129186390.225 5 100478504.091 6  24149977.515    24149977.390    24149988.913
        33.800          38.100
 109919996.190 8  85651981.19348  20917070.809    20917069.9204   20917073.5224
        49.700          50.5004
 137904265.921 7                  26242336.647
        42.900
 123524278.820 8                  23505834.299
        48.300
 127771953.399 6  99562710.12245  24314144.087    24314143.3454   24314151.3524
        38.800          34.2004
 152427573.382 5                  29005998.245
        30.900
 116762860.457 7  90815585.893 6  21842909.879    21842909.926    21842919.631
        45.100          38.200
 130991215.980 7                  24926808.248
        46.500
 109171197.140 6  84911112.078 7  20415499.221    20415498.877    20415508.592
        39.500          47.100
 123312343.692 7  95909551.907 7  23027759.520    23027760.221    23027781.408
        43.300          42.400
 109602713.239 7                  20561143.704    20561143.048
        47.200
 139549238.038 6                  26555262.944
        41.300
 108785559.705 8  84611154.483 8  20357682.702    20357683.017    20357688.634
        51.600          48.200
 115223361.129 7  89784592.57144  21926219.272    21926217.9404   21926222.0614
        42.400          28.8004
 137450654.107 7                  26155930.153
        43.800
 113504011.131 8  88281100.762 7  21210884.068    21210884.593    21210895.572
        49.200          45.400
 124417180.265 7  96768974.978 6  23299345.222    23299345.342    23299359.579
        44.600          41.800
 129761321.607 7                  24692759.800
        47.200
 124396007.229 7  96752548.485 6  23311735.414    23311736.512    23311743.740
        44.700          38.900
 124642502.600 6  97124039.02543  23718678.473    23718677.9194   23718679.2234
        40.300          20.1004
 116249313.463 7  90584039.84545  22121448.238    22121447.8454   22121449.8244
        45.900          34.6004
 118840672.407 7  92603263.50045  22614574.740    22614573.5474   22614578.5974
        44.700          32.6004
 130023926.099 7 101129760.790 6  24340749.680    24340750.412    24340758.278
        43.700          36.800
 25  1  1 20 16  0.0000000  0 33G09E05G17G08S31S35G07E33S48S33R19G30
                                E04E31G27E12R01E06R20R08R10E26R11G21
                                E24R21R09E09R02G13G14G02R12
 124915865.118 6  97336984.03045  23770746.612    23770746.0184   23770764.7914
        38.700          35.0004
 130795561.348 7                  24889569.396
        42.600
 123038543.768 7  95874322.65446  23413416.867    23413416.2374   23413430.7604
        42.300          37.2004
 112232744.114 8  87454226.01347  21357130.336    21357129.5494   21357133.7114
        48.100          47.1004
 198975029.458 7                  37863695.907
        45.400
 200893593.750 7                  38228792.017
        43.600
 106912050.247 8  83308137.49748  20344668.369    20344667.7434   20344668.5384
        50.300          51.4004
 138191353.887 7                  26296887.814
        42.300
 412947994.340 5                  78581274.278
        32.700
 202126157.103 7                  38463311.110
        44.700
 129242938.865 5 100522486.357 6  24160547.122    24160548.521    24160560.272
        33.000          36.500
 109893100.425 8  85631023.44448  20911952.647    20911951.7624   20911955.4374
        50.100          50.5004
 137949020.470 7                  26250853.169
        42.100
 123524680.610 8                  23505910.618
        48.000
 127828139.362 6  99606491.31345  24324835.312    24324834.5794   24324843.2524
        40.000          34.6004
 152384669.330 5                  28997832.957
        30.100
 116784177.219 7  90832165.548 6  21846898.024    21846897.325    21846906.789
        45.400          38.300
 131025430.213 7                  24933318.827
        45.800
 109171329.907 6  84911215.352 7  20415523.330    20415523.887    20415533.151
        38.900          47.200
 123371390.072 6  95955476.327 7  23038785.231    23038785.740    23038807.410
        40.700          42.200
 109621975.623 7                  20564757.840    20564757.121
        47.900
 139543310.425 6                  26554135.286
        41.000
 108762713.128 8  84593384.918 8  20353407.543    20353407.819    20353413.079
        52.300          48.200
 115205060.238 7  89770332.18944  21922736.509    21922735.1644   21922739.5124
        42.100          28.8004
 137424996.941 7                  26151047.714
        43.800
 113449087.881 8  88238382.848 7  21200620.717    21200621.016    21200631.517
        49.300          45.400
 124458015.298 7  96800735.388 6  23306991.785    23306992.886    23307006.814
        43.900          41.500
 129779661.654 7                  24696249.919
        46.800
 124366219.908 7  96729380.621 6  23306154.965    23306154.818    23306161.483
        45.100          38.700
 124603750.400 6  97093842.50243  23711304.004    23711303.4464   23711304.2614
        40.400          19.9004
 116217887.970 7  90559552.46345  22115468.327    22115467.9384   22115469.8254
        45.800          34.6004
 118806170.815 7  92576379.27045  22608009.210    22608008.0304   22608012.9724
        45.400          32.7004
 129980190.828 7 101095744.525 6  24332562.672    24332561.919    24332571.595
        43.300          37.200
 25  1  1 20 16 15.0000000  0 33G09E05G17G08S31S35G07E33S48S33R19G30
                                E04E31G27E12R01E06R20R08R10E26R11G21
                                E24R21R09E09R02G13G14G02R12
 124970295.967 6  97379397.33045  23781105.518    23781104.9244   23781123.2914
        40.400          34.9004
 130773671.909 7                  24885403.691
        42.300
 122987180.234 7  95834299.69646  23403642.099    23403641.4694   23403655.6644
        42.900          37.4004
 112271681.712 7  87484566.97447  21364540.045    21364539.2634   21364543.3554
        47.700          47.2004
 198975023.204 7                  37863694.029
        45.600
 200893579.148 7                  38228786.289
        43.400
 106914668.980 8  83310178.05148  20345166.587    20345165.9614   20345166.9054
        50.300          51.5004
 138155094.397 6                  26289987.890
        41.900
 412948550.801 5                  78581295.893
        32.700
 202126172.782 7                  38463315.434
        45.100
 129299581.746 5 100566542.025 5  24171138.093    24171136.800    24171148.649
        32.400          35.900
 109866297.171 8  85610137.78048  20906852.308    20906851.4234   20906854.9534
        50.200          50.6004
 137993805.344 6                  26259375.827
        41.600
 123525119.833 7                  23505994.192
        47.500
 127884354.474 6  99650295.21445  24335533.889    24335533.1704   24335540.8894
        38.300          34.7004
 152341731.549 5                  28989661.916
        30.300
 116805672.130 7  90848883.784 6  21850919.089    21850918.722    21850928.499
        45.100          38.100
 131059717.057 7                  24939843.483
        45.400
 109171679.851 6  84911487.519 7  20415589.200    20415589.472    20415598.718
        39.000          47.200
 123430472.141 6  96001428.490 6  23049819.603    23049819.992    23049841.670
        41.900          41.800
 109641304.887 7                  20568383.865    20568383.097
        47.700
 139537494.605 6                  26553028.409
        40.200
 108739917.040 8  84575654.612 8  20349141.525    20349141.762    20349147.258
        52.100          48.100
 115186903.234 7  89756183.93444  21919281.548    21919280.2074   21919284.3924
        42.500          29.1004
 137399368.189 7                  26146170.576
        43.400
 113394280.763 8  88195755.256 7  21190378.250    21190378.358    21190389.454
        49.200          45.200
 124498888.675 7  96832525.558 6  23314647.607    23314647.879    23314660.832
        45.200          41.700
 129798105.743 7                  24699759.413
        46.700
 124336603.976 7  96706346.020 6  23300603.435    23300604.658    23300611.747
        44.700          39.300
 124565108.775 6  97063732.15543  23703950.459    23703949.8964   23703950.9964
        41.000          20.6004
 116186505.122 7  90535098.31445  22109496.209    22109495.8204   22109497.9954
        46.700          34.8004
 118771762.436 7  92549567.67445  22601461.280    22601460.0964   22601465.2244
        45.600          32.7004
 129936446.391 7 101061721.115 6  24324373.680    24324374.043    24324382.507
        43.300          37.200
 25  1  1 20 16 30.0000000  0 33G09E05G17G08S31S35G07E33S48S33R19G30
                                E04E31G27E12R01E06R20R08R10E26R11G21
                                E24R21R09E09R02G13G14G02R12
 125024731.550 6  97421814.32945  23791463.722    23791463.1104   23791482.1944
        40.100          34.7004
 130751870.430 7                  24881255.290
        42.600
 122935864.592 7  95794314.04446  23393876.469    23393875.8304   23393890.0874
        42.800          37.4004
 112310705.685 8  87514975.23547  21371965.952    21371965.1884   21371969.4014
        48.200          47.0004
 198975013.610 7                  37863693.381
        45.600
 200893560.297 7                  38228788.664
        43.800
 106917395.879 8  83312302.88848  20345685.454    20345684.8464   20345685.8324
        50.200          51.4004
 138118881.653 7                  26283096.778
        42.400
 412949103.721 5                  78581323.734
        32.500
 202126183.988 7                  38463317.670
        44.700
 129356309.314 5 100610663.535 6  24181742.607    24181741.584    24181753.460
        32.900          37.400
 109839577.469 8  85589317.23148  20901767.650    20901766.7614   20901770.3744
        50.200          50.5004
 138038611.050 7                  26267902.202
        42.000
 123525587.185 7                  23506083.136
        47.700
 127940589.182 6  99694114.37645  24346234.580    24346233.8654   24346242.1214
        39.700          34.2004
 152298750.862 5                  28981483.114
        30.500
 116827335.348 7  90865732.863 6  21854971.670    21854971.296    21854980.992
        45.500          38.500
 131094067.076 7                  24946380.206
        45.600
 109172237.496 6  84911921.234 7  20415693.790    20415693.487    20415702.992
        39.200          47.200
 123489579.783 6  96047400.554 7  23060857.861    23060857.405    23060880.170
        41.700          42.000
 109660692.041 7                  20572020.572    20572020.149
        47.300
 139531781.402 6                  26551941.291
        40.400
 108717162.137 8  84557956.354 8  20344883.319    20344883.328    20344889.129
        52.100          48.300
 115168880.916 7  89742140.62544  21915851.945    21915850.6134   21915854.8054
        42.300          28.8004
 137373758.550 7                  26141297.101
        43.400
 113339581.093 8  88153211.244 7  21180156.524    21180156.166    21180167.105
        48.200          45.400
 124539790.662 7  96864338.033 7  23322306.640    23322306.829    23322321.410
        44.800          42.100
 129816644.513 7                  24703287.437
        46.600
 124307150.609 7  96683437.881 6  23295084.017    23295084.552    23295092.527
        44.300          39.700
 124526568.991 6  97033701.15643  23696616.468    23696615.8874   23696617.3784
        41.300          20.5004
 116155155.650 7  90510670.16645  22103530.447    22103530.0364   22103532.4714
        46.100          34.7004
 118737438.434 7  92522821.82745  22594929.465    22594928.2634   22594933.4454
        44.800          32.6004
 129892683.761 7 101027683.562 6  24316179.819    24316180.501    24316190.200
        42.300          37.000
 25  1  1 20 16 45.0000000  0 33G09E05G17G08S31S35G07E33S48S33R19G30
                                E04E31G27E12R01E06R20R08R10E26R11G21
                                E24R21R09E09R02G13G14G02R12
 125079177.592 6  97464239.47045  23801825.112    23801824.5004   23801843.4754
        40.300          34.9004
 130730163.163 7                  24877124.295
        43.100
 122884603.146 7  95754370.61746  23384122.087    23384121.4534   23384134.9074
        43.000          37.4004
 112349821.844 7  87545455.33247  21379409.559    21379408.8134   21379412.9804
        47.600          47.0004
 198975006.359 7                  37863687.917
        45.400
 200893544.165 7                  38228776.729
        43.200
 106920237.239 8  83314516.91848  20346226.334    20346225.7224   20346226.5544
        50.100          51.3004
 138082722.061 7                  26276215.615
        42.400
 412948057.948 5                  78581352.048
        32.500
 202126198.441 7                  38463316.082
        44.700
 129413126.703 5 100654854.936 6  24192364.354    24192363.011    24192374.404
        32.600          36.300
 109812947.652 8  85568566.72048  20896700.144    20896699.2504   20896702.8944
        50.000          50.5004
 138083443.451 7                  26276433.680
        42.300
 123526088.705 7                  23506178.625
        47.800
 127996849.329 6  99737953.38545  24356939.779    24356939.0604   24356948.2104
        40.000          34.4004
 152255733.677 5                  28973296.799
        31.200
 116849172.815 7  90882717.520 6  21859056.542    21859056.266    21859066.164
        45.000          38.100
 131128486.160 7                  24952929.596
        45.700
 109173009.342 6  84912521.564 7  20415837.110    20415837.746    20415847.385
        39.200          47.200
 123548718.626 7  96093396.886 6  23071901.165    23071902.375    23071923.763
        42.000          41.200
 109680143.130 7                  20575669.659    20575669.056
        47.400
 139526177.003 6                  26550875.035
        40.900
 108694454.793 8  84540295.065 8  20340633.744    20340633.990    20340639.522
        51.900          48.200
 115150999.676 7  89728207.25844  21912449.361    21912448.0384   21912451.9904
        42.100          29.0004
 137348174.149 7                  26136428.693
        43.600
 113284995.711 8  88110756.119 7  21169955.099    21169955.398    21169966.534
        48.400          45.800
 124580727.760 7  96896177.785 6  23329972.945    23329972.894    23329987.381
        44.500          41.300
 129835283.916 7                  24706834.504
        46.700
 124277865.951 7  96660660.932 6  23289596.678    23289597.093    23289604.956
        44.700          39.400
 124488137.380 6  97003754.45943  23689303.113    23689302.5594   23689304.4914
        41.500          20.8004
 116123845.678 7  90486272.80045  22097572.324    22097571.9224   22097574.3154
        46.300          34.7004
 118703205.262 7  92496146.75745  22588415.220    22588414.0224   22588418.9174
        44.900          32.5004
 129848909.023 7 100993636.557 6  24307985.525    24307985.980    24307994.900
        43.500          38.000
 25  1  1 20 17  0.0000000  0 33G09E05G17G08S31S35G07E33S48S33R19G30
                                E04E31G27E12R01E06R20R08R10E26R11G21
                                E24R21R09E09R02G13G14G02R12
 125133630.857 6  97506670.23545  23812187.355    23812186.7074   23812205.8884
        41.300          34.3004
 130708547.371 7                  24873011.326
        43.100
 122833393.248 7  95714467.35646  23374375.756    23374375.1134   23374389.5474
        43.200          37.4004
 112389026.867 8  87576004.66947  21386870.277    21386869.5314   21386873.4804
        48.200          46.8004
 198974998.034 7                  37863691.762
        45.400
 200893527.006 7                  38228781.030
        43.600
 106923190.291 8  83316817.97948  20346788.324    20346787.7124   20346788.5484
        50.100          51.2004
 138046612.972 7                  26269344.294
        42.700
 412948611.705 5                  78581383.622
        33.100
 202126211.151 7                  38463324.838
        45.100
 129470030.882 5 100699113.819 6  24202998.515    24203000.509    24203012.354
        33.000          36.500
 109786405.101 8  85547884.20848  20891649.491    20891648.5974   20891652.0354
        50.200          50.3004
 138128299.408 7                  26284969.649
        42.400
 123526621.495 8                  23506279.943
        48.400
 128053131.544 6  99781809.54245  24367649.908    24367649.1984   24367658.5824
        39.800          34.3004
 152212677.209 5                  28965103.826
        30.300
 116871181.681 7  90899835.484 6  21863174.275    21863173.736    21863183.205
        44.400          38.200
 131162971.221 7                  24959492.255
        46.400
 109173992.041 6  84913285.876 7  20416021.621    20416021.628    20416031.236
        39.300          47.300
 123607885.491 7  96139415.017 7  23082951.354    23082951.442    23082974.024
        42.000          42.100
 109699655.512 8                  20579330.468    20579329.580
        48.000
 139520678.579 6                  26549828.357
        41.300
 108671792.068 8  84522668.468 8  20336393.084    20336393.286    20336398.506
        52.400          48.200
 115133256.874 7  89714381.76144  21909072.883    21909071.5734   21909075.6024
        42.700          28.7004
 137322612.062 7                  26131564.473
        43.800
 113230522.218 8  88068388.035 7  21159775.377    21159775.633    21159786.653
        48.600          45.500
 124621696.958 7  96928042.523 6  23337645.255    23337645.527    23337659.934
        44.100          41.700
 129854020.955 7                  24710399.899
        47.000
 124248747.493 7  96638013.282 6  23284139.899    23284139.746    23284148.132
        42.300          39.800
 124449811.273 6  96973889.95843  23682009.965    23682009.3664   23682011.7444
        40.200          20.6004
 116092572.352 7  90461903.98545  22091621.373    22091620.9764   22091623.2304
        46.300          34.6004
 118669060.360 7  92469540.47445  22581917.458    22581916.2654   22581921.1624
        45.600          32.3004
 129805119.195 7 100959577.848 6  24299788.367    24299788.646    24299796.824
        43.200          37.300
 25  1  1 20 17 15.0000000  0 33G09E05G17G08S31S35G07E33S48S33R19G30
                                E04E31G27E12R01E06R20R08R10E26R11G21
                                E24R21R09E09R02G13G14G02R12
 125188086.028 6  97549102.49245  23822549.970    23822549.2954   23822568.3374
        40.200          34.2004
 130687018.190 7                  24868914.150
        43.200
 122782230.128 7  95674600.54346  23364639.760    23364639.0994   23364652.9024
        42.400          37.2004
 112428315.550 8  87606619.19547  21394346.143    21394345.3884   21394349.9074
        48.300          46.7004
 198974983.949 7                  37863687.259
        45.700
 200893504.120 7                  38228775.432
        43.900
 106926250.266 8  83319202.35548  20347370.630    20347370.0184   20347370.8744
        50.400          51.1004
 138010549.685 7                  26262481.540
        42.600
 412949159.564 5                  78581417.602
        33.900
 202126218.620 7                  38463318.220
        44.900
 129527016.515 5 100743436.220 6  24213653.649    24213653.305    24213664.693
        32.100          36.800
 109759945.070 8  85527265.99248  20886614.167    20886613.2734   20886616.8634
        49.900          50.3004
 138173173.736 7                  26293509.018
        42.500
 123527180.522 8                  23506386.145
        48.500
 128109430.635 6  99825678.80545  24378364.195    24378363.4674   24378372.0894
        38.900          34.1004
 152169576.781 5                  28956902.391
        31.600
 116893355.946 7  90917082.097 6  21867321.969    21867321.578    21867331.735
        44.200          38.000
 131197517.038 7                  24966066.034
        46.400
 109175181.032 6  84914210.648 7  20416243.934    20416243.930    20416253.605
        39.300          47.500
 123667074.485 6  96185450.366 7  23094004.462    23094004.810    23094027.642
        41.400          42.000
 109719224.089 7                  20583001.174    20583000.616
        47.600
 139515281.266 6                  26548801.085
        41.000
 108649169.124 8  84505072.862 8  20332159.159    20332159.366    20332165.078
        52.000          48.000
 115115647.732 7  89700660.40444  21905721.713    21905720.3764   21905724.5814
        42.000          28.9004
 137297067.249 7                  26126703.431
        44.000
 113176156.013 8  88026103.395 7  21149615.802    21149616.263    21149626.590
        48.900          45.500
 124662693.159 7  96959928.242 6  23345322.049    23345322.659    23345337.683
        44.100          41.900
 129872850.520 7                  24713983.160
        47.300
 124219790.509 7  96615491.214 6  23278714.313    23278714.098    23278721.344
        44.900          39.000
 124411585.926 6  96944104.00443  23674736.746    23674736.1294   23674737.9264
        40.800          20.7004
 116061330.722 7  90437559.86445  22085676.100    22085675.6984   22085678.0514
        46.200          34.6004
 118634999.181 7  92442999.42645  22575435.260    22575434.0714   22575439.2814
        45.100          32.3004
 129761309.192 7 100925503.449 6  24291587.238    24291588.115    24291596.387
        44.100          37.700
 25  1  1 20 17 30.0000000  0 33G09E05G17G08S31S35G07E33S48S33R19G30
                                E04E31G27E12R01E06R20R08R10E26R11G21
                                E24R21R09E09R02G13G14G02R12
 125242552.889 6  97591543.83745  23832914.388    23832913.7094   23832933.3934
        40.100          34.1004
 130665585.976 7                  24864835.855
        42.500
 122731124.354 7  95634778.40546  23354914.466    23354913.8144   23354927.1234
        42.500          37.1004
 112467697.674 7  87637306.53447  21401840.584    21401839.8204   21401844.1464
        47.800          46.7004
 198974974.734 7                  37863681.643
        45.700
 200893486.040 7                  38228772.566
        43.800
 106929427.363 8  83321677.99448  20347975.005    20347974.3844   20347975.5004
        50.600          51.2004
 137974542.641 7                  26255629.844
        42.600
 412949711.078 5                  78581442.165
        33.600
 202126230.066 7                  38463332.412
        45.700
 129584093.360 5 100787829.564 6  24224324.108    24224323.227    24224335.586
        33.700          37.100
 109733578.021 8  85506720.23148  20881596.704    20881595.8194   20881599.3854
        50.000          50.3004
 138218076.348 7                  26302053.799
        42.300
 123527775.894 8                  23506499.667
        48.100
 128165756.490 6  99869568.92145  24389082.457    24389081.7334   24389090.6674
        40.300          34.3004
 152126442.739 5                  28948693.663
        30.500
 116915705.832 7  90934465.289 6  21871502.996    21871503.077    21871512.765
        44.700          38.200
 131232133.583 7                  24972653.422
        45.900
 109176586.484 6  84915303.775 7  20416506.318    20416506.884    20416516.367
        39.400          47.300
 123726295.199 6  96231510.376 6  23105063.399    23105063.722    23105086.931
        40.800          41.200
 109738859.074 7                  20586684.867    20586684.133
        47.900
 139509995.253 6                  26547795.526
        40.600
 108626596.472 8  84487516.359 7  20327935.558    20327935.570    20327940.812
        51.900          47.900
 115098182.678 7  89687051.33344  21902398.588    21902397.2654   21902401.1644
        42.700          29.0004
 137271549.860 7                  26121847.506
        43.800
 113121907.942 8  87983910.626 7  21139478.010    21139478.281    21139488.894
        49.100          45.500
 124703726.503 7  96991842.876 6  23353007.362    23353006.548    23353021.501
        43.700          41.800
 129891782.625 7                  24717585.792
        47.100
 124191005.471 7  96593102.906 6  23273319.404    23273319.470    23273326.448
        44.600          38.700
 124373471.997 6  96914404.85343  23667483.091    23667482.4654   23667485.2584
        41.500          21.0004
 116030130.978 7  90413248.38945  22079739.149    22079738.7474   22079740.9574
        46.300          34.7004
 118601032.226 7  92416531.79945  22568972.157    22568970.9684   22568975.4794
        45.600          32.4004
 129717489.538 7 100891421.527 6  24283383.586    24283384.660    24283393.527
        44.000          38.000
 25  1  1 20 17 45.0000000  0 33G09E05G17G08S31S35G07E33S48S33R19G30
                                E04E31G27E12R01E06R20R08R10E26R11G21
                                E24R21R09E09R02G13G14G02R12
 125297029.636 6  97633992.90145  23843281.829    23843281.1504   23843300.3624
        38.800          34.3004
 130644249.438 7                  24860775.540
        42.800
 122680074.658 7  95594999.95946  23345200.010    23345199.3714   23345212.2324
        42.800          37.8004
 112507171.442 8  87668065.28747  21409352.187    21409351.4234   21409355.8194
        48.200          47.0004
 198974968.374 7                  37863676.818
        45.200
 200893470.853 7                  38228774.269
        44.100
 106932720.284 8  83324243.88948  20348601.692    20348601.0664   20348602.1494
        50.400          51.5004
 137938590.639 7                  26248787.727
        42.700
 412948665.896 5                  78581465.931
        32.700
 202126245.128 7                  38463330.177
        45.100
 129641259.054 5 100832292.125 6  24235007.269    24235010.083    24235021.717
        33.000          37.600
 109707302.787 8  85486246.02148  20876596.655    20876595.7704   20876599.3784
        50.300          50.6004
 138263005.599 7                  26310603.640
        42.400
 123528406.124 8                  23506619.584
        48.100
 128222107.273 6  99913478.43145  24399805.378    24399804.6504   24399814.1904
        39.500          34.5004
 152083273.849 5                  28940478.417
        31.100
 116938229.337 7  90951983.533 6  21875716.588    21875715.806    21875726.017
        44.500          38.500
 131266819.192 7                  24979253.854
        45.900
 109178206.957 6  84916564.153 7  20416809.564    20416809.863    20416819.284
        38.900          47.100
 123785545.829 6  96277593.593 6  23116130.395    23116130.152    23116153.168
        41.300          41.900
 109758559.003 7                  20590380.315    20590379.603
        47.700
 139504819.193 6                  26546810.426
        41.200
 108604072.737 8  84469997.895 8  20323719.982    20323720.426    20323725.798
        51.700          48.000
 115080860.563 7  89673553.63444  21899101.960    21899100.6374   21899104.7514
        43.100          29.4004
 137246058.469 7                  26116996.524
        43.500
 113067777.150 8  87941809.066 7  21129362.112    21129362.523    21129373.359
        48.900          45.400
 124744795.947 7  97023785.551 7  23360698.421    23360698.392    23360713.362
        44.000          42.100
 129910815.737 7                  24721207.964
        47.200
 124162391.290 7  96570847.468 6  23267955.997    23267957.100    23267964.834
        44.800          39.400
 124335468.299 6  96884791.59043  23660251.436    23660250.7844   23660252.9724
        41.800          21.3004
 115998971.683 7  90388968.43145  22073809.781    22073809.3704   22073811.5684
        46.200          35.1004
 118567158.360 7  92390136.71745  22562525.437    22562524.2264   22562529.6314
        45.000          32.7004
 129673658.577 7 100857330.822 6  24275178.203    24275178.557    24275188.555
        43.000          39.000
 25  1  1 20 18  0.0000000  0 33G09E05G17G08S31S35G07E33S48S33R19G30
                                E04E31G27E12R01E06R20R08R10E26R11G21
                                E24R21R09E09R02G13G14G02R12
 125351510.026 6  97676444.80345  23853649.712    23853649.0424   23853668.2264
        39.600          34.3004
 130623002.796 7                  24856732.129
        43.200
 122629075.401 7  95555260.80346  23335494.389    23335493.7554   23335506.8794
        42.100          37.5004
 112546730.691 8  87698890.64847  21416880.371    21416879.6074   21416883.7374
        48.100          46.9004
 198974958.817 7                  37863679.040
        45.500
 200893452.986 7                  38228766.891
        44.000
 106936123.297 8  83326895.56448  20349249.381    20349248.7514   20349249.7514
        50.500          51.4004
 137902688.096 7                  26241955.782
        42.800
 412949217.015 5                  78581493.240
        33.200
 202126257.118 7                  38463329.408
        44.700
 129698507.271 5 100876818.761 6  24245714.773    24245712.066    24245722.744
        33.000          36.100
 109681113.699 8  85465838.93448  20871613.036    20871612.1514   20871615.7724
        50.400          50.5004
 138307955.330 7                  26319157.613
        42.500
 123529065.262 8                  23506745.030
        48.100
 128278476.853 6  99957402.56245  24410532.373    24410531.6544   24410541.1704
        39.100          34.2004
 152040064.485 4                  28932255.955
        29.900
 116960920.271 7  90969631.970 6  21879961.249    21879961.169    21879971.679
        44.800          38.600
 131301567.762 7                  24985866.365
        45.900
 109180036.507 6  84917987.128 7  20417151.361    20417151.741    20417161.475
        38.900          47.100
 123844819.845 6  96323695.042 6  23127198.594    23127198.777    23127221.748
        41.400          41.800
 109778318.292 7                  20594087.072    20594086.609
        47.700
 139499747.281 6                  26545844.756
        41.000
 108581591.983 8  84452512.836 8  20319513.596    20319513.265    20319518.815
        51.500          48.000
 115063675.760 7  89660162.93344  21895831.698    21895830.3704   21895834.6274
        42.400          29.3004
 137220587.073 7                  26112149.668
        43.700
 113013758.213 8  87899794.453 7  21119267.383    21119267.696    21119278.399
        49.100          45.500
 124785895.258 7  97055751.453 6  23368394.197    23368395.244    23368409.534
        44.300          41.500
 129929943.803 7                  24724847.764
        46.900
 124133942.354 7  96548720.523 6  23262625.430    23262625.947    23262633.242
        45.000          39.300
 124297569.304 6  96855259.93043  23653039.266    23653038.6184   23653041.0504
        41.000          21.4004
 115967846.975 7  90364715.42845  22067887.129    22067886.7234   22067888.7114
        46.500          34.9004
 118533372.073 7  92363809.89845  22556096.621    22556095.4324   22556100.0724
        44.800          32.5004
 129629810.603 7 100823226.859 6  24266969.687    24266970.393    24266979.086
        43.500          37.700
 25  1  1 20 18 15.0000000  0 33G09E05G17G08S31S35G07E33S48S33R19G30
                                E04E31G27E12R01E06R20R08R10E26R11G21
                                E24R21R09E09R02G13G14G02R12
 125405993.773 6  97718899.31845  23864017.397    23864016.7404   23864036.6084
        39.400          34.4004
 130601846.273 7                  24852706.663
        43.100
 122578126.887 7  95515561.19446  23325798.388    23325797.7494   23325811.2974
        42.900          37.9004
 112586375.095 7  87729782.36647  21424424.567    21424423.8034   21424427.8474
        47.700          47.0004
 198974947.006 7                  37863680.574
        45.600
 200893432.527 7                  38228767.772
        44.000
 106939636.504 8  83329633.11048  20349917.889    20349917.2634   20349918.3224
        50.100          51.6004
 137866835.290 7                  26235133.192
        42.900
 412949765.316 5                  78581515.450
        32.700
 202126265.917 7                  38463330.901
        44.700
 129755837.586 5 100921409.356 6  24256427.385    24256428.927    24256440.360
        32.600          37.600
 109655011.103 8  85445499.24748  20866645.955    20866645.0704   20866648.5964
        50.000          50.7004
 138352925.348 7                  26327715.128
        42.400
 123529753.363 8                  23506875.882
        48.300
 128334865.029 6 100001341.21545  24421263.150    24421262.4404   24421271.6064
        39.200          34.2004
 151996814.665 5                  28924025.608
        31.900
 116983778.201 7  90987410.323 6  21884237.586    21884236.948    21884246.698
        44.400          38.200
 131336379.145 7                  24992490.946
        46.200
 109182075.111 6  84919572.723 7  20417532.504    20417533.238    20417542.690
        39.000          47.200
 123904116.800 6  96369814.335 6  23138271.703    23138272.326    23138295.744
        41.200          41.600
 109798137.213 7                  20597805.101    20597804.705
        47.900
 139494779.587 6                  26544899.693
        41.200
 108559154.387 8  84435061.328 8  20315314.233    20315314.214    20315320.122
        51.500          48.100
 115046628.553 7  89646879.46344  21892587.449    21892586.1174   21892590.5994
        42.800          29.6004
 137195135.802 7                  26107306.145
        44.300
 112959851.581 8  87857867.225 7  21109193.132    21109193.471    21109204.508
        48.100          45.400
 124827024.673 7  97087740.795 6  23376096.725    23376097.010    23376111.582
        43.400          41.700
 129949166.763 7                  24728505.989
        47.100
 124105658.806 7  96526722.271 6  23257324.135    23257324.780    23257333.010
        43.600          39.300
 124259775.516 6  96825810.24543  23645847.335    23645846.6784   23645849.3304
        41.200          21.9004
 115936756.925 7  90340489.43345  22061970.696    22061970.2904   22061972.4914
        46.200          35.2004
 118499673.808 7  92337551.69045  22549683.639    22549682.4554   22549687.2654
        44.800          32.8004
 129585945.357 7 100789109.492 6  24258758.147    24258758.048    24258768.507
        42.300          38.400
 25  1  1 20 18 30.0000000  0 33G09E05G17G08S31S35G07E33S48S33R19G30
                                E04E31G27E12R01E06R20R08R10E26R11G21
                                E24R21R09E09R02G13G14G02R12
 125460484.493 6  97761359.26445  23874387.065    23874386.4174   23874406.3464
        40.100          34.2004
 130580784.006 7                  24848698.340
        43.300
 122527233.424 7  95475904.46846  23316113.501    23316112.8674   23316126.1384
        42.600          37.9004
 112626108.312 8  87760743.29147  21431985.477    21431984.7314   21431988.8784
        48.300          46.9004
 198974936.562 7                  37863679.801
        45.600
 200893412.702 7                  38228759.160
        44.000
 106943264.127 8  83332459.80848  20350608.324    20350607.6944   20350608.6734
        50.100          51.6004
 137831036.531 7                  26228320.742
        42.500
 412950314.268 5                  78581541.229
        32.300
 202126276.462 7                  38463331.120
        44.800
 129813253.564 5 100966066.484 6  24267160.859    24267161.344    24267172.353
        32.200          36.700
 109628999.253 8  85425230.26848  20861695.828    20861694.9394   20861698.7114
        50.100          50.7004
 138397919.477 6                  26336277.747
        41.900
 123530474.373 8                  23507013.236
        48.100
 128391275.514 6 100045297.26045  24431998.095    24431997.3804   24432006.4604
        40.200          34.9004
 151953528.903 5                  28915788.494
        31.400
 117006807.065 7  91005321.597 6  21888545.737    21888545.137    21888555.254
        44.300          38.300
 131371257.126 7                  24999128.227
        45.700
 109184326.853 6  84921324.066 7  20417953.801    20417953.982    20417963.630
        39.000          47.100
 123963440.027 6  96415954.012 6  23149350.536    23149351.361    23149373.804
        41.100          41.100
 109818019.325 8                  20601535.487    20601534.687
        48.100
 139489920.287 6                  26543974.910
        40.900
 108536764.321 8  84417646.823 8  20311124.245    20311124.827    20311129.868
        52.300          48.100
 115029723.171 7  89633706.49644  21889370.609    21889369.2724   21889373.6824
        43.000          29.8004
 137169708.578 7                  26102467.783
        43.900
 112906062.144 8  87816031.088 7  21099141.604    21099142.041    21099152.909
        49.200          45.700
 124868188.035 7  97119756.486 6  23383805.682    23383806.020    23383821.406
        43.700          41.900
 129968488.481 7                  24732182.880
        47.000
 124077545.083 7  96504856.088 6  23252056.601    23252056.802    23252064.764
        45.200          39.500
 124222091.147 6  96796445.80943  23638676.466    23638675.8274   23638677.7474
        40.500          21.7004
 115905705.573 7  90316293.59345  22056061.891    22056061.4854   22056063.6714
        47.100          35.3004
 118466067.910 7  92311365.47345  22543288.538    22543287.3714   22543292.0714
        44.800          32.7004
 129542067.072 7 100754981.996 6  24250543.775    24250543.735    24250553.935
        43.000          39.100
 25  1  1 20 18 45.0000000  0 33G09E05G17G08S31S35G07E33S48S33R19G30
                                E04E31G27E12R01E06R20R08R10E26R11G21
                                E24R21R09E09R02G13G14G02R12
 125514981.117 6  97803823.82745  23884757.443    23884756.7774   23884776.7414
        40.100          34.6004
 130559815.376 7                  24844708.115
        42.800
 122476394.428 7  95436290.19246  23306438.773    23306438.1394   23306451.0004
        42.400          37.6004
 112665929.258 8  87791772.57847  21439562.589    21439561.8294   21439566.6284
        48.300          47.0004
 198974926.169 7                  37863675.311
        45.700
 200893393.696 7                  38228755.685
        44.000
 106947005.461 8  83335375.11148  20351320.216    20351319.5904   20351320.6724
        50.100          51.5004
 137795291.297 7                  26221518.570
        43.100
 412949262.650 5                  78581569.190
        32.800
 202126287.118 7                  38463334.577
        45.000
 129870753.538 5 101010788.946 6  24277910.705    24277910.910    24277921.427
        33.000          36.100
 109603077.637 8  85405031.59848  20856763.391    20856762.5114   20856765.9844
        49.900          50.6004
 138442936.673 7                  26344844.378
        42.400
 123531227.448 8                  23507156.468
        48.200
 128447707.138 6 100089269.73445  24442736.570    24442735.8554   24442745.2274
        39.500          34.3004
 151910206.475 5                  28907543.817
        30.800
 117030005.545 7  91023364.836 6  21892885.091    21892885.030    21892894.584
        44.300          38.100
 131406200.720 7                  25005777.426
        46.000
 109186790.800 6  84923240.493 7  20418414.291    20418415.203    20418424.520
        39.100          47.200
 124022788.326 6  96462113.273 6  23160434.033    23160434.519    23160458.152
        41.200          41.600
 109837964.157 7                  20605276.846    20605276.219
        47.700
 139485168.594 6                  26543070.944
        40.800
 108514420.908 8  84400268.613 8  20306942.938    20306943.180    20306948.892
        51.800          48.100
 115012959.075 7  89620643.63544  21886180.671    21886179.3394   21886183.3724
        43.000          29.7004
 137144304.625 7                  26097633.710
        43.600
 112852389.566 8  87774285.858 7  21089111.836    21089112.000    21089122.304
        48.900          45.600
 124909384.662 7  97151798.084 7  23391521.260    23391521.000    23391536.739
        44.000          42.100
 129987908.069 7                  24735878.000
        47.200
 124049600.736 7  96483121.619 6  23246819.156    23246819.374    23246827.550
        45.200          39.200
 124184515.591 6  96767166.19243  23631526.438    23631525.7904   23631527.4974
        41.600          21.8004
 115874692.170 7  90292127.32345  22050159.752    22050159.3414   22050161.9974
        46.900          35.3004
 118432554.001 7  92285250.93345  22536910.990    22536909.8324   22536914.3974
        45.300          32.7004
 129498174.903 7 100720843.695 6  24242327.456    24242327.902    24242336.014
        43.600          37.300
 25  1  1 20 19  0.0000000  0 33G09E05G17G08S31S35G07E33S48S33R19G30
                                E04E31G27E12R01E06R20R08R10E26R11G21
                                E24R21R09E09R02G13G14G02R12
 125569484.322 6  97846293.50845  23895129.494    23895128.8374   23895148.8034
        39.800          34.5004
 130538941.580 7                  24840736.638
        42.700
 122425611.308 7  95396719.44846  23296774.689    23296774.0504   23296786.8274
        42.400          38.0004
 112705838.671 7  87822870.80347  21447157.343    21447156.5794   21447161.1524
        47.800          47.1004
 198974917.200 7                  37863671.966
        45.600
 200893376.760 7                  38228747.663
        43.800
 106950861.651 8  83338379.91448  20352054.166    20352053.5364   20352054.5194
        50.000          51.6004
 137759600.921 7                  26214726.663
        42.000
 412949812.342 5                  78581594.973
        31.900
 202126299.512 7                  38463336.133
        44.800
 129928338.251 5 101055577.207 6  24288675.910    24288676.467    24288685.463
        33.400          36.400
 109577247.580 8  85384904.28248  20851848.139    20851847.2634   20851850.6824
        50.100          50.8004
 138487977.785 7                  26353415.344
        42.400
 123532013.611 8                  23507306.276
        48.100
 128504160.758 6 100133259.37945  24453479.372    24453478.6664   24453488.1674
        39.000          34.4004
 151866848.786 5                  28899293.418
        31.100
 117053374.464 7  91041540.596 6  21897257.120    21897256.685    21897266.708
        44.300          38.100
 131441210.751 7                  25012439.775
        45.600
 109189467.896 6  84925322.645 7  20418915.717    20418915.971    20418925.302
        39.600          47.200
 124082162.092 6  96508292.315 6  23171523.358    23171523.029    23171545.840
        41.000          41.200
 109857972.793 7                  20609029.876    20609029.708
        47.600
 139480525.644 6                  26542186.912
        40.900
 108492125.496 8  84382927.730 8  20302770.666    20302770.946    20302776.604
        51.700          48.000
 114996337.627 7  89607691.92444  21883017.751    21883016.4234   21883020.3394
        43.000          29.8004
 137118924.916 7                  26092804.110
        43.900
 112798835.453 8  87732632.782 7  21079103.389    21079103.793    21079114.522
        49.000          45.700
 124950615.785 7  97183866.477 6  23399242.261    23399243.067    23399256.338
        44.700          40.700
 130007426.432 7                  24739592.251
        46.600
 124021827.134 7  96461519.941 6  23241614.410    23241615.349    23241623.091
        45.300          39.800
 124147050.213 6  96737972.39343  23624396.236    23624395.5794   23624397.4954
        41.900          22.5004
 115843717.799 7  90267991.47445  22044265.678    22044265.2584   22044267.7544
        46.400          35.5004
 118399133.340 7  92259209.04445  22530550.912    22530549.7454   22530554.4804
        44.900          32.9004
 129454270.089 7 100686695.527 6  24234107.802    24234108.461    24234117.324
        43.400          37.800
 25  1  1 20 19 15.0000000  0 33G09E05G17G08S31S35G07E33S48S33R19G30
                                E04E31G27E12R01E06R20R08R10E26R11G21
                                E24R21R09E09R02G13G14G02R12
 125623993.392 6  97888767.76645  23905502.244    23905501.6014   23905521.7784
        40.100          34.1004
 130518162.471 7                  24836782.036
        43.000
 122374883.823 7  95357192.05246  23287121.171    23287120.5234   23287133.0904
        42.500          37.7004
 112745835.863 8  87854037.42147  21454768.695    21454767.9314   21454772.3364
        48.000          46.9004
 198974909.806 7                  37863672.919
        45.900
 200893360.218 7                  38228750.172
        44.000
 106954832.570 8  83341474.11548  20352809.696    20352809.0664   20352810.1744
        50.500          51.4004
 137723965.347 7                  26207945.485
        42.900
 412950363.052 5                  78581627.308
        32.700
 202126312.824 7                  38463342.626
        45.100
 129986006.889 5 101100430.853 6  24299454.641    24299454.995    24299467.287
        32.800          37.200
 109551509.050 8  85364848.28648  20846950.064    20846949.1844   20846952.7934
        50.300          50.6004
 138533042.251 7                  26361990.958
        42.100
 123532832.539 8                  23507461.859
        48.000
 128560635.802 6 100177265.74645  24464226.790    24464226.0934   24464234.9914
        39.600          34.5004
 151823455.619 5                  28891035.642
        31.300
 117076913.073 7  91059848.347 6  21901660.561    21901660.313    21901670.067
        44.300          38.300
 131476286.710 7                  25019114.526
        45.400
 109192358.118 6  84927570.616 7  20419456.133    20419455.911    20419465.657
        39.500          47.000
 124141560.576 6  96554490.557 6  23182614.437    23182615.327    23182638.312
        41.700          40.900
 109878045.025 7                  20612795.746    20612795.288
        47.800
 139475991.222 6                  26541324.213
        41.000
 108469877.903 8  84365624.057 7  20298607.270    20298607.597    20298613.126
        51.600          47.900
 114979858.605 7  89594851.17844  21879881.227    21879879.8864   21879884.3184
        43.400          29.9004
 137093569.232 7                  26087978.487
        44.000
 112745400.008 8  87691071.980 7  21069118.161    21069118.038    21069128.539
        49.200          45.600
 124991880.784 7  97215961.245 7  23406969.921    23406971.059    23406984.903
        43.900          42.000
 130027043.157 7                  24743325.287
        47.000
 123994224.153 7  96440050.988 6  23236441.906    23236442.415    23236450.430
        44.800          40.000
 124109694.998 7  96708864.45943  23617288.313    23617287.6474   23617289.2474
        42.100          22.0004
 115812782.138 7  90243885.78445  22038379.280    22038378.8564   22038380.8854
        46.600          35.3004
 118365806.004 7  92233239.86445  22524208.954    22524207.7874   22524212.1724
        45.800          32.7004
 129410352.180 7 100652537.182 6  24225887.103    24225886.627    24225895.588
        42.900          37.900
 25  1  1 20 19 30.0000000  0 33G09E05G17G08S31S35G07E33S48S33R19G30
                                E04E31G27E12R01E06R20R08R10E26R11G21
                                E24R21R09E09R02G13G14G02R12
 125678508.093 6  97931246.43645  23915876.969    23915876.3264   23915895.8224
        38.600          34.0004
 130497478.235 7                  24832846.003
        42.700
 122324212.392 7  95317708.34146  23277478.680    23277478.0324   23277490.1974
        42.900          37.9004
 112785920.595 8  87885272.25147  21462396.546    21462395.7864   21462400.2454
        48.100          46.9004
 198974903.690 7                  37863671.591
        45.800
 200893345.619 7                  38228747.279
        43.800
 106958918.426 8  83344657.88048  20353587.258    20353586.6244   20353587.7264
        50.100          51.5004
 137688384.926 7                  26201174.582
        42.300
 412950915.151 5                  78581654.647
        32.800
 202126327.444 7                  38463351.377
        45.100
 130043759.634 5 101145349.857 6  24310250.757    24310251.938    24310262.415
        33.100          36.800
 109525862.353 8  85344863.84548  20842069.734    20842068.8674   20842072.3884
        50.200          50.7004
 138578129.951 7                  26370571.172
        42.200
 123533684.228 7                  23507624.018
        47.800
 128617132.014 6 100221288.66145  24474977.999    24474977.3204   24474985.9664
        40.100          34.7004
 151780027.286 5                  28882770.776
        30.800
 117100621.012 7  91078287.797 6  21906095.150    21906095.398    21906105.331
        44.300          38.500
 131511428.464 7                  25025802.019
        45.100
 109195461.196 6  84929984.117 7  20420036.622    20420036.327    20420045.846
        39.000          47.100
 124200983.186 6  96600707.523 6  23193711.921    23193712.683    23193735.699
        41.700          40.400
 109898181.107 8                  20616573.002    20616572.723
        48.100
 139471565.468 6                  26540482.212
        41.000
 108447678.268 8  84348357.663 8  20294453.329    20294453.228    20294458.693
        51.900          48.100
 114963522.441 7  89582121.74745  21876772.815    21876771.4744   21876775.7944
        43.200          30.0004
 137068237.537 7                  26083158.324
        43.700
 112692083.844 8  87649603.957 7  21059154.385    21059154.941    21059165.621
        49.800          45.800
 125033180.227 7  97248082.802 6  23414704.738    23414704.878    23414720.099
        43.400          41.800
 130046758.158 7                  24747076.992
        46.500
 123966792.296 7  96418715.095 6  23231301.810    23231301.820    23231308.825
        44.600          39.400
 124072450.377 7  96679842.69443  23610200.673    23610199.9984   23610201.9764
        42.100          22.7004
 115781885.319 7  90219810.35145  22032499.599    22032499.1934   22032501.4494
        46.700          35.4004
 118332572.400 7  92207343.71645  22517884.304    22517883.1374   22517887.8274
        45.100          32.8004
 129366421.344 7 100618368.794 6  24217662.363    24217662.634    24217671.876
        42.600          37.600
 25  1  1 20 19 45.0000000  0 33G09E05G17G08S31S35G07E33S48S33R19G30
                                E04E31G27E12R01E06R20R08R10E26R11G21
                                E24R21R09E09R02G13G14G02R12
 125733025.177 6  97973726.94645  23926251.405    23926250.7844   23926270.7514
        38.900          34.0004
 130476886.123 7                  24828927.643
        42.600
 122273594.284 7  95278266.16046  23267845.848    23267845.2004   23267857.4814
        42.800          37.9004
 112826089.612 7  87916572.75647  21470040.518    21470039.7544   21470044.2474
        47.800          46.7004
 198974895.158 7                  37863670.258
        45.600
 200893329.334 7                  38228747.109
        44.200
 106963116.336 8  83347928.94748  20354386.022    20354385.3924   20354386.5954
        49.900          51.2004
 137652857.046 7                  26194413.651
        42.300
 412949865.813 5                  78581687.626
        32.700
 202126340.657 7                  38463348.756
        44.700
 130101591.977 5 101190330.699 5  24321061.917    24321062.895    24321073.242
        32.700          35.200
 109500304.840 8  85324948.89648  20837206.447    20837205.5764   20837208.9624
        50.100          50.4004
 138623237.669 7                  26379154.904
        42.100
 123534565.738 7                  23507791.854
        47.800
 128673646.134 6 100265325.52545  24485731.633    24485730.9494   24485740.3934
        39.700          34.3004
 151736561.105 4                  28874500.103
        29.600
 117124495.189 7  91096856.566 6  21910562.293    21910561.578    21910571.378
        44.900          38.100
 131546632.874 7                  25032501.037
        45.100
 109198774.532 6  84932561.181 7  20420655.489    20420655.755    20420665.416
        39.400          47.100
 124260426.473 6  96646940.581 6  23204813.403    23204813.611    23204836.918
        41.500          40.700
 109918378.042 7                  20620362.297    20620361.953
        47.800
 139467245.499 6                  26539660.052
        40.600
 108425523.758 8  84331126.387 7  20290307.225    20290307.318    20290312.985
        51.800          47.900
 114947326.419 7  89569501.51044  21873690.888    21873689.5474   21873693.7594
        43.200          29.7004
 137042926.880 7                  26078341.621
        43.700
 112638884.701 8  87608226.970 7  21049212.769    21049213.254    21049223.813
        49.800          45.700
 125074510.578 7  97280228.370 6  23422444.311    23422444.595    23422459.315
        43.300          41.500
 130066568.396 7                  24750846.950
        46.700
 123939528.709 7  96397510.122 6  23226192.880    23226191.963    23226199.741
        44.600          40.000
 124035313.784 6  96650905.09243  23603133.731    23603133.1014   23603134.6794
        41.600          22.3004
 115751024.422 7  90195762.92245  22026626.837    22026626.4224   22026628.7864
        46.400          35.2004
 118299430.085 7  92181518.69845  22511577.820    22511576.6624   22511581.0464
        44.500          32.6004
 129322474.484 7 100584187.908 6  24209435.980    24209436.561    24209444.967
        44.000          38.100
 25  1  1 20 20  0.0000000  0 33G09E05G17G08S31S35G07E33S48S33R19G30
                                E04E31G27E12R01E06R20R08R10E26R11G21
                                E24R21R09E09R02G13G14G02R12
 125787541.498 6  98016206.87045  23936625.833    23936625.2034   23936645.0494
        39.400          34.0004
 130456383.534 7                  24825026.109
        42.400
 122223027.087 7  95238863.65146  23258222.363    23258221.7154   23258234.5904
        42.400          37.9004
 112866339.851 7  87947936.54847  21477699.772    21477699.0264   21477703.6354
        47.600          46.9004
 198974883.277 7                  37863665.353
        45.700
 200893308.521 7                  38228734.932
        43.500
 106967423.724 8  83351285.34248  20355205.797    20355205.1634   20355206.2884
        49.800          51.5004
 137617379.169 7                  26187662.796
        42.100
 412950411.143 5                  78581707.931
        32.500
 202126349.563 7                  38463345.684
        44.700
 130159501.120 5 101235371.339 6  24331887.208    24331887.531    24331899.040
        32.300          36.700
 109474834.038 8  85305101.50948  20832359.254    20832358.3784   20832362.0234
        50.200          50.7004
 138668362.484 6                  26387742.125
        41.500
 123535474.273 7                  23507964.612
        47.700
 128730175.164 6 100309374.02645  24496488.790    24496488.0974   24496497.6364
        39.500          34.5004
 151693054.508 5                  28866221.469
        30.900
 117148532.104 7  91115551.877 6  21915057.356    21915057.441    21915067.795
        43.500          37.600
 131581896.965 7                  25039211.674
        45.200
 109202294.819 6  84935299.171 7  20421313.589    20421314.568    20421323.876
        39.400          47.000
 124319887.100 7  96693187.147 6  23215917.772    23215917.969    23215942.183
        42.000          41.300
 109938633.017 8                  20624162.025    20624161.455
        48.200
 139463028.666 6                  26538857.567
        40.900
 108403411.826 8  84313928.249 8  20286169.286    20286169.538    20286174.985
        52.100          48.100
 114931268.166 7  89556988.63545  21870634.927    21870633.5824   21870637.8614
        43.400          30.0004
 137017634.571 7                  26073529.190
        43.800
 112585800.055 8  87566939.023 7  21039292.622    21039293.004    21039303.322
        49.600          45.700
 125115869.300 7  97312395.994 6  23430190.033    23430190.975    23430205.503
        44.900          41.300
 130086470.989 7                  24754634.265
        46.300
 123912431.079 7  96376434.187 6  23221113.830    23221113.720    23221122.290
        44.800          39.800
 123998282.839 6  96622049.81843  23596087.126    23596086.4874   23596088.0824
        40.800          21.9004
 115720196.743 7  90171741.36445  22020760.355    22020759.9314   22020762.4654
        46.800          35.5004
 118266376.593 7  92155762.88945  22505287.621    22505286.4684   22505291.0654
        45.400          32.9004
 129278509.082 7 100549992.636 6  24201205.630    24201205.757    24201214.906
        42.700          38.700
 25  1  1 20 20 15.0000000  0 33G09E05G17G08S31S35G07E33S48S33R19G30
                                E04E31G27E12R01E06R20R08R10E26R11G21
                                E24R21R09E09R02G13G14G02R12
 125842068.933 6  98058695.46145  23947001.282    23947000.6484   23947021.5484
        39.200          33.8004
 130435982.839 7                  24821144.063
        43.000
 122172523.197 7  95199510.47846  23248611.929    23248611.2814   23248623.3204
        43.800          38.0004
 112906683.179 7  87979372.87847  21485377.207    21485376.4654   21485380.7054
        47.400          46.9004
 198974879.100 7                  37863669.167
        45.500
 200893295.474 7                  38228732.469
        43.900
 106971852.999 8  83354736.70648  20356048.826    20356048.2004   20356049.1764
        49.900          51.4004
 137581963.805 7                  26180923.261
        42.300
 412950964.072 5                  78581737.028
        32.900
 202126365.692 7                  38463350.460
        44.800
 130217499.180 5 101280481.135 5  24342728.918    24342730.232    24342739.479
        32.200          34.600
 109449462.426 8  85285331.41048  20827531.319    20827530.4434   20827533.9854
        50.300          50.7004
 138713516.365 7                  26396334.809
        42.000
 123536422.060 8                  23508145.163
        48.000
 128786730.928 6 100353443.36445  24507252.210    24507251.5174   24507259.6564
        39.900          34.5004
 151649519.881 5                  28857936.282
        30.100
 117172743.961 7  91134383.256 6  21919588.829    21919588.049    21919598.309
        45.300          38.200
 131617232.756 7                  25045935.976
        45.400
 109206034.684 6  84938207.951 7  20422014.051    20422013.406    20422023.149
        39.200          47.200
 124379377.131 6  96739456.596 6  23227027.259    23227027.362    23227051.594
        40.800          41.000
 109958958.717 8                  20627974.935    20627975.034
        48.200
 139458927.252 6                  26538076.970
        40.900
 108381354.880 8  84296772.841 8  20282041.679    20282041.712    20282047.284
        51.900          48.100
 114915360.085 7  89544592.78445  21867608.109    21867606.7644   21867610.5284
        42.900          30.3004
 136992372.744 7                  26068721.764
        43.900
 112532843.190 8  87525750.429 7  21029395.929    21029396.642    21029406.875
        49.800          45.400
 125157268.984 7  97344595.491 6  23437943.020    23437943.641    23437957.937
        43.900          41.500
 130106478.037 7                  24758441.381
        46.600
 123885511.957 7  96355497.100 6  23216069.943    23216069.461    23216076.157
        45.000          39.400
 123961370.016 6  96593286.60043  23589063.501    23589062.8714   23589063.8834
        40.700          22.4004
 115689414.522 7  90147755.23245  22014902.789    22014902.3654   22014904.8274
        46.300          35.6004
 118233424.512 7  92130086.10045  22499017.095    22499015.9244   22499020.2894
        45.000          32.9004
 129234537.412 7 100515792.484 6  24192974.825    24192974.998    24192983.337
        43.000          38.700
 25  1  1 20 20 30.0000000  0 33G09E05G17G08S31S35G07E33S48S33R19G30
                                E04E31G27E12R01E06R20R08R10E26R11G21
                                E24R21R09E09R02G13G14G02R12
 125896595.032 6  98101183.00445  23957377.631    23957376.9834   23957397.6974
        40.200          34.2004
 130415672.076 7                  24817278.969
        42.900
 122122070.945 7  95160197.52046  23239010.409    23239009.7664   23239021.9604
        42.300          37.9004
 112947107.186 7  88010872.07947  21493069.451    21493068.7234   21493073.1884
        47.900          46.8004
 198974870.010 7                  37863664.096
        45.800
 200893278.889 7                  38228725.117
        43.300
 106976392.161 8  83358273.69148  20356912.562    20356911.9364   20356912.9994
        49.700          51.5004
 137546599.107 7                  26174193.240
        42.400
 412951513.375 5                  78581768.338
        33.100
 202126377.701 7                  38463353.908
        45.000
 130275573.120 5 101325649.939 5  24353586.577    24353585.677    24353596.681
        32.500          35.700
 109424178.149 8  85265629.36048  20822719.829    20822718.9444   20822722.5514
        50.400          50.7004
 138758686.958 6                  26404930.404
        41.900
 123537396.919 8                  23508330.567
        48.200
 128843301.100 6 100397523.92945  24518016.492    24518015.7774   24518024.9354
        39.800          35.0004
 151605945.449 5                  28849644.168
        30.900
 117197118.109 7  91153340.864 6  21924148.050    21924147.432    21924157.361
        44.800          37.800
 131652627.951 7                  25052671.376
        45.200
 109209981.965 6  84941278.046 7  20422752.069    20422751.868    20422761.284
        39.100          47.000
 124438883.385 6  96785738.633 6  23238140.163    23238140.301    23238164.175
        41.300          40.200
 109979342.742 8                  20631799.315    20631798.723
        48.200
 139454929.223 6                  26537316.359
        40.900
 108359340.874 8  84279650.825 8  20277921.773    20277921.845    20277927.681
        51.500          48.200
 114899590.255 7  89532304.66545  21864606.773    21864605.4364   21864609.6494
        43.100          30.3004
 136967129.279 7                  26063918.395
        44.000
 112480002.171 8  87484651.974 7  21019521.665    21019522.208    21019532.343
        49.500          45.700
 125198697.049 7  97376817.061 6  23445701.350    23445701.339    23445716.627
        44.000          41.300
 130126577.287 7                  24762266.439
        46.600
 123858759.446 7  96334689.607 6  23211054.441    23211055.355    23211063.759
        44.700          40.100
 123924563.491 7  96564606.21243  23582059.067    23582058.4374   23582060.1104
        42.300          23.0004
 115658665.677 7  90123795.10545  22009051.845    22009051.4304   22009053.5124
        46.700          35.8004
 118200562.088 7  92104479.17045  22492763.469    22492762.2894   22492766.4034
        45.500          33.0004
 129190547.272 7 100481577.945 6  24184739.030    24184739.548    24184747.422
        43.500          37.900
 25  1  1 20 20 45.0000000  0 33G09E05G17G08S31S35G07E33S48S33R19G30
                                E04E31G27E12R01E06R20R08R10E26R11G21
                                E24R21R09E09R02G13G14G02R12
 125951121.382 6  98143670.73845  23967754.192    23967753.5314   23967774.2504
        39.700          34.1004
 130395453.367 7                  24813431.467
        43.000
 122071672.358 7  95120926.37246  23229419.671    23229419.0284   23229430.8664
        43.000          38.0004
 112987613.469 7  88042435.38847  21500777.364    21500776.6314   21500781.3084
        47.600          46.9004
 198974859.212 7                  37863667.003
        45.700
 200893259.108 7                  38228727.107
        43.700
 106981043.121 8  83361897.79348  20357797.638    20357797.0124   20357798.0814
        50.000          51.5004
 137511287.282 7                  26167473.780
        42.500
 412950459.532 5                  78581795.745
        33.200
 202126387.800 7                  38463356.206
        45.000
 130333724.502 5 101370878.968 5  24364457.262    24364456.880    24364466.999
        32.400          35.900
 109398983.425 8  85245997.08448  20817925.419    20817924.5344   20817928.1494
        50.100          50.7004
 138803876.000 7                  26413529.642
        42.000
 123538400.765 8                  23508521.594
        48.200
 128899887.252 6 100441616.93945  24528784.498    24528783.7654   24528793.1304
        39.700          34.4004
 151562333.307 5                  28841344.865
        30.900
 117221656.229 7  91172426.027 6  21928737.707    21928737.548    21928748.072
        44.300          37.900
 131688084.242 7                  25059418.649
        45.500
 109214138.457 6  84944510.904 7  20423528.421    20423529.166    20423538.550
        39.100          47.000
 124498407.413 6  96832034.602 6  23249255.258    23249256.330    23249281.201
        41.100          40.900
 109999787.352 8                  20635634.913    20635634.284
        48.600
 139451036.536 6                  26536575.461
        41.200
 108337371.816 8  84262563.820 8  20273810.940    20273810.876    20273816.534
        52.200          48.200
 114883960.724 7  89520125.87145  21861632.755    21861631.4274   21861635.4214
        43.100          30.4004
 136941906.107 7                  26059118.317
        44.400
 112427279.541 8  87443645.582 7  21009669.068    21009669.381    21009679.176
        49.400          45.400
 125240155.758 7  97409062.459 6  23453465.781    23453466.530    23453480.638
        44.000          41.400
 130146770.550 7                  24766108.841
        46.800
 123832175.683 7  96314013.356 6  23206074.077    23206074.039    23206082.282
        45.500          40.200
 123887865.358 6  96536010.28143  23575075.261    23575074.6444   23575076.9654
        41.500          23.2004
 115627952.216 7  90099862.54045  22003207.006    22003206.5864   22003208.9224
        46.400          35.8004
 118167791.607 7  92078943.87845  22486527.292    22486526.1214   22486530.1084
        45.100          33.0004
 129146540.489 7 100447350.508 6  24176500.700    24176501.174    24176509.719
        43.000          38.300
 25  1  1 20 21  0.0000000  0 33G09E05G17G08S31S35G07E33S48S33R19G30
                                E04E31G27E12R01E06R20R08R10E26R11G21
                                E24R21R09E09R02G13G14G02R12
 126005648.077 6  98186158.76745  23978130.584    23978129.9184   23978150.2744
        40.000          33.6004
 130375327.243 7                  24809601.560
        42.900
 122021328.125 7  95081697.57346  23219839.196    23219838.5704   23219850.2944
        42.800          38.0004
 113028202.156 7  88074062.92447  21508501.348    21508500.6064   21508505.0974
        47.800          46.7004
 198974846.755 7                  37863660.850
        45.900
 200893237.735 7                  38228727.782
        44.300
 106985806.442 8  83365609.45048  20358703.946    20358703.3204   20358704.5514
        49.900          51.3004
 137476029.103 7                  26160764.384
        42.800
 412951003.512 5                  78581814.020
        33.100
 202126395.930 7                  38463350.916
        44.900
 130391953.198 5 101416168.141 5  24375342.283    24375342.205    24375352.046
        32.200          34.500
 109373878.959 8  85226435.14748  20813148.447    20813147.5674   20813150.9494
        50.100          50.6004
 138849083.674 7                  26422132.782
        42.300
 123539433.986 8                  23508718.178
        48.200
 128956489.534 6 100485722.50845  24539555.730    24539554.9974   24539564.0974
        40.000          34.3004
 151518684.203 4                  28833039.036
        29.500
 117246358.134 7  91191638.569 6  21933359.420    21933359.283    21933368.340
        45.000          37.700
 131723601.870 7                  25066177.388
        45.000
 109218504.851 6  84947906.969 7  20424345.743    20424345.827    20424355.019
        38.800          46.900
 124557949.234 6  96878344.295 6  23260376.857    23260376.043    23260400.602
        41.100          41.100
 110020292.693 8                  20639481.043    20639480.876
        48.200
 139447249.775 6                  26535854.707
        41.100
 108315448.363 8  84245512.269 8  20269708.231    20269708.163    20269713.861
        52.100          48.200
 114868472.251 7  89508056.99545  21858685.332    21858684.0094   21858687.9964
        43.300          30.2004
 136916703.612 7                  26054322.026
        44.200
 112374676.425 8  87402732.152 7  20999838.818    20999839.333    20999849.360
        49.800          45.600
 125281645.498 7  97441332.016 6  23461234.621    23461235.129    23461250.954
        44.400          41.600
 130167058.118 7                  24769969.285
        46.900
 123805761.468 7  96293468.982 6  23201124.270    23201123.850    23201131.445
        44.300          40.500
 123851276.478 7  96507499.47643  23568112.622    23568112.0104   23568114.1394
        42.200          23.0004
 115597274.529 7  90075957.86445  21997369.381    21997368.9614   21997371.1924
        46.700          35.6004
 118135113.993 7  92053480.96545  22480309.227    22480308.0604   22480311.6824
        45.300          32.9004
 129102517.786 7 100413110.654 6  24168259.511    24168259.562    24168268.201
        43.500          38.000
 25  1  1 20 21 15.0000000  0 33G09E05G17G08S31S35G07E33S48S33R19G30
                                E04E31G27E12R01E06R20R08R10E26R11G21
                                E24R21R09E09R02G13G14G02R12
 126060181.126 6  98228651.72345  23988508.062    23988507.3924   23988528.3914
        40.100          34.0004
 130355300.234 7                  24805790.341
        42.800
 121971044.902 7  95042516.31146  23210270.392    23210269.7534   23210281.2504
        43.000          37.8004
 113068879.240 7  88105759.34347  21516241.573    21516240.8314   21516245.7084
        47.600          46.6004
 198974838.111 7                  37863659.602
        45.700
 200893221.426 7                  38228723.338
        43.800
 106990688.736 8  83369413.81348  20359632.941    20359632.3154   20359633.6334
        49.800          51.2004
 137440831.148 7                  26154066.067
        42.600
 412951551.977 5                  78581850.080
        32.700
 202126408.650 7                  38463361.241
        45.200
 130450265.121 5 101461522.109 5  24386243.011    24386242.223    24386253.070
        32.200          35.400
 109348871.393 8  85206948.71848  20808389.652    20808388.7724   20808392.1814
        50.300          50.5004
 138894316.130 6                  26430739.883
        41.900
 123540502.879 8                  23508921.612
        48.200
 129013114.029 6 100529845.36445  24550331.340    24550330.6074   24550339.4604
        39.500          34.0004
 151475004.618 5                  28824727.503
        31.100
 117271230.089 7  91210983.345 6  21938012.264    21938011.662    21938021.609
        45.100          38.300
 131759186.973 7                  25072948.979
        45.200
 109223086.938 6  84951470.837 7  20425202.471    20425202.295    20425212.010
        39.400          47.000
 124617514.636 6  96924672.372 6  23271500.411    23271500.255    23271524.868
        41.700          41.000
 110040865.423 8                  20643340.769    20643340.490
        48.500
 139443575.312 6                  26535155.430
        40.900
 108293577.040 8  84228501.265 8  20265614.737    20265615.076    20265620.922
        52.100          48.200
 114853131.372 7  89496103.11645  21855766.298    21855764.9884   21855768.6574
        43.100          30.2004
 136891528.215 7                  26049531.762
        43.700
 112322199.675 8  87361917.000 7  20990032.037    20990032.743    20990043.043
        50.200          45.800
 125323172.509 7  97473630.513 6  23469012.255    23469011.880    23469027.150
        43.400          41.000
 130187446.225 7                  24773849.120
        46.700
 123779523.462 7  96273061.671 6  23196208.192    23196208.504    23196215.070
        46.200          40.500
 123814803.635 6  96479079.10443  23561171.672    23561171.0554   23561173.2014
        41.600          22.7004
 115566639.070 7  90052086.08845  21991539.341    21991538.8994   21991541.3994
        47.200          35.5004
 118102535.793 7  92028095.51945  22474109.216    22474108.0454   22474112.2564
        45.200          33.0004
 129058485.521 7 100378863.407 6  24160016.762    24160017.203    24160026.365
        44.200          39.900
 25  1  1 20 21 30.0000000  0 33G09E05G17G08S31S35G07E33S48S33R19G30
                                E04E31G27E12R01E06R20R08R10E26R11G21
                                E24R21R09E09R02G13G14G02R12
 126114714.210 6  98271144.70845  23998886.006    23998885.3404   23998906.2144
        39.200          33.9004
 130335366.522 7                  24801997.075
        42.700
 121920816.961 7  95003378.10946  23200711.852    23200711.2004   23200722.9644
        43.300          38.2004
 113109638.462 7  88137519.77047  21523998.331    21523997.5944   21524001.9124
        47.600          46.6004
 198974828.422 7                  37863658.520
        45.800
 200893203.296 7                  38228715.781
        43.700
 106995684.141 8  83373306.31648  20360583.586    20360582.9654   20360584.2424
        49.800          51.2004
 137405687.728 7                  26147378.650
        42.800
 412952097.731 5                  78581877.325
        33.000
 202126419.845 7                  38463362.480
        45.300
 130508653.826 5 101506935.670 6  24397157.234    24397158.531    24397168.413
        32.400          36.400
 109323955.017 8  85187533.34948  20803647.956    20803647.0714   20803650.7684
        50.200          50.5004
 138939567.173 6                  26439351.647
        41.900
 123541601.469 8                  23509130.621
        48.300
 129069754.402 6 100573980.57145  24561109.503    24561108.7794   24561117.6354
        38.700          33.7004
 151431288.877 5                  28816407.743
        30.700
 117296265.553 7  91230455.315 6  21942695.689    21942694.927    21942704.847
        44.200          38.100
 131794833.370 7                  25079732.382
        45.200
 109227878.893 6  84955197.925 7  20426099.591    20426098.587    20426108.151
        39.700          47.100
 124677097.012 6  96971013.608 6  23282626.402    23282626.994    23282652.710
        40.900          40.900
 110061499.658 8                  20647211.966    20647211.350
        48.300
 139440007.246 6                  26534476.770
        41.200
 108271752.027 8  84211526.238 8  20261530.913    20261530.902    20261536.444
        51.700          48.200
 114837932.419 7  89484259.82945  21852874.128    21852872.8324   21852876.1794
        43.600          30.3004
 136866373.856 7                  26044744.736
        43.800
 112269843.856 8  87321195.925 7  20980248.028    20980248.694    20980258.480
        49.100          45.700
 125364730.897 7  97505953.440 6  23476794.152    23476794.882    23476810.269
        44.300          41.200
 130207928.786 7                  24777746.960
        46.800
 123753455.948 7  96252786.926 6  23191322.008    23191322.988    23191330.020
        46.400          41.000
 123778441.163 7  96450744.73243  23554253.117    23554252.5054   23554253.5804
        42.800          23.6004
 115536039.879 7  90028242.57545  21985716.436    21985715.9944   21985718.5114
        46.000          35.5004
 118070051.464 7  92002783.21045  22467927.280    22467926.1184   22467930.7344
        45.500          33.1004
 129014437.609 7 100344603.968 6  24151770.355    24151770.829    24151780.139
        43.500          39.100
 25  1  1 20 21 45.0000000  0 33G09E05G17G08S31S35G07E33S48S33R19G30
                                E04E31G27E12R01E06R20R08R10E26R11G21
                                E24R21R09E09R02G13G14G02R12
 126169246.986 6  98313637.46845  24009263.725    24009263.0864   24009283.4994
        39.500          33.5004
 130315526.234 7                  24798221.742
        42.100
 121870644.534 7  94964283.16246  23191163.803    23191163.1464   23191175.0484
        43.400          37.9004
 113150479.457 7  88169343.91847  21531770.015    21531769.2784   21531773.6954
        47.300          46.5004
 198974817.647 7                  37863654.683
        45.400
 200893183.706 7                  38228718.799
        43.600
 107000792.688 8  83377286.98048  20361555.753    20361555.1454   20361556.3914
        49.700          51.1004
 137370599.093 7                  26140701.377
        42.600
 412951042.159 5                  78581900.180
        32.500
 202126429.606 7                  38463365.990
        44.800
 130567118.571 5 101552408.405 5  24408087.320    24408088.460    24408098.042
        32.400          35.900
 109299130.111 8  85168189.26648  20798924.042    20798923.1624   20798926.7534
        50.300          50.5004
 138984836.537 6                  26447966.322
        41.900
 123542729.727 8                  23509345.330
        48.200
 129126410.432 6 100618127.95345  24571891.055    24571890.3314   24571899.2944
        39.700          34.2004
 151387537.152 5                  28808082.225
        31.300
 117321464.454 7  91250054.395 6  21947409.322    21947408.513    21947419.015
        44.300          37.600
 131830540.865 7                  25086527.404
        45.100
 109232881.021 6  84959088.455 7  20427033.898    20427034.377    20427043.480
        39.800          47.100
 124736696.072 6  97017367.897 6  23293756.233    23293757.649    23293782.436
        41.100          40.800
 110082195.320 8                  20651094.416    20651093.899
        48.300
 139436545.670 6                  26533817.813
        40.800
 108249973.382 8  84194587.296 8  20257455.490    20257455.416    20257460.859
        52.200          48.300
 114822875.627 7  89472527.30645  21850008.478    21850007.1824   21850010.9114
        43.900          30.2004
 136841240.541 7                  26039962.354
        43.500
 112217609.534 8  87280569.302 7  20970487.191    20970487.585    20970497.603
        50.300          45.700
 125406320.799 7  97538300.857 6  23484583.079    23484583.488    23484599.075
        43.400          41.100
 130228505.635 7                  24781662.617
        46.300
 123727559.066 7  96232644.934 6  23186468.458    23186469.266    23186476.869
        44.800          40.700
 123742189.212 6  96422496.45843  23547353.892    23547353.2844   23547355.2354
        41.200          23.0004
 115505476.978 7  90004427.34145  21979900.859    21979900.4304   21979902.6114
        46.700          35.5004
 118037661.293 7  91977544.23845  22461763.669    22461762.5114   22461766.9564
        45.500          33.1004
 128970373.994 7 100310332.273 6  24143522.160    24143521.598    24143530.840
        42.900          38.700
 25  1  1 20 22  0.0000000  0 33G09E05G17G08S31S35G07E33S48S33R19G30
                                E04E31G27E12R01E06R20R08R10E26R11G21
                                E24R21R09E09R02G13G14G02R12
 126223783.712 6  98356133.31045  24019641.573    24019640.9474   24019661.5054
        39.800          33.6004
 130295784.080 7                  24794465.316
        42.200
 121820532.458 7  94925235.23446  23181627.533    23181626.8854   23181638.3884
        42.500          38.0004
 113191406.500 7  88201235.11547  21539558.115    21539557.3784   21539561.8174
        47.600          46.5004
 198974809.579 7                  37863651.388
        45.600
 200893167.620 7                  38228711.626
        43.700
 107006019.137 8  83381359.51548  20362550.258    20362549.6464   20362550.9874
        49.800          51.2004
 137335570.158 7                  26134035.382
        42.600
 412951589.779 5                  78581924.554
        33.600
 202126442.145 7                  38463369.710
        45.100
 130625663.660 5 101597943.536 6  24419032.984    24419032.112    24419041.614
        32.300          36.200
 109274401.515 8  85148920.22948  20794218.363    20794217.4784   20794221.0414
        50.500          50.6004
 139030128.706 6                  26456585.261
        41.800
 123543892.229 8                  23509566.573
        48.200
 129183086.404 6 100662290.84445  24582676.407    24582675.6974   24582684.7184
        39.400          33.7004
 151343754.374 4                  28799749.887
        29.600
 117346830.771 7  91269783.700 6  21952153.909    21952154.349    21952164.064
        44.500          37.600
 131866313.861 7                  25093334.707
        44.700
 109238097.244 6  84963145.571 7  20428009.072    20428009.549    20428018.794
        39.500          47.000
 124796315.700 6  97063738.236 6  23304890.582    23304891.301    23304916.079
        40.900          40.600
 110102957.318 8                  20654989.222    20654988.571
        48.100
 139433195.270 6                  26533180.627
        40.500
 108228245.946 8  84177688.222 8  20253389.106    20253389.482    20253395.077
        52.200          48.400
 114807965.730 7  89460909.24845  21847171.078    21847169.7914   21847173.5414
        43.900          30.5004
 136816132.853 7                  26035184.276
        44.000
 112165501.806 8  87240041.199 7  20960749.221    20960749.585    20960759.916
        49.600          45.800
 125447946.955 7  97570676.502 6  23492378.118    23492379.033    23492394.942
        42.800          41.600
 130249181.254 7                  24785597.085
        46.400
 123701838.031 7  96212639.720 6  23181649.629    23181649.572    23181656.603
        46.200          41.100
 123706052.558 7  96394338.05843  23540477.947    23540477.3534   23540478.7114
        42.100          23.1004
 115474955.004 7  89980643.99445  21974092.474    21974092.0454   21974094.4654
        46.900          35.6004
 118005370.237 7  91952382.48945  22455619.180    22455618.0274   22455621.8604
        46.000          33.2004
 128926299.523 7 100276052.174 6  24135271.102    24135271.043    24135280.715
        43.700          38.900
 25  1  1 20 22 15.0000000  0 33G09E05G17G08S31S35G07E33S48S33R19G30
                                E04E31G27E12R01E06R20R08R10E26R11G21
                                E24R21R09E09R02G13G14G02R12
 126278324.176 6  98398632.05945  24030020.489    24030019.8774   24030040.7084
        39.100          33.8004
 130276140.395 7                  24790727.190
        42.700
 121770481.205 7  94886234.70846  23172103.372    23172102.7334   23172113.5594
        42.600          37.9004
 113232419.368 7  88233193.17847  21547362.694    21547361.9574   21547366.2974
        47.200          46.4004
 198974804.629 7                  37863651.701
        45.700
 200893154.549 7                  38228707.155
        43.500
 107011363.767 8  83385524.14148  20363567.486    20363566.8694   20363568.0754
        49.600          51.1004
 137300601.257 7                  26127380.700
        42.700
 412952139.786 5                  78581952.028
        32.500
 202126458.888 7                  38463372.143
        45.200
 130684289.331 5 101643541.438 5  24429992.776    24429991.389    24430001.306
        32.700          35.100
 109249769.621 8  85129726.54548  20789530.925    20789530.0364   20789533.7574
        50.100          50.5004
 139075443.478 6                  26465208.094
        41.300
 123545089.043 8                  23509794.407
        48.300
 129239782.226 6 100706469.23445  24593465.340    24593464.6304   24593473.4244
        40.200          33.4004
 151299940.746 5                  28791412.713
        30.600
 117372364.472 7  91289643.165 6  21956931.100    21956930.963    21956940.888
        44.700          38.000
 131902152.229 7                  25100154.840
        45.200
 109243528.262 6  84967369.674 7  20429026.095    20429025.121    20429034.524
        39.600          46.900
 124855955.474 6  97110124.189 6  23316028.509    23316028.543    23316054.609
        41.400          41.300
 110123785.750 8                  20658896.702    20658896.130
        48.800
 139429956.170 6                  26532564.390
        41.100
 108206570.109 8  84160829.250 8  20249332.671    20249332.902    20249338.497
        51.700          48.300
 114793203.080 7  89449405.93245  21844362.269    21844360.9824   21844364.3784
        43.500          30.3004
 136791050.912 7                  26030411.410
        44.100
 112113521.482 8  87199612.145 7  20951035.813    20951035.911    20951046.179
        49.700          45.800
 125489609.104 7  97603080.104 6  23500181.381    23500181.978    23500196.528
        43.900          41.300
 130269955.612 7                  24789550.410
        46.500
 123676292.991 7  96192771.379 6  23176861.255    23176861.931    23176870.505
        45.000          41.300
 123670031.835 7  96366269.97743  23533623.299    23533622.7004   23533624.5284
        42.400          23.4004
 115444474.116 7  89956892.66445  21968292.124    21968291.6954   21968294.1184
        46.300          35.6004
 117973178.835 7  91927298.38445  22449492.888    22449491.7304   22449495.7374
        46.000          33.2004
 128882214.335 7 100241763.733 6  24127018.081    24127018.560    24127027.633
        43.000          39.800
 25  1  1 20 22 30.0000000  0 33G09E05G17G08S31S35G07E33S48S33R19G30
                                E04E31G27E12R01E06R20R08R10E26R11G21
                                E24R21R09E09R02G13G14G02R12
 126332860.044 6  98441127.22345  24040398.020    24040397.4214   24040418.7994
        39.700          33.6004
 130256587.320 7                  24787006.054
        43.000
 121720483.029 7  94847275.52546  23162588.258    23162587.6324   23162598.6124
        42.900          38.0004
 113273509.819 7  88265211.69647  21555182.016    21555181.2794   21555185.5954
        47.300          46.4004
 198974795.425 7                  37863644.971
        45.400
 200893137.368 7                  38228706.193
        43.600
 107016818.722 8  83389774.73548  20364605.512    20364604.8784   20364606.1404
        49.800          51.1004
 137265684.749 7                  26120736.431
        42.600
 412952684.718 5                  78581984.675
        32.900
 202126470.066 7                  38463376.851
        45.100
 130742986.413 5 101689194.982 5  24440962.887    24440962.403    24440973.304
        32.400          35.000
 109225226.720 8  85110602.20548  20784860.897    20784860.0084   20784863.3844
        50.400          50.6004
 139120772.681 6                  26473834.464
        41.900
 123546312.160 8                  23510027.330
        48.300
 129296489.681 6 100750656.69445  24604256.102    24604255.3874   24604264.7064
        39.000          33.7004
 151256088.636 5                  28783068.125
        31.300
 117398056.717 7  91309625.972 6  21961736.948    21961737.327    21961747.345
        43.900          37.400
 131938047.790 7                  25106985.298
        45.200
 109249165.443 6  84971754.160 7  20430078.435    20430079.508    20430088.499
        39.200          47.000
 124915606.721 6  97156519.074 6  23327168.293    23327169.054    23327192.750
        41.000          39.600
 110144672.555 8                  20662814.716    20662814.277
        48.200
 139426820.512 6                  26531967.742
        41.100
 108184937.689 8  84144004.048 8  20245284.718    20245284.822    20245290.467
        52.200          48.200
 114778580.039 7  89438011.40345  21841579.244    21841577.9614   21841581.8004
        43.900          30.4004
 136765986.682 7                  26025641.887
        44.000
 112061660.988 8  87159276.307 7  20941344.597    20941344.232    20941354.286
        49.700          45.700
 125531299.596 7  97635505.756 6  23507989.017    23507988.939    23508004.183
        42.500          41.300
 130290820.616 7                  24793520.954
        46.500
 123650915.988 7  96173033.728 6  23172106.125    23172106.021    23172114.675
        45.500          41.200
 123634119.556 6  96338286.38943  23526789.040    23526788.4374   23526790.4714
        41.800          23.4004
 115414026.363 7  89933167.15945  21962498.145    21962497.7254   21962500.1114
        46.600          35.5004
 117941079.378 7  91902285.92245  22443384.839    22443383.6814   22443387.4024
        45.600          33.4004
 128838110.364 7 100207460.687 6  24118761.603    24118761.571    24118771.296
        42.200          39.600
