     2.11           OBSERVATION DATA    M (MIXED)           RINEX VERSION / TYPE
teqc  2019Feb25                         20260317 16:20:09UTCPGM / RUN BY / DATE
Linux 2.4.21-27.ELsmp|Opteron|gcc -static|Linux 64|=+       COMMENT
BIT 2 OF LLI FLAGS DATA COLLECTED UNDER A/S CONDITION       COMMENT
-Unknown-                                                   MARKER NAME
-Unknown-           -Unknown-                               OBSERVER / AGENCY
-Unknown-           -Unknown-           -Unknown-           REC # / TYPE / VERS
-Unknown-           -Unknown-                               ANT # / TYPE
        0.0000        0.0000        0.0000                  APPROX POSITION XYZ
        0.0000        0.0000        0.0000                  ANTENNA: DELTA H/E/N
     1     1                                                WAVELENGTH FACT L1/2
     7    L1    L2    C1    P1    P2    S1    S2            # / TYPES OF OBSERV
 SNR is mapped to RINEX snr flag value [0-9]                COMMENT
  L1 & L2: min(max(int(snr_dBHz/6), 0), 9)                  COMMENT
  2025     1     1    11     0    0.0000000     GPS         TIME OF FIRST OBS
    18                                                      LEAP SECONDS
                                                            END OF HEADER
 25  1  1 11  0  0.0000000  0 38G10G24E19E08R04S31S35G21R12E13S48S33
                                E27R13E29G23R19G18E07E02E30G12E33R20
                                E26R14G08G27R05G32R18E12G28G31R03G25
                                R15G02
 107738026.154 8  83951729.01948  20501857.893    20501857.2814   20501858.9824
        52.000          53.4004
 122077770.347 7  95125572.64446  23230619.623    23230619.1674   23230622.0734
        42.500          40.1004
 137385773.535 6                  26143642.088
        37.900
 151856425.564 6                  28897307.823
        36.600
 106773524.440 8  83046127.462 8  19939200.193    19939200.660    19939205.570
        52.600          48.300
 198975187.198 7                  37863711.916
        45.400
 200953141.194 7                  38240114.564
        43.800
 124055449.677 6  96666596.36844  23606960.414    23606959.0604   23606959.2884
        40.700          24.7004
 129307990.157 7 100572916.954 6  24206720.778    24206720.174    24206727.587
        43.100          37.200
 148001031.392 6                  28163646.617
        36.800
 412699090.799 5                  78534086.734
        32.500
 202090961.654 7                  38456599.396
        44.800
 150093016.909 6                  28561753.713
        37.200
 116199119.612 7                  21760347.508    21760347.124
        43.300
 124123338.039 8                  23619877.134
        49.100
 113069908.686 7  88106433.89946  21516481.314    21516480.9344   21516480.8544
        46.700          36.5004
 109815000.198 6  85411694.281 7  20528745.883    20528745.434    20528750.710
        40.500          44.800
 130445042.849 6 101645482.74843  24822868.024    24822867.5864   24822869.7604
        38.900          22.8004
 128794251.004 7                  24508723.833
        47.600
 149891296.972 6                  28523370.435
        38.700
 147494655.895 6                  28067293.997
        37.800
 130100431.529 6 101376970.09645  24757283.543    24757282.9224   24757284.0444
        39.400          30.3004
 125985615.515 7                  23974258.309
        47.800
 116565505.270 6  90662107.402 7  21798331.061    21798330.622    21798338.589
        38.000          44.400
 127822928.376 7                  24323890.503
        47.600
 116239108.757 8  90408242.917 7  21806153.516    21806152.967    21806159.326
        50.400          44.300
 132030735.484 5 102881110.40944  25124607.392    25124606.6194   25124610.2974
        35.700          26.7004
 133659693.365 6 104150427.78245  25434590.364    25434589.6094   25434591.7664
        39.000          32.1004
 118791526.317 8  92393422.037 7  22222405.075    22222405.250    22222409.840
        49.300          42.500
 110316865.163 8  85961209.45648  20992592.869    20992592.3964   20992593.7864
        50.700          52.1004
 121088068.926 7  94179646.515 7  22683871.687    22683871.338    22683879.229
        44.300          43.700
 147741281.986 5                  28114228.848
        35.500
 120431915.895 7  93843054.30045  22917430.809    22917430.3764   22917431.2894
        43.400          30.2004
 133118057.457 6 103728354.61944  25331525.889    25331525.4924   25331526.6854
        36.100          26.2004
 114011186.491 8  88675403.726 7  21298241.747    21298241.628    21298246.425
        49.700          46.300
 128261267.537 6  99943872.81444  24407305.081    24407304.0934   24407308.0414
        38.200          29.5004
 131734243.764 6 102460010.043 6  24652269.678    24652270.270    24652278.383
        41.700          38.500
 132808305.267 6 103487002.18043  25272577.794    25272576.5204   25272576.0084
        40.000          21.5004
 25  1  1 11  0 15.0000000  0 38G10G24E19E08R04S31S35G21R12E13S48S33
                                E27R13E29G23R19G18E07E02E30G12E33R20
                                E26R14G08G27R05G32R18E12G28G31R03G25
                                R15G02
 107730343.102 8  83945742.23648  20500395.935    20500395.3184   20500396.9444
        52.400          53.2004
 122127107.281 7  95164016.98646  23240008.253    23240007.8024   23240010.5084
        42.600          39.6004
 137355052.144 6                  26137796.181
        38.100
 151892395.677 5                  28904152.613
        34.800
 106770446.031 8  83043733.145 8  19938625.297    19938625.860    19938630.757
        52.500          48.300
 198975196.402 7                  37863713.499
        45.400
 200953138.125 7                  38240113.200
        43.800
 124027440.262 6  96644770.82944  23601630.291    23601628.9284   23601629.4054
        40.100          24.6004
 129352892.946 7 100607841.215 6  24215125.723    24215125.903    24215134.001
        43.300          37.600
 148048984.734 6                  28172771.852
        37.200
 412699033.080 5                  78534084.131
        32.500
 202090961.515 7                  38456598.632
        44.800
 150055470.448 6                  28554609.379
        37.100
 116206123.696 7                  21761659.063    21761659.152
        43.100
 124114404.135 8                  23618177.204
        49.200
 113099445.772 7  88129449.79546  21522102.455    21522102.0754   21522101.5634
        46.700          36.4004
 109852779.995 6  85441078.536 7  20535807.727    20535807.812    20535813.298
        39.900          44.900
 130503882.273 6 101691331.65143  24834065.189    24834064.7474   24834066.4614
        38.300          22.4004
 128818988.226 7                  24513431.072
        47.700
 149891835.271 6                  28523472.837
        38.200
 147467643.700 6                  28062153.408
        38.800
 130071144.982 6 101354149.50445  24751710.291    24751709.6704   24751710.6624
        40.500          30.2004
 125977168.437 8                  23972650.704
        48.000
 116530870.777 6  90635169.515 7  21791853.660    21791853.598    21791861.869
        38.400          45.100
 127854725.564 7                  24329941.309
        47.400
 116189754.532 8  90369856.324 7  21796894.426    21796894.620    21796900.407
        50.100          44.300
 132059584.667 6 102903590.30444  25130098.378    25130097.6054   25130100.4434
        37.000          27.2004
 133699720.503 6 104181617.76545  25442206.773    25442206.0184   25442208.9204
        38.800          31.7004
 118757112.687 8  92366655.888 7  22215967.434    22215967.683    22215972.085
        49.400          42.500
 110305863.041 8  85952636.37948  20990499.345    20990498.8764   20990500.1554
        51.200          51.9004
 121153773.711 7  94230750.248 7  22696179.709    22696180.141    22696187.285
        43.600          43.000
 147700440.893 5                  28106456.680
        34.900
 120380011.213 7  93802609.15444  22907553.745    22907553.3254   22907554.0704
        42.900          29.9004
 133057729.967 6 103681346.10744  25320045.970    25320045.5954   25320047.0694
        37.700          26.9004
 114041821.547 8  88699230.986 7  21303963.684    21303964.500    21303969.615
        49.200          46.500
 128217788.612 6  99909993.20744  24399030.333    24399029.3414   24399033.8354
        38.300          29.1004
 131671877.985 6 102411503.120 6  24640598.534    24640598.745    24640607.305
        38.300          38.100
 132765844.757 6 103453916.01343  25264497.536    25264496.2714   25264496.4394
        39.600          21.7004
 25  1  1 11  0 30.0000000  0 37G10G24E19E08R04S31S35G21R12E13S48S33
                                E27R13E29G23R19G18E07E02E30G12E33R20
                                E26R14G08G27R05G32R18E12G28G31R03G25
                                G02
 107722738.332 8  83939816.44548  20498948.679    20498948.0584   20498949.8074
        52.000          53.3004
 122176521.260 7  95202521.34246  23249411.081    23249410.6344   23249413.8924
        42.600          39.5004
 137324362.867 6                  26131956.198
        38.000
 151928346.414 5                  28910993.786
        35.000
 106767421.151 8  83041380.464 8  19938060.225    19938060.718    19938065.812
        52.400          48.100
 198975202.116 7                  37863710.856
        45.500
 200953131.704 7                  38240112.842
        43.900
 123999524.922 6  96623018.61744  23596317.975    23596316.6344   23596317.2064
        41.000          24.5004
 129397914.730 7 100642857.663 6  24223555.693    24223555.292    24223562.155
        43.200          37.700
 148096938.704 6                  28181896.817
        36.000
 412698973.405 5                  78534065.243
        32.500
 202090961.249 7                  38456597.152
        44.700
 150017900.218 6                  28547459.930
        37.400
 116213321.684 7                  21763007.026    21763007.038
        43.600
 124105519.795 8                  23616486.538
        49.100
 113129059.634 7  88152525.50946  21527737.588    21527737.2044   21527736.8534
        46.700          36.4004
 109890725.134 6  85470591.394 7  20542900.624    20542901.285    20542907.044
        40.100          44.800
 130562725.320 6 101737183.33943  24845262.582    24845262.1224   24845264.0084
        38.200          22.6004
 128843747.099 7                  24518142.542
        47.300
 149892470.841 6                  28523594.088
        39.200
 147440686.954 6                  28057023.443
        38.100
 130041937.303 6 101331390.37745  24746152.661    24746152.0584   24746152.7934
        38.500          30.6004
 125968824.267 7                  23971062.903
        47.700
 116496405.282 6  90608363.026 7  21785408.916    21785408.465    21785416.544
        38.600          44.300
 127886601.043 7                  24336007.190
        47.500
 116140498.209 8  90331545.883 7  21787654.284    21787653.815    21787659.369
        49.800          44.300
 132088493.902 5 102926116.99244  25135599.615    25135598.8284   25135601.2944
        35.900          26.4004
 133739746.860 6 104212807.14845  25449823.956    25449823.1834   25449825.2964
        38.500          31.3004
 118722728.752 8  92339912.840 7  22209534.608    22209535.401    22209540.541
        49.400          42.800
 110294928.402 8  85944115.88848  20988418.310    20988417.8374   20988419.3664
        50.900          52.0004
 121219508.160 7  94281877.015 7  22708494.776    22708495.146    22708502.330
        44.600          43.300
 147659635.961 5                  28098692.261
        34.800
 120328162.248 7  93762207.38444  22897687.213    22897686.7984   22897687.6134
        43.800          29.9004
 132997392.778 6 103634330.03144  25308563.291    25308562.8714   25308565.0964
        36.800          25.8004
 114072481.371 8  88723077.510 7  21309691.848    21309692.170    21309696.900
        49.900          46.200
 128174322.959 6  99876123.93144  24390759.054    24390758.0574   24390762.1974
        39.000          29.3004
 132723440.368 6 103420873.55743  25256428.467    25256427.1934   25256426.8824
        39.900          21.3004
 25  1  1 11  0 45.0000000  0 37G10G24E19E08R04S31S35G21R12E13S48S33
                                E27R13E29G23R19G18E07E02E30G12E33R20
                                E26R14G08G27R05G32R18E12G28G31R03G25
                                G02
 107715212.080 8  83933951.84048  20497516.693    20497516.0764   20497517.6044
        52.100          53.2004
 122226011.992 7  95241085.55446  23258829.321    23258828.8744   23258831.3844
        42.900          39.7004
 137293705.629 6                  26126122.522
        38.200
 151964277.760 6                  28917831.917
        36.500
 106764449.594 8  83039069.245 8  19937505.544    19937505.960    19937510.861
        52.700          48.400
 198975205.748 7                  37863713.548
        45.100
 200953123.760 7                  38240110.199
        43.500
 123971703.648 6  96601339.75644  23591023.373    23591022.0234   23591022.6134
        40.400          24.8004
 129443056.303 7 100677967.488 6  24232005.428    24232005.183    24232013.661
        43.600          39.200
 148144893.155 5                  28191022.488
        35.300
 412698911.438 5                  78534047.710
        32.100
 202090957.124 7                  38456597.438
        44.400
 149980306.604 6                  28540306.028
        36.500
 116220713.734 7                  21764391.617    21764390.652
        42.500
 124096685.003 8                  23614805.342
        48.900
 113158750.316 7  88175661.09146  21533387.308    21533386.9194   21533386.8204
        46.900          36.3004
 109928834.933 6  85500232.307 7  20550024.627    20550025.287    20550030.639
        40.000          44.800
 130621571.613 6 101783037.55443  24856460.355    24856459.9264   24856463.1374
        39.500          23.0004
 128868527.605 7                  24522858.277
        47.200
 149893203.426 6                  28523733.203
        38.400
 147413785.928 6                  28051905.100
        37.100
 130012808.432 6 101308692.65445  24740610.093    24740609.4904   24740609.9224
        38.600          30.0004
 125960583.162 7                  23969494.883
        47.800
 116462109.054 6  90581688.134 7  21778995.151    21778994.956    21779002.739
        38.100          44.200
 127918554.705 7                  24342087.648
        47.300
 116091340.460 8  90293312.083 7  21778432.460    21778432.726    21778437.716
        50.900          44.200
 132117462.984 6 102948690.30844  25141112.030    25141111.2434   25141113.5044
        36.200          25.8004
 133779772.095 6 104243995.66245  25457441.169    25457440.4004   25457441.2754
        38.800          30.8004
 118688374.619 8  92313192.950 7  22203108.185    22203109.089    22203113.129
        49.700          42.800
 110284061.194 8  85935647.91748  20986350.490    20986350.0084   20986351.3974
        51.100          51.9004
 121285271.598 7  94333026.360 7  22720814.474    22720814.833    22720821.963
        45.600          43.500
 147618867.471 5                  28090934.000
        34.900
 120276369.328 7  93721849.29744  22887831.583    22887831.1634   22887831.6214
        43.000          29.7004
 132937046.111 5 103587306.59844  25297080.440    25297079.9844   25297081.1154
        35.600          25.8004
 114103165.924 8  88746943.273 7  21315423.295    21315424.075    21315429.096
        49.600          46.400
 128130871.052 6  99842265.37644  24382490.400    24382489.3994   24382493.5504
        38.700          29.2004
 132681092.596 6 103387875.30643  25248370.040    25248368.7574   25248368.6834
        40.400          21.4004
 25  1  1 11  1  0.0000000  0 37G10G24E19E08R04S31S35G21R12E13S48S33
                                E27R13E29G23R19G18E07E02E30G12E33R20
                                E26R14G08G27R05G32R18E12G28G31R03G25
                                G02
 107707771.822 8  83928154.22948  20496100.588    20496099.9714   20496101.7684
        52.100          53.2004
 122275586.279 7  95279714.82546  23268262.503    23268262.0524   23268264.9974
        42.800          39.5004
 137263087.862 6                  26120295.646
        38.100
 152000196.979 5                  28924666.441
        34.700
 106761538.902 8  83036805.397 8  19936962.049    19936962.385    19936967.188
        52.600          48.100
 198975214.857 7                  37863713.995
        45.100
 200953120.480 7                  38240107.337
        43.600
 123943983.939 6  96579740.04344  23585748.788    23585747.4434   23585747.5704
        40.500          24.7004
 129488324.798 7 100713176.305 6  24240479.022    24240479.051    24240487.090
        42.000          36.900
 148192855.291 5                  28200149.303
        35.000
 412698855.353 5                  78534034.809
        32.100
 202090957.902 7                  38456597.143
        44.700
 149942697.101 6                  28533149.152
        37.900
 116228306.781 7                  21765813.976    21765813.182
        43.000
 124087907.024 8                  23613134.879
        49.100
 113188525.120 7  88198862.21446  21539053.120    21539052.7144   21539052.8094
        46.700          36.3004
 109967117.137 6  85530007.332 7  20557182.539    20557182.029    20557187.627
        40.400          44.800
 130680428.309 6 101828899.83343  24867660.133    24867659.7004   24867663.1124
        38.800          22.7004
 128893336.962 7                  24527579.104
        47.500
 149894040.236 6                  28523892.664
        38.600
 147386948.193 6                  28046798.100
        38.300
 129983766.371 6 101286062.57345  24735083.139    24735082.5224   24735083.0644
        39.000          30.1004
 125952452.556 7                  23967947.494
        47.800
 116427990.515 6  90555151.550 7  21772614.800    21772615.296    21772622.557
        38.800          44.800
 127950593.713 7                  24348184.418
        47.400
 116042289.477 8  90255161.366 7  21769229.913    21769230.779    21769235.819
        50.000          44.400
 132146498.742 5 102971315.58744  25146636.809    25146636.0184   25146638.7124
        35.500          25.9004
 133819803.281 6 104275188.80445  25465057.946    25465057.1594   25465058.8184
        38.100          30.5004
 118654057.733 8  92286502.057 7  22196688.515    22196688.989    22196693.596
        49.500          42.600
 110273268.764 8  85927238.24048  20984296.821    20984296.3394   20984297.6794
        51.300          52.0004
 121351071.049 7  94384203.723 7  22733139.660    22733140.646    22733147.937
        43.900          43.200
 147578142.960 5                  28083183.922
        35.200
 120224640.131 7  93681540.85644  22877987.643    22877987.2284   22877987.8804
        42.600          29.9004
 132876697.654 5 103540281.75544  25285595.991    25285595.5534   25285596.7364
        35.400          26.0004
 114133882.855 8  88770834.224 7  21321162.233    21321162.200    21321167.332
        49.700          46.300
 128087440.658 6  99808423.58344  24374226.011    24374225.0144   24374229.4544
        38.700          29.6004
 132638808.928 6 103354927.08743  25240323.173    25240321.8724   25240321.8824
        40.000          20.5004
 25  1  1 11  1 15.0000000  0 38G10G24E19E08R04S31S35G21R12E13S48S33
                                E27R13E29G23R19G18E07E02E30R15G12E33
                                R20E26R14G08G27R05G32R18E12G28G31R03
                                G25G02
 107700406.599 8  83922415.08748  20494699.131    20494698.5144   20494700.2404
        51.700          53.2004
 122325232.714 7  95318400.31546  23277710.193    23277709.7374   23277712.6764
        43.100          39.4004
 137232498.450 6                  26114474.910
        38.700
 152036092.945 6                  28931497.685
        36.000
 106758677.626 8  83034579.945 8  19936427.674    19936428.013    19936432.869
        52.700          48.200
 198975217.157 7                  37863716.128
        45.600
 200953110.691 7                  38240104.395
        43.900
 123916354.868 6  96558210.90544  23580491.175    23580489.8474   23580489.8314
        40.100          24.9004
 129533707.249 7 100748473.493 6  24248976.606    24248977.047    24248982.950
        43.400          36.700
 148240813.688 6                  28209276.122
        36.500
 412698792.546 5                  78534033.164
        32.300
 202090953.882 7                  38456596.061
        44.800
 149905060.776 6                  28525987.141
        37.200
 116236089.688 7                  21767270.954    21767270.220
        42.900
 124079174.635 8                  23611473.140
        49.200
 113218372.882 7  88222120.19746  21544733.392    21544732.9994   21544732.6814
        46.500          36.1004
 110005559.417 6  85559906.837 7  20564367.873    20564368.607    20564374.133
        40.000          44.900
 130739283.904 6 101874761.29043  24878860.856    24878860.4594   24878862.7694
        37.200          22.2004
 128918163.881 7                  24532303.463
        47.200
 149894970.358 6                  28524069.689
        39.300
 147360162.770 6                  28041700.686
        38.300
 131421948.190 6 102217110.241 6  24593827.624    24593828.426    24593836.472
        40.900          38.000
 129954800.272 6 101263491.68845  24729570.141    24729569.4984   24729570.9664
        38.700          30.2004
 125944421.408 8                  23966419.462
        48.000
 116394038.332 6  90528744.288 7  21766266.155    21766264.899    21766273.496
        37.900          44.100
 127982706.766 7                  24354295.487
        47.600
 115993334.236 8  90217085.073 7  21760046.283    21760046.389    21760052.113
        50.100          44.500
 132175589.858 5 102993984.00544  25152173.157    25152172.3934   25152174.4924
        35.300          25.2004
 133859828.818 6 104306377.55145  25472674.492    25472673.7104   25472675.9544
        38.300          31.4004
 118619766.957 8  92259831.452 7  22190273.683    22190274.106    22190278.258
        49.900          42.700
 110262539.829 8  85918878.01848  20982255.093    20982254.6114   20982256.0354
        51.100          51.9004
 121416894.516 7  94435399.736 7  22745471.472    22745471.530    22745478.928
        43.700          43.000
 147537451.467 5                  28075440.924
        35.200
 120172963.822 7  93641273.63944  22868153.941    22868153.5304   22868154.1614
        42.600          29.8004
 132816336.570 6 103493247.08644  25274110.384    25274110.0004   25274110.3274
        36.000          26.3004
 114164620.460 8  88794741.242 7  21326904.074    21326904.371    21326909.566
        49.700          46.400
 128044020.916 6  99774590.09344  24365963.398    24365962.4244   24365967.0414
        38.100          29.0004
 132596578.373 6 103322020.23543  25232287.590    25232286.3034   25232285.0124
        39.900          20.8004
 25  1  1 11  1 30.0000000  0 38G10G24E19E08R04S31S35G21R12E13S48S33
                                E27R13E29G23R19G18E07E02E30R15G12E33
                                R20E26R14G08G27R05G32R18E12G28G31R03
                                G25G02
 107693125.981 8  83916741.88148  20493313.649    20493313.0324   20493314.7754
        51.800          53.3004
 122374960.318 7  95357149.06746  23287172.953    23287172.4974   23287175.4934
        42.300          39.2004
 137201946.622 6                  26108661.295
        38.100
 152071974.893 5                  28938325.701
        35.900
 106755875.238 8  83032400.311 8  19935904.432    19935904.699    19935909.681
        52.400          48.100
 198975223.089 7                  37863717.684
        45.600
 200953104.661 7                  38240107.042
        44.000
 123888825.925 6  96536759.82144  23575252.465    23575251.1464   23575251.5044
        40.500          24.9004
 129579213.730 7 100783867.307 6  24257494.866    24257494.661    24257502.066
        42.800          38.100
 148288777.505 6                  28218402.519
        36.500
 412698733.113 5                  78534012.916
        32.100
 202090951.342 7                  38456595.426
        44.800
 149867407.301 6                  28518821.685
        37.500
 116244071.972 7                  21768766.724    21768765.611
        43.800
 124070497.122 8                  23609821.904
        49.000
 113248302.959 7  88245442.32746  21550428.770    21550428.3644   21550428.1874
        46.600          36.1004
 110044171.030 6  85589938.057 7  20571587.003    20571586.311    20571591.587
        40.100          44.700
 130798147.428 6 101920628.91143  24890062.292    24890061.8904   24890063.9024
        37.900          22.2004
 128943017.654 7                  24537032.981
        47.100
 149896002.980 6                  28524266.048
        38.300
 147333439.321 6                  28036615.150
        38.200
 131359351.270 6 102168423.615 6  24582113.775    24582114.023    24582122.761
        39.200          36.200
 129925919.919 6 101240987.62045  24724074.976    24724074.3334   24724075.1454
        38.900          30.6004
 125936499.170 7                  23964911.799
        47.800
 116360262.516 6  90502474.265 7  21759950.002    21759948.692    21759956.793
        37.700          44.100
 128014903.092 7                  24360422.121
        47.300
 115944485.259 8  90179091.484 7  21750882.340    21750882.594    21750888.166
        50.500          44.500
 132204745.214 6 103016702.47944  25157720.356    25157719.6014   25157722.4964
        36.100          25.4004
 133899857.757 6 104337568.93945  25480291.624    25480290.8464   25480293.3544
        37.300          31.0004
 118585511.324 8  92233188.205 7  22183865.377    22183865.824    22183870.535
        49.100          42.600
 110251883.711 8  85910574.55448  20980227.172    20980226.6764   20980228.2484
        51.000          51.9004
 121482751.053 7  94486621.487 7  22757808.135    22757808.723    22757816.730
        43.500          42.900
 147496802.580 5                  28067705.172
        35.300
 120121350.061 7  93601055.15644  22858332.522    22858332.1114   22858332.3094
        42.200          29.8004
 132755972.470 5 103446210.06244  25262623.523    25262623.1304   25262623.7134
        35.500          26.0004
 114195388.478 8  88818671.924 7  21332651.875    21332652.096    21332657.569
        50.100          46.200
 128000621.610 6  99740772.50244  24357705.485    24357704.4844   24357707.9904
        37.700          29.0004
 132554410.658 6 103289162.30943  25224263.034    25224261.7604   25224260.8024
        38.500          20.9004
 25  1  1 11  1 45.0000000  0 38G10G24E19E08R04S31S35G21R12E13S48S33
                                E27R13E29G23R19G18E07E02E30R15G12E33
                                R20E26R14G08G27R05G32R18E12G28G31R03
                                G25G02
 107685928.476 8  83911133.44848  20491943.894    20491943.2734   20491945.1354
        52.200          53.3004
 122424767.020 7  95395959.46046  23296650.845    23296650.3854   23296653.4464
        42.100          39.3004
 137171430.901 6                  26102854.080
        38.300
 152107841.180 6                  28945150.917
        36.600
 106753130.218 8  83030265.299 8  19935391.842    19935392.099    19935396.973
        52.500          48.100
 198975230.394 7                  37863717.291
        45.500
 200953100.048 7                  38240106.984
        44.200
 123861395.551 6  96515385.50444  23570032.211    23570030.9104   23570031.5874
        40.900          25.2004
 129624841.468 7 100819355.312 6  24266037.450    24266037.589    24266044.564
        43.500          38.900
 148336744.980 6                  28227530.962
        36.200
 412698674.901 5                  78533997.619
        32.000
 202090951.794 7                  38456596.387
        45.000
 149829735.158 6                  28511653.061
        37.000
 116252251.934 7                  21770296.524    21770296.570
        42.900
 124061872.759 8                  23608180.740
        48.800
 113278313.650 7  88268827.27346  21556139.570    21556139.1684   21556139.0754
        46.000          36.0004
 110082949.390 6  85620098.952 7  20578836.071    20578835.772    20578841.451
        40.000          45.000
 130857016.927 6 101966501.19543  24901264.312    24901263.9464   24901266.2734
        38.400          21.8004
 128967896.505 7                  24541767.453
        47.300
 149897136.529 6                  28524482.238
        38.400
 147306776.417 6                  28031541.384
        37.500
 131296711.604 6 102119703.698 6  24570392.618    24570391.986    24570400.354
        40.500          38.300
 129897123.928 6 101218549.26945  24718594.308    24718593.6824   24718595.1274
        39.000          30.6004
 125928684.249 7                  23963424.583
        47.800
 116326661.377 6  90476340.033 7  21753665.849    21753665.928    21753673.032
        38.800          44.600
 128047180.851 7                  24366564.504
        47.700
 115895740.876 8  90141179.189 7  21741737.804    21741737.871    21741743.394
        50.200          44.300
 132233962.941 5 103039469.52744  25163280.704    25163279.9714   25163282.2664
        35.600          25.7004
 133939888.040 6 104368761.37645  25487909.813    25487909.0494   25487910.4104
        38.400          30.4004
 118551289.484 8  92206571.205 7  22177463.540    22177463.569    22177468.141
        49.300          42.500
 110241298.656 8  85902326.45348  20978212.745    20978212.2404   20978213.9834
        51.400          52.0004
 121548638.441 7  94537867.203 7  22770151.733    22770151.501    22770159.141
        43.800          43.200
 147456194.858 5                  28059978.629
        35.500
 120069797.482 7  93560884.32745  22848522.132    22848521.7214   22848522.3424
        42.800          30.0004
 132695603.872 6 103399169.55244  25251136.746    25251136.3494   25251136.2934
        36.000          25.9004
 114226185.387 8  88842625.075 7  21338404.889    21338405.174    21338410.656
        50.100          46.500
 127957241.530 6  99706969.90744  24349449.782    24349448.7814   24349453.3074
        38.600          29.9004
 132512304.334 6 103256352.20243  25216251.202    25216249.9424   25216248.0074
        39.700          20.7004
 25  1  1 11  2  0.0000000  0 38G10G24E19E08R04S31S35G21R12E13S48S33
                                E27R13E29G23R19G18E07E02E30R15G12E33
                                R20E26R14G08G27R05G32R18E12G28G31R03
                                G25G02
 107678811.819 8  83905588.00848  20490589.608    20490588.9914   20490590.8774
        52.100          53.1004
 122474650.003 7  95434829.27646  23306143.547    23306143.1094   23306145.9004
        42.600          39.3004
 137140948.714 6                  26097053.622
        38.000
 152143689.402 5                  28951972.528
        33.900
 106750439.647 8  83028172.632 8  19934889.445    19934889.667    19934894.600
        52.300          48.200
 198975236.833 7                  37863722.545
        45.400
 200953094.434 7                  38240101.229
        43.700
 123834061.775 6  96494086.47444  23564831.082    23564829.7864   23564830.1384
        40.700          25.3004
 129670587.782 7 100854935.505 6  24274601.013    24274601.542    24274608.978
        44.200          40.400
 148384713.438 5                  28236658.692
        35.800
 412698616.354 5                  78533996.577
        32.700
 202090951.063 7                  38456595.207
        44.700
 149792042.232 6                  28504480.547
        37.000
 116260626.965 7                  21771866.015    21771865.568
        43.100
 124053299.073 8                  23606549.253
        49.000
 113308402.538 7  88292273.15346  21561865.572    21561865.1834   21561864.7644
        46.300          36.1004
 110121891.900 6  85650387.536 7  20586116.351    20586115.605    20586121.252
        39.900          44.700
 130915889.700 6 102012376.03943  24912467.247    24912466.9034   24912469.0784
        39.600          21.6004
 128992797.926 7                  24546505.806
        47.200
 149898368.620 6                  28524716.906
        38.300
 147280171.891 6                  28026478.692
        38.800
 131234026.956 6 102070948.871 6  24558661.140    24558661.471    24558669.991
        41.200          38.200
 129868410.377 6 101196175.15944  24713131.053    24713130.4364   24713130.9214
        39.100          29.9004
 125920974.369 7                  23961957.479
        47.700
 116293233.121 6  90450340.306 7  21747414.987    21747414.327    21747421.816
        38.500          44.500
 128079537.469 7                  24372721.659
        47.500
 115847099.513 8  90103347.037 7  21732613.617    21732612.882    21732618.668
        50.300          44.400
 132263240.215 5 103062282.99144  25168852.453    25168851.7254   25168853.7384
        35.400          26.1004
 133979916.952 6 104399952.76145  25495526.406    25495525.6284   25495527.4754
        38.300          30.2004
 118517098.811 8  92179978.464 7  22171067.253    22171067.553    22171072.720
        49.300          42.700
 110230782.260 8  85894131.85848  20976211.628    20976211.1144   20976212.7844
        51.300          51.9004
 121614553.780 7  94589134.642 7  22782500.548    22782500.920    22782508.176
        44.800          43.600
 147415626.150 5                  28052257.876
        35.700
 120018304.061 7  93520759.60244  22838723.155    22838722.7624   22838723.3054
        43.600          29.9004
 132635228.765 6 103352123.94244  25239646.966    25239646.5694   25239647.7114
        37.100          26.8004
 114257008.131 8  88866598.316 7  21344162.733    21344163.099    21344168.527
        50.100          46.500
 127913878.682 6  99673180.74944  24341197.992    24341197.0004   24341201.9304
        38.400          29.7004
 132470257.441 6 103223588.41343  25208248.785    25208247.5424   25208246.6204
        40.100          20.9004
 25  1  1 11  2 15.0000000  0 38G10G24E19E08R04S31S35G21R12E13S48S33
                                E27R13E29G23R19G18E07E02E30R15G12E33
                                R20E26R14G08G27R05G32R18E12G28G31R03
                                G25G02
 107671773.980 8  83900103.97848  20489250.376    20489249.7644   20489251.6094
        52.000          53.3004
 122524606.587 7  95473756.39246  23315649.861    23315649.4194   23315652.3194
        42.600          39.0004
 137110497.896 6                  26091259.269
        38.000
 152179517.282 5                  28958790.354
        35.400
 106747801.438 8  83026120.692 8  19934396.497    19934396.957    19934401.975
        52.300          48.000
 198975240.759 7                  37863720.175
        45.500
 200953085.414 7                  38240101.126
        44.000
 123806822.755 6  96472861.26744  23559647.843    23559646.5604   23559646.7544
        41.100          25.3004
 129716449.852 7 100890605.661 6  24283186.685    24283187.218    24283194.672
        42.700          37.000
 148432680.494 5                  28245786.952
        35.700
 412698555.826 5                  78533986.449
        32.800
 202090946.594 7                  38456594.263
        44.700
 149754326.506 6                  28497303.073
        37.300
 116269194.903 7                  21773470.436    21773470.040
        43.200
 124044773.791 8                  23604927.081
        48.800
 113338567.443 7  88315778.29046  21567605.657    21567605.2684   21567604.9684
        46.000          36.1004
 110160995.976 6  85680801.767 7  20593425.757    20593425.796    20593431.197
        40.400          44.700
 130974763.169 6 102058251.42743  24923670.190    24923669.8284   24923672.2014
        39.900          21.6004
 129017719.518 7                  24551248.407
        46.800
 149899697.112 6                  28524969.368
        37.400
 147253623.730 6                  28021426.273
        38.200
 131171295.375 6 102022157.607 6  24546919.829    24546920.703    24546930.171
        38.800          37.600
 129839777.402 6 101173863.82344  24707682.412    24707681.8094   24707682.1464
        39.000          29.9004
 125913367.413 7                  23960509.977
        47.600
 116259976.337 6  90424473.941 7  21741195.550    21741195.418    21741203.090
        38.500          44.600
 128111970.600 7                  24378893.510
        47.300
 115798559.415 8  90065593.643 7  21723506.924    21723507.236    21723512.647
        50.700          44.600
 132292574.462 5 103085140.85444  25174434.116    25174433.3794   25174436.0134
        35.800          26.0004
 134019941.877 6 104431141.01345  25503143.146    25503142.3734   25503144.1464
        37.500          30.3004
 118482937.112 8  92153408.247 7  22164676.848    22164676.719    22164681.908
        49.100          42.700
 110220332.164 8  85885988.92448  20974223.294    20974222.7804   20974224.1874
        50.800          51.9004
 121680494.159 7  94640421.578 7  22794852.427    22794852.896    22794860.639
        44.600          43.200
 147375094.385 5                  28044545.662
        34.800
 119966867.810 7  93480679.43244  22828935.150    22828934.7754   22828935.3614
        42.400          29.9004
 132574845.205 6 103305071.77844  25228156.406    25228155.9864   25228157.3364
        36.500          26.7004
 114287854.357 8  88890589.833 7  21349924.809    21349925.711    21349930.468
        50.000          46.300
 127870531.217 6  99639403.56745  24332949.376    24332948.3484   24332952.8234
        38.100          30.0004
 132428267.880 6 103190869.31843  25200259.273    25200258.0044   25200256.9044
        40.200          21.2004
 25  1  1 11  2 30.0000000  0 38G10G24E19E08R04S31S35G21R12E13S48S33
                                E27R13E29G23R19G18E07E02E30R15G12E33
                                R20E26R14G08G27R05G32R18E12G28G31R03
                                G25G02
 107664818.471 8  83894684.09048  20487926.771    20487926.1544   20487928.0264
        51.900          53.5004
 122574639.917 6  95512743.30746  23325170.819    23325170.3774   23325173.3114
        41.000          38.7004
 137080081.880 6                  26085470.924
        38.400
 152215328.322 5                  28965605.033
        35.000
 106745219.029 8  83024112.149 7  19933914.324    19933914.706    19933919.813
        52.500          47.800
 198975244.087 7                  37863723.484
        45.700
 200953077.075 7                  38240099.552
        44.000
 123779681.877 6  96451712.57944  23554482.861    23554481.5604   23554482.1414
        40.600          25.7004
 129762431.345 7 100926368.931 5  24291794.986    24291795.382    24291802.564
        42.400          35.700
 148480649.325 5                  28254915.354
        35.400
 412698496.660 5                  78533970.114
        32.600
 202090943.143 7                  38456592.067
        44.700
 149716591.588 6                  28490121.901
        37.000
 116277958.851 7                  21775111.261    21775111.193
        42.700
 124036300.189 8                  23603314.387
        49.000
 113368811.606 7  88339345.16546  21573360.841    21573360.4574   21573360.2514
        46.200          36.2004
 110200264.182 6  85711343.679 7  20600767.060    20600766.841    20600771.893
        40.400          44.400
 131033640.403 6 102104129.73943  24934874.337    24934873.9844   24934876.5044
        38.600          21.2004
 129042664.565 7                  24555995.281
        47.200
 149901125.478 6                  28525241.839
        37.900
 147227135.542 6                  28016385.940
        37.500
 131108520.633 6 101973332.757 6  24535173.284    24535173.509    24535182.552
        38.500          36.700
 129811228.573 6 101151618.06745  24702250.071    24702249.4724   24702249.2854
        38.500          30.1004
 125905866.814 7                  23959082.596
        47.700
 116226894.105 6  90398743.325 7  21735008.181    21735008.369    21735016.421
        38.000          44.400
 128144483.421 7                  24385080.660
        47.300
 115750124.471 8  90027922.043 7  21714420.766    21714420.752    21714426.346
        50.300          44.800
 132321968.732 5 103108045.50544  25180027.735    25180026.9714   25180029.6154
        35.900          25.4004
 134059965.812 6 104462328.51145  25510759.534    25510758.7744   25510760.4734
        37.500          30.8004
 118448807.522 8  92126863.004 7  22158292.526    22158292.556    22158297.079
        49.900          42.500
 110209951.695 8  85877900.24548  20972247.938    20972247.4204   20972248.8484
        50.900          52.2004
 121746462.534 7  94691730.327 7  22807210.789    22807210.480    22807218.496
        43.600          43.300
 147334603.301 5                  28036839.936
        34.900
 119915492.428 6  93440646.68945  22819158.903    22819158.5374   22819158.9774
        41.900          30.0004
 132514456.839 5 103258015.86144  25216664.699    25216664.2264   25216665.4984
        34.500          25.9004
 114318728.122 8  88914602.762 7  21355692.564    21355692.758    21355698.074
        49.800          46.500
 127827202.894 6  99605641.29845  24324704.687    24324703.6684   24324708.0104
        36.700          30.3004
 132386339.206 6 103158197.56843  25192280.105    25192278.8314   25192278.4834
        40.000          21.9004
 25  1  1 11  2 45.0000000  0 38G10G24E19E08R04S31S35G21R12E13S48S33
                                E27R13E29G23R19G18E07E02E30R15G12E33
                                R20E26R14G08G27R05G32R18E12G28G31R03
                                G25G02
 107657948.083 8  83889330.53748  20486619.405    20486618.7844   20486620.6404
        51.500          53.4004
 122624752.206 6  95551791.76146  23334707.279    23334706.8414   23334709.5474
        41.800          39.3004
 137049703.161 6                  26079690.188
        38.500
 152251125.045 5                  28972416.953
        33.400
 106742694.935 8  83022148.975 7  19933442.823    19933443.178    19933448.281
        52.300          47.900
 198975250.924 7                  37863723.068
        45.900
 200953071.339 7                  38240097.527
        44.200
 123752641.663 6  96430642.28944  23549337.513    23549336.2174   23549336.3864
        41.100          25.4004
 129808534.307 7 100962226.851 6  24300424.703    24300424.903    24300432.733
        44.000          40.500
 148528622.320 5                  28264043.944
        34.800
 412698441.109 5                  78533957.048
        32.900
 202090942.962 7                  38456594.361
        45.300
 149678840.294 6                  28482938.255
        36.600
 116286921.766 7                  21776789.388    21776789.254
        42.900
 124027880.804 8                  23601712.445
        48.700
 113399137.614 7  88362975.81446  21579131.559    21579131.1704   21579131.1034
        46.300          36.1004
 110239699.009 6  85742015.168 7  20608138.314    20608138.829    20608144.195
        40.200          44.600
 131092523.701 6 102150012.76043  24946079.509    24946079.1564   24946082.3814
        38.200          21.5004
 129067635.608 7                  24560747.008
        47.000
 149902656.511 6                  28525533.372
        38.500
 147200710.155 6                  28011357.351
        38.000
 131045706.045 6 101924476.898 6  24523418.912    24523419.241    24523427.381
        41.700          37.800
 129782766.810 6 101129440.14144  24696833.209    24696832.6154   24696832.5144
        39.200          29.8004
 125898475.267 7                  23957675.726
        47.700
 116193989.915 6  90373151.192 7  21728854.856    21728855.439    21728863.567
        38.600          44.700
 128177078.399 7                  24391283.255
        47.300
 115701797.987 8  89990334.792 7  21705354.874    21705355.284    21705360.279
        50.500          44.900
 132351425.283 5 103130998.66744  25185632.822    25185632.0314   25185634.8474
        35.600          26.1004
 134099991.001 6 104493516.98845  25518375.515    25518374.7464   25518376.5854
        38.200          30.0004
 118414712.954 8  92100345.009 7  22151914.326    22151914.560    22151919.106
        49.900          42.500
 110199643.403 8  85869867.81548  20970286.043    20970285.5254   20970287.2504
        51.000          52.1004
 121812461.039 7  94743062.458 7  22819575.765    22819575.782    22819582.099
        44.900          43.300
 147294155.618 5                  28029143.597
        35.300
 119864180.745 7  93400663.55445  22809394.935    22809394.5694   22809394.6214
        43.000          30.0004
 132454066.541 6 103210958.44844  25205174.074    25205173.6234   25205173.2454
        36.700          26.6004
 114349631.582 8  88938638.770 7  21361466.123    21361466.137    21361471.301
        50.300          46.300
 127783896.736 6  99571896.31245  24316463.768    24316462.7494   24316466.9394
        37.800          30.1004
 132344474.539 6 103125575.76943  25184312.995    25184311.7174   25184312.1894
        39.600          21.3004
 25  1  1 11  3  0.0000000  0 38G10G24E19E08R04S31S35G21R12E13S48S33
                                E27R13E29G23R19G18E07E02E30R15G12E33
                                R20E26R14G08G27R05G32R18E12G28G31R03
                                G25G02
 107651157.925 8  83884039.51548  20485327.373    20485326.7564   20485328.5294
        51.600          53.4004
 122674937.895 6  95590897.37246  23344257.319    23344256.8954   23344259.6724
        41.400          38.7004
 137019356.650 6                  26073915.236
        38.500
 152286902.138 6                  28979225.052
        38.300
 106740223.889 8  83020227.054 7  19932981.426    19932981.769    19932986.899
        52.500          47.800
 198975255.392 7                  37863725.800
        45.700
 200953063.877 7                  38240096.529
        44.000
 123725697.553 6  96409646.89844  23544210.125    23544208.8334   23544209.0454
        40.400          25.3004
 129854751.278 7 100998172.773 6  24309077.957    24309077.850    24309085.488
        43.900          39.600
 148576594.102 5                  28273172.504
        35.700
 412698383.794 5                  78533948.489
        32.700
 202090939.808 7                  38456594.245
        44.900
 149641067.807 6                  28475750.643
        37.500
 116296078.152 7                  21778504.788    21778504.591
        43.300
 124019510.433 8                  23600119.479
        48.800
 113429540.376 7  88386666.26646  21584916.958    21584916.5524   21584916.5154
        46.300          36.0004
 110279294.592 6  85772811.709 7  20615541.072    20615540.840    20615545.414
        40.100          44.500
 131151407.611 6 102195896.28643  24957285.290    24957284.9694   24957287.6194
        37.800          21.7004
 129092627.410 7                  24565502.908
        47.000
 149904284.666 6                  28525843.044
        38.300
 147174342.652 6                  28006340.091
        38.000
 130982846.530 6 101875586.158 6  24511655.871    24511655.457    24511663.449
        39.400          36.300
 129754387.526 6 101107326.50045  24691433.105    24691432.4934   24691432.3284
        39.200          30.3004
 125891187.807 7                  23956289.127
        47.700
 116161258.449 6  90347693.363 7  21722734.023    21722734.490    21722742.242
        38.700          45.000
 128209750.228 7                  24397500.356
        47.200
 115653575.378 8  89952828.349 7  21696308.451    21696308.355    21696314.030
        50.300          44.700
 132380938.606 5 103153996.08644  25191249.257    25191248.4704   25191251.3444
        35.200          26.5004
 134140012.005 6 104524702.19445  25525991.048    25525990.2614   25525992.5144
        37.400          30.2004
 118380647.934 8  92073849.990 7  22145541.937    22145542.038    22145546.668
        49.900          42.600
 110189402.026 8  85861887.51848  20968337.362    20968336.8444   20968338.3734
        51.100          52.1004
 121878483.905 7  94794413.579 7  22831942.810    22831943.047    22831950.370
        43.700          43.400
 147253746.534 5                  28021453.500
        34.600
 119812928.081 7  93360726.40445  22799641.496    22799641.1394   22799641.5204
        42.700          30.1004
 132393669.550 6 103163895.81844  25193679.576    25193679.1474   25193679.7444
        36.400          27.1004
 114380559.591 8  88962693.869 7  21367242.673    21367243.531    21367248.963
        49.800          46.000
 127740608.027 6  99538164.90945  24308226.410    24308225.3644   24308229.1334
        38.400          30.4004
 132302668.908 6 103093000.00743  25176357.872    25176356.6034   25176356.4214
        39.300          20.8004
 25  1  1 11  3 15.0000000  0 38G10G24E19E08R04S31S35G21R12E13S48S33
                                E27R13E29G23R19G18E07E02E30R15G12E33
                                R20E26R14G08G27R05G32R18E12G28G31R03
                                G25G02
 107644453.218 8  83878815.06248  20484051.642    20484051.0214   20484052.6684
        52.000          53.5004
 122725201.736 7  95630063.86346  23353822.645    23353822.2164   23353824.5804
        42.300          38.7004
 136989047.442 6                  26068147.395
        38.100
 152322664.798 5                  28986030.939
        33.300
 106737811.039 8  83018350.375 7  19932531.214    19932531.289    19932536.168
        52.500          47.800
 198975262.695 7                  37863724.208
        46.000
 200953058.691 7                  38240093.770
        44.200
 123698854.821 6  96388730.50344  23539102.312    23539101.0294   23539100.8874
        41.100          25.9004
 129901089.160 6 101034213.029 6  24317751.912    24317752.074    24317759.854
        41.700          36.300
 148624569.753 5                  28282302.396
        35.500
 412698328.862 5                  78533943.248
        32.600
 202090940.153 7                  38456594.522
        45.300
 149603279.451 6                  28468559.317
        37.300
 116305433.397 7                  21780256.928    21780256.072
        43.400
 124011194.182 8                  23598537.098
        48.700
 113460025.003 7  88410420.50946  21590718.302    21590717.8914   21590717.5964
        46.200          36.0004
 110319055.770 6  85803737.025 7  20622973.773    20622973.813    20622979.062
        39.900          44.400
 131210296.998 6 102241784.09643  24968491.943    24968491.6354   24968493.6354
        38.300          21.4004
 129117645.012 7                  24570263.658
        47.000
 149906015.575 6                  28526172.840
        37.800
 147148038.507 6                  28001334.150
        37.600
 130919947.774 6 101826664.851 6  24499884.451    24499884.228    24499893.468
        39.800          36.900
 129726096.277 6 101085281.44445  24686049.537    24686048.9344   24686049.2014
        40.200          30.9004
 125884009.603 7                  23954923.359
        47.700
 116128705.667 6  90322374.568 7  21716646.609    21716647.069    21716654.598
        38.300          44.800
 128242503.924 7                  24403733.357
        47.200
 115605462.123 8  89915406.951 7  21687282.123    21687282.202    21687288.216
        49.900          44.900
 132410513.521 6 103177041.48044  25196876.820    25196876.0254   25196879.6014
        36.200          26.1004
 134180033.548 6 104555887.82745  25533607.177    25533606.3904   25533608.5554
        38.000          30.5004
 118346618.067 8  92047382.312 7  22139175.729    22139176.003    22139180.768
        49.800          42.700
 110179232.706 8  85853963.36748  20966402.287    20966401.7734   20966403.2034
        51.200          52.1004
 121944535.767 7  94845787.234 7  22844317.189    22844317.373    22844325.156
        44.800          44.100
 147213381.262 5                  28013772.275
        34.800
 119761739.965 7  93320839.61145  22789900.727    22789900.3654   22789900.7884
        42.600          30.2004
 132333271.298 5 103116832.21144  25182187.208    25182186.7884   25182186.4804
        35.200          26.1004
 114411517.361 8  88986772.119 7  21373026.567    21373026.864    21373031.916
        50.000          46.300
 127697342.305 6  99504451.41345  24299992.764    24299991.7274   24299995.9414
        37.800          30.4004
 132260927.833 6 103060474.53743  25168415.084    25168413.8194   25168412.9954
        40.200          20.7004
 25  1  1 11  3 30.0000000  0 38G10G24E19E08R04S31S35G21R12E13S48S33
                                E27R13E29G23R19G18E07E02E30R15G12E33
                                R20E26R14G08G27R05G32R18E12G28G31R03
                                G25G02
 107637827.679 8  83873652.29948  20482790.692    20482790.0714   20482791.8674
        52.100          53.5004
 122775537.064 6  95669286.09746  23363400.616    23363400.1784   23363403.2164
        41.700          38.3004
 136958769.172 6                  26062386.459
        38.500
 152358406.528 6                  28992832.686
        36.600
 106735449.761 8  83016513.840 7  19932090.385    19932090.316    19932095.145
        52.600          47.900
 198975266.764 7                  37863725.165
        45.900
 200953049.849 7                  38240094.213
        44.200
 123672107.094 6  96367888.13644  23534012.650    23534011.3764   23534010.8524
        41.100          25.5004
 129947541.199 7 101070342.613 6  24326447.614    24326447.922    24326455.501
        42.600          38.100
 148672542.490 5                  28291431.412
        34.800
 412698270.993 5                  78533926.261
        32.700
 202090937.453 7                  38456592.121
        45.100
 149565468.960 6                  28461364.259
        37.900
 116314980.246 7                  21782045.451    21782044.363
        43.400
 124002925.429 8                  23596963.393
        48.800
 113490584.941 7  88434233.43845  21596533.622    21596533.2204   21596532.9504
        46.200          35.9004
 110358975.456 6  85834785.616 7  20630436.880    20630436.182    20630441.292
        40.700          44.200
 131269184.937 6 102287670.74643  24979696.970    24979696.6894   24979699.6914
        38.000          20.9004
 129142681.730 7                  24575027.916
        47.000
 149907842.274 6                  28526520.286
        37.900
 147121791.360 6                  27996339.438
        37.700
 130857003.412 6 101777708.057 6  24488106.236    24488106.337    24488114.669
        41.500          37.200
 129697886.879 6 101063300.15945  24680680.785    24680680.1684   24680681.4474
        38.600          30.6004
 125876934.234 7                  23953576.605
        47.800
 116096325.039 6  90297189.660 7  21710591.524    21710591.571    21710599.507
        38.100          44.700
 128275332.767 7                  24409980.416
        47.200
 115557452.517 8  89878066.181 7  21678275.719    21678275.656    21678281.479
        50.100          44.900
 132440143.211 5 103200129.56544  25202515.223    25202514.4414   25202517.8344
        35.300          26.2004
 134220048.797 6 104587068.53845  25541221.759    25541220.9554   25541223.4104
        38.500          30.3004
 118312616.287 8  92020936.484 7  22132815.408    22132815.670    22132819.397
        50.100          42.900
 110169128.863 8  85846090.24048  20964479.461    20964478.9474   20964480.5034
        51.400          52.1004
 122010609.497 7  94897177.888 7  22856693.738    22856694.904    22856701.927
        44.300          43.200
 147173053.580 5                  28006098.600
        35.900
 119710609.971 7  93280998.08645  22780170.885    22780170.5374   22780170.9044
        43.100          30.2004
 132272865.578 6 103069762.78544  25170692.670    25170692.2324   25170691.8354
        36.700          26.9004
 114442498.166 8  89010868.302 7  21378814.364    21378814.275    21378819.591
        49.800          46.200
 127654093.441 6  99470751.05745  24291762.611    24291761.5874   24291766.0144
        37.700          30.5004
 132219244.918 6 103027994.41143  25160482.397    25160481.1014   25160480.8334
        39.600          21.1004
 25  1  1 11  3 45.0000000  0 37G10G24E19R04S31S35G21R12E13S48S33E27
                                R13E29G23R19G18E07E02E30R15G12E33R20
                                E26R14G08G27R05G32R18E12G28G31R03G25
                                G02
 107631286.028 8  83868554.90848  20481545.791    20481545.1744   20481547.0484
        51.700          53.4004
 122825948.044 6  95708567.38546  23372993.688    23372993.2594   23372996.2644
        41.900          38.4004
 136928526.239 6                  26056630.837
        38.200
 106733144.701 8  83014721.013 7  19931659.577    19931659.837    19931664.743
        52.500          47.800
 198975271.321 7                  37863726.243
        46.000
 200953041.883 7                  38240091.007
        44.400
 123645459.223 6  96347123.57844  23528941.062    23528939.7574   23528939.9344
        41.800          25.8004
 129994110.269 7 101106562.982 6  24335165.105    24335166.016    24335173.864
        42.800          37.000
 148720516.675 5                  28300559.879
        34.800
 412698214.800 5                  78533916.557
        32.700
 202090934.212 7                  38456593.807
        45.300
 149527641.115 6                  28454165.734
        37.600
 116324724.005 7                  21783868.946    21783868.754
        43.200
 123994708.710 8                  23595399.656
        48.800
 113521224.772 7  88458108.62545  21602364.203    21602363.7974   21602363.5444
        46.200          35.7004
 110399057.706 6  85865960.660 7  20637928.374    20637929.110    20637934.516
        40.100          44.300
 131328075.727 6 102333559.61443  24990903.633    24990903.3344   24990906.4944
        39.600          21.6004
 129167742.071 7                  24579796.933
        46.900
 149909769.692 6                  28526887.186
        37.200
 147095606.034 6                  27991356.443
        38.000
 130794018.831 6 101728720.031 6  24476318.760    24476319.073    24476328.281
        40.100          37.400
 129669764.021 6 101041386.31145  24675329.816    24675329.2084   24675329.6084
        38.200          30.1004
 125869966.391 7                  23952251.012
        47.800
 116064122.109 6  90272142.943 7  21704568.907    21704569.570    21704577.264
        39.000          44.800
 128308241.194 7                  24416242.631
        47.300
 115509551.555 8  89840809.902 7  21669289.702    21669289.823    21669295.744
        50.400          45.000
 132469831.833 5 103223263.57844  25208165.284    25208164.5114   25208167.6084
        35.700          26.1004
 134260061.968 6 104618247.65045  25548835.672    25548834.8774   25548837.5914
        38.200          30.3004
 118278647.417 8  91994516.259 7  22126460.126    22126460.690    22126465.535
        49.900          42.900
 110159094.981 8  85838271.63648  20962570.087    20962569.5694   20962571.1164
        51.100          52.0004
 122076709.204 7  94948588.744 7  22869077.912    22869077.221    22869085.026
        44.000          43.200
 147132768.375 5                  27998432.269
        35.100
 119659543.079 7  93241205.71945  22770453.171    22770452.8184   22770453.2594
        42.800          30.4004
 132212457.257 6 103022691.35144  25159196.314    25159195.8674   25159196.8674
        37.600          27.0004
 114473506.807 8  89034986.128 7  21384606.616    21384606.998    21384612.050
        49.700          46.400
 127610866.423 6  99437067.72845  24283537.127    24283536.1264   24283539.9364
        38.200          30.3004
 132177625.063 6 102995563.38143  25152563.039    25152561.7294   25152560.1454
        39.600          20.6004
 25  1  1 11  4  0.0000000  0 37G10G24E19R04S31S35G21R12E13S48S33E27
                                R13E29G23R19G18E07E02E30R15G12E33R20
                                E26R14G08G27R05G32R18E12G28G31R03G25
                                G02
 107624831.475 8  83863525.38848  20480317.604    20480316.9874   20480318.7964
        51.900          53.5004
 122876437.315 6  95747909.70646  23382601.495    23382601.0714   23382604.2344
        41.600          38.5004
 136898321.883 6                  26050883.302
        38.300
 106730898.633 8  83012974.084 8  19931240.389    19931240.448    19931245.278
        52.500          48.000
 198975280.227 7                  37863730.375
        45.700
 200953038.435 7                  38240089.759
        44.100
 123618914.327 6  96326439.25144  23523889.413    23523888.0944   23523888.9504
        40.800          25.2004
 130040799.509 7 101142877.006 6  24343905.916    24343906.129    24343913.735
        42.500          36.600
 148768495.145 5                  28309690.057
        35.800
 412698163.286 5                  78533912.734
        32.500
 202090936.007 7                  38456592.336
        44.900
 149489799.237 6                  28446964.657
        37.300
 116334667.365 7                  21785731.264    21785730.921
        42.700
 123986546.970 8                  23593846.768
        48.800
 113551947.466 7  88482048.37445  21608210.857    21608210.4554   21608209.9174
        45.900          35.8004
 110439305.312 6  85897264.318 7  20645453.768    20645453.380    20645458.320
        40.400          44.400
 131386972.074 6 102379452.82243  25002110.825    25002110.5084   25002114.0084
        38.500          20.7004
 129192828.941 7                  24584570.599
        47.000
 149911800.700 6                  28527274.008
        37.000
 147069485.772 6                  27986386.406
        37.900
 130730997.219 6 101679703.226 6  24464526.023    24464525.557    24464534.725
        41.000          38.100
 129641731.288 6 101019542.68545  24669994.832    24669994.2384   24669994.6674
        39.500          30.4004
 125863109.192 7                  23950946.059
        47.500
 116032100.125 6  90247236.990 7  21698580.975    21698581.262    21698589.064
        38.900          45.000
 128341232.069 7                  24422520.558
        47.200
 115461762.906 8  89803640.992 7  21660324.126    21660324.381    21660330.177
        50.200          44.700
 132499582.200 6 103246445.69744  25213825.532    25213824.7454   25213828.5574
        36.300          26.0004
 134300075.687 6 104649427.17044  25556450.660    25556449.8824   25556451.9194
        38.500          29.8004
 118244714.369 8  91968123.871 7  22120112.595    22120113.396    22120117.060
        50.400          42.900
 110149134.014 8  85830509.84348  20960674.725    20960674.2114   20960675.6094
        50.900          52.1004
 122142837.526 7  95000021.856 7  22881464.771    22881466.008    22881473.241
        43.700          43.500
 147092528.685 5                  27990774.613
        34.600
 119608542.629 7  93201465.12945  22760748.091    22760747.7344   22760748.3274
        42.600          30.4004
 132152049.633 5 102975620.45244  25147701.315    25147700.8284   25147701.7744
        35.500          26.1004
 114504546.073 8  89059127.758 7  21390405.533    21390405.414    21390410.546
        49.900          46.400
 127567664.688 6  99403404.09745  24275316.059    24275315.0624   24275318.8674
        38.100          30.4004
 132136071.610 6 102963184.07943  25144655.786    25144654.4634   25144652.9934
        40.400          20.8004
 25  1  1 11  4 15.0000000  0 37G10G24E19R04S31S35G21R12E13S48S33E27
                                R13E29G23R19G18E07E02E30R15G12E33R20
                                E26R14G08G27R05G32R18E12G28G31R03G25
                                G02
 107618454.313 8  83858556.16448  20479104.089    20479103.4774   20479105.2654
        51.900          53.4004
 122926994.368 7  95787304.76846  23392222.340    23392221.9024   23392224.9484
        42.100          38.1004
 136868146.016 6                  26045140.975
        38.300
 106728701.756 8  83011265.392 8  19930830.028    19930830.163    19930835.149
        52.800          48.100
 198975283.011 7                  37863729.605
        45.500
 200953029.163 7                  38240087.966
        43.900
 123592462.754 6  96305827.66644  23518856.558    23518855.2354   23518855.4194
        41.500          25.5004
 130087598.299 7 101179276.182 6  24352667.006    24352667.245    24352675.115
        43.500          38.100
 148816467.894 6                  28318818.764
        36.200
 412698106.158 5                  78533894.964
        32.900
 202090932.446 7                  38456591.535
        45.000
 149451933.652 6                  28439759.060
        37.400
 116344800.423 7                  21787629.132    21787628.414
        43.300
 123978430.269 8                  23592302.186
        48.900
 113582743.164 7  88506045.00945  21614071.107    21614070.7144   21614070.1044
        46.000          35.7004
 110479707.650 6  85928688.336 7  20653005.463    20653005.910    20653010.994
        39.600          44.300
 131445863.841 6 102425342.45243  25013318.288    25013317.9844   25013320.8864
        38.300          21.4004
 129217932.428 7                  24589347.842
        47.100
 149913925.788 6                  28527678.191
        38.400
 147043420.925 6                  27981425.905
        37.700
 130667928.907 6 101630650.045 6  24452723.719    24452722.817    24452732.968
        40.000          39.300
 129613779.160 6 100997761.85745  24664675.877    24664675.2834   24664675.3194
        38.900          30.2004
 125856352.880 7                  23949660.235
        47.600
 116000248.866 6  90222463.765 7  21692625.522    21692625.379    21692632.769
        39.400          45.000
 128374295.357 7                  24428812.257
        47.200
 115414077.196 8  89766552.109 7  21651379.346    21651379.473    21651385.255
        50.600          45.300
 132529383.951 5 103269667.86644  25219497.797    25219497.0154   25219499.4074
        35.500          26.3004
 134340079.835 6 104680599.24744  25564062.590    25564061.8034   25564064.3384
        36.500          29.3004
 118210807.302 8  91941751.699 7  22113769.080    22113769.478    22113774.037
        49.500          42.900
 110139236.049 8  85822797.14348  20958791.176    20958790.6764   20958792.0944
        51.000          52.0004
 122208983.938 7  95051469.051 7  22893856.760    22893856.762    22893865.015
        44.300          43.700
 147052325.217 5                  27983125.287
        35.600
 119557599.117 7  93161768.91645  22751054.068    22751053.7154   22751053.9074
        43.200          30.2004
 132091633.127 6 102928542.64644  25136205.257    25136204.7844   25136204.5404
        37.100          27.1004
 114535606.210 8  89083285.635 7  21396207.432    21396207.827    21396212.714
        49.100          46.300
 127524478.830 6  99369752.84645  24267097.247    24267096.2464   24267100.8304
        38.300          30.8004
 132094575.008 6 102930849.08643  25136758.623    25136757.3094   25136756.2684
        39.800          20.3004
 25  1  1 11  4 30.0000000  0 37G10G24E19R04S31S35G21R12E13S48S33E27
                                R13E29G23R19G18E07E02E30R15G12E33R20
                                E26R14G08G27R05G32R18E12G28G31R03G25
                                G02
 107612163.562 8  83853654.27948  20477906.834    20477906.2134   20477908.1624
        51.800          53.3004
 122977627.785 6  95826759.32146  23401857.476    23401857.0384   23401859.9174
        41.500          38.0004
 136838007.563 6                  26039405.369
        38.900
 106726562.823 8  83009601.801 8  19930430.413    19930430.668    19930435.650
        52.500          48.100
 198975289.244 7                  37863730.710
        45.600
 200953023.156 7                  38240089.308
        43.900
 123566113.407 6  96285295.69244  23513842.146    23513840.8274   23513841.1654
        41.200          25.6004
 130134514.461 7 101215766.349 6  24361449.925    24361448.568    24361457.815
        42.100          38.600
 148864443.545 5                  28327948.676
        35.800
 412698052.172 5                  78533880.270
        32.700
 202090932.049 7                  38456591.504
        44.900
 149414053.425 6                  28432550.500
        37.900
 116355131.697 7                  21789564.299    21789563.549
        43.300
 123970367.344 8                  23590767.730
        49.100
 113613620.621 7  88530105.35045  21619946.306    21619945.9134   21619945.9014
        46.400          35.5004
 110520273.084 6  85960239.194 7  20660589.479    20660589.590    20660594.454
        40.300          44.200
 131504759.499 6 102471235.10143  25024525.644    25024525.3544   25024528.8214
        37.900          21.9004
 129243061.212 7                  24594129.641
        47.300
 149916153.401 6                  28528101.834
        37.400
 147017420.556 6                  27976478.593
        38.900
 130604823.613 6 101581568.117 6  24440913.814    24440913.440    24440923.793
        39.400          38.900
 129585916.800 6 100976050.99045  24659373.679    24659373.0854   24659373.4284
        40.000          30.5004
 125849706.315 8                  23948395.608
        48.100
 115968578.127 6  90197831.022 7  21686702.010    21686702.169    21686709.989
        38.500          45.000
 128407439.699 7                  24435119.600
        47.600
 115366503.713 8  89729550.552 7  21642453.903    21642453.980    21642460.115
        50.300          45.100
 132559245.643 5 103292936.71744  25225179.727    25225178.9324   25225181.7884
        35.500          25.7004
 134380082.747 6 104711770.35645  25571675.343    25571674.5614   25571676.6004
        38.900          30.1004
 118176934.974 8  91915406.558 7  22107432.370    22107433.261    22107437.493
        50.200          42.900
 110129409.795 8  85815140.32348  20956921.327    20956920.8274   20956922.2234
        51.100          51.9004
 122275156.747 7  95102936.766 7  22906252.480    22906253.294    22906260.858
        43.600          43.200
 147012166.666 5                  27975482.540
        35.200
 119506721.617 7  93122124.16745  22741371.895    22741371.5424   22741372.2364
        43.300          30.3004
 132031216.899 6 102881465.04144  25124707.522    25124707.0624   25124707.6584
        37.000          26.9004
 114566695.752 8  89107466.385 7  21402015.672    21402015.266    21402020.515
        49.900          46.600
 127481318.003 6  99336121.09145  24258884.066    24258883.0564   24258887.5284
        38.700          30.7004
 132053144.556 6 102898565.65543  25128875.299    25128873.9894   25128871.8774
        38.800          20.3004
 25  1  1 11  4 45.0000000  0 37G10G24E19R04S31S35G21R12E13S48S33E27
                                R13E29G23R19G18E07E02E30R15G12E33R20
                                E26R14G08G27R05G32R18E12G28G31R03G25
                                G02
 107605954.210 8  83848815.81748  20476725.513    20476724.8964   20476726.5674
        52.100          53.2004
 123028332.124 6  95866269.15046  23411506.593    23411506.1464   23411508.6414
        41.500          37.6004
 136807901.208 6                  26033676.577
        38.900
 106724476.503 8  83007979.093 8  19930041.060    19930041.324    19930046.185
        53.100          48.200
 198975292.586 7                  37863731.197
        45.900
 200953013.795 7                  38240086.178
        44.200
 123539861.370 6  96264839.54644  23508846.524    23508845.1964   23508845.6704
        41.400          24.9004
 130181543.426 6 101252344.426 6  24370253.597    24370253.797    24370260.974
        41.500          36.400
 148912416.659 6                  28337077.764
        36.400
 412697996.257 5                  78533873.071
        32.900
 202090927.592 7                  38456591.388
        45.100
 149376153.589 6                  28425338.420
        37.200
 116365655.997 7                  21791534.504    21791533.907
        42.200
 123962352.958 8                  23589242.859
        49.200
 113644574.644 7  88554225.35045  21625836.916    21625836.5144   21625836.1734
        46.300          35.3004
 110560996.048 6  85991912.600 7  20668202.127    20668201.883    20668206.980
        40.100          44.200
 131563653.535 6 102517126.49643  25035734.122    25035733.8364   25035735.8114
        37.600          20.5004
 129268209.946 7                  24598915.264
        47.600
 149918478.488 6                  28528544.785
        37.800
 146991479.730 6                  27971542.159
        39.600
 130541676.274 6 101532453.442 6  24429096.733    24429096.999    24429105.916
        40.800          37.400
 129558139.347 6 100954406.28744  24654088.207    24654087.6044   24654087.5004
        38.400          29.7004
 125843164.427 8                  23947150.787
        48.300
 115937083.064 6  90173334.935 7  21680811.784    21680811.942    21680820.352
        38.400          45.500
 128440659.766 7                  24441441.198
        47.600
 115319037.960 8  89692632.745 7  21633549.441    21633549.616    21633555.407
        50.200          45.000
 132589161.684 6 103316247.94144  25230872.920    25230872.1204   25230874.3514
        37.200          25.7004
 134420078.910 6 104742936.23645  25579286.140    25579285.3404   25579287.4854
        38.300          30.3004
 118143092.292 8  91889084.460 7  22101102.037    22101102.637    22101106.726
        50.900          42.800
 110119650.036 8  85807535.31748  20955063.822    20955063.3224   20955064.9794
        51.600          51.9004
 122341350.224 7  95154420.592 7  22918652.833    22918653.881    22918661.400
        43.600          43.200
 146972048.502 5                  27967848.013
        35.500
 119455905.270 7  93082527.08745  22731702.119    22731701.7844   22731702.1204
        43.900          30.4004
 131970796.002 6 102834383.81244  25113210.531    25113210.0754   25113210.2314
        36.400          27.1004
 114597809.683 8  89131666.114 7  21407827.425    21407827.995    21407833.249
        50.000          46.500
 127438177.393 6  99302505.08745  24250674.689    24250673.6974   24250678.0944
        38.100          30.3004
 132011774.951 6 102866329.62643  25121003.181    25121001.8854   25120999.3304
        39.100          20.1004
 25  1  1 11  5  0.0000000  0 37G10G24E19R04S31S35G21R12E13S48S33E27
                                R13E29G23R19G18E07E02E30R15G12E33R20
                                E26R14G08G27R05G32R18E12G28G31R03G25
                                G02
 107599833.188 8  83844046.20048  20475560.759    20475560.1424   20475561.7724
        52.200          53.3004
 123079113.793 7  95905839.27646  23421169.833    23421169.3774   23421172.1934
        42.100          37.8004
 136777833.960 6                  26027954.803
        38.700
 106722449.671 8  83006402.679 7  19929662.359    19929662.614    19929667.712
        52.400          47.800
 198975301.273 7                  37863732.490
        45.800
 200953009.597 7                  38240086.924
        44.300
 123513713.815 6  96244464.83544  23503870.879    23503869.5744   23503869.6794
        41.200          25.4004
 130228691.158 7 101289014.890 6  24379080.079    24379080.695    24379087.407
        44.100          38.100
 148960393.949 5                  28346207.970
        35.800
 412697945.652 5                  78533866.032
        32.800
 202090928.976 7                  38456592.090
        45.000
 149338241.214 6                  28418124.190
        38.100
 116376380.314 7                  21793543.438    21793542.502
        42.900
 123954393.836 8                  23587728.302
        49.000
 113675612.011 7  88578410.29445  21631743.232    21631742.8214   21631742.4034
        46.400          35.3004
 110601882.950 6  86023713.479 7  20675845.484    20675845.322    20675850.902
        39.900          44.100
 131622552.507 6 102563021.74943  25046941.694    25046941.4084   25046943.7454
        39.600          21.4004
 129293385.393 7                  24603705.958
        47.100
 149920907.504 6                  28529006.440
        36.900
 146965605.485 6                  27966617.663
        39.200
 130478494.438 7 101483311.973 6  24417273.417    24417273.684    24417281.931
        43.000          37.900
 129530453.985 6 100932833.33144  24648819.475    24648818.8584   24648819.0794
        40.100          29.8004
 125836734.103 8                  23945927.162
        48.000
 115905770.774 6  90148980.976 7  21674957.989    21674956.554    21674964.570
        38.300          45.000
 128473962.190 7                  24447778.525
        47.300
 115271687.269 8  89655804.449 7  21624667.150    21624666.961    21624672.882
        50.400          45.300
 132619138.603 6 103339606.60944  25236576.294    25236575.4854   25236578.4924
        36.200          26.0004
 134460074.850 6 104774101.91345  25586897.111    25586896.3024   25586899.1614
        36.900          30.4004
 118109285.644 8  91862790.392 7  22094777.392    22094777.612    22094782.635
        49.600          43.000
 110109963.490 8  85799987.35848  20953220.684    20953220.1844   20953221.6824
        52.100          51.9004
 122407570.701 7  95205925.372 7  22931058.310    22931058.783    22931066.942
        42.600          43.700
 146931977.315 5                  27960222.627
        35.300
 119405157.161 7  93042983.16745  22722044.576    22722044.2464   22722044.9984
        43.800          30.7004
 131910377.518 6 102787304.46344  25101713.985    25101713.5564   25101712.9974
        37.900          27.5004
 114628954.918 8  89155890.166 7  21413645.743    21413646.073    21413651.465
        50.000          46.300
 127395064.282 6  99268910.49245  24242471.031    24242470.0214   24242474.0134
        38.700          30.6004
 131970473.445 6 102834146.60943  25113143.434    25113142.1824   25113140.9144
        39.800          20.7004
 25  1  1 11  5 15.0000000  0 37G10G24E19R04S31S35G21R12E13S48S33E27
                                R13E29G23R19G18E07E02E30R15G12E33R20
                                E26R14G08G27R05G32R18E12G28G31R03G25
                                G02
 107593794.648 8  83839340.85348  20474411.586    20474410.9744   20474412.6774
        52.100          53.4004
 123129966.092 6  95945464.35246  23430846.816    23430846.3514   23430849.0884
        41.500          37.5004
 136747799.644 6                  26022240.082
        38.500
 106720476.175 8  83004867.726 8  19929293.693    19929294.201    19929299.156
        52.400          48.100
 198975307.533 7                  37863733.880
        45.500
 200953003.188 7                  38240086.017
        44.000
 123487664.730 6  96224166.85644  23498914.152    23498912.8514   23498912.6714
        41.400          25.4004
 130275950.717 7 101325772.229 6  24387926.418    24387927.223    24387935.567
        42.700          37.600
 149008369.088 5                  28355337.622
        35.600
 412697893.492 5                  78533843.160
        32.500
 202090928.977 7                  38456591.169
        44.700
 149300310.464 6                  28410905.987
        38.100
 116387298.424 7                  21795588.512    21795586.628
        42.400
 123946483.827 8                  23586222.978
        48.900
 113706726.630 7  88602655.43745  21637664.177    21637663.7624   21637663.3954
        46.100          35.4004
 110642927.045 6  86055636.622 7  20683517.522    20683518.201    20683523.410
        39.800          44.100
 131681449.953 6 102608915.81043  25058149.161    25058148.8264   25058151.7694
        39.100          21.3004
 129318581.346 7                  24608500.635
        47.400
 149923434.774 6                  28529487.913
        37.300
 146939791.909 6                  27961706.173
        38.900
 130415272.058 7 101434138.964 6  24405443.618    24405443.184    24405451.292
        43.200          39.100
 129502855.092 6 100911327.75945  24643567.752    24643567.1354   24643567.4234
        38.500          30.4004
 125830409.349 8                  23944723.601
        48.000
 115874635.576 6  90124764.776 7  21669133.684    21669133.866    21669141.900
        37.300          44.700
 128507340.740 7                  24454130.314
        47.400
 115224445.900 8  89619061.187 7  21615804.195    21615804.934    21615810.202
        50.000          45.300
 132649169.941 5 103363007.67244  25242292.363    25242291.5904   25242293.6994
        35.900          25.8004
 134500064.083 6 104805262.35545  25594507.233    25594506.4384   25594508.8344
        38.100          30.2004
 118075509.245 8  91836519.830 7  22088459.249    22088459.357    22088464.081
        50.100          43.100
 110100343.995 8  85792491.64448  20951390.104    20951389.5994   20951391.1484
        51.200          51.9004
 122473811.502 7  95257445.997 7  22943467.094    22943467.894    22943475.431
        42.500          43.200
 146891947.375 5                  27952605.321
        34.900
 119354471.410 7  93003487.79345  22712399.938    22712399.5944   22712399.6734
        43.600          30.5004
 131849955.692 6 102740222.52044  25090214.757    25090214.2704   25090215.1134
        38.300          28.3004
 114660125.009 8  89180133.564 7  21419468.141    21419468.778    21419474.179
        49.900          46.500
 127351972.957 6  99235332.89745  24234270.791    24234269.7594   24234274.1484
        38.600          31.1004
 131929234.427 6 102802012.36743  25105295.461    25105294.2234   25105293.5164
        40.100          21.4004
 25  1  1 11  5 30.0000000  0 37G10G24E19R04S31S35G21R12E13S48S33E27
                                R13E29G23R19G18E07E02E30R15G12E33R20
                                E26R14G08G27R05G32R18E12G28G31R03G25
                                G02
 107587841.784 8  83834702.26748  20473278.640    20473278.0324   20473279.8944
        52.300          53.5004
 123180891.966 7  95985146.78246  23440537.688    23440537.2154   23440540.0114
        42.100          38.0004
 136717801.294 6                  26016531.594
        38.800
 106718559.144 8  83003376.715 7  19928935.868    19928936.051    19928941.118
        52.600          47.900
 198975315.734 7                  37863734.703
        45.600
 200952998.846 7                  38240082.515
        44.000
 123461717.457 6  96203948.20544  23493976.540    23493975.2304   23493974.9944
        41.900          25.6004
 130323325.499 6 101362619.262 6  24396794.898    24396795.605    24396803.242
        41.800          37.000
 149056344.947 5                  28364466.667
        34.500
 412697843.373 5                  78533841.005
        32.800
 202090929.889 7                  38456592.939
        45.000
 149262364.617 6                  28403684.728
        38.200
 116398412.886 7                  21797669.380    21797668.776
        43.800
 123938625.910 8                  23584727.793
        48.800
 113737921.524 7  88626963.12545  21643600.579    21643600.1594   21643599.6494
        46.500          35.4004
 110684130.890 6  86087684.046 7  20691221.276    20691221.023    20691226.071
        40.000          44.400
 131740348.627 6 102654810.82843  25069356.930    25069356.5774   25069360.1324
        38.500          21.8004
 129343800.769 7                  24613299.534
        47.300
 149926063.515 6                  28529987.991
        37.900
 146914042.366 6                  27956805.883
        38.300
 130352012.830 6 101384937.389 6  24393603.254    24393602.676    24393612.855
        40.200          38.400
 129475345.906 6 100889892.08345  24638332.283    24638331.6714   24638332.2664
        40.200          30.4004
 125824193.288 7                  23943540.776
        47.900
 115843681.010 6  90100689.041 7  21663346.877    21663345.463    21663353.407
        38.500          45.200
 128540798.293 7                  24460496.885
        47.200
 115177317.985 8  89582406.179 7  21606963.422    21606963.217    21606969.518
        50.300          45.400
 132679258.389 6 103386453.23744  25248017.739    25248016.9484   25248019.3264
        36.300          26.1004
 134540049.260 6 104836419.64445  25602115.454    25602114.6454   25602117.7034
        39.000          30.9004
 118041765.824 8  91810274.911 7  22082146.859    22082147.187    22082152.104
        49.900          43.100
 110090794.546 8  85785050.51348  20949573.041    20949572.5324   20949573.9214
        51.800          52.0004
 122540075.236 6  95308984.459 7  22955881.301    22955880.702    22955888.977
        41.600          43.300
 146851961.920 5                  27944996.316
        35.400
 119303851.441 7  92964043.65845  22702767.095    22702766.7334   22702767.0334
        44.000          30.8004
 131789533.847 6 102693140.56844  25078716.684    25078716.1394   25078717.1724
        37.600          26.8004
 114691323.145 8  89204398.799 7  21425296.276    21425297.028    21425302.192
        49.800          46.600
 127308906.898 6  99201774.98145  24226075.217    24226074.1764   24226079.0284
        39.200          31.8004
 131888060.895 6 102769929.12043  25097460.527    25097459.3114   25097458.8184
        40.200          21.3004
 25  1  1 11  5 45.0000000  0 37G10G24E19R04S31S35G21R12E13S48S33E27
                                R13E29G23R19G18E07E02E30R15G12E33R20
                                E26R14G08G27R05G32R18E12G28G31R03G25
                                G02
 107581969.416 8  83830126.41148  20472161.078    20472160.4704   20472162.4004
        52.000          53.3004
 123231885.550 6  96024881.92246  23450241.388    23450240.9234   23450243.8974
        41.200          37.3004
 136687833.500 6                  26010828.828
        38.600
 106716692.979 8  83001925.245 7  19928587.472    19928587.694    19928592.550
        52.500          47.800
 198975321.034 7                  37863736.326
        45.500
 200952990.823 7                  38240083.419
        43.900
 123435866.625 6  96183804.73344  23489057.301    23489055.9824   23489055.7394
        41.400          25.9004
 130370809.415 6 101399551.344 5  24405685.006    24405684.761    24405692.112
        41.400          35.300
 149104315.967 5                  28373595.400
        34.900
 412697789.435 5                  78533823.668
        32.700
 202090927.827 7                  38456590.739
        44.800
 149224398.567 6                  28396460.416
        37.700
 116409718.475 7                  21799786.321    21799785.786
        43.200
 123930814.683 8                  23583241.150
        48.900
 113769191.302 7  88651329.17745  21649550.718    21649550.2944   21649550.0504
        45.900          35.1004
 110725488.654 6  86119851.161 7  20698952.518    20698952.400    20698957.788
        40.400          44.200
 131799242.850 6 102700702.36343  25080564.606    25080564.2854   25080567.5924
        37.100          21.1004
 129369038.197 7                  24618102.214
        47.000
 149928788.057 6                  28530505.829
        36.300
 146888351.704 6                  27951917.070
        38.600
 130288711.850 6 101335703.274 6  24381758.228    24381758.743    24381766.959
        41.800          38.700
 129447921.438 6 100868522.41745  24633113.540    24633112.9104   24633113.5114
        39.200          30.2004
 125818080.720 7                  23942377.416
        47.700
 115812901.800 6  90076749.675 7  21657590.309    21657589.805    21657597.562
        38.300          44.900
 128574329.334 7                  24466877.446
        47.100
 115130298.223 8  89545835.281 7  21598142.523    21598142.973    21598148.424
        50.100          45.400
 132709398.270 6 103409938.88144  25253752.628    25253751.8504   25253754.8884
        36.700          26.1004
 134580024.770 6 104867569.39444  25609722.343    25609721.5434   25609724.8724
        37.100          29.9004
 118008050.562 8  91784051.917 7  22075839.729    22075840.344    22075844.737
        50.500          43.200
 110081309.749 8  85777659.75848  20947767.978    20947767.4694   20947769.0174
        51.300          51.8004
 122606355.892 7  95360536.056 7  22968297.955    22968298.398    22968306.463
        43.300          43.800
 146812015.940 5                  27937394.778
        34.700
 119253292.269 7  92924646.88845  22693145.971    22693145.5914   22693146.1984
        43.600          30.9004
 131729106.878 6 102646054.60544  25067218.131    25067217.5374   25067217.7244
        36.500          27.2004
 114722544.071 8  89228681.722 7  21431129.091    21431129.540    21431134.646
        49.600          46.400
 127265861.164 6  99168232.91145  24217883.282    24217882.2414   24217888.0304
        38.900          31.6004
 131846947.962 6 102737893.11943  25089637.074    25089635.8544   25089635.1644
        40.500          20.6004
 25  1  1 11  6  0.0000000  0 37G10G24E19R04S31S35G21R12E13S48S33E27
                                R13E29G23R19G18E07E02E30R15G12E33R20
                                E26R14G08G27R05G32R18E12G28G31R03G25
                                G02
 107576183.885 8  83825618.22448  20471060.128    20471059.5164   20471061.4384
        52.200          53.3004
 123282952.845 7  96064674.56646  23459958.971    23459958.5114   23459961.6324
        42.000          37.1004
 136657902.430 6                  26005133.194
        38.300
 106714883.879 8  83000518.195 7  19928249.827    19928249.827    19928254.599
        52.800          47.800
 198975327.189 7                  37863739.237
        45.500
 200952985.451 7                  38240081.456
        44.000
 123410118.597 6  96163741.30344  23484157.343    23484156.0384   23484156.2054
        41.100          25.4004
 130418408.173 7 101436572.752 6  24414595.202    24414594.930    24414603.171
        42.200          37.900
 149152288.138 5                  28382723.465
        35.600
 412697738.117 5                  78533818.450
        32.200
 202090927.528 7                  38456592.863
        44.600
 149186418.713 6                  28389232.459
        37.100
 116421221.600 7                  21801940.761    21801939.646
        43.000
 123923056.241 8                  23581764.755
        48.900
 113800542.109 7  88675758.36345  21655516.652    21655516.2324   21655515.9104
        45.800          34.9004
 110767006.058 6  86152142.443 7  20706712.436    20706713.464    20706718.687
        39.500          44.100
 131858138.576 6 102746595.07643  25091772.166    25091771.8534   25091774.6644
        38.600          21.6004
 129394299.671 7                  24622909.350
        46.900
 149931614.839 6                  28531044.859
        37.200
 146862726.312 6                  27947040.365
        38.200
 130225375.445 6 101286441.614 6  24369906.302    24369906.243    24369914.588
        41.900          38.600
 129420588.284 6 100847223.91345  24627912.545    24627911.9024   24627911.9464
        40.100          30.0004
 125812077.851 7                  23941234.929
        47.900
 115782304.928 6  90052952.132 7  21651867.844    21651867.859    21651875.495
        38.500          45.200
 128607939.872 7                  24473273.572
        47.100
 115083393.521 8  89509353.871 7  21589343.849    21589343.651    21589348.696
        50.400          45.100
 132739595.427 5 103433469.14744  25259498.500    25259497.7314   25259501.5004
        35.900          25.8004
 134619996.344 6 104898716.10045  25617329.002    25617328.2024   25617330.5744
        37.700          30.0004
 117974369.201 8  91757855.330 7  22069539.080    22069538.853    22069544.409
        49.500          43.500
 110071895.689 8  85770324.12648  20945976.487    20945975.9644   20945977.5604
        51.300          51.8004
 122672659.267 7  95412105.338 7  22980718.704    22980718.728    22980726.752
        43.000          43.700
 146772115.819 5                  27929802.003
        33.900
 119202800.380 7  92885302.56145  22683537.682    22683537.3024   22683537.8624
        44.000          30.8004
 131668681.443 6 102598969.85344  25055720.481    25055719.9054   25055719.5864
        37.700          28.0004
 114753793.861 8  89252987.128 7  21436966.308    21436967.141    21436972.206
        49.600          46.500
 127222842.352 6  99134711.80945  24209697.265    24209696.2284   24209701.3034
        38.500          31.2004
 131805901.821 6 102705909.06743  25081825.915    25081824.7134   25081824.1474
        39.900          21.6004
 25  1  1 11  6 15.0000000  0 37G10G24E19R04S31S35G21R12E13S48S33E27
                                R13E29G23R19G18E07E02E30R15G12E33R20
                                E26R14G08G27R05G32R18E12G28G31R03G25
                                G02
 107570478.901 8  83821172.80448  20469974.556    20469973.9394   20469975.7864
        52.200          53.3004
 123334086.721 6  96104519.02946  23469689.316    23469688.8474   23469692.3524
        41.800          37.6004
 136628001.650 6                  25999443.571
        38.200
 106713125.416 8  82999150.528 7  19927921.054    19927921.498    19927926.440
        53.000          47.900
 198975329.898 7                  37863740.163
        45.700
 200952975.122 7                  38240078.920
        44.200
 123384467.206 6  96143753.18444  23479276.319    23479275.0234   23479274.9064
        41.100          25.4004
 130466114.290 7 101473677.518 6  24423526.421    24423526.303    24423533.681
        42.300          37.100
 149200254.758 5                  28391851.928
        35.900
 412697682.934 5                  78533806.443
        32.900
 202090924.087 7                  38456593.472
        44.900
 149148418.825 6                  28382001.294
        37.900
 116432915.689 7                  21804130.849    21804129.770
        43.300
 123915344.025 8                  23580297.036
        48.600
 113831967.459 7  88700245.63645  21661496.547    21661496.1274   21661496.0174
        45.700          35.0004
 110808676.071 6  86184552.476 7  20714504.116    20714503.331    20714508.656
        39.800          44.100
 131917028.889 6 102792483.58143  25102978.379    25102978.0844   25102980.9214
        39.000          20.9004
 129419578.637 7                  24627719.771
        47.000
 149934537.033 6                  28531600.438
        36.600
 146837159.933 6                  27942175.574
        38.000
 130161997.757 6 101237147.852 6  24358044.702    24358044.955    24358053.739
        41.100          38.300
 129393340.280 6 100825991.74945  24622726.864    24622726.2034   24622726.5674
        39.600          30.3004
 125806178.317 7                  23940112.374
        47.800
 115751883.401 6  90029290.985 7  21646178.930    21646178.788    21646186.741
        38.500          45.200
 128641623.268 7                  24479683.495
        46.800
 115036597.772 8  89472957.198 7  21580564.495    21580564.707    21580570.516
        50.100          45.500
 132769843.028 5 103457038.71644  25265254.561    25265253.7924   25265257.3284
        35.800          25.3004
 134659957.238 6 104929854.45844  25624934.051    25624933.2734   25624935.1224
        37.200          29.8004
 117940715.186 8  91731679.972 7  22063243.582    22063243.197    22063247.778
        48.900          42.900
 110062545.812 8  85763038.50648  20944197.319    20944196.8054   20944198.3334
        51.300          51.8004
 122738978.255 7  95463686.745 7  22993143.501    22993142.447    22993150.194
        43.100          43.400
 146732255.184 5                  27922216.836
        34.200
 119152369.609 7  92846005.87645  22673940.688    22673940.2954   22673941.0944
        43.800          30.7004
 131608251.239 6 102551881.37844  25044220.072    25044219.4874   25044220.6614
        37.600          28.7004
 114785065.898 8  89277309.832 7  21442808.265    21442808.756    21442814.099
        49.400          46.300
 127179844.291 6  99101206.86645  24201515.610    24201514.5784   24201518.8824
        37.500          31.1004
 131764916.635 6 102673972.54343  25074026.523    25074025.3214   25074024.9494
        40.100          21.1004
 25  1  1 11  6 30.0000000  0 37G10G24E19R04S31S35G21R12E13S48S33E27
                                R13E29G23R19G18E07E02E30R15G12E33R20
                                E26R14G08G27R05G32R18E12G28G31R03G25
                                G02
 107564863.081 8  83816796.84348  20468905.815    20468905.1944   20468907.1044
        52.000          53.3004
 123385295.608 6  96144421.99746  23479434.570    23479434.1014   23479437.3864
        40.500          37.3004
 136598139.707 6                  25993760.350
        38.300
 106711425.850 8  82997828.645 8  19927603.939    19927603.968    19927608.977
        52.400          48.100
 198975337.716 7                  37863741.773
        45.800
 200952968.960 7                  38240077.324
        44.100
 123358921.204 6  96123847.22244  23474415.021    23474413.7254   23474413.9394
        40.800          25.6004
 130513936.430 6 101510872.614 6  24432477.826    24432477.252    24432486.084
        41.900          38.400
 149248224.094 5                  28400980.174
        34.800
 412697633.415 5                  78533796.150
        32.800
 202090924.859 7                  38456592.761
        45.000
 149110407.652 6                  28374768.091
        38.100
 116444808.692 7                  21806357.586    21806356.746
        43.400
 123907686.461 8                  23578840.182
        48.500
 113863475.767 7  88724797.54245  21667492.860    21667492.4584   21667491.8994
        45.800          34.9004
 110850506.866 6  86217087.540 7  20722322.219    20722322.754    20722328.754
        39.800          44.100
 131975922.043 6 102838374.28943  25114185.819    25114185.5654   25114187.9524
        38.500          21.0004
 129444883.475 7                  24632535.244
        47.000
 149937563.400 6                  28532176.542
        37.100
 146811661.306 6                  27937323.428
        38.300
 130098587.711 7 101187828.896 6  24346178.195    24346179.438    24346188.114
        42.100          39.000
 129366186.326 6 100804832.87945  24617559.911    24617559.2544   24617559.4114
        39.900          30.1004
 125800390.647 7                  23939011.225
        47.800
 115721647.021 6  90005773.872 7  21640524.110    21640524.309    21640532.218
        38.700          45.200
 128675387.801 7                  24486108.659
        46.900
 114989920.275 8  89436652.485 7  21571808.502    21571808.161    21571813.711
        50.400          45.300
 132800149.164 6 103480653.91344  25271022.336    25271021.5494   25271023.5614
        36.600          25.5004
 134699915.472 6 104960990.76245  25632537.537    25632536.7464   25632539.0594
        36.600          30.1004
 117907097.050 8  91705532.494 7  22056954.481    22056954.580    22056958.991
        50.300          42.800
 110053268.519 8  85755809.44548  20942431.948    20942431.4434   20942432.9274
        50.900          51.8004
 122805320.934 7  95515286.605 7  23005570.634    23005569.936    23005578.662
        42.300          43.400
 146692442.728 5                  27914640.987
        35.000
 119102008.706 7  92806763.63945  22664357.708    22664357.3194   22664357.6514
        43.800          30.9004
 131547825.046 6 102504796.04944  25032721.319    25032720.7384   25032722.3934
        37.400          28.3004
 114816368.439 8  89301656.241 7  21448656.083    21448656.248    21448661.841
        48.800          46.300
 127136875.967 6  99067725.11545  24193339.627    24193338.6084   24193342.1404
        38.500          31.8004
 131724001.125 6 102642090.33843  25066240.682    25066239.4664   25066238.9734
        41.200          21.1004
 25  1  1 11  6 45.0000000  0 37G10G24E19R04S31S35G21R12E13S48S33E27
                                R13E29G23R19G18E07E02E30R15G12E33R20
                                E26R14G08G27R05G32R18E12G28G31R03G25
                                G02
 107559331.432 8  83812486.46548  20467853.185    20467852.5594   20467854.4664
        51.800          53.4004
 123436573.875 6  96184379.03846  23489192.533    23489192.0644   23489195.1104
        41.300          37.4004
 136568311.325 6                  25988084.181
        38.300
 106709780.160 8  82996548.640 8  19927296.560    19927296.674    19927301.521
        52.800          48.000
 198975343.789 7                  37863741.938
        45.700
 200952963.144 7                  38240075.678
        44.000
 123333475.529 6  96104019.41644  23469573.189    23469571.8974   23469571.7314
        40.900          25.5004
 130561868.668 6 101548153.258 6  24441450.336    24441451.021    24441459.262
        40.900          37.000
 149296190.849 5                  28410108.091
        35.200
 412697584.155 5                  78533789.375
        32.800
 202090924.221 7                  38456590.838
        44.900
 149072380.203 6                  28367531.472
        37.700
 116456895.596 7                  21808620.732    21808620.058
        42.800
 123900078.321 8                  23577392.306
        49.000
 113895061.900 7  88749410.08345  21673503.208    21673502.7974   21673502.4084
        45.800          34.9004
 110892492.692 6  86249743.165 7  20730170.515    20730171.516    20730177.109
        39.200          44.200
 132034812.568 6 102884262.98743  25125391.817    25125391.5274   25125394.4334
        39.300          21.3004
 129470208.943 7                  24637354.475
        47.300
 149940688.866 6                  28532771.239
        36.800
 146786225.502 6                  27932483.252
        38.000
 130035140.594 6 101138481.141 6  24334306.662    24334306.153    24334314.324
        41.600          38.500
 129339121.605 6 100783743.53645  24612409.371    24612408.6964   24612409.4394
        38.100          30.3004
 125794709.797 8                  23937930.176
        48.200
 115691590.373 6  89982396.474 7  21634902.608    21634903.896    21634911.567
        38.700          45.300
 128709228.193 7                  24492548.343
        47.200
 114943356.264 8  89400436.055 7  21563073.409    21563072.882    21563078.705
        50.500          45.400
 132830508.367 6 103504310.46644  25276799.564    25276798.7644   25276800.8624
        37.400          26.0004
 134739865.630 6 104992120.75045  25640139.557    25640138.7934   25640141.8594
        37.200          30.8004
 117873509.982 8  91679409.211 7  22050671.419    22050671.624    22050676.371
        50.200          43.100
 110044058.610 8  85748632.88348  20940679.572    20940679.0764   20940680.3374
        51.100          51.9004
 122871681.535 7  95566900.392 7  23018002.308    23018002.710    23018010.757
        43.200          43.500
 146652673.871 5                  27907072.495
        34.200
 119051712.831 7  92767572.05945  22654786.463    22654786.0834   22654786.7914
        44.000          31.0004
 131487398.073 6 102457710.10644  25021222.775    25021222.1814   25021223.1554
        38.100          28.5004
 114847696.885 8  89326022.822 7  21454507.952    21454508.596    21454514.256
        49.100          46.400
 127093932.616 6  99034262.81945  24185167.100    24185166.0854   24185170.8404
        38.200          32.1004
 131683150.301 6 102610258.56443  25058466.922    25058465.7064   25058465.2234
        40.400          21.5004
 25  1  1 11  7  0.0000000  0 37G10G24E19R04S31S35G21R12E13S48S33E27
                                R13E29G23R19G18E07E02E30R15G12E33R20
                                E26R14G08G27R05G32R18E12G28G31R03G25
                                G02
 107553884.342 8  83808241.97948  20466816.841    20466816.2154   20466817.9264
        52.100          53.5004
 123487921.256 6  96224389.93746  23498963.542    23498963.0864   23498966.3484
        40.800          37.3004
 136538516.665 6                  25982414.810
        38.800
 106708188.286 8  82995310.529 8  19926998.883    19926999.302    19927004.346
        52.800          48.100
 198975349.310 7                  37863741.831
        45.600
 200952955.779 7                  38240074.905
        44.000
 123308130.541 6  96084270.06444  23464750.178    23464748.9094   23464748.4914
        41.100          25.7004
 130609910.742 7 101585519.323 6  24450444.576    24450445.265    24450453.161
        43.600          38.800
 149344154.951 5                  28419234.977
        35.400
 412697534.827 5                  78533773.666
        32.600
 202090922.878 7                  38456593.981
        45.000
 149034336.986 6                  28360292.427
        37.100
 116469176.475 7                  21810920.636    21810920.010
        43.100
 123892519.691 8                  23575953.908
        48.900
 113926725.950 7  88774083.34845  21679528.602    21679528.1914   21679527.9024
        46.100          34.9004
 110934633.138 6  86282519.061 7  20738049.369    20738049.607    20738054.700
        39.500          44.100
 132093700.279 6 102930149.42343  25136597.810    25136597.4844   25136601.1774
        38.400          21.6004
 129495555.074 7                  24642177.791
        47.100
 149943913.257 6                  28533384.805
        36.300
 146760852.906 6                  27927654.960
        38.100
 129971657.103 7 101089105.145 6  24322426.198    24322426.000    24322434.587
        42.300          38.700
 129312146.641 6 100762724.14245  24607276.685    24607276.0424   24607275.9134
        38.900          30.1004
 125789136.002 7                  23936869.528
        47.900
 115661713.774 6  89959159.137 7  21629316.209    21629316.541    21629324.454
        38.300          45.500
 128743144.448 7                  24499002.112
        46.900
 114896906.486 8  89364308.474 7  21554358.925    21554358.781    21554364.733
        50.100          45.500
 132860920.443 6 103528008.20244  25282586.593    25282585.7984   25282588.3764
        37.000          27.2004
 134779807.542 6 105023244.32245  25647740.290    25647739.5174   25647742.2174
        37.500          30.1004
 117839953.442 8  91653309.679 7  22044393.778    22044393.851    22044398.718
        49.200          43.200
 110034916.183 8  85741508.90448  20938939.836    20938939.3454   20938940.5814
        51.400          51.9004
 122938059.668 7  95618527.827 7  23030436.973    23030436.942    23030445.619
        42.900          43.600
 146612948.737 5                  27899513.650
        35.200
 119001482.502 7  92728431.57645  22645227.628    22645227.2354   22645228.1794
        44.000          31.1004
 131426970.792 6 102410623.91644  25009724.212    25009723.6404   25009723.7924
        38.500          28.9004
 114879051.087 8  89350409.417 7  21460365.639    21460366.216    21460371.505
        49.100          46.600
 127051014.806 6  99000820.41445  24176999.927    24176998.9394   24177003.7264
        38.600          31.6004
 131642364.332 6 102578477.21743  25050706.374    25050705.1404   25050704.2834
        40.400          22.0004
 25  1  1 11  7 15.0000000  0 37G10G24E19R04S31S35G21R12E13S48S33E27
                                R13E29G23R19G18E07E02E30R15G12E33R20
                                E26R14G08G27R05G32R18E12G28G31R03G25
                                G02
 107548521.416 8  83804063.09348  20465796.126    20465795.5054   20465797.3724
        51.900          53.4004
 123539336.893 6  96264454.06146  23508747.552    23508747.0834   23508750.3834
        40.900          37.3004
 136508755.166 6                  25976751.188
        38.400
 106706649.628 8  82994113.791 8  19926711.933    19926712.148    19926717.125
        52.800          48.200
 198975354.198 7                  37863745.453
        45.600
 200952947.329 7                  38240073.045
        43.800
 123282885.959 6  96064598.94544  23459945.806    23459944.5464   23459944.8104
        41.400          25.6004
 130658062.043 7 101622970.478 6  24459457.990    24459458.388    24459467.219
        43.100          38.800
 149392115.666 6                  28428361.812
        36.200
 412697485.023 5                  78533764.817
        33.000
 202090921.455 7                  38456592.846
        45.000
 148996277.574 6                  28353049.451
        37.100
 116481650.486 7                  21813256.260    21813255.999
        42.500
 123885009.907 8                  23574524.907
        48.800
 113958467.312 7  88798816.84845  21685568.926    21685568.5154   21685568.0854
        45.800          34.8004
 110976927.155 6  86315414.410 7  20745955.955    20745956.058    20745961.660
        39.100          44.100
 132152584.284 6 102976033.00543  25147803.285    25147802.9014   25147806.5764
        37.900          21.3004
 129520921.173 7                  24647004.626
        47.100
 149947236.371 6                  28534017.252
        37.000
 146735543.150 6                  27922838.935
        37.300
 129908136.894 6 101039700.620 6  24310537.977    24310538.500    24310547.610
        41.700          38.900
 129285261.256 6 100741774.54645  24602159.849    24602159.2014   24602159.9484
        39.700          30.0004
 125783668.785 7                  23935829.146
        47.900
 115632017.429 6  89936061.971 7  21623763.474    21623763.188    21623771.177
        38.700          45.200
 128777135.765 7                  24505470.666
        46.800
 114850570.935 8  89328269.742 7  21545666.302    21545666.832    21545672.002
        50.700          45.500
 132891384.487 6 103551746.43544  25288383.505    25288382.7144   25288385.6824
        36.300          26.2004
 134819740.229 6 105054360.72444  25655339.041    25655338.2374   25655341.1104
        36.600          29.4004
 117806427.432 8  91627233.888 7  22038122.313    22038122.355    22038126.118
        50.600          43.000
 110025840.565 8  85734436.98848  20937212.469    20937211.9784   20937213.5474
        51.500          51.9004
 123004454.225 7  95670168.024 7  23042874.510    23042875.261    23042883.540
        42.300          43.700
 146573266.793 5                  27891961.594
        33.700
 118951317.417 7  92689341.94445  22635681.957    22635681.5604   22635682.1064
        43.600          31.1004
 131366542.846 6 102363537.20044  24998224.711    24998224.1034   24998224.4294
        39.300          28.5004
 114910430.354 8  89374815.513 7  21466227.467    21466228.178    21466233.453
        49.200          46.700
 127008122.356 6  98967397.77445  24168837.186    24168836.1854   24168841.2214
        38.400          31.8004
 131601643.436 6 102546746.60843  25042957.467    25042956.2384   25042955.9414
        40.000          22.0004
 25  1  1 11  7 30.0000000  0 37G10G24E19R04S31S35G21R12E13S48S33E27
                                R13E29G23R19G18E07E02E30R15G12E33R20
                                E26R14G08G27R05G32R18E12G28G31R03G25
                                G02
 107543243.811 8  83799950.67848  20464791.899    20464791.2784   20464793.0594
        52.100          53.3004
 123590821.208 6  96304571.62346  23518544.890    23518544.4394   23518547.5074
        40.900          37.0004
 136479027.907 6                  25971094.505
        38.500
 106705165.469 8  82992959.428 8  19926434.971    19926435.055    19926439.943
        52.800          48.200
 198975359.521 7                  37863744.451
        45.600
 200952939.236 7                  38240072.669
        43.800
 123257743.012 6  96045007.04844  23455161.095    23455159.8174   23455160.2464
        40.800          26.0004
 130706322.317 7 101660506.174 6  24468493.934    24468493.673    24468500.098
        42.500          36.700
 149440073.882 5                  28437488.042
        35.800
 412697435.124 5                  78533754.787
        32.600
 202090919.945 7                  38456592.023
        45.100
 148958203.330 6                  28345804.812
        38.100
 116494318.632 7                  21815629.318    21815628.785
        43.000
 123877550.004 8                  23573105.277
        48.800
 113990287.039 7  88823611.40545  21691623.938    21691623.5324   21691623.1804
        45.700          34.7004
 111019375.567 6  86348429.795 7  20753890.886    20753891.046    20753896.487
        39.400          44.100
 132211465.360 6 103021914.32743  25159008.524    25159008.1584   25159010.8034
        38.500          21.1004
 129546308.216 7                  24651835.670
        46.900
 149950659.397 6                  28534668.279
        36.000
 146710297.547 6                  27918034.459
        38.000
 129844581.432 7 100990268.667 6  24298644.771    24298645.012    24298654.842
        42.200          39.100
 129258466.750 6 100720895.75345  24597061.132    24597060.4754   24597061.2164
        39.500          30.2004
 125778309.272 8                  23934809.004
        48.000
 115602502.754 6  89913106.148 7  21618243.686    21618243.547    21618251.724
        38.300          45.400
 128811203.105 7                  24511953.332
        46.800
 114804351.175 8  89292321.050 7  21536995.401    21536995.766    21537001.356
        50.300          45.400
 132921901.215 6 103575525.70344  25294191.048    25294190.2444   25294193.1084
        36.400          26.7004
 134859664.323 6 105085470.41544  25662937.009    25662936.2144   25662938.5394
        37.700          29.8004
 117772932.792 8  91601182.466 7  22031855.491    22031856.195    22031861.303
        49.800          42.800
 110016832.786 8  85727417.93548  20935498.506    20935498.0154   20935499.4224
        51.500          51.8004
 123070865.796 6  95721821.464 7  23055316.088    23055315.695    23055324.363
        40.600          43.100
 146533629.694 5                  27884419.672
        34.100
 118901218.913 7  92650304.19545  22626148.323    22626147.9304   22626148.6924
        43.600          31.0004
 131306115.602 6 102316451.04244  24986725.192    24986724.5664   24986725.8044
        37.800          29.3004
 114941835.576 8  89399241.798 7  21472094.649    21472094.879    21472100.043
        49.200          46.600
 126965256.760 6  98933996.06145  24160681.311    24160680.3194   24160684.1954
        38.400          31.9004
 131560988.753 6 102515067.65043  25035221.318    25035220.0804   25035219.1984
        40.600          21.8004
 25  1  1 11  7 45.0000000  0 37G10G24E19R04S31S35G21R12E13S48S33E27
                                R13E29G23R19G18E07E02E30R15G12E33R20
                                E26R14G08G27R05G32R18E12G28G31R03G25
                                G02
 107538053.891 8  83795906.59148  20463804.242    20463803.6254   20463805.4524
        51.800          53.5004
 123642376.287 6  96344744.33446  23528356.063    23528355.6394   23528358.1844
        40.900          37.1004
 136449337.027 6                  25965444.006
        38.700
 106703737.660 8  82991848.914 8  19926168.174    19926168.394    19926173.300
        52.800          48.000
 198975365.463 7                  37863745.914
        45.700
 200952932.637 7                  38240071.703
        44.300
 123232704.005 6  96025496.15844  23450396.481    23450395.2344   23450395.5804
        41.700          25.8004
 130754693.976 6 101698128.557 6  24477549.093    24477549.070    24477555.594
        41.800          36.600
 149488031.525 5                  28446613.514
        34.900
 412697387.959 5                  78533742.557
        32.300
 202090918.615 7                  38456590.972
        45.000
 148920116.593 6                  28338556.482
        37.500
 116507183.292 7                  21818038.575    21818037.527
        43.000
 123870142.015 8                  23571695.734
        48.700
 114022187.276 7  88848468.71345  21697694.435    21697694.0294   21697693.6234
        45.900          34.7004
 111061979.710 6  86381566.341 7  20761855.601    20761855.569    20761861.359
        39.200          44.300
 132270345.350 6 103067794.78843  25170212.853    25170212.4914   25170215.3124
        38.200          21.4004
 129571718.295 7                  24656671.099
        46.900
 149954184.106 5                  28535339.804
        35.900
 146685118.496 6                  27913243.095
        38.400
 129780993.358 7 100940811.285 6  24286745.540    24286745.975    24286754.584
        42.800          40.100
 129231765.771 6 100700089.86045  24591981.126    24591980.4834   24591979.9864
        38.600          30.1004
 125773059.673 8                  23933810.154
        48.100
 115573171.788 6  89890293.157 7  21612758.322    21612758.771    21612766.689
        38.900          45.300
 128845348.385 7                  24518451.046
        46.700
 114758249.935 8  89256464.570 7  21528347.871    21528346.915    21528352.902
        50.700          45.400
 132952472.348 6 103599347.39644  25300008.069    25300007.2914   25300010.6004
        36.300          26.6004
 134899581.838 6 105116574.97745  25670532.517    25670531.7264   25670534.5254
        37.100          30.2004
 117739471.527 8  91575157.020 7  22025596.597    22025596.553    22025601.327
        50.000          43.200
 110007894.874 8  85720453.31648  20933797.635    20933797.1444   20933798.5824
        51.400          51.9004
 123137296.101 7  95773489.452 7  23067761.503    23067760.994    23067768.831
        42.100          43.100
 146494039.565 5                  27876886.006
        33.600
 118851189.414 7  92611320.19145  22616628.116    22616627.7364   22616628.2094
        44.100          31.2004
 131245691.547 6 102269367.38244  24975227.724    24975227.1344   24975227.5184
        38.900          29.6004
 114973269.322 8  89423690.260 7  21477966.292    21477966.710    21477972.384
        48.400          46.700
 126922420.546 6  98900617.24845  24152528.700    24152527.6994   24152532.5924
        39.000          32.4004
 131520402.743 6 102483442.15143  25027497.594    25027496.3654   25027495.5164
        40.900          22.3004
 25  1  1 11  8  0.0000000  0 37G10G24E19R04S31S35G21R12E13S48S33E27
                                R13E29G23R19G18E07E02E30R15G12E33R20
                                E26R14G08G27R05G32R18E12G28G31R03G25
                                G02
 107532947.080 8  83791927.26248  20462832.451    20462831.8394   20462833.6434
        51.700          53.5004
 123693996.918 6  96384968.14746  23538178.626    23538178.2024   23538181.6684
        40.600          37.0004
 136419677.821 6                  25959800.356
        38.700
 106702361.397 8  82990778.507 8  19925910.910    19925911.405    19925916.392
        52.800          48.200
 198975369.049 7                  37863744.939
        45.800
 200952923.526 7                  38240069.190
        44.100
 123207764.213 6  96006062.55544  23445650.694    23445649.4424   23445649.5254
        41.600          25.6004
 130803172.525 6 101735834.543 6  24486622.819    24486623.057    24486631.329
        41.200          38.200
 149535983.682 5                  28455739.059
        35.200
 412697338.654 5                  78533734.101
        32.800
 202090916.157 7                  38456588.727
        45.000
 148882012.905 6                  28331306.118
        37.800
 116520239.554 7                  21820483.739    21820482.906
        43.100
 123862781.141 8                  23570294.762
        48.800
 114054163.198 7  88873385.00245  21703778.809    21703778.3894   21703778.4054
        45.700          34.6004
 111104734.425 6  86414820.029 7  20769847.715    20769848.067    20769853.517
        39.600          44.100
 132329219.139 6 103113670.42243  25181415.700    25181415.3384   25181418.6544
        38.900          21.5004
 129597146.528 7                  24661510.029
        47.000
 149957805.799 5                  28536029.042
        35.900
 146660001.375 6                  27908463.165
        38.400
 129717368.268 6 100891325.142 6  24274838.011    24274838.290    24274847.986
        41.500          39.900
 129205153.686 6 100679353.21345  24586916.503    24586915.8694   24586915.5254
        39.400          30.4004
 125767915.335 7                  23932831.177
        47.900
 115544020.100 6  89867619.619 7  21607307.318    21607308.176    21607315.419
        40.000          45.600
 128879566.695 7                  24524962.629
        46.700
 114712263.212 8  89220697.157 7  21519719.871    21519720.180    21519725.917
        50.500          45.300
 132983092.922 6 103623207.59844  25305835.132    25305834.3374   25305837.2004
        36.000          26.1004
 134939487.492 6 105147670.29345  25678126.668    25678125.8864   25678127.9354
        37.400          30.1004
 117706038.952 8  91549153.932 7  22019341.422    22019342.252    22019347.351
        50.000          43.200
 109999022.067 8  85713539.43648  20932109.107    20932108.6164   20932110.1464
        51.100          52.0004
 123203739.759 7  95825167.864 7  23080208.888    23080208.542    23080215.489
        43.000          43.100
 146454491.981 5                  27869359.619
        34.700
 118801224.517 7  92572386.54445  22607119.763    22607119.3794   22607120.1094
        43.800          31.0004
 131185266.170 6 102222282.68344  24963729.512    24963728.9274   24963729.0724
        37.600          29.5004
 115004726.300 8  89448156.811 7  21483842.921    21483843.446    21483848.753
        48.700          46.600
 126879609.398 6  98867257.96645  24144382.140    24144381.1304   24144385.8194
        38.600          32.1004
 131479880.964 6 102451866.76743  25019786.214    25019784.9714   25019784.2884
        40.400          21.7004
 25  1  1 11  8 15.0000000  0 37G10G24E19R04S31S35G21R12E13S48S33E27
                                R13E29G23R19G18E07E02E30R15G12E33R20
                                E26R14G08G27R05G32R18E12G28G31R03G25
                                G02
 107527930.571 8  83788018.30048  20461877.967    20461877.3644   20461879.0374
        51.800          53.4004
 123745689.804 6  96425248.30346  23548015.327    23548014.8984   23548018.3534
        41.000          37.0004
 136390057.323 6                  25954163.726
        38.900
 106701043.755 8  82989753.665 8  19925664.820    19925665.198    19925670.323
        52.700          48.100
 198975377.352 7                  37863745.891
        45.500
 200952918.832 7                  38240069.329
        43.800
 123182930.853 6  95986711.90444  23440924.953    23440923.6844   23440923.8834
        41.400          25.6004
 130851764.164 6 101773628.720 6  24495719.107    24495719.379    24495726.136
        41.500          37.100
 149583937.173 5                  28464864.634
        34.500
 412697293.732 5                  78533718.746
        31.900
 202090918.526 7                  38456590.239
        44.800
 148843899.519 6                  28324052.729
        37.700
 116533493.804 7                  21822964.947    21822965.068
        43.200
 123855474.339 8                  23568904.305
        49.100
 114086221.821 7  88898365.72745  21709879.738    21709879.3274   21709878.9694
        45.500          34.5004
 111147646.252 6  86448195.855 7  20777869.680    20777869.948    20777875.671
        38.900          44.300
 132388093.512 6 103159546.50143  25192619.644    25192619.2914   25192622.2914
        38.200          21.7004
 129622599.876 7                  24666353.462
        47.000
 149961531.633 6                  28536737.880
        36.400
 146634953.538 6                  27903696.776
        38.300
 129653714.227 7 100841816.449 6  24262926.285    24262926.053    24262936.040
        42.000          39.300
 129178637.715 6 100658691.46645  24581870.710    24581870.0674   24581869.4644
        38.300          30.4004
 125762883.384 7                  23931873.578
        47.900
 115515055.521 6  89845091.614 7  21601889.982    21601890.837    21601898.822
        38.800          45.900
 128913864.923 7                  24531489.282
        46.900
 114666398.332 8  89185024.470 7  21511115.966    21511116.085    21511121.662
        50.500          45.400
 133013769.533 6 103647111.47044  25311673.098    25311672.2944   25311674.4074
        36.700          26.3004
 134979388.039 6 105178761.63945  25685718.593    25685717.8024   25685720.7994
        37.300          30.2004
 117672642.053 8  91523178.538 7  22013093.977    22013094.670    22013099.287
        49.900          42.900
 109990221.309 8  85706681.70248  20930434.706    20930434.2194   20930435.4344
        51.000          52.0004
 123270203.311 7  95876861.720 7  23092658.487    23092658.639    23092667.160
        42.000          43.500
 146414994.171 5                  27861843.910
        34.500
 118751331.527 7  92533508.90345  22597625.791    22597625.4074   22597625.7454
        43.600          31.0004
 131124846.695 6 102175202.58244  24952231.278    24952230.6974   24952231.9934
        38.200          29.8004
 115036213.925 8  89472647.170 7  21489725.127    21489725.486    21489730.882
        48.800          46.700
 126836830.733 6  98833923.98145  24136241.367    24136240.3574   24136244.9984
        38.600          31.7004
 131439430.765 6 102420347.21543  25012089.190    25012087.9744   25012087.2984
        39.800          22.5004
 25  1  1 11  8 30.0000000  0 37G10G24E19R04S31S35G21R12E13S48S33E27
                                R13E29G23R19G18E07E02E30R15G12E33R20
                                E26R14G08G27R05G32R18E12G28G31R03G25
                                G02
 107522997.170 8  83784174.09248  20460938.861    20460938.2494   20460940.2334
        51.700          53.3004
 123797447.266 6  96465578.80946  23557864.313    23557863.8894   23557867.4504
        40.500          36.6004
 136360468.067 6                  25948533.459
        38.700
 106699777.517 8  82988768.801 8  19925428.236    19925428.667    19925433.886
        52.800          48.100
 198975382.849 7                  37863749.603
        45.300
 200952910.644 7                  38240068.385
        43.600
 123158197.014 6  95967438.78244  23436217.831    23436216.5354   23436217.2544
        41.000          25.4004
 130900460.155 6 101811503.830 6  24504834.254    24504833.955    24504842.732
        39.800          37.900
 149631884.495 5                  28473988.550
        34.900
 412697246.078 5                  78533707.071
        32.400
 202090916.474 7                  38456589.626
        44.700
 148805769.369 6                  28316797.195
        38.400
 116546938.874 7                  21825483.232    21825482.913
        43.600
 123848214.212 8                  23567523.099
        49.200
 114118355.794 7  88923405.17345  21715994.582    21715994.1714   21715993.9174
        45.500          34.4004
 111190707.310 6  86481687.771 7  20785918.920    20785919.695    20785925.544
        39.400          44.200
 132446960.811 6 103205417.05943  25203821.720    25203821.3724   25203824.2334
        37.400          20.5004
 129648070.830 7                  24671200.804
        47.300
 149965354.444 5                  28537464.483
        35.900
 146609967.835 6                  27898941.757
        38.200
 129590023.846 7 100792279.506 6  24251008.767    24251008.464    24251017.739
        43.200          40.300
 129152211.200 6 100638099.42145  24576841.944    24576841.3054   24576840.6374
        39.100          30.1004
 125757956.545 8                  23930936.138
        48.100
 115486271.034 6  89822703.644 7  21596508.367    21596508.009    21596516.039
        38.900          45.500
 128948235.535 7                  24538029.769
        46.900
 114620648.399 8  89149441.211 7  21502533.020    21502533.306    21502539.115
        50.600          45.400
 133044494.527 5 103671053.03844  25317519.513    25317518.6954   25317521.2414
        35.900          26.2004
 135019275.717 5 105209842.95744  25693309.182    25693308.3784   25693311.0074
        35.700          29.8004
 117639273.438 8  91497225.137 7  22006852.064    22006852.464    22006857.430
        49.900          43.100
 109981485.181 8  85699874.32748  20928772.293    20928771.8154   20928773.0014
        51.200          51.9004
 123336678.859 7  95928564.899 7  23105112.367    23105113.293    23105119.914
        43.600          42.900
 146375538.800 5                  27854335.612
        34.300
 118701503.458 7  92494681.85745  22588143.943    22588143.5684   22588143.9474
        43.900          31.1004
 131064426.222 6 102128121.71344  24940733.778    24940733.2204   24940734.3384
        38.500          29.8004
 115067724.671 8  89497155.513 7  21495611.579    21495611.697    21495617.465
        48.300          46.800
 126794077.657 6  98800609.93645  24128105.762    24128104.7434   24128109.0914
        39.100          32.2004
 131399044.890 6 102388877.79543  25004403.722    25004402.4794   25004402.0004
        40.400          22.5004
 25  1  1 11  8 45.0000000  0 37G10G24E19R04S31S35G21R12E13S48S33E27
                                R13E29G23R19G18E07E02E30R15G12E33R20
                                E26R14G08G27R05G32R18E12G28G31R03G25
                                G02
 107518147.412 8  83780395.06248  20460016.032    20460015.4204   20460017.3354
        51.800          53.2004
 123849268.920 6  96505959.25646  23567725.983    23567725.5634   23567728.7964
        40.200          36.7004
 136330910.421 6                  25942908.197
        38.800
 106698562.429 8  82987823.720 8  19925201.783    19925201.902    19925206.902
        52.800          48.100
 198975384.645 7                  37863748.637
        45.700
 200952899.989 7                  38240064.316
        44.100
 123133562.978 6  95948243.43844  23431530.660    23431529.3504   23431529.5774
        40.700          25.6004
 130949259.840 6 101849459.125 6  24513970.441    24513970.490    24513977.788
        41.000          37.800
 149679825.661 5                  28483111.142
        35.800
 412697195.987 5                  78533694.747
        32.400
 202090912.643 7                  38456588.115
        44.900
 148767622.953 6                  28309538.110
        37.900
 116560575.102 7                  21828037.012    21828036.304
        42.600
 123841000.991 8                  23566150.344
        48.900
 114150565.360 7  88948503.52345  21722123.944    21722123.5244   21722123.1344
        45.700          34.3004
 111233917.479 6  86515295.680 7  20793997.764    20793997.624    20794003.235
        39.100          44.100
 132505820.976 6 103251282.06643  25215022.620    25215022.2814   25215024.3374
        38.600          20.5004
 129673559.633 7                  24676050.934
        47.200
 149969273.643 5                  28538211.262
        35.000
 146585044.801 6                  27894199.421
        38.100
 129526297.811 7 100742714.906 6  24239081.249    24239081.819    24239092.351
        42.600          40.200
 129125874.818 6 100617577.61345  24571830.550    24571829.9424   24571829.0624
        40.000          30.1004
 125753135.188 8                  23930018.584
        48.000
 115457667.006 6  89800456.069 7  21591159.366    21591159.511    21591166.887
        39.400          45.400
 128982678.678 7                  24544584.136
        46.800
 114575014.348 8  89113948.086 7  21493972.654    21493973.230    21493978.422
        51.200          45.600
 133075267.839 6 103695032.25944  25323375.666    25323374.8534   25323376.6394
        37.200          26.2004
 135059150.583 6 105240914.28345  25700897.737    25700896.9424   25700899.2574
        36.700          30.0004
 117605933.501 8  91471294.037 7  22000615.366    22000615.789    22000620.330
        50.200          43.100
 109972813.911 8  85693117.48748  20927122.096    20927121.6184   20927122.9104
        51.300          51.8004
 123403166.211 6  95980277.283 7  23117567.886    23117567.710    23117575.453
        41.900          43.700
 146336126.745 5                  27846835.629
        34.200
 118651740.870 7  92455905.81245  22578673.800    22578673.4034   22578674.4724
        43.200          31.1004
 131004005.396 6 102081040.57645  24929235.857    24929235.3074   24929236.3394
        39.400          30.2004
 115099258.670 8  89521681.968 7  21501501.868    21501502.809    21501508.107
        48.500          46.600
 126751350.844 6  98767316.36045  24119975.475    24119974.4564   24119978.7694
        39.300          32.2004
 131358724.116 6 102357459.11943  24996730.445    24996729.1804   24996729.3584
        40.900          22.9004
 25  1  1 11  9  0.0000000  0 37G10G24E19R04S31S35G21R12E13S48S33E27
                                R13E29G23R19G18E07E02E30R15G12E33R20
                                E26R14G08G27R05G32R18E12G28G31R03G25
                                G02
 107513389.174 8  83776687.34348  20459110.465    20459109.8444   20459111.8634
        52.100          53.3004
 123901162.506 6  96546395.73246  23577601.098    23577600.6784   23577603.8114
        40.100          36.6004
 136301392.196 6                  25937291.409
        38.800
 106697406.603 8  82986924.762 8  19924985.642    19924986.012    19924991.057
        52.600          48.100
 198975392.266 7                  37863749.871
        45.800
 200952894.435 7                  38240063.735
        44.100
 123109036.833 6  95929132.18844  23426863.306    23426862.0014   23426862.3884
        41.400          25.5004
 130998171.299 6 101887501.194 6  24523126.782    24523126.880    24523134.718
        41.700          36.600
 149727768.385 5                  28492234.287
        35.100
 412697151.318 5                  78533690.181
        32.400
 202090913.852 7                  38456589.237
        45.000
 148729468.303 6                  28302277.453
        38.700
 116574410.402 7                  21830627.959    21830627.256
        42.700
 123833842.374 8                  23564788.038
        49.100
 114182858.239 7  88973666.78245  21728269.083    21728268.6544   21728268.2974
        45.600          34.4004
 111277284.182 6  86549025.344 7  20802103.921    20802104.519    20802110.121
        39.100          44.200
 132564681.538 6 103297147.35943  25226222.878    25226222.4854   25226225.7204
        38.300          21.2004
 129699073.967 7                  24680906.280
        47.000
 149973297.729 6                  28538976.639
        36.200
 146560192.403 6                  27889470.096
        38.700
 129462544.559 7 100693129.075 6  24227151.777    24227152.299    24227160.493
        43.700          39.500
 129099636.583 6 100597132.28045  24566836.760    24566836.1394   24566836.2984
        40.000          30.5004
 125748427.177 8                  23929122.775
        48.000
 115429251.434 6  89778355.101 7  21585845.069    21585845.063    21585853.352
        39.300          45.700
 129017201.944 7                  24551153.637
        46.500
 114529504.631 8  89078551.671 7  21485434.716    21485434.622    21485440.789
        49.900          45.600
 133106096.900 6 103719054.92644  25329241.831    25329241.0134   25329243.4974
        36.900          26.7004
 135099020.006 6 105271981.37145  25708484.431    25708483.6494   25708486.5314
        36.400          30.3004
 117572629.950 8  91445391.275 7  21994385.463    21994386.148    21994390.045
        50.600          43.000
 109964215.221 8  85686417.20248  20925485.695    20925485.2174   20925486.6144
        51.300          51.9004
 123469672.657 7  96032004.497 7  23130026.069    23130026.344    23130034.283
        42.300          43.300
 146296765.960 5                  27839345.668
        34.700
 118602051.858 7  92417187.10145  22569218.996    22569218.5994   22569218.9804
        43.700          31.3004
 130943592.379 6 102033965.52045  24917739.546    24917739.0194   24917739.9004
        38.600          30.3004
 115130824.366 8  89546233.071 7  21507399.116    21507399.229    21507404.867
        48.000          46.500
 126708658.481 6  98734049.63545  24111850.984    24111849.9474   24111854.8284
        38.500          32.1004
 131318476.395 6 102326097.34643  24989071.685    24989070.4074   24989070.6224
        40.900          23.0004
 25  1  1 11  9 15.0000000  0 37G10G24E19R04S31S35G21R12E13S48S33E27
                                R13E29G23R19G18E07E02E30R15G12E33R20
                                E26R14G08G27R05G32R18E12G28G31R03G25
                                G02
 107508718.972 8  83773048.23448  20458222.009    20458221.3884   20458223.1504
        51.400          53.6004
 123953123.840 6  96586885.03246  23587489.235    23587488.8204   23587491.9904
        40.600          36.9004
 136271909.597 6                  25931680.905
        38.700
 106696306.341 8  82986069.011 8  19924780.038    19924780.501    19924785.666
        52.400          48.300
 198975401.306 7                  37863752.943
        46.100
 200952889.651 7                  38240061.696
        44.400
 123084615.005 6  95910102.22744  23422215.857    23422214.5434   23422214.9194
        41.100          26.0004
 131047190.985 6 101925627.764 6  24532303.395    24532302.645    24532310.693
        40.900          38.300
 149775708.720 5                  28501357.593
        34.300
 412697108.581 5                  78533679.874
        32.800
 202090916.092 7                  38456588.428
        45.000
 148691301.933 6                  28295014.634
        38.800
 116588440.588 7                  21833255.822    21833254.920
        43.800
 123826734.574 8                  23563435.428
        49.000
 114215230.710 7  88998892.06545  21734429.319    21734428.8994   21734428.5614
        45.700          34.6004
 111320802.811 6  86582873.179 7  20810240.461    20810239.764    20810245.366
        39.700          44.000
 132623538.501 6 103343009.86943  25237423.370    25237422.9904   25237426.1604
        38.400          21.4004
 129724610.060 7                  24685765.745
        46.900
 149977422.810 6                  28539761.886
        36.200
 146535407.206 6                  27884753.345
        37.800
 129398760.587 7 100643519.417 6  24215214.250    24215214.753    24215224.238
        42.300          39.800
 129073493.231 6 100576760.87345  24561862.386    24561861.7654   24561861.4934
        38.600          30.8004
 125743828.880 7                  23928247.833
        47.800
 115401021.088 6  89756398.184 7  21580565.135    21580565.960    21580573.403
        40.100          45.300
 129051801.452 7                  24557737.767
        46.600
 114484116.104 8  89043249.522 7  21476920.652    21476920.505    21476926.015
        50.800          45.500
 133136977.635 6 103743117.84444  25335118.651    25335117.8334   25335120.4924
        37.500          28.2004
 135138879.944 6 105303041.07345  25716068.991    25716068.2134   25716071.6874
        36.800          30.5004
 117539358.775 8  91419513.704 7  21988161.240    21988161.547    21988166.660
        50.300          43.600
 109955685.306 8  85679770.51448  20923862.702    20923862.2244   20923863.4194
        51.300          52.2004
 123536194.024 7  96083743.357 7  23142488.319    23142488.072    23142496.163
        42.600          43.500
 146257452.943 5                  27831864.673
        34.600
 118552433.040 7  92378523.10145  22559776.227    22559775.8384   22559776.8054
        43.500          31.4004
 130883183.649 6 101986893.80345  24906244.467    24906243.9444   24906244.4904
        39.200          30.7004
 115162417.476 8  89570805.510 7  21513301.067    21513301.212    21513306.434
        48.300          46.500
 126665997.309 6  98700807.20345  24103733.004    24103731.9894   24103736.4454
        38.200          32.2004
 131278298.083 6 102294789.57743  24981426.039    24981424.7474   24981424.3764
        41.200          23.4004
 25  1  1 11  9 30.0000000  0 37G10G24E19R04S31S35G21R12E13S48S33E27
                                R13E29G23R19G18E07E02E30R15G12E33R20
                                E26R14G08G27R05G32R18E12G28G31R03G25
                                G02
 107504131.385 8  83769473.49548  20457349.191    20457348.5744   20457350.1644
        52.100          53.5004
 124005147.013 6  96627422.52646  23597388.422    23597388.0114   23597391.6574
        40.500          36.7004
 136242457.120 6                  25926076.034
        39.300
 106695255.813 8  82985251.907 8  19924584.179    19924584.300    19924589.433
        52.700          48.200
 198975405.286 7                  37863753.712
        45.900
 200952881.144 7                  38240062.898
        44.100
 123060292.133 6  95891149.35244  23417587.476    23417586.1574   23417586.4404
        41.400          26.1004
 131096312.156 6 101963833.078 6  24541498.863    24541498.389    24541505.834
        39.500          36.500
 149823640.845 5                  28510478.113
        35.000
 412697062.186 5                  78533671.776
        33.100
 202090913.865 7                  38456588.678
        45.200
 148653118.553 6                  28287748.106
        38.400
 116602660.127 7                  21835918.669    21835918.339
        43.800
 123819671.960 8                  23562091.642
        49.100
 114247677.185 7  89024175.01145  21740603.920    21740603.5004   21740602.8484
        45.900          34.5004
 111364467.590 6  86616834.658 7  20818402.131    20818402.492    20818408.179
        39.600          44.000
 132682385.973 6 103388865.01443  25248621.484    25248621.1184   25248624.8654
        38.400          21.2004
 129750162.271 7                  24690628.130
        47.200
 149981643.935 6                  28540565.875
        36.500
 146510683.829 6                  27880048.840
        39.000
 129334940.912 7 100593881.917 6  24203272.496    24203272.976    24203281.617
        43.700          39.800
 129047439.576 6 100556459.37045  24556904.032    24556903.3984   24556903.8104
        39.500          30.9004
 125739334.787 8                  23927392.383
        48.000
 115372970.788 6  89734581.287 7  21575320.419    21575320.997    21575328.092
        39.400          45.500
 129086471.488 7                  24564335.253
        46.900
 114438843.429 8  89008037.461 7  21468426.595    21468427.016    21468433.196
        50.100          45.500
 133167904.183 6 103767216.47244  25341003.977    25341003.1734   25341005.5414
        37.200          27.9004
 135178724.496 6 105334088.77745  25723651.662    25723650.8934   25723654.1414
        37.600          30.5004
 117506114.573 8  91393657.068 7  21981942.174    21981942.790    21981946.915
        50.500          43.100
 109947218.567 8  85673173.05248  20922251.455    20922250.9824   20922252.2494
        51.700          52.2004
 123602724.125 7  96135488.951 7  23154951.995    23154951.825    23154959.872
        43.800          43.100
 146218182.355 5                  27824391.738
        34.000
 118502879.124 7  92339909.65645  22550347.003    22550346.6144   22550346.9274
        44.100          31.4004
 130822774.093 6 101939821.44845  24894748.640    24894748.1174   24894749.3794
        39.100          30.6004
 115194032.205 8  89595394.738 7  21519206.430    21519207.130    21519212.352
        48.000          46.100
 126623362.122 6  98667585.00845  24095620.115    24095619.1184   24095623.0304
        38.200          32.0004
 131238184.232 6 102263532.09743  24973792.349    24973791.0574   24973790.9364
        40.800          23.2004
 25  1  1 11  9 45.0000000  0 37G10G24E19R04S31S35G21R12E13S48S33E27
                                R13E29G23R19G18E07E02E30R15G12E33R20
                                E26R14G08G27R05G32R18E12G28G31R03G25
                                G02
 107499632.802 8  83765968.10548  20456493.038    20456492.4174   20456494.0814
        51.900          53.5004
 124057237.812 6  96668012.66446  23607301.378    23607300.9674   23607304.3104
        40.400          36.5004
 136213040.846 6                  25920478.457
        38.600
 106694261.368 8  82984478.454 8  19924398.737    19924398.870    19924403.669
        53.000          48.000
 198975412.522 7                  37863755.219
        45.600
 200952874.968 7                  38240061.593
        43.900
 123036074.489 6  95872278.43544  23412979.094    23412977.7844   23412977.8254
        41.600          25.6004
 131145541.406 6 102002122.745 6  24550714.400    24550715.244    24550721.678
        40.600          36.000
 149871570.926 5                  28519598.980
        34.700
 412697018.185 5                  78533657.565
        32.100
 202090913.775 7                  38456591.875
        44.800
 148614924.678 6                  28280480.331
        38.300
 116617075.133 7                  21838617.680    21838617.268
        43.600
 123812660.730 8                  23560757.319
        48.800
 114280203.853 7  89049520.44145  21746793.360    21746792.9454   21746792.4814
        45.700          34.5004
 111408284.241 6  86650914.312 7  20826593.325    20826593.414    20826599.298
        39.400          44.000
 132741229.835 6 103434717.29143  25259818.982    25259818.6074   25259822.8684
        38.500          21.4004
 129775736.607 7                  24695494.512
        46.900
 149985966.597 5                  28541388.234
        34.400
 146486028.790 6                  27875356.954
        37.900
 129271092.382 7 100544222.020 6  24191324.713    24191325.078    24191332.623
        44.000          39.800
 129021482.117 6 100536232.83045  24551964.434    24551963.8084   24551963.9904
        40.100          30.7004
 125734951.278 7                  23926558.308
        47.700
 115345107.818 6  89712910.138 7  21570109.166    21570109.875    21570117.534
        38.500          45.500
 129121218.107 7                  24570947.279
        46.500
 114393693.864 8  88972921.169 7  21459957.561    21459957.320    21459963.138
        51.300          45.800
 133198882.423 6 103791355.38544  25346898.607    25346897.8254   25346899.8824
        37.600          27.3004
 135218559.555 6 105365129.08845  25731231.735    25731230.9664   25731234.1634
        38.000          30.7004
 117472903.688 8  91367826.364 7  21975729.297    21975729.251    21975734.919
        49.600          43.400
 109938821.169 8  85666629.62348  20920653.464    20920652.9914   20920654.2614
        51.700          52.1004
 123669268.685 7  96187245.827 7  23167416.797    23167417.569    23167425.991
        42.700          43.500
 146178960.722 5                  27816928.226
        34.000
 118453396.662 7  92301351.88945  22540931.043    22540930.6594   22540930.9684
        43.100          31.4004
 130762370.106 6 101892753.43345  24883254.198    24883253.6574   24883255.2084
        39.200          30.5004
 115225675.148 8  89620005.944 7  21525117.845    21525117.998    21525123.855
        48.400          46.500
 126580759.618 6  98634388.28945  24087513.021    24087512.0204   24087516.5334
        38.600          32.8004
 131198141.226 6 102232329.77743  24966172.818    24966171.5224   24966171.0274
        40.400          22.8004
 25  1  1 11 10  0.0000000  0 37G10G24E19R04S31S35G21R12E13S48S33E27
                                R13E29G23R19G18E07E02E30R15G12E33R20
                                E26R14G08G27R05G32R18E12G28G31R03G25
                                G02
 107495221.048 8  83762530.38448  20455653.436    20455652.8194   20455654.5474
        52.200          53.3004
 124109393.758 6  96708653.63146  23617225.851    23617225.4094   23617229.4164
        41.100          36.4004
 136183658.592 6                  25914887.229
        38.600
 106693320.699 8  82983746.823 8  19924222.718    19924223.131    19924227.939
        52.700          48.200
 198975418.663 7                  37863755.121
        45.400
 200952867.645 7                  38240060.113
        43.800
 123011959.993 6  95853487.94644  23408390.371    23408389.0394   23408388.8094
        41.600          25.7004
 131194875.556 6 102040494.046 6  24559949.025    24559949.354    24559957.367
        40.000          36.800
 149919496.303 5                  28528719.051
        34.800
 412696974.513 5                  78533643.520
        32.400
 202090914.389 7                  38456587.837
        44.700
 148576718.116 6                  28273209.561
        38.900
 116631682.883 7                  21841353.847    21841352.720
        43.700
 123805698.397 8                  23559432.441
        48.700
 114312808.314 7  89074926.48545  21752997.871    21752997.4564   21752996.9434
        46.000          34.4004
 111452249.462 6  86685109.492 7  20834812.085    20834812.462    20834817.983
        39.600          44.000
 132800067.335 6 103480564.61543  25271015.910    25271015.5534   25271019.0904
        38.700          20.9004
 129801330.618 7                  24700365.173
        46.900
 149990388.679 5                  28542229.475
        35.300
 146461439.874 6                  27870678.123
        38.300
 129207212.804 7 100494537.974 6  24179370.646    24179369.918    24179378.827
        42.400          40.000
 128995618.671 6 100516079.52645  24547042.763    24547042.1514   24547041.8124
        39.700          30.7004
 125730675.975 7                  23925744.662
        47.700
 115317429.144 6  89691382.307 7  21564933.244    21564933.731    21564941.662
        38.700          45.700
 129156038.729 7                  24577573.463
        46.500
 114348665.233 8  88937898.923 7  21451509.482    21451510.139    21451515.640
        50.400          45.500
 133229909.588 6 103815532.39744  25352803.340    25352802.5624   25352804.4584
        37.600          26.9004
 135258382.406 6 105396159.88844  25738809.964    25738809.2094   25738812.2484
        37.100          29.8004
 117439723.712 8  91342019.666 7  21969522.571    21969522.456    21969527.350
        49.200          43.600
 109930490.647 8  85660138.30348  20919068.271    20919067.8024   20919069.0174
        51.900          52.1004
 123735824.845 7  96239011.702 7  23179885.963    23179885.521    23179893.353
        42.500          42.900
 146139785.618 5                  27809473.411
        34.200
 118403983.631 7  92262848.23745  22531527.481    22531527.1154   22531527.9514
        44.300          31.2004
 130701969.561 6 101845688.10345  24871760.686    24871760.1504   24871761.0494
        39.700          30.4004
 115257343.929 7  89644637.226 7  21531033.345    21531033.736    21531039.566
        47.900          46.300
 126538187.822 6  98601215.50445  24079412.101    24079411.1274   24079415.5454
        39.000          32.5004
 131158166.966 6 102201181.06043  24958566.125    24958564.8334   24958564.1764
        40.500          22.8004
 25  1  1 11 10 15.0000000  0 37G10G24E19R04S31S35G21R12E13S48S33E27
                                R13E29G23R19G18E07E02E30R15G12E33R20
                                E26R14G08G27R05G32R18E12G28G31R03G25
                                G02
 107490899.090 8  83759162.63448  20454830.935    20454830.3184   20454832.0734
        52.500          53.3004
 124161617.199 6  96749347.28846  23627164.169    23627163.7184   23627167.1104
        41.100          36.4004
 136154313.004 6                  25909302.867
        39.100
 106692436.488 8  82983059.122 8  19924057.453    19924058.034    19924062.855
        52.600          48.300
 198975427.152 7                  37863755.040
        45.500
 200952862.988 7                  38240060.019
        44.000
 122987951.756 7  95834780.28244  23403821.864    23403820.5324   23403820.0814
        42.100          25.5004
 131244315.810 6 102078947.332 6  24569205.092    24569204.764    24569212.191
        39.100          36.600
 149967419.656 6                  28537839.300
        36.300
 412696933.071 5                  78533634.916
        32.100
 202090916.985 7                  38456588.186
        44.900
 148538501.924 6                  28265937.301
        39.200
 116646486.225 7                  21844125.271    21844124.853
        43.200
 123798787.699 8                  23558117.319
        49.100
 114345493.334 7  89100395.31145  21759217.335    21759216.9244   21759216.7774
        46.200          34.4004
 111496365.943 6  86719422.324 7  20843059.340    20843059.945    20843064.988
        39.900          43.800
 132858901.099 6 103526408.98443  25282211.655    25282211.2714   25282214.8044
        38.100          20.2004
 129826947.054 7                  24705239.771
        47.300
 149994913.318 6                  28543090.332
        36.200
 146436920.154 6                  27866011.999
        38.100
 129143305.586 7 100444832.416 6  24167410.724    24167410.782    24167419.186
        43.400          39.300
 128969852.510 6 100496002.04845  24542139.195    24542138.5924   24542139.0314
        39.800          31.0004
 125726511.730 8                  23924952.408
        48.100
 115289938.049 6  89670000.305 7  21559791.718    21559792.952    21559800.642
        39.000          45.400
 129190936.001 7                  24584214.348
        46.900
 114303760.941 8  88902973.367 7  21443085.890    21443085.795    21443091.393
        50.500          45.500
 133260988.158 6 103839749.47744  25358717.089    25358716.3074   25358718.4034
        36.500          25.9004
 135298195.495 6 105427183.09345  25746386.060    25746385.3004   25746387.8614
        37.300          30.1004
 117406577.429 8  91316239.203 7  21963321.548    21963322.372    21963327.481
        49.900          43.900
 109922229.718 8  85653701.20848  20917496.274    20917495.8054   20917497.0414
        52.200          52.0004
 123802394.897 7  96290788.420 7  23192357.473    23192356.702    23192364.423
        42.400          43.100
 146100660.308 5                  27802028.785
        34.700
 118354643.085 7  92224401.09045  22522138.062    22522137.6824   22522138.6264
        44.200          31.1004
 130641575.550 6 101798627.85745  24860268.344    24860267.8124   24860267.9914
        40.300          30.6004
 115289040.838 7  89669290.376 7  21536955.704    21536955.112    21536960.656
        47.600          46.200
 126495649.952 6  98568069.15845  24071316.487    24071315.5084   24071320.6784
        38.900          32.3004
 131118264.476 6 102170088.21043  24950972.732    24950971.4544   24950970.4844
        40.600          22.9004
 25  1  1 11 10 30.0000000  0 37G10G24E19R04S31S35G21R12E13S48S33E27
                                R13E29G23R19G18E07E02E30R15G12E33R20
                                E26R14G08G27R05G32R18E12G28G31R03G25
                                G02
 107486660.186 8  83755859.58748  20454024.135    20454023.5144   20454025.4284
        52.300          53.2004
 124213900.692 6  96790087.66346  23637113.363    23637112.9124   23637116.5244
        41.000          36.1004
 136124997.282 6                  25903724.171
        38.900
 106691601.574 8  82982409.718 8  19923901.727    19923902.122    19923906.965
        52.600          48.300
 198975431.680 7                  37863757.938
        45.700
 200952854.088 7                  38240056.254
        44.100
 122964042.951 6  95816150.09144  23399271.854    23399270.5094   23399270.3884
        41.600          25.8004
 131293856.176 6 102117478.650 6  24578479.555    24578480.013    24578486.658
        41.100          37.100
 150015334.095 5                  28546956.865
        34.800
 412696888.146 5                  78533617.410
        32.300
 202090915.841 7                  38456588.450
        44.900
 148500269.482 6                  28258661.817
        38.000
 116661477.748 7                  21846933.190    21846933.337
        43.800
 123791921.684 8                  23556810.720
        49.100
 114378251.988 7  89125921.50545  21765451.272    21765450.8484   21765450.5724
        46.300          34.3004
 111540625.912 6  86753846.760 7  20851333.848    20851333.502    20851338.791
        39.700          43.900
 132917723.941 6 103572244.87243  25293405.399    25293405.0334   25293407.9684
        38.400          19.0004
 129852578.960 7                  24710117.374
        47.400
 149999532.756 6                  28543970.141
        36.000
 146412462.957 6                  27861357.888
        37.600
 129079364.251 7 100395100.329 6  24155445.248    24155445.606    24155453.414
        43.000          40.100
 128944177.053 6 100475995.25145  24537254.183    24537253.5754   24537253.0594
        39.600          30.6004
 125722451.818 8                  23924179.757
        48.100
 115262627.933 6  89648759.082 7  21554685.104    21554685.183    21554693.513
        38.800          45.300
 129225902.880 7                  24590868.164
        46.600
 114258974.583 8  88868139.543 7  21434684.672    21434684.398    21434690.328
        50.700          45.600
 133292110.928 6 103864000.98544  25364639.861    25364639.0884   25364640.9374
        37.300          26.8004
 135337991.573 6 105458193.02045  25753958.972    25753958.2124   25753960.7914
        38.300          30.2004
 117373457.882 8  91290479.542 7  21957126.334    21957126.398    21957131.502
        50.200          43.800
 109914031.489 8  85647312.97448  20915936.146    20915935.6774   20915936.9814
        52.400          52.0004
 123868971.432 7  96342570.146 7  23204827.309    23204828.267    23204836.475
        42.000          43.300
 146061578.128 5                  27794590.533
        34.500
 118305368.452 7  92186005.29645  22512762.149    22512761.7834   22512761.9604
        43.200          31.3004
 130581181.572 6 101751567.65345  24848775.189    24848774.6444   24848775.6224
        38.700          30.7004
 115320759.606 8  89693960.528 7  21542880.223    21542880.781    21542885.999
        48.000          46.400
 126453139.515 6  98534944.18445  24063227.558    24063226.6114   24063230.8424
        39.000          32.3004
 131078427.229 6 102139046.21643  24943392.259    24943391.0034   24943389.8324
        40.600          23.1004
 25  1  1 11 10 45.0000000  0 37G10G24E19R04S31S35G21R12E13S48S33E27
                                R13E29G23R19G18E07E02E30R15G12E33R20
                                E26R14G08G27R05G32R18E12G28G31R03G25
                                G02
 107482511.624 8  83752626.94848  20453234.722    20453234.0924   20453235.9774
        51.900          53.2004
 124266251.179 6  96830880.30046  23647074.830    23647074.3834   23647078.3954
        39.300          36.0004
 136095718.562 6                  25898152.801
        39.000
 106690823.300 8  82981804.419 8  19923756.405    19923756.683    19923761.767
        52.700          48.600
 198975438.723 7                  37863758.577
        45.600
 200952847.574 7                  38240056.321
        43.900
 122940240.797 6  95797602.97444  23394742.723    23394741.3954   23394741.2704
        41.300          25.6004
 131343502.750 6 102156092.517 6  24587773.279    24587772.684    24587780.684
        39.200          36.700
 150063246.307 5                  28556073.379
        34.000
 412696846.949 5                  78533617.070
        32.500
 202090916.136 7                  38456589.742
        44.800
 148462028.157 6                  28251384.738
        38.400
 116676665.044 7                  21849777.101    21849777.159
        44.100
 123785107.402 8                  23555514.132
        49.100
 114411091.332 7  89151510.57845  21771700.641    21771700.2214   21771699.6744
        46.000          34.3004
 111585036.210 6  86788388.114 7  20859635.367    20859635.708    20859640.980
        39.200          44.000
 132976542.687 6 103618077.63043  25304597.785    25304597.3924   25304600.4714
        37.900          19.7004
 129878233.325 7                  24714999.218
        47.400
 150004254.531 5                  28544868.303
        35.500
 146388075.611 6                  27856716.866
        38.100
 129015396.543 7 100345347.747 6  24143473.925    24143473.462    24143482.850
        42.300          39.800
 128918599.830 6 100456065.00045  24532386.558    24532385.9504   24532386.1984
        39.500          31.0004
 125718503.406 8                  23923428.219
        48.100
 115235506.581 6  89627664.742 7  21549613.594    21549613.711    21549621.449
        38.900          45.700
 129260946.296 7                  24597536.707
        46.900
 114214313.860 8  88833403.454 7  21426305.918    21426305.986    21426311.643
        50.500          45.500
 133323284.606 6 103888292.17644  25370571.347    25370570.5744   25370573.5114
        37.700          27.4004
 135377777.438 6 105489194.99344  25761529.415    25761528.6284   25761532.0264
        36.800          29.8004
 117340371.956 8  91264746.003 7  21950936.819    21950937.015    21950941.753
        50.000          43.400
 109905902.931 8  85640979.02948  20914389.199    20914388.7264   20914390.1804
        52.000          52.0004
 123935561.041 7  96394362.035 7  23217304.078    23217303.272    23217310.652
        42.900          42.800
 146022546.346 5                  27787163.336
        35.400
 118256167.123 7  92147666.61745  22503399.006    22503398.6534   22503399.3934
        43.300          31.2004
 130520795.001 6 101704513.20145  24837284.369    24837283.8554   24837284.2854
        38.600          30.4004
 115352506.963 7  89718652.909 7  21548810.794    21548811.100    21548816.890
        47.700          46.400
 126410664.051 6  98501846.47145  24055145.181    24055144.2294   24055148.2864
        38.800          32.5004
 131038662.564 6 102108060.79143  24935824.919    24935823.6544   24935822.7114
        40.400          22.7004
 25  1  1 11 11  0.0000000  0 37G10G24E19R04S31S35G21R12E13S48S33E27
                                R13E29G23R19G18E07E02E30R15G12E33R20
                                E26R14G08G27R05G32R18E12G28G31R03G25
                                G02
 107478447.816 8  83749460.34648  20452461.577    20452460.9564   20452462.6454
        51.800          52.9004
 124318662.491 6  96871720.37445  23657048.754    23657048.3164   23657051.5854
        39.700          35.9004
 136066471.012 6                  25892587.150
        38.800
 106690095.665 8  82981238.446 8  19923620.392    19923620.692    19923625.942
        52.800          48.200
 198975441.953 7                  37863760.996
        45.700
 200952838.232 7                  38240051.773
        44.000
 122916539.770 6  95779134.66344  23390232.244    23390230.9214   23390231.2274
        41.300          25.8004
 131393249.032 6 102194783.626 6  24597086.583    24597086.448    24597093.799
        40.800          36.700
 150111150.267 5                  28565188.956
        35.000
 412696802.895 5                  78533609.612
        32.400
 202090913.826 7                  38456590.136
        44.700
 148423772.393 6                  28244105.093
        38.500
 116692041.886 7                  21852656.535    21852656.307
        43.500
 123778339.000 8                  23554226.121
        48.900
 114444005.567 7  89177158.00345  21777964.101    21777963.6814   21777963.1024
        46.100          34.1004
 111629590.711 6  86823041.571 7  20867964.859    20867964.767    20867970.146
        39.700          44.100
 133035351.238 6 103663902.44343  25315789.580    25315789.2054   25315791.8554
        37.900          19.6004
 129903904.280 7                  24719884.213
        47.000
 150009073.368 5                  28545785.561
        34.300
 146363752.550 6                  27852088.440
        38.200
 128951396.936 7 100295570.267 6  24131498.607    24131498.913    24131506.342
        45.200          40.100
 128893115.363 6 100436207.02845  24527536.576    24527535.9774   24527536.3704
        39.200          30.5004
 125714660.721 8                  23922697.042
        48.000
 115208567.889 6  89606712.398 7  21544576.283    21544575.976    21544583.925
        38.300          45.200
 129296060.261 7                  24604218.827
        46.600
 114169773.470 8  88798760.935 7  21417950.215    21417950.733    21417955.782
        50.900          45.500
 133354503.069 6 103912618.27144  25376512.690    25376511.9034   25376514.0304
        38.200          27.7004
 135417546.972 6 105520184.24344  25769097.442    25769096.6784   25769100.1354
        37.200          29.9004
 117307313.933 8  91239034.151 7  21944752.698    21944753.356    21944757.441
        50.700          43.600
 109897838.223 8  85634694.82848  20912854.760    20912854.2874   20912855.5054
        52.000          51.9004
 124002157.431 7  96446159.179 7  23229779.204    23229779.671    23229786.484
        43.800          42.900
 145983559.407 5                  27779744.269
        34.200
 118207033.599 7  92109380.75645  22494049.371    22494049.0234   22494049.5074
        44.100          31.2004
 130460410.429 6 101657460.28544  24825793.551    24825793.0464   24825792.8194
        39.000          29.9004
 115384276.865 7  89743362.834 7  21554746.221    21554746.397    21554751.525
        47.700          45.900
 126368218.185 6  98468771.81445  24047067.527    24047066.5664   24047070.9844
        38.500          32.3004
 130998965.046 6 102077127.69043  24928270.415    24928269.1634   24928268.8754
        40.200          23.0004
 25  1  1 11 11 15.0000000  0 37G10G24E19R04S31S35G21R12E13S48S33E27
                                R13E29G23R19G18E07E02E30R15G12E33R20
                                E26R14G08G27R05G32R18E12G28G31R03G25
                                G02
 107474471.664 8  83746362.05048  20451704.771    20451704.1414   20451706.0064
        52.100          53.1004
 124371136.840 6  96912609.54846  23667033.965    23667033.5324   23667037.0494
        40.100          36.0004
 136037257.431 6                  25887027.884
        38.600
 106689421.568 8  82980714.150 8  19923494.391    19923494.923    19923500.008
        52.500          48.200
 198975445.907 7                  37863761.367
        45.900
 200952828.276 7                  38240050.467
        44.100
 122892942.822 6  95760747.46244  23385742.033    23385740.6924   23385740.6544
        41.800          25.5004
 131443098.062 6 102233554.843 6  24606418.522    24606418.380    24606426.272
        40.700          39.700
 150159048.541 5                  28574304.394
        35.400
 412696759.041 5                  78533599.148
        32.900
 202090911.146 7                  38456588.441
        45.200
 148385505.193 6                  28236822.547
        38.500
 116707610.636 7                  21855572.325    21855572.257
        43.800
 123771619.161 8                  23552947.459
        48.900
 114476997.414 7  89202865.90945  21784242.229    21784241.8054   21784241.3374
        46.100          34.3004
 111674291.452 6  86857808.788 7  20876320.462    20876320.665    20876326.312
        39.500          44.000
 133094152.066 6 103709721.26243  25326978.730    25326978.3504   25326981.3714
        38.600          20.1004
 129929594.552 7                  24724772.966
        47.000
 150013991.585 5                  28546721.809
        35.200
 146339496.728 6                  27847472.784
        37.700
 128887368.638 7 100245770.579 6  24119516.103    24119515.363    24119524.370
        42.900          40.500
 128867726.729 6 100416423.70545  24522705.392    24522704.7934   24522704.8144
        40.000          30.6004
 125710926.639 7                  23921986.477
        47.700
 115181815.469 6  89585904.985 7  21539572.463    21539573.125    21539581.065
        38.400          45.500
 129331247.397 7                  24610914.585
        46.500
 114125356.709 8  88764214.584 7  21409617.292    21409617.837    21409623.481
        50.500          45.400
 133385768.708 6 103936981.11544  25382461.675    25382460.9024   25382463.4214
        38.200          26.7004
 135457302.566 6 105551162.63844  25776663.113    25776662.3444   25776664.9274
        37.700          29.8004
 117274286.754 8  91213346.295 7  21938574.254    21938574.902    21938579.925
        50.300          43.700
 109889840.047 8  85628462.47148  20911332.670    20911332.1974   20911333.5134
        52.000          51.9004
 124068762.851 7  96497963.408 7  23242257.047    23242257.515    23242264.444
        44.600          43.000
 145944620.413 5                  27772335.271
        34.600
 118157971.016 7  92071150.18745  22484713.002    22484712.6454   22484713.2334
        43.400          31.4004
 130400030.853 6 101610411.29545  24814303.586    24814303.0724   24814303.5354
        39.500          30.6004
 115416072.589 8  89768092.848 7  21560685.632    21560685.539    21560691.391
        48.200          46.100
 126325805.099 6  98435722.70445  24038996.067    24038995.0974   24039000.0274
        39.300          32.5004
 130959337.649 6 102046249.24743  24920730.043    24920728.7834   24920727.7164
        40.500          22.6004
 25  1  1 11 11 30.0000000  0 37G10G24E19R04S31S35G21R12E13S48S33E27
                                R13E29G23R19G18E07E02E30R15G12E33R20
                                E26R14G08G27R05G32R18E12G28G31R03G25
                                G02
 107470587.405 8  83743335.35848  20450965.684    20450965.0504   20450966.8434
        52.100          53.0004
 124423677.967 6  96953550.68445  23677032.099    23677031.6704   23677035.1774
        39.900          35.7004
 136008081.774 6                  25881476.313
        38.900
 106688804.930 8  82980234.549 8  19923379.213    19923379.841    19923384.935
        52.900          48.300
 198975453.942 7                  37863761.582
        45.500
 200952821.838 7                  38240051.263
        43.800
 122869454.057 6  95742444.57344  23381272.132    23381270.7784   23381270.8334
        41.000          25.7004
 131493053.337 6 102272408.741 5  24615770.012    24615771.289    24615777.862
        40.400          33.700
 150206945.064 5                  28583418.637
        34.700
 412696719.586 5                  78533583.681
        32.900
 202090911.898 7                  38456588.276
        44.900
 148347230.894 6                  28229539.106
        38.700
 116723375.897 7                  21858524.223    21858524.136
        43.600
 123764951.887 8                  23551678.683
        49.100
 114510070.929 7  89228637.45045  21790535.822    21790535.4074   21790535.0474
        45.800          34.3004
 111719141.937 6  86892692.501 7  20884705.794    20884705.400    20884710.935
        39.700          43.900
 133152948.861 6 103755536.92543  25338167.089    25338166.7094   25338170.4214
        38.000          19.9004
 129955308.022 7                  24729666.071
        47.500
 150019013.519 5                  28547676.599
        33.900
 146315312.487 6                  27842870.964
        37.500
 128823316.213 7 100195952.098 6  24107529.195    24107528.517    24107537.497
        42.800          40.400
 128842438.400 6 100396718.54945  24517893.763    24517893.1644   24517892.7804
        38.900          30.8004
 125707305.293 8                  23921297.383
        48.100
 115155253.267 6  89565245.498 7  21534606.026    21534606.109    21534613.871
        38.300          45.600
 129366511.589 7                  24617625.351
        46.700
 114081068.590 8  88729768.301 7  21401309.736    21401309.885    21401315.112
        50.800          45.600
 133417085.344 6 103961383.69044  25388421.182    25388420.3954   25388422.9624
        37.000          26.7004
 135497047.973 6 105582133.09645  25784226.385    25784225.6164   25784228.2074
        37.500          30.1004
 117241294.486 8  91187685.647 7  21932402.070    21932402.319    21932407.342
        49.500          43.400
 109881912.425 8  85622285.09148  20909824.076    20909823.6114   20909824.9484
        52.000          52.0004
 124135380.928 7  96549777.428 7  23254735.924    23254736.901    23254744.528
        43.800          43.200
 145905733.558 5                  27764934.913
        35.000
 118108983.727 7  92032978.31845  22475391.081    22475390.7284   22475391.1844
        44.000          31.5004
 130339660.658 6 101563369.61745  24802815.512    24802815.0254   24802815.9324
        39.800          31.1004
 115447898.181 7  89792846.089 7  21566630.843    21566631.330    21566636.449
        47.600          46.100
 126283429.241 6  98402702.59345  24030932.595    24030931.6254   24030935.9934
        38.600          32.3004
 130919784.669 6 102015428.77743  24913202.740    24913201.4754   24913201.3764
        39.700          22.9004
 25  1  1 11 11 45.0000000  0 37G10G24E19R04S31S35G21R12E13S48S33E27
                                R13E29G23R19G18E07E02E30R15G12E33R20
                                E26R14G08G27R05G32R18E12G28G31R03G25
                                G02
 107466793.633 8  83740379.16948  20450243.700    20450243.0574   20450244.8994
        51.500          52.9004
 124476284.004 6  96994542.42745  23687042.973    23687042.5494   23687045.6954
        40.700          35.8004
 135978942.433 6                  25875930.843
        39.100
 106688244.139 8  82979798.359 8  19923274.555    19923274.928    19923280.084
        52.700          48.300
 198975462.369 7                  37863764.153
        45.700
 200952817.905 7                  38240051.098
        44.100
 122846072.229 6  95724224.99744  23376822.762    23376821.4124   23376821.4084
        40.700          25.4004
 131543111.888 7 102311342.411 5  24625141.556    24625142.464    24625149.202
        43.000          35.900
 150254837.983 5                  28592532.591
        34.900
 412696682.700 5                  78533574.719
        32.500
 202090915.720 7                  38456587.967
        45.000
 148308948.116 6                  28222254.102
        38.800
 116739335.657 7                  21861513.288    21861513.398
        42.900
 123758335.508 8                  23550419.560
        49.000
 114543224.439 7  89254471.32145  21796844.689    21796844.2784   21796843.9744
        45.900          34.2004
 111764140.220 6  86927691.138 7  20893118.303    20893117.533    20893122.576
        39.100          44.100
 133211739.722 6 103801347.95843  25349354.440    25349354.0874   25349358.0364
        37.700          19.9004
 129981043.029 7                  24734563.054
        47.000
 150024137.446 5                  28548651.984
        34.900
 146291198.436 6                  27838281.854
        38.300
 128759238.623 7 100146114.010 6  24095537.619    24095537.239    24095545.830
        43.700          39.800
 128817249.102 6 100377090.56945  24513099.930    24513099.3134   24513099.3084
        40.100          30.7004
 125703795.143 7                  23920629.495
        47.900
 115128880.490 6  89544733.358 7  21529674.229    21529674.133    21529681.818
        38.900          45.400
 129401851.050 7                  24624350.138
        46.500
 114036907.676 8  88695420.940 7  21393024.460    21393024.943    21393030.524
        50.500          45.500
 133448450.957 6 103985824.43344  25394390.320    25394389.5294   25394391.8094
        37.800          27.1004
 135536781.240 6 105613094.07744  25791787.609    25791786.8404   25791789.7074
        37.100          29.9004
 117208335.244 8  91162050.605 7  21926236.607    21926236.371    21926242.008
        49.400          43.700
 109874053.688 8  85616161.39348  20908328.619    20908328.1504   20908329.4954
        52.100          51.9004
 124202009.445 7  96601599.588 7  23267218.315    23267218.420    23267225.255
        43.000          42.200
 145866897.736 5                  27757544.801
        35.800
 118060070.385 7  91994864.04945  22466082.874    22466082.5214   22466083.1884
        43.100          31.4004
 130279298.616 6 101516334.27845  24791328.800    24791328.3314   24791329.2954
        39.500          30.5004
 115479751.575 7  89817620.946 7  21572581.253    21572581.490    21572587.164
        47.200          46.200
 126241089.465 6  98369710.59745  24022875.035    24022874.0614   24022879.0994
        37.300          32.3004
 130880304.830 6 101984665.27243  24905689.990    24905688.6984   24905689.1314
        40.600          22.4004
 25  1  1 11 12  0.0000000  0 37G10G24E19R04S31S35G21R12E13S48S33E27
                                R13E29G23R19G18E07E02E30R15G12E33R20
                                E26R14G08G27R05G32R18E12G28G31R03G25
                                G02
 107463085.749 8  83737489.91048  20449538.507    20449537.8734   20449539.3004
        51.500          53.0004
 124528949.727 6  97035580.59945  23697064.995    23697064.5664   23697067.9214
        39.900          35.9004
 135949834.636 6                  25870391.667
        39.000
 106687734.515 8  82979401.995 8  19923179.615    19923179.723    19923185.049
        52.900          48.400
 198975469.102 7                  37863764.341
        45.600
 200952811.135 7                  38240052.073
        44.200
 122822792.809 7  95706085.20944  23372392.740    23372391.3994   23372391.2644
        42.000          25.9004
 131593270.911 6 102350355.124 6  24634531.463    24634531.458    24634539.547
        38.900          37.300
 150302722.559 5                  28601644.602
        34.900
 412696643.369 5                  78533567.574
        32.300
 202090917.106 7                  38456588.754
        44.800
 148270652.438 6                  28214966.971
        39.000
 116755484.731 7                  21864537.749    21864536.966
        42.900
 123751765.235 8                  23549169.291
        49.300
 114576453.211 7  89280363.84545  21803167.911    21803167.5004   21803167.2424
        45.400          34.2004
 111809280.964 6  86962800.581 7  20901555.907    20901555.721    20901560.890
        39.000          43.900
 133270519.688 6 103847150.49543  25360540.533    25360540.1624   25360543.7114
        36.800          19.3004
 130006794.756 7                  24739463.690
        47.500
 150029357.759 5                  28549645.455
        34.600
 146267150.063 6                  27833705.646
        38.500
 128695131.523 7 100096253.015 6  24083540.356    24083540.895    24083549.540
        43.900          39.500
 128792154.382 6 100357536.28945  24508324.376    24508323.7424   24508323.5214
        39.800          30.6004
 125700391.544 8                  23919981.693
        48.300
 115102692.543 6  89524364.953 7  21524776.840    21524776.741    21524784.663
        39.100          45.400
 129437260.917 7                  24631088.565
        46.600
 113992869.672 8  88661169.196 7  21384763.530    21384763.982    21384769.004
        50.600          45.400
 133479860.492 6 104010299.40944  25400366.365    25400365.5834   25400368.8574
        37.300          27.6004
 135576497.337 6 105644041.68944  25799344.691    25799343.9274   25799347.1834
        37.800          29.8004
 117175404.457 8  91136437.745 7  21920076.349    21920076.439    21920081.847
        50.200          43.800
 109866259.040 8  85610087.63548  20906845.376    20906844.9114   20906846.2224
        51.700          52.0004
 124268643.274 7  96653425.892 7  23279700.955    23279700.503    23279708.729
        42.900          42.300
 145828108.032 5                  27750162.897
        35.700
 118011226.633 7  91956804.01445  22456788.955    22456788.6164   22456788.5054
        43.300          31.7004
 130218940.294 6 101469301.84244  24779843.273    24779842.7954   24779842.6534
        38.400          29.9004
 115511628.481 8  89842414.080 7  21578536.094    21578536.435    21578541.966
        48.100          46.300
 126198781.440 6  98336743.34545  24014824.998    24014824.0514   24014827.6344
        38.300          32.3004
 130840893.707 6 101953955.28943  24898190.246    24898188.9324   24898189.6294
        39.600          22.6004
 25  1  1 11 12 15.0000000  0 37G10G24E19R04S31S35G21R12E13S48S33E27
                                R13E29G23R19G18E07E02E30R15G12E33R20
                                E26R14G08G27R05G32R18E12G28G31R03G25
                                G02
 107459465.470 8  83734668.91848  20448849.241    20448848.6114   20448850.3844
        51.400          52.9004
 124581676.413 6  97076666.32145  23707098.426    23707097.9884   23707101.4504
        40.900          35.8004
 135920760.017 6                  25864859.252
        39.000
 106687277.462 8  82979046.527 8  19923094.436    19923094.565    19923099.556
        53.000          48.200
 198975475.724 7                  37863767.717
        45.700
 200952804.020 7                  38240046.076
        43.900
 122799617.339 6  95688026.39844  23367982.543    23367981.1894   23367981.2344
        40.900          25.7004
 131643529.978 6 102389445.603 6  24643940.906    24643941.093    24643947.810
        39.300          37.200
 150350600.212 5                  28610755.509
        34.900
 412696602.671 5                  78533554.937
        32.200
 202090916.664 7                  38456589.134
        44.800
 148232345.542 6                  28207677.059
        38.400
 116771824.914 7                  21867597.901    21867597.671
        43.500
 123745242.489 8                  23547928.190
        49.200
 114609758.676 7  89306316.12745  21809506.014    21809505.6214   21809505.1814
        45.600          34.3004
 111854564.998 6  86998021.469 7  20910021.225    20910021.183    20910026.620
        39.200          43.800
 133329289.990 6 103892945.55343  25371723.859    25371723.5064   25371727.5564
        38.300          19.2004
 130032564.592 7                  24744367.766
        47.600
 150034677.290 6                  28550657.747
        36.800
 146243169.061 6                  27829141.775
        38.200
 128630996.746 7 100046370.506 6  24071538.344    24071538.345    24071547.437
        42.600          39.800
 128767156.110 6 100338057.14245  24503567.328    24503566.7114   24503566.4934
        39.500          30.4004
 125697096.025 8                  23919354.710
        48.100
 115076690.991 6  89504141.513 7  21519914.793    21519914.383    21519922.346
        38.500          45.300
 129472742.460 7                  24637840.367
        46.600
 113948956.666 8  88627014.645 7  21376525.940    21376525.715    21376531.480
        50.700          45.800
 133511315.068 6 104034809.49844  25406352.920    25406352.1604   25406354.3754
        38.100          28.0004
 135616197.368 6 105674976.80444  25806899.995    25806899.2264   25806901.1534
        37.200          29.5004
 117142503.472 8  91110848.047 7  21913921.499    21913921.545    21913926.882
        49.800          43.700
 109858529.903 8  85604064.93048  20905374.748    20905374.2884   20905375.4294
        51.900          51.9004
 124335283.349 7  96705257.042 7  23292184.950    23292184.960    23292192.672
        43.200          42.300
 145789366.322 6                  27742790.800
        36.000
 117962454.151 7  91918799.49945  22447507.147    22447506.8124   22447507.4244
        44.100          31.6004
 130158587.414 6 101422273.64344  24768358.369    24768357.8694   24768357.5194
        38.700          29.6004
 115543530.102 7  89867226.441 7  21584495.939    21584495.856    21584501.422
        47.700          45.900
 126156507.111 6  98303802.34745  24006780.137    24006779.1764   24006783.0334
        38.500          32.4004
 130801553.258 6 101923300.44143  24890703.979    24890702.6604   24890703.4894
        39.600          22.6004
 25  1  1 11 12 30.0000000  0 37G10G24E19R04S31S35G21R12E13S48S33E27
                                R13E29G23R19G18E07E02E30R15G12E33R20
                                E26R14G08G27R05G32R18E12G28G31R03G25
                                G02
 107455931.099 8  83731914.86348  20448176.687    20448176.0614   20448177.8034
        51.600          52.8004
 124634461.843 6  97117797.81245  23717142.999    23717142.5434   23717146.1144
        40.400          35.4004
 135891716.741 6                  25859332.384
        38.800
 106686870.971 8  82978730.362 8  19923018.277    19923018.628    19923023.682
        52.900          48.300
 198975478.262 7                  37863766.993
        45.600
 200952793.203 7                  38240045.826
        44.000
 122776544.245 6  95670047.37744  23363591.997    23363590.6524   23363590.4944
        40.900          25.3004
 131693885.683 6 102428610.674 6  24653367.140    24653367.493    24653375.202
        39.000          36.700
 150398468.749 5                  28619864.635
        33.400
 412696559.866 5                  78533545.193
        32.600
 202090914.016 7                  38456589.071
        45.000
 148194025.870 6                  28200385.172
        38.100
 116788353.915 7                  21870692.983    21870692.364
        43.600
 123738765.403 8                  23546695.621
        48.600
 114643138.998 7  89332326.74245  21815858.125    21815857.7284   21815857.3634
        45.600          34.1004
 111899990.372 6  87033352.279 7  20918513.545    20918512.557    20918518.432
        39.300          43.700
 133388048.402 6 103938731.34443  25382904.765    25382904.3854   25382908.5264
        38.000          18.4004
 130058350.617 7                  24749274.439
        47.100
 150040093.578 5                  28551688.049
        35.200
 146219253.917 6                  27824591.279
        38.100
 128566833.182 7  99996465.571 6  24059531.773    24059531.506    24059539.646
        43.700          39.800
 128742252.922 6 100318652.10045  24498828.807    24498828.2044   24498827.8744
        39.400          30.8004
 125693906.900 7                  23918747.742
        47.500
 115050874.306 6  89484061.845 7  21515086.468    21515086.417    21515094.639
        38.600          45.400
 129508293.696 7                  24644605.513
        46.200
 113905167.520 8  88592956.445 7  21368311.105    21368311.255    21368316.130
        50.700          45.500
 133542812.542 6 104059352.99644  25412346.415    25412345.6784   25412348.2454
        38.200          28.5004
 135655879.223 6 105705897.74445  25814451.061    25814450.2884   25814452.2934
        37.900          30.2004
 117109630.515 8  91085280.172 7  21907772.156    21907771.933    21907777.596
        49.800          44.000
 109850864.431 8  85598091.83448  20903915.945    20903915.4804   20903916.7504
        52.000          51.8004
 124401927.278 7  96757091.185 6  23304669.790    23304669.762    23304676.610
        44.000          41.800
 145750670.837 5                  27735427.295
        34.800
 117913751.522 7  91880849.42245  22438239.425    22438239.0954   22438239.6294
        44.200          31.7004
 130098238.472 6 101375248.52945  24756873.792    24756873.2514   24756873.8734
        39.900          30.5004
 115575454.749 7  89892056.733 7  21590459.180    21590459.941    21590465.377
        47.200          46.000
 126114265.043 6  98270886.49645  23998741.686    23998740.7124   23998744.9744
        39.300          32.7004
 130762281.666 6 101892699.17543  24883231.427    24883230.1044   24883229.9824
        39.800          22.6004
 25  1  1 11 12 45.0000000  0 37G10G24E19R04S31S35G21R12E13S48S33E27
                                R13E29G23R19G18E07E02E30R15G12E33R20
                                E26R14G08G27R05G32R18E12G28G31R03G25
                                G02
 107452491.082 8  83729234.33548  20447521.986    20447521.3564   20447523.1794
        51.500          52.7004
 124687313.996 6  97158981.32545  23727200.594    23727200.1294   23727203.6564
        40.000          35.5004
 135862713.028 6                  25853812.890
        38.800
 106686523.562 8  82978460.189 8  19922953.193    19922953.812    19922958.830
        53.100          48.500
 198975486.443 7                  37863768.187
        45.600
 200952787.820 7                  38240044.453
        44.000
 122753581.947 6  95652154.70844  23359222.444    23359221.1034   23359221.0174
        41.400          25.8004
 131744345.703 6 102467856.365 6  24662813.660    24662814.346    24662822.846
        40.200          37.200
 150446336.171 5                  28628972.899
        33.900
 412696523.366 5                  78533540.163
        32.600
 202090916.028 7                  38456589.107
        44.800
 148155701.922 6                  28193092.288
        38.000
 116805080.155 7                  21873825.287    21873824.736
        43.000
 123732342.113 8                  23545473.152
        48.800
 114676602.347 7  89358402.05745  21822225.775    21822225.3734   21822225.1864
        45.700          34.0004
 111945564.648 6  87068798.928 7  20927031.790    20927032.550    20927038.143
        39.600          44.000
 133446802.905 6 103984514.09843  25394085.132    25394084.7574   25394088.3704
        37.500          18.3004
 130084161.036 7                  24754185.792
        47.200
 150045615.681 6                  28552739.530
        36.000
 146195412.996 6                  27820054.586
        37.800
 128502649.531 7  99946545.029 6  24047520.289    24047520.907    24047528.058
        43.900          39.100
 128717453.274 6 100299327.73745  24494109.860    24494109.2754   24494108.5774
        39.800          30.7004
 125690832.421 7                  23918162.788
        47.600
 115025251.703 6  89464133.203 7  21510295.461    21510295.293    21510302.647
        39.100          45.400
 129543922.692 7                  24651385.454
        46.100
 113861511.120 8  88559001.510 7  21360121.800    21360121.416    21360126.273
        51.600          45.500
 133574360.808 6 104083936.09444  25418349.458    25418348.7164   25418351.6984
        37.100          27.8004
 135695550.719 6 105736810.57545  25821999.680    25821998.9114   25822002.1714
        38.400          31.3004
 117076794.053 8  91059740.684 7  21901629.662    21901629.466    21901634.633
        49.700          43.700
 109843270.719 8  85592174.66148  20902470.947    20902470.4874   20902471.7274
        51.900          51.8004
 124468582.888 7  96808934.418 7  23317156.678    23317157.224    23317164.126
        44.200          42.000
 145712030.317 5                  27728074.061
        34.900
 117865127.273 7  91842960.44145  22428986.867    22428986.5374   22428986.7784
        44.000          31.7004
 130037902.049 6 101328233.15645  24745391.944    24745391.3864   24745392.7234
        40.400          31.1004
 115607410.513 7  89916911.221 7  21596429.444    21596429.718    21596434.636
        47.800          45.900
 126072063.901 6  98238002.53045  23990711.068    23990710.0714   23990714.3614
        38.100          32.4004
 130723087.552 6 101862158.32943  24875773.284    24875771.9794   24875771.4094
        39.300          22.5004
 25  1  1 11 13  0.0000000  0 37G10G24E19R04S31S35G21R12E13S48S33E27
                                R13E29G23R19G18E07E02E30R15G12E33R20
                                E26R14G08G27R05G32R18E12G28G31R03G25
                                G02
 107449140.444 8  83726623.45548  20446884.456    20446883.8264   20446885.5624
        51.600          52.6004
 124740227.300 6  97200212.50545  23737269.550    23737269.1124   23737272.7844
        39.800          35.6004
 135833743.659 6                  25848300.440
        38.700
 106686229.903 8  82978231.790 8  19922898.195    19922898.945    19922903.976
        53.100          48.500
 198975495.090 7                  37863769.430
        45.600
 200952782.537 7                  38240045.920
        44.100
 122730725.378 6  95634344.36744  23354872.621    23354871.2764   23354872.0604
        41.100          25.4004
 131794907.114 6 102507181.576 5  24672279.591    24672279.371    24672288.149
        38.000          35.700
 150494197.201 5                  28638080.833
        33.100
 412696486.506 5                  78533529.431
        32.600
 202090918.203 7                  38456589.885
        44.700
 148117368.838 6                  28185798.008
        38.500
 116821998.184 7                  21876994.045    21876993.297
        43.900
 123725967.480 8                  23544260.133
        48.600
 114710143.595 7  89384538.06545  21828608.440    21828608.0514   21828607.8554
        45.800          33.9004
 111991282.057 6  87104356.877 7  20935579.145    20935579.260    20935584.630
        39.600          44.100
 133505548.101 6 104030289.59042  25405264.101    25405263.7354   25405267.0194
        37.700          17.8004
 130109990.548 7                  24759101.009
        47.100
 150051236.659 6                  28553808.727
        36.100
 146171641.489 6                  27815530.795
        37.900
 128438440.964 7  99896605.197 6  24035503.636    24035502.921    24035512.911
        42.300          39.700
 128692752.350 6 100280080.30645  24489408.627    24489408.0514   24489408.1424
        39.000          30.6004
 125687867.576 7                  23917598.381
        47.600
 114999817.928 6  89444351.393 7  21505538.902    21505539.074    21505546.317
        39.100          45.100
 129579624.166 7                  24658179.280
        46.100
 113817982.555 8  88525145.985 7  21351954.693    21351954.990    21351960.151
        51.100          45.500
 133605954.380 6 104108554.45544  25424362.121    25424361.3574   25424364.3624
        37.100          27.1004
 135735206.473 6 105767711.17244  25829546.416    25829545.6704   25829548.4064
        37.600          29.3004
 117043988.754 8  91034225.425 7  21895492.336    21895492.576    21895497.863
        49.500          43.500
 109835743.614 8  85586309.38248  20901038.570    20901038.1144   20901039.3594
        51.900          51.8004
 124535244.514 7  96860782.323 6  23329644.968    23329644.274    23329651.691
        43.300          41.700
 145673439.913 6                  27720730.907
        36.100
 117816576.599 7  91805128.78645  22419747.516    22419747.1774   22419747.7264
        44.200          31.7004
 129977573.359 6 101281223.80045  24733912.453    24733911.8864   24733912.1324
        39.700          30.3004
 115639392.680 7  89941786.251 7  21602403.755    21602404.011    21602409.551
        47.500          46.000
 126029898.981 6  98205146.78745  23982687.229    23982686.2284   23982690.6424
        38.900          32.8004
 130683965.994 6 101831674.00243  24868328.978    24868327.6554   24868327.2534
        38.800          22.4004
 25  1  1 11 13 15.0000000  0 36G10G24E19R04S31S35G21E13S48S33E27R13
                                E29G23R19G18E07E02E30R15G12E33R20E26
                                R14G08G27R05G32R18E12G28G31R03G25G02
 107445874.272 8  83724078.39048  20446263.019    20446262.3934   20446264.0294
        51.600          52.6004
 124793196.337 6  97241487.11945  23747349.089    23747348.6604   23747352.4794
        40.400          35.7004
 135804803.563 6                  25842793.326
        38.400
 106685984.870 8  82978041.186 8  19922853.037    19922853.089    19922858.249
        53.000          48.400
 198975498.917 7                  37863770.270
        45.700
 200952772.809 7                  38240039.771
        44.000
 122707969.506 6  95616612.55544  23350543.038    23350541.6884   23350541.8614
        41.300          25.8004
 150542046.613 5                  28647186.695
        34.800
 412696444.733 5                  78533513.794
        32.800
 202090916.717 7                  38456590.959
        45.000
 148079021.752 6                  28178500.635
        38.100
 116839102.608 7                  21880196.622    21880196.423
        43.500
 123719636.288 8                  23543055.261
        48.400
 114743757.611 7  89410730.78845  21835004.991    21835004.6074   21835004.4754
        45.300          33.9004
 112037136.992 6  87140021.790 7  20944151.753    20944151.061    20944156.646
        39.200          43.800
 133564278.483 6 104076053.53443  25416441.023    25416440.6524   25416443.0804
        37.600          18.9004
 130135834.029 7                  24764018.995
        47.000
 150056952.493 5                  28554896.164
        34.100
 146147934.431 6                  27811019.347
        37.800
 128374202.999 7  99846642.417 6  24023482.512    24023483.812    24023490.905
        44.900          39.500
 128668145.447 6 100260906.12545  24484726.501    24484725.9074   24484725.4634
        40.200          30.9004
 125685007.302 7                  23917054.128
        47.600
 114974567.387 6  89424712.111 7  21500817.068    21500816.754    21500824.766
        38.600          45.800
 129615392.839 7                  24664985.806
        45.900
 113774577.499 8  88491386.502 7  21343812.151    21343812.206    21343817.876
        50.800          45.500
 133637587.842 6 104133203.90844  25430381.580    25430380.7934   25430383.8374
        36.700          27.1004
 135774841.055 6 105798595.27044  25837088.110    25837087.3554   25837090.1864
        37.100          28.7004
 117011209.431 8  91008730.371 7  21889360.473    21889360.497    21889365.570
        49.600          43.800
 109828277.978 8  85580492.00348  20899618.084    20899617.6244   20899618.7164
        51.700          51.9004
 124601906.588 7  96912630.585 6  23342133.251    23342133.346    23342139.019
        44.300          41.100
 145634894.725 5                  27713395.806
        34.500
 117768094.665 7  91767350.69445  22410521.663    22410521.3244   22410521.8884
        44.000          31.9004
 129917247.671 6 101234216.79145  24722432.522    24722431.9464   24722432.1264
        38.700          30.0004
 115671395.449 7  89966677.281 7  21608382.535    21608382.575    21608388.030
        47.800          45.900
 125987765.575 6  98172315.60645  23974669.267    23974668.2794   23974673.0634
        39.400          33.1004
 130644912.406 6 101801242.69843  24860897.281    24860895.9444   24860895.5684
        39.800          22.5004
 25  1  1 11 13 30.0000000  0 36G10G24E19R04S31S35G21E13S48S33E27R13
                                E29G23R19G18E07E02E30R15G12E33R20E26
                                R14G08G27R05G32R18E12G28G31R03G25G02
 107442697.320 8  83721602.85248  20445658.446    20445657.8204   20445659.4564
        51.500          52.6004
 124846225.038 6  97282808.10545  23757439.979    23757439.5504   23757443.2774
        40.800          35.1004
 135775897.421 6                  25837292.697
        39.100
 106685792.932 8  82977891.886 8  19922817.149    19922817.486    19922822.383
        53.100          48.300
 198975502.261 7                  37863770.713
        45.400
 200952761.957 7                  38240040.710
        43.800
 122685319.327 6  95598963.05244  23346232.664    23346231.3194   23346231.3474
        40.900          25.4004
 150589888.775 5                  28656290.772
        34.900
 412696403.737 5                  78533502.776
        32.300
 202090914.009 7                  38456589.957
        44.800
 148040665.543 6                  28171201.204
        38.600
 116856397.828 7                  21883435.728    21883435.344
        44.000
 123713353.065 8                  23541859.526
        48.500
 114777448.952 7  89436983.77145  21841416.620    21841416.2404   21841415.7404
        45.200          33.9004
 112083133.383 6  87175796.716 7  20952749.448    20952749.723    20952755.249
        39.100          43.900
 133622998.394 6 104121809.27743  25427614.955    25427614.5844   25427617.2404
        37.300          18.2004
 130161695.988 7                  24768940.302
        47.000
 150062767.564 5                  28556002.673
        35.100
 146124296.738 6                  27806521.513
        37.400
 128309940.563 7  99796660.675 6  24011456.522    24011456.864    24011465.106
        44.000          40.100
 128643637.485 6 100241809.06045  24480061.867    24480061.2774   24480061.9594
        40.200          30.9004
 125682256.244 7                  23916530.792
        47.400
 114949505.836 6  89405219.795 7  21496129.636    21496129.886    21496138.296
        38.700          45.300
 129651233.113 7                  24671805.960
        46.000
 113731300.849 8  88457726.898 7  21335694.480    21335693.993    21335699.167
        51.000          45.800
 133669265.429 6 104157887.76944  25436409.204    25436408.4134   25436411.6604
        37.300          27.6004
 135814458.701 6 105829466.18144  25844627.099    25844626.3354   25844629.2254
        36.300          28.1004
 116978460.561 8  90983259.020 7  21883233.325    21883233.493    21883239.321
        49.400          44.100
 109820878.314 8  85574726.02848  20898209.784    20898209.3334   20898210.6064
        52.200          51.9004
 124668573.100 7  96964482.278 7  23354621.233    23354621.551    23354629.361
        43.500          42.300
 145596399.314 5                  27706070.205
        34.400
 117719686.367 7  91729629.99045  22401310.278    22401309.9394   22401309.9964
        44.300          32.0004
 129856929.761 6 101187215.84445  24710955.255    24710954.6794   24710954.2094
        38.900          30.2004
 115703423.679 8  89991588.113 7  21614365.594    21614365.664    21614371.038
        48.300          45.800
 125945668.742 6  98139512.89145  23966658.573    23966657.5944   23966662.1154
        38.500          32.6004
 130605931.418 6 101770867.89643  24853479.247    24853477.9024   24853477.2144
        39.000          22.4004
 25  1  1 11 13 45.0000000  0 36G10G24E19R04S31S35G21E13S48S33E27R13
                                E29G23R19G18E07E02E30R15G12E33R20E26
                                R14G08G27R05G32R18E12G28G31R03G25G02
 107439609.865 8  83719197.05148  20445070.771    20445070.1454   20445071.9254
        51.600          52.6004
 124899313.561 6  97324175.75645  23767542.669    23767542.2184   23767545.8934
        40.400          35.4004
 135747025.203 6                  25831798.100
        38.500
 106685654.264 8  82977784.029 8  19922791.872    19922791.582    19922796.470
        53.500          48.400
 198975505.174 7                  37863772.332
        45.300
 200952751.973 7                  38240039.682
        43.500
 122662775.241 6  95581396.22744  23341942.426    23341941.0764   23341941.2904
        40.700          25.5004
 150637723.672 5                  28665393.137
        33.700
 412696363.670 5                  78533491.190
        32.200
 202090911.203 7                  38456588.571
        44.700
 148002300.556 6                  28163900.750
        38.900
 116873883.831 7                  21886709.937    21886709.650
        43.100
 123707117.911 8                  23540673.299
        48.500
 114811217.665 7  89463297.03545  21847842.350    21847841.9794   21847841.6944
        45.400          33.8004
 112129271.035 6  87211681.547 7  20961374.358    20961375.264    20961380.155
        39.000          44.000
 133681707.652 6 104167556.68842  25438787.030    25438786.6864   25438789.3164
        37.300          17.8004
 130187576.361 7                  24773865.238
        46.700
 150068683.397 5                  28557128.415
        35.400
 146100728.665 6                  27802036.807
        37.700
 128245654.265 7  99746660.372 6  23999426.032    23999427.824    23999434.537
        44.200          40.100
 128619228.900 6 100222789.43145  24475417.794    24475417.1864   24475417.3614
        39.200          31.1004
 125679614.606 7                  23916028.174
        47.400
 114924633.708 6  89385874.827 7  21491478.492    21491478.777    21491486.391
        38.500          45.100
 129687144.960 7                  24678639.873
        45.700
 113688153.448 8  88424167.841 7  21327599.497    21327599.252    21327604.846
        51.000          45.700
 133700986.916 6 104182605.80344  25442445.643    25442444.8524   25442447.9624
        37.700          27.4004
 135854059.215 6 105860323.73344  25852163.262    25852162.4934   25852165.1534
        38.000          29.1004
 116945742.659 8  90957811.735 7  21877113.638    21877113.858    21877119.222
        49.400          44.100
 109813544.675 8  85569011.51348  20896813.999    20896813.5394   20896815.0674
        52.100          51.9004
 124735243.753 7  97016337.202 6  23367110.181    23367110.748    23367118.468
        42.700          41.500
 145557954.346 5                  27698754.748
        35.000
 117671352.141 7  91691967.00345  22392112.416    22392112.0684   22392112.3884
        44.600          32.0004
 129796620.099 6 101140221.31145  24699477.943    24699477.3894   24699477.6654
        39.700          30.7004
 115735477.629 8  90016518.960 7  21620353.159    21620353.551    21620359.037
        48.200          46.000
 125903608.981 6  98106739.07845  23958655.409    23958654.4354   23958658.2424
        38.700          32.8004
 130567023.491 6 101740550.03543  24846074.781    24846073.4674   24846073.2444
        39.500          22.5004
 25  1  1 11 14  0.0000000  0 36G10G24E19R04S31S35G21E13S48S33E27R13
                                E29G23R19G18E07E02E30R15G12E33R20E26
                                R14G08G27R05G32R18E12G28G31R03G25G02
 107436618.008 8  83716865.73548  20444501.397    20444500.7674   20444502.5724
        51.600          52.6004
 124952467.414 6  97365594.37345  23777657.288    23777656.8374   23777660.6724
        40.100          35.5004
 135718192.999 6                  25826311.617
        38.900
 106685574.927 8  82977722.323 8  19922776.432    19922776.687    19922781.642
        53.100          48.400
 198975514.459 7                  37863774.031
        45.700
 200952747.060 7                  38240036.140
        44.100
 122640343.387 6  95563916.86744  23337674.059    23337672.7274   23337672.5814
        41.900          25.9004
 150685557.007 5                  28674495.551
        34.000
 412696329.923 5                  78533483.713
        32.200
 202090914.823 7                  38456587.073
        45.000
 147963932.970 6                  28156599.659
        39.200
 116891566.501 7                  21890021.583    21890021.146
        43.400
 123700936.640 8                  23539496.755
        48.400
 114845069.619 7  89489675.14845  21854284.180    21854283.8094   21854283.6434
        45.400          33.8004
 112175555.469 6  87247680.549 7  20970026.511    20970026.606    20970032.512
        38.300          43.800
 133740411.955 6 104213300.25942  25449957.397    25449957.0224   25449960.3954
        37.200          17.3004
 130213481.084 7                  24778794.749
        46.900
 150074703.859 5                  28558274.003
        34.600
 146077236.389 6                  27797566.117
        37.900
 128181350.579 6  99696646.496 6  23987393.111    23987392.139    23987400.699
        41.600          39.600
 128594925.962 6 100203852.12545  24470792.985    24470792.3914   24470792.6304
        40.300          30.9004
 125677088.398 7                  23915547.310
        47.400
 114899956.793 6  89366681.683 7  21486864.226    21486864.300    21486872.016
        38.200          45.500
 129723134.098 7                  24685488.348
        45.600
 113645141.810 8  88390714.365 7  21319530.316    21319530.737    21319535.888
        51.200          45.900
 133732757.867 6 104207362.41544  25448490.890    25448490.0954   25448493.2694
        37.500          27.5004
 135893648.174 6 105891172.26144  25859696.721    25859695.9574   25859698.7684
        37.000          29.8004
 116913061.326 8  90932392.921 7  21870999.682    21870999.742    21871005.633
        48.900          44.400
 109806282.902 8  85563352.98248  20895432.216    20895431.7604   20895433.1974
        52.400          51.9004
 124801924.055 7  97068199.643 6  23379602.550    23379603.066    23379609.736
        43.800          41.500
 145519565.737 5                  27691449.391
        34.500
 117623098.152 7  91654366.51145  22382929.877    22382929.5244   22382929.8934
        44.300          32.1004
 129736324.955 6 101093238.08245  24688004.261    24688003.7204   24688003.7054
        39.500          30.7004
 115767563.270 7  90041474.439 7  21626346.578    21626347.032    21626352.966
        47.400          46.000
 125861592.673 6  98073999.11145  23950658.961    23950657.9694   23950663.0124
        38.100          32.6004
 130528194.780 6 101710293.90243  24838686.523    24838685.2404   24838684.1834
        39.200          22.2004
 25  1  1 11 14 15.0000000  0 36G10G24E19R04S31S35G21E13S48S33E27R13
                                E29G23R19G18E07E02E30R15G12E33R20E26
                                R14G08G27R05G32R18E12G28G31R03G25G02
 107433714.602 8  83714603.34948  20443949.024    20443948.4034   20443950.0854
        51.200          52.6004
 125005678.749 6  97407057.71745  23787783.608    23787783.1614   23787786.4374
        40.200          35.5004
 135689393.203 6                  25820830.977
        38.400
 106685547.505 8  82977701.002 8  19922770.610    19922771.491    19922776.660
        52.900          48.300
 198975522.368 7                  37863775.556
        45.700
 200952740.419 7                  38240034.074
        44.000
 122618016.415 6  95546519.23044  23333425.127    23333423.7904   23333423.8284
        41.200          26.0004
 150733381.343 5                  28683596.440
        34.200
 412696294.546 5                  78533476.527
        32.600
 202090916.758 7                  38456590.073
        45.000
 147925555.753 6                  28149296.339
        38.600
 116909438.798 7                  21893368.900    21893368.178
        44.000
 123694801.873 8                  23538329.672
        48.500
 114878997.487 7  89516112.42245  21860740.366    21860740.0044   21860739.9554
        45.300          33.7004
 112221978.656 6  87283787.507 7  20978705.537    20978705.578    20978711.006
        38.500          44.100
 133799103.662 6 104259034.02442  25461125.426    25461125.0514   25461129.0104
        38.000          16.9004
 130239402.774 7                  24783727.416
        46.600
 150080822.413 5                  28559438.318
        34.600
 146053812.829 6                  27793108.495
        37.600
 128117022.549 7  99646613.614 6  23975354.672    23975354.593    23975361.651
        42.900          39.000
 128570721.756 6 100184991.74745  24466186.922    24466186.2964   24466186.6134
        39.600          31.1004
 125674670.325 7                  23915087.066
        47.500
 114875467.935 6  89347634.763 7  21482285.261    21482284.781    21482291.970
        38.100          44.900
 129759193.036 7                  24692350.260
        45.900
 113602259.126 8  88357361.185 7  21311485.916    21311485.523    21311491.086
        51.000          45.500
 133764570.632 6 104232151.58644  25454545.340    25454544.5624   25454547.4214
        37.700          27.9004
 135933217.975 6 105922005.88045  25867226.583    25867225.8324   25867228.8014
        37.700          30.2004
 116880409.231 8  90906996.790 7  21864891.533    21864891.259    21864896.775
        49.000          44.100
 109799085.653 8  85557744.73848  20894062.652    20894062.1874   20894063.6194
        52.200          52.0004
 124868606.075 7  97120063.427 6  23392094.339    23392095.067    23392101.357
        44.200          41.300
 145481226.574 5                  27684153.136
        34.600
 117574917.452 7  91616823.13745  22373761.222    22373760.8694   22373761.3724
        44.400          32.3004
 129676037.299 6 101046260.69045  24676532.465    24676531.9074   24676531.5204
        40.900          31.0004
 115799673.229 7  90066448.856 7  21632345.011    21632345.312    21632351.061
        47.200          45.700
 125819612.919 6  98041287.64845  23942670.930    23942669.9474   23942674.1774
        38.200          32.6004
 130489438.387 6 101680094.12643  24831311.111    24831309.8554   24831308.9844
        40.000          22.8004
 25  1  1 11 14 30.0000000  0 36G10G24E19R04S31S35G21E13S48S33E27R13
                                E29G23R19G18E07E02E30R15G12E33R20E26
                                R14G08G27R05G32R18E12G28G31R03G25G02
 107430900.036 8  83712410.18548  20443413.501    20443412.8844   20443414.4784
        51.500          52.7004
 125058947.493 6  97448565.79445  23797919.828    23797919.3684   23797923.1454
        40.300          35.3004
 135660626.257 6                  25815357.353
        38.200
 106685572.033 8  82977720.076 8  19922775.770    19922776.262    19922781.136
        52.500          48.400
 198975528.040 7                  37863777.103
        45.500
 200952732.972 7                  38240033.582
        43.900
 122595794.744 6  95529203.69544  23329196.541    23329195.2044   23329195.1764
        41.000          25.8004
 150781196.757 5                  28692695.549
        34.200
 412696257.575 5                  78533466.654
        32.600
 202090917.664 7                  38456588.517
        44.900
 147887169.325 6                  28141991.772
        38.300
 116927500.138 7                  21896750.751    21896750.432
        43.900
 123688713.751 8                  23537171.042
        48.500
 114913001.458 7  89542609.00045  21867211.225    21867210.8724   21867210.6974
        45.400          33.7004
 112268540.125 6  87320001.975 7  20987409.708    20987409.847    20987415.239
        39.100          44.100
 133857782.692 6 104304757.92942  25472292.767    25472292.3614   25472295.2464
        37.000          17.3004
 130265341.530 7                  24788663.492
        46.900
 150087039.522 5                  28560620.901
        35.400
 146030458.372 6                  27788664.629
        38.200
 128052670.787 7  99596562.319 6  23963312.583    23963311.695    23963319.741
        42.100          39.700
 128546616.844 6 100166208.73245  24461599.929    24461599.2994   24461599.5464
        39.100          31.1004
 125672360.692 7                  23914647.626
        47.400
 114851168.354 6  89328735.144 7  21477740.609    21477740.329    21477748.475
        38.200          45.300
 129795321.801 7                  24699225.424
        45.700
 113559505.740 8  88324108.566 7  21303465.356    21303465.319    21303470.976
        51.200          45.900
 133796425.112 6 104256973.26244  25460607.244    25460606.4714   25460609.3364
        37.100          27.1004
 135972768.458 6 105952824.45344  25874753.091    25874752.3454   25874754.5474
        38.400          29.6004
 116847786.670 8  90881623.686 7  21858788.674    21858789.064    21858794.504
        49.700          44.500
 109791953.037 8  85552186.85448  20892705.419    20892704.9544   20892706.3304
        52.000          52.1004
 124935289.546 7  97171928.347 7  23404585.860    23404586.518    23404594.390
        43.200          42.000
 145442937.325 5                  27676867.427
        35.800
 117526810.473 7  91579337.19145  22364606.768    22364606.4064   22364606.8924
        44.500          32.4004
 129615757.525 6 100999289.44445  24665061.095    24665060.5054   24665060.6454
        40.200          30.9004
 115831807.511 7  90091442.170 7  21638348.336    21638348.447    21638354.192
        47.600          45.600
 125777670.305 6  98008605.13145  23934689.888    23934688.8874   23934692.9394
        38.200          32.6004
 130450755.019 6 101649951.36443  24823950.304    24823949.0704   24823947.9514
        41.000          23.6004
 25  1  1 11 14 45.0000000  0 36G10G24E19R04S31S35G21E13S48S33E27R13
                                E29G23R19G18E07E02E30R15G12E33R20E26
                                R14G08G27R05G32R18E12G28G31R03G25G02
 107428175.000 8  83710286.77648  20442894.811    20442894.1814   20442895.9094
        51.600          52.7004
 125112273.882 6  97490118.81645  23808067.815    23808067.3424   23808070.7554
        40.500          35.7004
 135631892.612 6                  25809889.466
        38.500
 106685649.316 8  82977780.172 8  19922790.522    19922790.495    19922795.557
        52.900          48.200
 198975533.743 7                  37863777.438
        45.700
 200952724.746 7                  38240033.158
        44.100
 122573678.875 6  95511970.56044  23324988.125    23324986.8064   23324986.5614
        40.500          25.9004
 150829003.567 5                  28701792.651
        33.400
 412696220.179 5                  78533453.123
        32.200
 202090917.282 7                  38456590.019
        44.900
 147848774.492 6                  28134685.382
        38.700
 116945750.907 7                  21900168.334    21900167.879
        43.200
 123682672.779 8                  23536021.308
        48.400
 114947082.010 7  89569165.24545  21873696.482    21873696.1164   21873695.9814
        45.400          33.8004
 112315239.955 6  87356324.066 7  20996139.756    20996139.491    20996145.255
        38.900          44.100
 133916449.336 6 104350472.15842  25483457.582    25483457.1624   25483459.5154
        36.400          17.3004
 130291297.779 7                  24793602.713
        46.600
 150093355.247 5                  28561822.787
        35.700
 146007173.788 6                  27784233.457
        38.100
 127988296.723 7  99546493.712 6  23951265.898    23951265.381    23951273.306
        43.500          39.800
 128522612.004 6 100147503.70245  24457032.223    24457031.5714   24457031.5424
        38.300          30.8004
 125670160.099 7                  23914228.921
        47.500
 114827058.678 6  89309983.199 7  21473232.020    21473231.906    21473239.318
        38.800          45.100
 129831520.788 7                  24706113.583
        45.500
 113516883.168 8  88290957.693 7  21295469.345    21295469.106    21295475.406
        51.000          46.000
 133828321.448 6 104281827.55944  25466676.400    25466675.6314   25466679.2734
        37.600          28.0004
 136012299.828 6 105983628.12744  25882275.522    25882274.7764   25882277.0014
        38.100          29.9004
 116815193.853 8  90856273.726 7  21852691.365    21852691.515    21852696.793
        49.300          44.100
 109784885.541 8  85546679.70948  20891360.598    20891360.1334   20891361.4404
        52.000          52.1004
 125001974.447 7  97223794.385 6  23417078.364    23417078.885    23417086.078
        42.800          41.000
 145404698.480 5                  27669590.683
        35.600
 117478778.070 7  91541909.33345  22355466.421    22355466.0504   22355466.7344
        44.400          32.5004
 129555486.647 6 100952325.12545  24653591.615    24653591.0074   24653591.4254
        39.400          30.9004
 115863966.832 8  90116454.923 7  21644356.185    21644356.537    21644361.942
        48.000          45.500
 125735765.866 6  97975952.36245  23926715.411    23926714.4194   23926718.7614
        38.800          33.0004
 130412145.021 6 101619865.69843  24816601.927    24816600.6934   24816600.6104
        41.200          23.5004
 25  1  1 11 15  0.0000000  0 36G10G24E19R04S31S35G21E13S48S33E27R13
                                E29G23R19G18E07E02E30R15G12E33R20E26
                                R14G08G27R05G32R18E12G28G31R03G25G02
 107425540.352 8  83708233.80848  20442393.348    20442392.7184   20442394.5514
        51.200          52.8004
 125165658.355 6  97531717.11145  23818226.416    23818225.9434   23818229.4814
        39.000          35.4004
 135603193.026 6                  25804428.001
        39.000
 106685779.650 8  82977881.538 8  19922814.782    19922814.964    19922819.905
        53.200          48.300
 198975539.578 7                  37863778.064
        45.500
 200952716.371 7                  38240031.879
        43.800
 122551669.945 6  95494820.74444  23320799.485    23320798.1714   23320798.4264
        41.000          26.0004
 150876802.319 5                  28710888.036
        33.700
 412696183.699 5                  78533446.675
        32.100
 202090916.987 7                  38456589.608
        44.900
 147810372.234 6                  28127377.687
        38.800
 116964191.963 7                  21903621.819    21903621.711
        43.700
 123676679.544 8                  23534881.030
        48.400
 114981239.787 7  89595781.67545  21880196.383    21880196.0174   21880196.0524
        45.300          33.8004
 112362078.818 6  87392754.303 7  21004895.799    21004895.858    21004900.902
        38.600          44.000
 133975103.967 6 104396177.06942  25494617.870    25494617.4464   25494620.5964
        37.200          16.8004
 130317272.075 7                  24798545.837
        46.800
 150099769.608 5                  28563043.701
        35.500
 145983960.022 6                  27779815.651
        38.600
 127923901.134 7  99496408.336 6  23939214.277    23939214.117    23939221.917
        42.800          39.400
 128498708.275 6 100128877.43945  24452483.711    24452483.0904   24452482.5474
        39.100          31.2004
 125668069.274 7                  23913830.963
        47.500
 114803139.342 6  89291379.303 7  21468759.273    21468758.722    21468766.224
        38.300          44.700
 129867790.490 7                  24713015.573
        45.400
 113474392.464 8  88257909.391 7  21287498.422    21287498.260    21287503.894
        51.100          45.700
 133860259.997 6 104306714.75544  25472754.098    25472753.3344   25472756.6194
        36.600          27.4004
 136051812.483 6 106014417.20945  25889794.654    25889793.9214   25889796.0614
        38.700          30.2004
 116782631.953 8  90830947.783 7  21846599.965    21846600.159    21846605.460
        49.400          44.000
 109777883.779 8  85541223.77948  20890028.157    20890027.6884   20890029.0624
        51.900          52.2004
 125068661.108 7  97275661.772 6  23429571.917    23429571.472    23429578.973
        43.400          41.600
 145366511.185 5                  27662323.603
        34.500
 117430821.274 7  91504540.38045  22346340.529    22346340.1674   22346340.7564
        44.200          32.7004
 129495225.597 6 100905368.47545  24642125.238    24642124.6264   24642124.1284
        39.100          31.4004
 115896152.071 7  90141487.876 7  21650368.592    21650368.455    21650374.643
        47.700          45.500
 125693900.672 6  97943330.16145  23918748.213    23918747.2164   23918752.0654
        38.400          33.1004
 130373609.518 6 101589838.02343  24809268.864    24809267.6264   24809267.3954
        40.600          23.4004
 25  1  1 11 15 15.0000000  0 36G10G24E19R04S31S35G21E13S48S33E27R13
                                E29G23R19G18E07E02E30R15G12E33R20E26
                                R14G08G27R05G32R18E12G28G31R03G25G02
 107423000.906 8  83706255.01448  20441910.300    20441909.6744   20441911.3164
        51.500          52.7004
 125219104.911 6  97573363.77345  23828397.798    23828397.3334   23828400.0254
        40.200          35.4004
 135574532.118 6                  25798973.664
        38.600
 106685967.758 8  82978027.839 8  19922849.548    19922850.030    19922855.133
        52.700          48.000
 198975549.532 7                  37863780.537
        45.600
 200952712.414 7                  38240029.634
        44.000
 122529772.716 6  95477757.96944  23316632.698    23316631.3844   23316631.6654
        40.700          25.8004
 150924597.347 5                  28719983.066
        32.800
 412696152.671 5                  78533439.744
        32.500
 202090922.267 7                  38456591.352
        45.000
 147771967.419 6                  28120069.635
        38.700
 116982827.439 7                  21907111.838    21907111.441
        43.900
 123670738.670 8                  23533750.506
        48.400
 115015479.417 7  89622461.88245  21886712.211    21886711.8674   21886711.6444
        45.000          33.6004
 112409060.130 6  87429295.333 7  21013678.796    21013678.595    21013684.090
        39.100          44.000
 134033750.919 6 104441875.95642  25505778.121    25505777.7104   25505780.3394
        37.500          17.1004
 130343269.029 7                  24803492.764
        46.700
 150106288.046 5                  28564284.812
        35.600
 145960821.936 6                  27775412.779
        38.200
 127859489.444 7  99446310.493 6  23927159.665    23927160.501    23927168.667
        43.000          40.300
 128474910.615 6 100110333.85245  24447954.487    24447953.8664   24447954.0594
        39.100          31.5004
 125666092.933 7                  23913454.922
        47.600
 114779415.771 6  89272927.623 7  21464321.709    21464322.247    21464329.709
        38.400          44.900
 129904135.342 7                  24719931.885
        45.600
 113432038.723 8  88224967.619 7  21279552.881    21279553.005    21279558.590
        51.300          45.800
 133892245.070 6 104331638.19944  25478841.283    25478840.5194   25478842.8424
        37.300          27.4004
 136091310.705 6 106045195.07144  25897310.822    25897310.0714   25897312.5144
        37.900          29.9004
 116750105.461 8  90805649.427 7  21840515.212    21840515.787    21840520.910
        49.600          44.200
 109770952.349 8  85535822.65748  20888709.088    20888708.6194   20888710.0594
        52.000          52.1004
 125135353.694 7  97327533.745 6  23442065.116    23442064.971    23442072.445
        43.200          41.800
 145328380.499 5                  27655068.210
        35.200
 117382945.055 7  91467234.24245  22337230.217    22337229.8464   22337230.2104
        44.800          32.5004
 129434979.381 6 100858423.38645  24630660.114    24630659.4934   24630659.9704
        41.100          31.8004
 115928367.414 8  90166544.248 7  21656386.850    21656387.268    21656392.436
        48.100          45.400
 125652079.762 6  97910742.48345  23910790.811    23910789.8194   23910794.0304
        39.300          33.6004
 130335153.411 6 101559872.20843  24801951.609    24801950.3624   24801949.2544
        40.000          22.7004
 25  1  1 11 15 30.0000000  0 36G10G24E19R04S31S35G21E13S48S33E27R13
                                E29G23R19G18E07E02E30R15G12E33R20E26
                                R14G08G27R05G32R18E12G28G31R03G25G02
 107420546.528 8  83704342.51648  20441443.052    20441442.4224   20441444.2644
        51.300          52.7004
 125272603.028 6  97615050.56645  23838577.648    23838577.1704   23838580.5064
        40.300          35.3004
 135545899.521 6                  25793525.322
        38.900
 106686203.384 8  82978211.101 8  19922893.817    19922894.156    19922899.017
        53.000          48.100
 198975553.854 7                  37863781.485
        45.800
 200952702.411 7                  38240027.935
        44.100
 122507976.811 6  95460774.12944  23312485.245    23312483.9444   23312483.9364
        41.200          25.9004
 150972378.244 5                  28729075.803
        32.400
 412696115.714 5                  78533425.931
        32.800
 202090920.790 7                  38456590.748
        45.000
 147733549.944 6                  28112759.386
        39.400
 117001646.903 7                  21910635.895    21910635.339
        43.200
 123664839.722 8                  23532627.954
        48.700
 115049790.492 7  89649197.76645  21893241.112    21893240.7594   21893240.7594
        45.500          33.7004
 112456173.341 6  87465938.912 7  21022484.832    21022485.911    21022491.299
        39.300          44.000
 134092379.560 6 104487560.58342  25516935.143    25516934.7374   25516937.1184
        36.600          16.2004
 130369278.286 7                  24808442.102
        46.800
 150112900.857 5                  28565542.034
        34.600
 145937749.400 6                  27771022.542
        37.700
 127795051.486 7  99396192.205 6  23915102.377    23915102.024    23915110.409
        44.200          40.900
 128451209.039 6 100091865.13245  24443444.539    24443443.9274   24443443.9494
        39.600          31.6004
 125664220.845 7                  23913098.606
        47.600
 114755877.802 6  89254620.275 7  21459920.258    21459921.258    21459928.125
        38.800          45.200
 129940544.885 7                  24726860.450
        45.600
 113389812.521 8  88192125.042 7  21271631.764    21271631.132    21271636.766
        51.300          45.900
 133924265.954 6 104356589.56344  25484934.293    25484933.5384   25484936.4744
        37.000          27.7004
 136130783.808 6 106075953.32745  25904822.534    25904821.7884   25904823.9954
        38.700          30.7004
 116717603.710 8  90780370.259 7  21834435.558    21834435.463    21834440.473
        49.500          44.300
 109764080.850 8  85530468.23548  20887401.633    20887401.1644   20887402.4804
        51.800          52.1004
 125202041.117 7  97379401.697 6  23454557.662    23454558.192    23454565.005
        42.800          41.200
 145290296.023 5                  27647820.384
        35.700
 117335139.374 7  91429983.06045  22328132.775    22328132.4004   22328133.2134
        44.200          32.6004
 129374737.958 6 100811482.01845  24619196.068    24619195.4384   24619196.2234
        40.100          31.1004
 115960602.681 7  90191616.099 7  21662408.639    21662408.893    21662414.473
        47.500          45.500
 125610293.229 6  97878181.56945  23902838.748    23902837.7474   23902842.1664
        38.800          33.2004
 130296766.538 6 101529960.32143  24794646.970    24794645.6834   24794644.6264
        41.400          23.2004
 25  1  1 11 15 45.0000000  0 36G10G24E19R04S31S35G21E13S48S33E27R13
                                E29G23R19G18E07E02E30R15G12E33R20E26
                                R14G08G27R05G32R18E12G28G31R03G25G02
 107418180.973 8  83702499.23448  20440992.983    20440992.3534   20440994.1144
        51.800          52.8004
 125326155.951 6  97656780.07345  23848767.904    23848767.4134   23848771.3474
        41.600          35.6004
 135517298.853 6                  25788082.514
        39.100
 106686489.981 8  82978434.008 8  19922947.581    19922947.700    19922952.668
        53.000          48.300
 198975555.924 7                  37863781.257
        45.700
 200952690.647 7                  38240025.502
        43.800
 122486286.290 6  95443872.43744  23308357.152    23308355.8694   23308356.4894
        41.400          26.3004
 151020148.514 5                  28738166.608
        34.000
 412696077.149 5                  78533417.985
        32.600
 202090917.281 7                  38456590.619
        44.900
 147695123.705 6                  28105446.353
        39.900
 117020653.990 7                  21914195.441    21914195.350
        44.100
 123658986.253 8                  23531514.135
        49.000
 115084176.622 7  89675992.13745  21899784.937    21899784.5804   21899784.3664
        45.100          33.6004
 112503421.487 6  87502687.448 7  21031318.035    21031318.368    21031323.679
        38.700          43.900
 134150993.248 6 104533233.58142  25528088.569    25528088.1454   25528091.1064
        37.400          16.8004
 130395303.288 7                  24813394.506
        47.200
 150119611.330 5                  28566818.852
        35.000
 145914746.251 6                  27766645.236
        38.900
 127730591.430 6  99346056.724 6  23903038.084    23903037.702    23903047.541
        41.700          40.700
 128427607.478 6 100073474.34845  24438952.867    24438952.2644   24438952.9024
        39.100          32.1004
 125662456.632 7                  23912762.968
        47.800
 114732529.259 6  89236460.307 7  21455554.197    21455554.558    21455561.943
        38.900          45.100
 129977022.531 7                  24733801.902
        45.900
 113347717.398 8  88159384.432 7  21263734.091    21263734.130    21263739.890
        51.300          45.900
 133956325.972 6 104381571.40244  25491035.312    25491034.5794   25491037.9454
        36.700          28.0004
 136170235.178 6 106106694.65444  25912329.717    25912328.9624   25912330.9684
        37.800          28.5004
 116685130.747 8  90755113.519 7  21828360.164    21828360.652    21828365.765
        49.400          44.300
 109757272.842 8  85525163.29648  20886106.138    20886105.6874   20886106.9714
        52.100          52.2004
 125268726.763 7  97431268.318 6  23467050.042    23467049.759    23467057.686
        42.600          41.200
 145252261.643 5                  27640583.357
        35.600
 117287408.124 7  91392789.89445  22319050.142    22319049.7714   22319050.2564
        44.900          32.7004
 129314505.214 6 100764547.42245  24607734.814    24607734.1844   24607734.2524
        40.200          31.6004
 115992861.630 8  90216706.394 7  21668435.522    21668435.317    21668440.807
        48.000          45.500
 125568545.158 6  97845650.62145  23894893.918    23894892.9304   23894897.4744
        39.000          33.2004
 130258453.061 6 101500105.61543  24787355.509    24787354.2084   24787353.8604
        41.000          23.6004
 25  1  1 11 16  0.0000000  0 36G10G24E19R04S31S35G21E13S48S33E27R13
                                E29G23R19G18E07E02E30R15G12E33R20E26
                                R14G08G27R05G32R18E12G28G31R03G25G02
 107415912.629 8  83700731.69748  20440561.358    20440560.7194   20440562.4734
        51.900          52.9004
 125379771.583 6  97698558.45445  23858971.121    23858970.6034   23858974.0384
        40.300          35.6004
 135488738.360 6                  25782647.848
        38.900
 106686836.119 8  82978703.222 7  19923011.761    19923012.256    19923017.305
        52.700          47.900
 198975564.409 7                  37863781.275
        45.600
 200952684.801 7                  38240025.176
        44.100
 122464709.394 6  95427059.27744  23304251.488    23304250.2014   23304250.5384
        41.200          26.2004
 151067916.055 5                  28747255.904
        34.300
 412696044.908 5                  78533405.920
        32.400
 202090919.722 7                  38456589.134
        44.700
 147656697.231 6                  28098133.983
        39.100
 117039856.683 7                  21917791.804    21917791.671
        43.900
 123653186.440 8                  23530410.268
        48.900
 115118645.952 7  89702851.33145  21906344.437    21906344.0894   21906343.7534
        45.500          33.7004
 112550812.246 6  87539546.923 7  21040177.689    21040177.524    21040183.480
        38.900          44.000
 134209599.919 6 104578901.07342  25539241.282    25539240.8404   25539243.9054
        36.900          16.7004
 130421352.209 7                  24818351.363
        47.100
 150126426.530 5                  28568115.850
        35.700
 145891820.969 6                  27762282.173
        39.000
 127666118.188 7  99295910.964 6  23890971.812    23890973.363    23890981.663
        43.300          40.500
 128404114.491 6 100055168.16845  24434482.642    24434482.0344   24434481.9154
        39.800          31.3004
 125660808.581 7                  23912449.243
        47.700
 114709378.822 6  89218454.427 7  21451225.722    21451225.567    21451232.434
        38.400          44.800
 130013576.323 7                  24740757.755
        45.700
 113305762.556 8  88126752.912 7  21255864.005    21255864.075    21255869.347
        52.000          45.700
 133988432.976 6 104406589.84744  25497144.769    25497144.0364   25497147.2234
        38.200          27.8004
 136209672.677 6 106137425.19444  25919834.719    25919833.9644   25919835.4914
        38.400          29.1004
 116652694.625 8  90729885.396 7  21822292.720    21822293.224    21822298.659
        49.800          44.600
 109750536.468 8  85519914.16148  20884824.334    20884823.8924   20884825.0954
        52.300          52.2004
 125335418.287 7  97483139.511 7  23479544.662    23479544.684    23479551.819
        44.100          42.000
 145214285.917 5                  27633356.705
        35.300
 117239759.866 7  91355661.39245  22309982.489    22309982.1094   22309983.1434
        44.700          32.7004
 129254289.652 6 100717626.19945  24596275.951    24596275.3344   24596275.7954
        38.700          31.2004
 116025152.634 7  90241821.655 7  21674467.446    21674466.981    21674472.941
        47.600          45.300
 125526844.165 6  97813156.37445  23886958.480    23886957.4794   23886962.2494
        39.800          33.3004
 130220221.357 6 101470314.61643  24780080.559    24780079.2584   24780078.7944
        40.900          23.7004
 25  1  1 11 16 15.0000000  0 36G10G24E19R04S31S35G21E13S48S33E27R13
                                E29G23R19G18E07E02E30R15G12E33R20E26
                                R14G08G27R05G32R18E12G28G31R03G25G02
 107413734.556 8  83699034.49448  20440146.822    20440146.1964   20440147.9854
        51.300          52.6004
 125433442.405 6  97740379.83645  23869184.751    23869184.2194   23869187.4344
        40.400          35.3004
 135460210.888 6                  25777219.168
        38.800
 106687234.392 8  82979012.997 7  19923086.353    19923086.687    19923091.494
        53.100          47.900
 198975572.038 7                  37863782.612
        45.700
 200952678.383 7                  38240023.378
        44.200
 122443239.574 6  95410329.60144  23300166.121    23300164.8294   23300164.8974
        41.700          26.1004
 151115673.624 5                  28756343.720
        32.000
 412696013.009 5                  78533400.188
        32.900
 202090922.607 7                  38456591.611
        45.100
 147618263.612 6                  28090820.366
        38.700
 117059247.689 7                  21921423.282    21921422.695
        44.200
 123647433.094 8                  23529315.658
        48.500
 115153191.369 7  89729769.81245  21912918.088    21912917.7444   21912917.4194
        45.400          33.3004
 112598338.023 6  87576511.384 7  21049061.319    21049062.191    21049067.659
        39.300          43.700
 134268192.180 6 104624557.36942  25550391.205    25550390.7764   25550393.7934
        36.800          16.6004
 130447417.867 7                  24823311.466
        46.800
 150133340.884 5                  28569432.015
        34.200
 145868966.604 6                  27757933.114
        38.800
 127601624.839 7  99245749.461 6  23878904.557    23878905.075    23878912.629
        44.000          40.700
 128380723.341 6 100036941.33545  24430031.767    24430031.1554   24430030.5714
        38.200          31.0004
 125659269.672 7                  23912156.608
        47.700
 114686419.239 6  89200596.978 7  21446932.388    21446931.696    21446938.902
        38.400          44.600
 130050198.978 7                  24747726.609
        45.700
 113263941.307 8  88094225.305 7  21248017.204    21248017.973    21248023.402
        51.600          46.000
 134020579.546 6 104431639.14744  25503261.769    25503261.0274   25503264.0274
        36.500          26.4004
 136249088.832 6 106168139.08145  25927335.435    25927334.6844   25927335.7884
        38.000          30.0004
 116620288.094 8  90704680.292 7  21816230.272    21816230.334    21816235.688
        49.700          44.200
 109743864.584 8  85514715.28648  20883554.659    20883554.2174   20883555.5084
        52.100          52.1004
 125402108.010 7  97535009.264 6  23492037.378    23492037.334    23492044.701
        43.500          41.500
 145176361.940 5                  27626139.532
        34.700
 117192187.725 7  91318592.20145  22300930.267    22300929.8924   22300930.3964
        44.500          32.5004
 129194084.713 6 100670713.26845  24584819.829    24584819.2034   24584819.2214
        40.900          31.2004
 116057468.270 8  90266956.050 7  21680504.319    21680504.195    21680509.265
        48.300          45.200
 125485183.595 6  97780693.62945  23879030.901    23879029.9004   23879034.3754
        39.000          32.9004
 130182064.575 6 101440582.02744  24772820.540    24772819.2174   24772818.2654
        41.300          24.0004
 25  1  1 11 16 30.0000000  0 36G10G24E19R04S31S35G21E13S48S33E27R13
                                E29G23R19G18E07E02E30R15G12E33R20E26
                                R14G08G27R05G32R18E12G28G31R03G25G02
 107411645.233 8  83697406.45248  20439749.289    20439748.6634   20439750.4134
        51.500          52.6004
 125487166.270 6  97782242.47745  23879407.538    23879407.0114   23879410.5254
        40.200          34.9004
 135431714.723 6                  25771796.074
        38.500
 106687683.143 8  82979361.992 8  19923170.437    19923170.664    19923175.332
        53.100          48.200
 198975576.730 7                  37863786.051
        46.000
 200952669.007 7                  38240021.133
        44.200
 122421874.772 6  95393681.72144  23296100.064    23296098.7414   23296099.4374
        40.900          25.9004
 151163419.464 5                  28765430.361
        32.700
 412695979.439 5                  78533388.807
        32.900
 202090921.732 7                  38456590.409
        45.100
 147579821.408 6                  28083505.102
        39.000
 117078824.852 7                  21925089.639    21925089.046
        43.700
 123641724.442 8                  23528229.179
        48.400
 115187811.075 7  89756746.18645  21919505.781    21919505.4244   21919505.3714
        45.600          33.3004
 112645996.413 6  87613579.009 7  21057972.064    21057971.090    21057977.211
        38.800          44.200
 134326767.958 6 104670200.82542  25561538.004    25561537.5444   25561540.3634
        37.200          16.0004
 130473498.446 7                  24828274.654
        47.000
 150140352.436 5                  28570764.933
        32.700
 145846181.684 6                  27753597.472
        38.900
 127537110.080 7  99195571.385 6  23866830.434    23866830.532    23866839.485
        43.700          40.200
 128357432.630 6 100018792.77845  24425598.960    24425598.3484   24425598.7824
        39.400          31.8004
 125657838.202 7                  23911883.906
        47.700
 114663649.631 6  89182887.298 7  21442673.401    21442673.642    21442680.585
        38.900          44.600
 130086888.605 7                  24754708.567
        45.500
 113222252.379 8  88061800.585 7  21240196.977    21240197.495    21240202.950
        51.300          46.000
 134052763.539 6 104456717.59944  25509386.524    25509385.8004   25509388.6034
        37.400          27.2004
 136288481.649 6 106198834.78044  25934832.158    25934831.4214   25934832.3884
        38.000          29.7004
 116587909.437 8  90679496.837 7  21810173.095    21810173.673    21810179.211
        50.100          44.600
 109737255.389 8  85509565.26548  20882296.912    20882296.4704   20882297.8334
        52.300          52.0004
 125468793.842 7  97586876.003 7  23504529.280    23504530.385    23504538.450
        43.900          42.100
 145138488.186 5                  27618932.649
        35.300
 117144690.283 7  91281581.20645  22291891.818    22291891.4474   22291891.8524
        44.100          32.5004
 129133888.738 6 100623807.31645  24573363.873    24573363.2394   24573364.2564
        40.700          31.6004
 116089806.935 7  90292108.346 7  21686544.606    21686544.753    21686550.619
        47.500          45.200
 125443562.121 6  97748261.34045  23871110.600    23871109.5854   23871113.8714
        38.500          32.8004
 130143981.380 6 101410906.80344  24765572.709    24765571.3994   24765571.5454
        40.200          24.0004
 25  1  1 11 16 45.0000000  0 36G10G24E19R04S31S35G21E13S48S33E27R13
                                E29G23R19G18E07E02E30R15G12E33R20E26
                                R14G08G27R05G32R18E12G28G31R03G25G02
 107409651.744 8  83695853.08948  20439369.976    20439369.3504   20439371.0684
        51.800          52.6004
 125540949.870 6  97824151.66245  23889642.562    23889642.0304   23889645.3894
        40.800          34.7004
 135403256.735 6                  25766380.961
        38.500
 106688189.055 8  82979755.480 8  19923264.339    19923264.841    19923269.840
        53.000          48.000
 198975586.075 7                  37863788.076
        45.800
 200952664.045 7                  38240021.670
        44.100
 122400622.381 6  95377121.49044  23292056.106    23292054.7744   23292055.3334
        41.300          26.3004
 151211160.215 5                  28774514.238
        33.200
 412695950.742 5                  78533383.924
        32.800
 202090925.269 7                  38456590.212
        44.900
 147541377.821 6                  28076189.830
        38.900
 117098595.416 7                  21928791.588    21928791.330
        44.000
 123636067.336 8                  23527152.699
        48.500
 115222511.967 7  89783785.82145  21926109.166    21926108.8094   21926108.7504
        45.400          33.3004
 112693794.142 6  87650754.983 7  21066906.300    21066906.322    21066912.165
        38.600          44.000
 134385334.008 6 104715836.71942  25572681.523    25572681.0944   25572684.8094
        36.300          13.3004
 130499600.792 7                  24833241.748
        46.700
 150147466.959 5                  28572119.540
        35.500
 145823473.413 6                  27749276.099
        37.700
 127472581.747 7  99145382.676 6  23854754.957    23854755.912    23854764.114
        44.000          40.800
 128334249.696 6 100000728.18745  24421187.359    24421186.7604   24421187.1644
        39.600          31.5004
 125656521.205 7                  23911633.381
        47.700
 114641076.749 6  89165330.610 7  21438451.569    21438452.690    21438459.973
        38.800          44.600
 130123651.943 7                  24761704.629
        45.600
 113180703.147 8  88029484.536 7  21232403.315    21232402.875    21232408.689
        51.200          46.100
 134084991.677 6 104481830.43344  25515519.380    25515518.6524   25515521.5454
        36.000          26.7004
 136327857.708 6 106229517.41644  25942323.995    25942323.2534   25942325.3074
        37.800          28.5004
 116555565.754 8  90654340.650 7  21804122.080    21804122.830    21804128.748
        49.200          44.700
 109730715.769 8  85504469.46848  20881052.280    20881051.8294   20881053.3754
        51.900          52.0004
 125535482.173 7  97638744.689 7  23517022.960    23517023.294    23517030.903
        44.300          42.300
 145100671.913 5                  27611736.417
        35.500
 117097274.828 7  91244634.10845  22282868.820    22282868.4544   22282868.8734
        44.200          32.5004
 129073709.077 6 100576914.07845  24561911.935    24561911.3184   24561912.3014
        39.900          31.3004
 116122175.594 8  90317283.970 7  21692591.644    21692591.871    21692597.349
        48.200          45.000
 125401987.096 6  97715865.25545  23863199.271    23863198.2614   23863202.4354
        38.700          32.9004
 130105978.987 6 101381294.56444  24758341.509    24758340.2404   24758340.0324
        40.600          24.0004
 25  1  1 11 17  0.0000000  0 36G10G24E19R04S31S35G21E13S48S33E27R13
                                E29G23R19G18E07E02E30R15G12E33R20E26
                                R14G08G27R05G32R18E12G28G31R03G25G02
 107407748.184 8  83694369.79948  20439007.563    20439006.9204   20439008.8224
        51.600          52.7004
 125594786.823 6  97866102.43845  23899887.329    23899886.8114   23899890.3424
        40.300          35.1004
 135374830.865 6                  25760971.699
        38.300
 106688746.265 8  82980188.853 8  19923368.549    19923368.949    19923373.908
        52.900          48.000
 198975593.295 7                  37863788.957
        45.600
 200952657.133 7                  38240021.639
        43.900
 122379476.280 6  95360644.02044  23288031.696    23288030.3644   23288031.1414
        41.100          25.7004
 151258889.551 5                  28783597.250
        33.700
 412695919.850 5                  78533369.579
        32.100
 202090927.070 7                  38456591.576
        45.000
 147502927.012 6                  28068872.422
        39.400
 117118552.868 7                  21932529.191    21932528.856
        43.500
 123630455.660 8                  23526084.845
        48.500
 115257287.964 7  89810883.98045  21932726.821    21932726.4464   21932726.5054
        45.400          33.4004
 112741724.703 6  87688034.285 7  21075867.349    21075866.957    21075872.260
        39.400          44.000
 134443883.948 5 104761460.05642  25583824.365    25583823.9594   25583826.3184
        35.700          14.2004
 130525718.799 7                  24838211.624
        46.900
 150154678.685 5                  28573492.178
        35.300
 145800835.846 6                  27744968.355
        38.300
 127408033.909 7  99095178.807 6  23842675.889    23842677.098    23842684.647
        44.500          40.800
 128311168.762 6  99982743.08145  24416795.532    24416794.9474   24416794.9484
        38.800          31.4004
 125655312.661 7                  23911403.516
        47.600
 114618694.837 6  89147922.478 7  21434266.353    21434267.064    21434274.328
        38.800          44.800
 130160482.769 7                  24768713.095
        45.400
 113139288.276 8  87997272.988 7  21224633.500    21224633.695    21224638.896
        51.600          46.100
 134117257.407 6 104506972.58144  25521659.406    25521658.6824   25521661.2844
        37.000          26.2004
 136367210.679 6 106260182.10544  25949813.352    25949812.6154   25949813.7414
        38.900          29.9004
 116523250.746 8  90629206.745 7  21798077.796    21798077.357    21798083.056
        49.000          44.500
 109724239.568 8  85499423.08348  20879820.176    20879819.7294   20879820.9704
        52.000          52.1004
 125602166.441 7  97690610.211 6  23529514.810    23529515.795    23529522.492
        44.200          41.300
 145062907.254 5                  27604549.890
        35.000
 117049935.576 7  91207746.40045  22273860.676    22273860.3144   22273860.4594
        44.300          32.7004
 129013539.936 6 100530029.04445  24550462.833    24550462.2344   24550462.5464
        39.600          31.1004
 116154567.889 7  90342477.981 7  21698643.058    21698642.809    21698648.156
        47.900          45.000
 125360452.901 6  97683500.97945  23855294.869    23855293.8414   23855298.4404
        38.800          32.4004
 130068051.458 6 101351740.61543  24751124.006    24751122.7324   24751122.5254
        40.400          23.4004
 25  1  1 11 17 15.0000000  0 36G10G24E19R04S31S35G21E13S48S33E27R13
                                E29G23R19G18E07E02E30R15G12E33R20E26
                                R14G08G27R05G32R18E12G28G31R03G25G02
 107405933.484 8  83692955.75148  20438662.267    20438661.6284   20438663.4834
        51.500          52.8004
 125648675.315 6  97908093.28245  23910142.063    23910141.5584   23910145.0564
        39.000          34.6004
 135346435.952 6                  25755568.508
        38.500
 106689353.548 8  82980661.169 8  19923481.698    19923482.273    19923487.416
        52.800          48.100
 198975597.302 7                  37863789.919
        45.300
 200952647.033 7                  38240018.236
        43.800
 122358435.639 6  95344248.73244  23284027.817    23284026.4764   23284027.2014
        41.100          26.2004
 151306606.256 5                  28792677.268
        32.900
 412695886.519 5                  78533361.571
        32.300
 202090925.940 7                  38456591.898
        44.800
 147464468.022 6                  28061554.173
        39.500
 117138695.715 7                  21936300.972    21936300.835
        44.100
 123624888.103 8                  23525025.320
        48.900
 115292137.774 7  89838039.65845  21939358.534    21939358.1594   21939358.3064
        45.200          33.5004
 112789785.492 6  87725414.878 7  21084850.927    21084851.153    21084856.769
        38.800          44.100
 134502416.328 6 104807069.67742  25594962.803    25594962.3884   25594964.7314
        36.000          15.0004
 130551851.113 7                  24843184.537
        47.000
 150161987.279 5                  28574882.349
        35.500
 145778268.013 6                  27740674.251
        38.600
 127343466.053 7  99044959.381 6  23830593.581    23830594.533    23830601.711
        45.000          40.800
 128288188.764 6  99964836.63145  24412422.957    24412422.3544   24412421.9214
        38.900          31.7004
 125654211.351 8                  23911193.931
        48.000
 114596503.033 6  89130662.203 7  21430116.291    21430117.036    21430124.511
        39.000          45.100
 130197379.616 7                  24775734.391
        46.100
 113098006.871 8  87965165.265 7  21216888.537    21216888.988    21216894.989
        51.400          46.100
 134149559.240 6 104532142.85744  25527806.277    25527805.5444   25527808.7684
        36.400          26.5004
 136406538.941 6 106290827.52644  25957297.706    25957296.9604   25957298.3424
        36.500          29.4004
 116490963.250 8  90604094.224 7  21792037.722    21792038.351    21792043.285
        50.600          44.800
 109717825.460 8  85494425.06548  20878599.565    20878599.1184   20878600.4044
        51.800          52.2004
 125668844.828 7  97742471.198 6  23542005.433    23542006.271    23542013.388
        43.400          41.100
 145025193.172 5                  27597373.364
        35.200
 117002671.550 7  91170917.29345  22264866.551    22264866.1984   22264866.3894
        44.400          32.7004
 128953380.508 6 100483151.57545  24539014.914    24539014.3424   24539014.4324
        40.300          31.5004
 116186982.805 8  90367689.589 7  21704698.488    21704698.553    21704703.752
        48.400          45.200
 125318958.662 6  97651167.83145  23847399.712    23847398.6974   23847402.7484
        38.600          32.6004
 130030197.868 6 101322244.27243  24743921.355    24743920.0904   24743918.4324
        40.300          23.4004
 25  1  1 11 17 30.0000000  0 36G10G24E19R04S31S35G21E13S48S33E27R13
                                E29G23R19G18E07E02E30R15G12E33R20E26
                                R14G08G27R05G32R18E12G28G31R03G25G02
 107404209.325 8  83691612.24548  20438334.123    20438333.4844   20438335.4004
        51.500          52.9004
 125702617.049 6  97950125.75245  23920407.008    23920406.5214   23920410.1974
        40.200          35.2004
 135318073.551 6                  25750171.118
        38.500
 106690012.238 8  82981173.483 7  19923605.145    19923605.480    19923610.439
        52.900          47.900
 198975600.206 7                  37863790.080
        45.700
 200952635.344 7                  38240015.987
        44.000
 122337502.047 6  95327936.87844  23280044.155    23280042.8104   23280043.6514
        40.700          26.1004
 151354311.625 5                  28801755.080
        33.700
 412695852.473 5                  78533352.677
        32.400
 202090923.764 7                  38456591.473
        44.800
 147426002.661 6                  28054233.886
        39.800
 117159025.220 7                  21940108.279    21940107.728
        43.900
 123619366.151 8                  23523974.657
        48.800
 115327062.872 7  89865253.99945  21946004.687    21946004.3164   21946004.2604
        44.800          33.6004
 112837978.009 6  87762897.909 7  21093860.870    21093860.310    21093865.707
        38.600          44.000
 134560932.295 6 104852666.51242  25606097.261    25606096.7744   25606100.4004
        37.200          16.2004
 130577999.204 7                  24848160.319
        46.900
 150169393.544 5                  28576291.489
        34.700
 145755771.681 6                  27736393.095
        38.100
 127278880.165 7  98994725.996 6  23818507.411    23818508.023    23818515.590
        44.600          41.100
 128265311.677 6  99947010.37145  24408068.552    24408067.9444   24408068.0904
        40.100          31.6004
 125653218.915 7                  23911005.253
        47.700
 114574503.000 6  89113551.059 7  21426003.123    21426002.432    21426010.609
        38.200          44.900
 130234343.909 7                  24782768.471
        45.600
 113056861.230 8  87933163.110 7  21209170.231    21209170.377    21209175.515
        51.000          46.000
 134181898.348 6 104557342.16144  25533959.613    25533958.8854   25533962.3964
        36.400          26.5004
 136445843.752 6 106321454.62844  25964776.866    25964776.1244   25964777.8114
        38.700          28.8004
 116458704.685 8  90579004.228 7  21786002.806    21786003.145    21786009.005
        49.600          44.800
 109711474.963 8  85489476.61748  20877391.085    20877390.6434   20877391.9754
        52.200          52.3004
 125735518.467 7  97794328.454 7  23554495.792    23554495.974    23554504.821
        42.900          42.200
 144987531.495 5                  27590206.527
        35.800
 116955484.618 7  91134148.26345  22255887.086    22255886.7244   22255887.0184
        44.700          32.8004
 128893232.691 6 100436283.15945  24527568.708    24527568.1724   24527568.8184
        39.800          32.2004
 116219421.919 8  90392919.992 7  21710758.282    21710758.460    21710763.718
        48.400          45.100
 125277506.406 6  97618867.39545  23839511.072    23839510.0624   23839514.5204
        38.500          32.6004
 129992420.221 6 101292807.15143  24736732.035    24736730.7794   24736729.3784
        41.100          23.9004
 25  1  1 11 17 45.0000000  0 36G10G24E19R04S31S35G21E13S48S33E27R13
                                E29G23R19G18E07E02E30R15G12E33R20E26
                                R14G08G27R05G32R18E12G28G31R03G25G02
 107402582.752 8  83690344.78848  20438024.814    20438024.1624   20438025.8784
        51.700          53.0004
 125756618.123 6  97992204.44545  23930682.752    23930682.2614   23930686.4114
        39.300          35.2004
 135289750.416 6                  25744781.879
        38.600
 106690729.432 8  82981731.302 8  19923738.784    19923739.423    19923744.271
        53.100          48.200
 198975608.107 7                  37863791.591
        45.700
 200952629.513 7                  38240014.198
        44.300
 122316682.540 6  95311713.92144  23276082.978    23276081.6244   23276081.5704
        41.200          26.2004
 151402012.355 4                  28810832.028
        29.800
 412695823.931 5                  78533344.596
        32.800
 202090926.711 7                  38456592.528
        44.800
 147387537.999 6                  28046914.275
        39.300
 117179548.499 7                  21943951.618    21943951.311
        44.100
 123613896.604 8                  23522933.695
        48.600
 115362070.078 7  89892532.32145  21952666.400    21952666.0384   21952665.9314
        45.400          33.6004
 112886308.701 6  87800488.410 7  21102896.631    21102895.541    21102900.794
        39.100          44.100
 134619438.494 6 104898255.77442  25617230.906    25617230.4104   25617234.0784
        37.400          15.8004
 130604169.838 7                  24853140.558
        46.600
 150176904.576 5                  28577720.289
        35.300
 145733353.904 6                  27732127.743
        38.100
 127214283.675 7  98944484.373 6  23806419.626    23806420.024    23806427.757
        44.500          41.900
 128242544.837 6  99929270.01545  24403736.471    24403735.8544   24403735.5394
        38.400          31.8004
 125652342.243 7                  23910838.270
        47.800
 114552702.123 6  89096594.807 7  21421925.173    21421925.453    21421933.290
        38.300          45.300
 130271382.270 7                  24789816.741
        45.600
 113015858.578 8  87901272.180 7  21201478.797    21201478.153    21201483.922
        51.500          46.100
 134214281.221 6 104582575.58644  25540121.951    25540121.2234   25540124.6144
        36.300          26.7004
 136485131.629 6 106352068.60245  25972252.602    25972251.8474   25972253.6484
        38.800          30.4004
 116426482.368 8  90553942.407 7  21779975.237    21779975.290    21779981.038
        49.900          44.800
 109705194.877 8  85484583.03848  20876195.873    20876195.4314   20876196.9344
        52.100          52.4004
 125802193.795 7  97846187.000 7  23566987.780    23566987.603    23566994.993
        43.800          42.000
 144949929.130 5                  27583050.099
        35.100
 116908381.926 7  91097444.88045  22246923.608    22246923.2464   22246923.7044
        44.600          33.0004
 128833103.627 6 100389429.35045  24516127.406    24516126.9014   24516126.7814
        40.000          31.5004
 116251892.086 8  90418174.569 7  21716823.814    21716824.068    21716829.590
        48.100          45.000
 125236103.386 6  97586605.32245  23831632.455    23831631.4634   23831635.4584
        38.300          32.7004
 129954725.531 6 101263434.65844  24729558.878    24729557.6534   24729556.1894
        41.800          24.1004
 25  1  1 11 18  0.0000000  0 36G10G24E19R04S31S35G21E13S48S33E27R13
                                E29G23R19G18E07E02E30R15G12E33R20E26
                                R14G08G27R05G32R18E12G28G31R03G25G02
 107401046.620 8  83689147.80448  20437732.459    20437731.8114   20437733.5774
        51.500          52.9004
 125810670.924 6  98034323.45845  23940969.237    23940968.7414   23940972.5154
        40.100          35.4004
 135261459.289 6                  25739397.979
        38.100
 106691497.526 8  82982328.711 8  19923882.041    19923882.877    19923887.644
        52.900          48.200
 198975614.365 7                  37863791.618
        45.700
 200952621.268 7                  38240013.344
        44.200
 122295969.670 6  95295574.05144  23272141.191    23272139.8504   23272139.9914
        41.200          26.2004
 151449701.081 5                  28819907.056
        32.100
 412695793.833 5                  78533332.317
        32.600
 202090927.196 7                  38456591.343
        45.000
 147349066.990 6                  28039593.727
        39.400
 117200257.591 7                  21947830.088    21947829.559
        43.700
 123608471.997 8                  23521901.747
        48.500
 115397151.965 7  89919868.83445  21959341.896    21959341.5304   21959341.8404
        45.200          33.7004
 112934769.501 6  87838180.082 7  21111954.222    21111954.337    21111960.078
        39.400          44.000
 134677927.130 5 104943831.32542  25628360.870    25628360.4144   25628363.9514
        34.800          14.2004
 130630355.579 7                  24858123.505
        46.700
 150184512.488 5                  28579168.532
        35.300
 145711007.561 6                  27727874.522
        39.000
 127149669.537 7  98894229.005 6  23794327.802    23794327.250    23794335.756
        44.200          41.400
 128219881.086 6  99911609.99045  24399423.919    24399423.2984   24399422.9054
        39.100          31.8004
 125651574.013 7                  23910692.038
        47.800
 114531092.870 6  89079787.578 7  21417884.653    21417885.055    21417892.481
        38.800          45.000
 130308487.182 7                  24796877.400
        45.800
 112974992.045 8  87869487.115 7  21193812.075    21193811.941    21193817.294
        51.600          46.000
 134246700.172 6 104607837.11844  25546291.619    25546290.8914   25546293.6644
        36.500          26.6004
 136524394.848 6 106382663.29544  25979724.666    25979723.9154   25979725.4344
        36.800          29.2004
 116394288.656 8  90528902.802 7  21773952.616    21773952.976    21773958.572
        49.900          44.900
 109698977.727 8  85479738.49548  20875012.908    20875012.4664   20875013.8554
        52.100          52.3004
 125868862.895 7  97898040.735 6  23579475.709    23579476.331    23579484.177
        43.500          41.800
 144912379.292 5                  27575904.939
        35.500
 116861356.398 7  91060801.61545  22237975.166    22237974.8044   22237975.0044
        45.100          33.1004
 128772986.239 6 100342584.63345  24504687.027    24504686.5274   24504686.5874
        39.800          32.1004
 116284386.134 7  90443447.700 7  21722894.162    21722894.144    21722899.759
        47.900          45.000
 125194742.668 6  97554376.21445  23823761.901    23823760.9094   23823764.9374
        38.000          32.6004
 129917106.712 6 101234121.32544  24722399.981    24722398.7474   24722397.4484
        41.600          24.3004
 25  1  1 11 18 15.0000000  0 36G10G24E19R04S31S35G21E13S48S33E27R13
                                E29G23R19G18E07E02E30R15G12E33R20E26
                                R14G08G27R05G32R18E12G28G31R03G25G02
 107399599.892 8  83688020.48648  20437457.051    20437456.3994   20437458.2914
        51.600          53.1004
 125864773.921 6  98076481.54545  23951264.780    23951264.3074   23951267.8274
        39.500          35.0004
 135233198.884 6                  25734020.099
        38.300
 106692315.390 8  82982964.824 8  19924034.849    19924035.587    19924040.516
        52.800          48.200
 198975617.511 7                  37863792.664
        45.700
 200952610.080 7                  38240011.180
        44.100
 122275362.492 6  95279516.53744  23268219.619    23268218.2694   23268218.7094
        40.800          26.3004
 151497376.328 5                  28828980.136
        33.000
 412695759.660 5                  78533323.034
        32.600
 202090925.412 7                  38456590.417
        44.900
 147310588.704 6                  28032271.878
        39.200
 117221151.070 7                  21951742.075    21951741.920
        43.200
 123603091.159 8                  23520877.682
        48.500
 115432307.392 7  89947262.65745  21966032.170    21966031.8044   21966031.7764
        45.200          33.7004
 112983358.958 6  87875971.837 7  21121037.613    21121037.902    21121043.531
        39.600          44.100
 134736396.961 5 104989392.24042  25639487.749    25639487.3204   25639490.2204
        35.300          13.7004
 130656555.231 7                  24863109.008
        46.700
 150192216.088 5                  28580634.556
        35.200
 145688731.710 6                  27723635.418
        37.500
 127085037.017 7  98843959.345 6  23782232.352    23782232.629    23782239.838
        44.500          40.700
 128197319.794 6  99894029.80345  24395130.636    24395130.0194   24395129.4724
        40.300          32.2004
 125650913.177 7                  23910566.457
        47.600
 114509674.712 6  89063128.990 7  21413879.996    21413879.515    21413886.972
        39.100          45.000
 130345657.330 7                  24803950.641
        45.600
 112934260.936 8  87837807.394 7  21186170.729    21186170.899    21186176.257
        51.900          46.300
 134279153.743 6 104633125.62244  25552466.910    25552466.1824   25552469.3514
        36.400          25.8004
 136563631.964 6 106413237.68744  25987191.013    25987190.2674   25987191.7974
        37.400          28.7004
 116362122.268 8  90503884.477 7  21767935.031    21767935.518    21767940.645
        49.300          44.600
 109692822.360 8  85474942.09848  20873841.537    20873841.0954   20873842.5444
        51.800          52.4004
 125935524.123 7  97949888.359 6  23591964.512    23591964.544    23591971.755
        43.200          41.800
 144874880.791 5                  27568769.498
        35.400
 116814407.198 7  91024217.83645  22229040.836    22229040.4704   22229040.8854
        44.800          33.1004
 128712879.613 6 100295748.30645  24493249.040    24493248.5444   24493248.7444
        39.300          31.7004
 116316902.504 8  90468738.197 7  21728968.911    21728968.843    21728974.038
        48.500          45.100
 125153423.583 6  97522179.54545  23815898.396    23815897.4084   23815902.0274
        38.500          32.7004
 129879562.951 6 101204866.49544  24715255.291    24715254.0664   24715253.3914
        41.300          24.3004
 25  1  1 11 18 30.0000000  0 36G10G24E19R04S31S35G21E13S48S33E27R13
                                E29G23R19G18E07E02E30R15G12E33R20E26
                                R14G08G27R05G32R18E12G28G31R03G25G02
 107398254.221 8  83686971.91048  20437201.089    20437200.4374   20437202.2284
        51.200          52.8004
 125918938.342 6  98118687.54445  23961571.453    23961570.9884   23961575.1014
        39.600          34.7004
 135204980.878 6                  25728650.265
        38.600
 106693194.696 8  82983648.722 8  19924199.169    19924199.575    19924204.414
        52.400          48.100
 198975628.698 7                  37863794.981
        45.700
 200952607.561 7                  38240010.889
        44.000
 122254873.030 6  95263550.74444  23264320.632    23264319.2824   23264319.5664
        40.500          26.1004
 151545049.417 5                  28838051.921
        31.700
 412695734.135 5                  78533310.885
        32.500
 202090932.018 7                  38456591.254
        45.000
 147272114.941 6                  28024950.356
        39.800
 117242240.509 7                  21955691.906    21955691.400
        43.500
 123597765.511 8                  23519864.289
        48.300
 115467547.759 7  89974722.65945  21972737.876    21972737.5014   21972737.8604
        45.400          33.4004
 113032088.034 6  87913872.167 7  21130147.521    21130147.331    21130152.615
        38.800          43.700
 134794859.168 6 105034947.23042  25650612.733    25650612.3274   25650614.9824
        36.400          14.4004
 130682780.170 7                  24868099.457
        46.400
 150200027.936 5                  28582120.889
        35.200
 145666538.035 6                  27719412.582
        38.300
 127020398.533 7  98793685.100 6  23770135.735    23770135.772    23770143.710
        44.700          41.000
 128174872.428 6  99876538.38245  24390858.767    24390858.1554   24390857.8654
        39.500          32.3004
 125650371.245 7                  23910463.340
        47.400
 114488459.419 6  89046628.209 7  21409912.077    21409911.992    21409919.650
        38.100          45.000
 130382903.992 7                  24811038.681
        45.500
 112893677.676 8  87806242.670 7  21178557.440    21178557.345    21178563.208
        51.600          46.200
 134311653.027 5 104658449.77944  25558651.975    25558651.2294   25558653.5064
        34.900          25.8004
 136602854.230 6 106443800.50444  25994654.187    25994653.4274   25994655.4404
        37.100          28.9004
 116329994.828 8  90478896.441 7  21761925.204    21761925.595    21761931.003
        50.000          44.600
 109686740.189 8  85470202.74148  20872684.320    20872683.8784   20872685.1504
        51.900          52.2004
 126002188.621 7  98001738.487 6  23604452.924    23604452.159    23604460.447
        42.500          41.700
 144837445.344 5                  27561645.979
        35.500
 116767546.158 7  90987702.77245  22220123.472    22220123.0924   22220123.4374
        45.000          33.0004
 128652795.524 6 100248929.54245  24481815.106    24481814.5974   24481814.7874
        40.300          31.8004
 116349452.918 8  90494055.184 7  21735048.942    21735049.297    21735054.542
        48.400          44.700
 125112157.976 6  97490024.56245  23808047.282    23808046.2904   23808049.6124
        37.600          32.1004
 129842105.766 6 101175679.07343  24708127.919    24708126.7124   24708125.1424
        40.100          23.8004
 25  1  1 11 18 45.0000000  0 36G10G24E19R04S31S35G21E13S48S33E27R13
                                E29G23R19G18E07E02E30R15G12E33R20E26
                                R14G08G27R05G32R18E12G28G31R03G25G02
 107396995.831 8  83685991.35248  20436961.647    20436960.9954   20436962.7824
        51.600          52.7004
 125973149.688 6  98160930.04345  23971887.978    23971887.5134   23971891.2554
        39.800          34.4004
 135176791.045 6                  25723286.071
        38.500
 106694121.221 8  82984369.372 8  19924372.343    19924372.708    19924377.515
        52.900          48.000
 198975634.929 7                  37863795.638
        45.900
 200952598.419 7                  38240008.568
        44.200
 122234487.423 6  95247665.89544  23260441.576    23260440.2224   23260440.2734
        40.900          25.9004
 151592706.228 5                  28847120.314
        32.100
 412695704.172 5                  78533301.570
        32.600
 202090932.529 7                  38456592.050
        45.200
 147233631.932 6                  28017627.124
        39.000
 117263511.791 7                  21959675.611    21959675.164
        43.400
 123592481.014 8                  23518858.642
        48.800
 115502859.063 7  90002237.94645  21979457.379    21979456.9954   21979457.3634
        45.400          33.3004
 113080941.748 6  87951869.454 7  21139279.041    21139280.293    21139285.556
        39.400          43.900
 134853299.479 6 105080485.12942  25661733.485    25661733.0744   25661736.0064
        36.200          14.9004
 130709016.315 7                  24873092.147
        46.800
 150207933.032 5                  28583625.262
        34.800
 145644412.803 6                  27715202.040
        37.800
 126955740.109 7  98743395.314 6  23758035.225    23758035.342    23758042.936
        44.700          40.500
 128152525.410 6  99859125.15545  24386606.801    24386606.2114   24386605.5984
        39.500          32.1004
 125649934.293 8                  23910380.090
        48.100
 114467432.981 6  89030274.332 7  21405979.683    21405980.510    21405988.146
        38.800          45.600
 130420213.009 7                  24818138.279
        45.800
 112853228.385 8  87774782.150 7  21170968.996    21170968.796    21170974.824
        50.900          46.300
 134344183.729 5 104683798.36344  25564842.168    25564841.4134   25564844.1994
        35.300          25.5004
 136642047.275 6 106474340.55544  26002113.113    26002112.3624   26002113.5254
        38.100          28.9004
 116297892.179 8  90453927.681 7  21755919.874    21755919.834    21755925.654
        49.800          44.900
 109680717.181 8  85465509.48948  20871538.007    20871537.5654   20871539.0244
        52.300          52.1004
 126068841.658 7  98053579.740 6  23616939.837    23616939.647    23616946.541
        43.400          41.200
 144800059.409 6                  27554531.704
        36.300
 116720759.535 7  90951245.70245  22211220.108    22211219.7284   22211220.2804
        45.000          33.0004
 128592720.283 6 100202117.65445  24470383.290    24470382.7724   24470382.8114
        40.600          31.8004
 116382023.102 8  90519387.568 7  21741133.984    21741133.950    21741139.199
        48.700          44.700
 125070932.348 6  97457900.71445  23800201.871    23800200.9104   23800204.3294
        38.600          32.1004
 129804721.703 6 101146548.63543  24701014.300    24701013.0984   24701011.5284
        41.200          23.9004
 25  1  1 11 19  0.0000000  0 35G10G24E19R04S31S35G21S48S33E27R13E29
                                G23R19G18E07E02E30R15G12E33R20E26R14
                                G08G27R05G32R18E12G28G31R03G25G02
 107395830.117 8  83685082.99548  20436739.624    20436738.9724   20436740.9314
        51.800          52.6004
 126027412.990 6  98203213.01045  23982214.182    23982213.6954   23982217.1084
        39.900          34.3004
 135148634.755 6                  25717927.879
        38.600
 106695100.357 8  82985130.947 8  19924554.655    19924555.436    19924560.382
        52.600          48.200
 198975640.901 7                  37863797.766
        45.700
 200952589.651 7                  38240007.880
        44.100
 122214210.640 6  95231865.82944  23256582.720    23256581.3704   23256581.7774
        41.400          25.7004
 412695674.553 5                  78533293.003
        32.300
 202090933.493 7                  38456592.148
        45.100
 147195145.257 6                  28010303.374
        39.600
 117284969.735 7                  21963694.162    21963693.651
        43.700
 123587242.879 8                  23517861.837
        48.800
 115538246.523 7  90029812.56745  21986191.763    21986191.3794   21986191.4214
        45.800          33.1004
 113129925.237 6  87989967.674 7  21148436.422    21148436.781    21148442.893
        39.300          44.100
 134911722.935 6 105126009.89342  25672850.499    25672850.0974   25672853.6444
        36.000          13.6004
 130735268.899 7                  24878087.826
        46.900
 150215936.897 5                  28585148.542
        35.800
 145622361.523 6                  27711006.086
        38.300
 126891067.457 7  98693094.422 6  23745933.667    23745933.262    23745941.719
        44.700          41.600
 128130284.429 6  99841794.55945  24382374.500    24382373.9014   24382373.2844
        39.300          31.6004
 125649607.655 7                  23910317.915
        47.900
 114446601.162 6  89014071.854 7  21402084.358    21402084.345    21402092.012
        38.500          45.300
 130457589.489 7                  24825250.641
        45.500
 112812918.872 8  87743430.330 7  21163407.416    21163407.255    21163412.885
        51.600          46.300
 134376750.766 6 104709175.28044  25571039.621    25571038.8664   25571041.5964
        36.700          26.4004
 136681216.116 6 106504861.75944  26009566.028    26009565.2824   26009567.2734
        36.200          26.4004
 116265819.574 8  90428982.324 7  21749920.187    21749920.549    21749925.479
        50.400          44.600
 109674758.529 8  85460866.37748  20870404.136    20870403.6854   20870405.1284
        52.500          52.1004
 126135488.197 7  98105415.937 6  23629423.748    23629424.529    23629432.514
        43.200          41.800
 144762728.269 5                  27547427.758
        35.600
 116674052.875 7  90914850.92445  22202332.519    22202332.1444   22202332.1214
        45.100          32.9004
 128532659.632 6 100155317.15045  24458953.797    24458953.2744   24458953.7384
        40.000          31.8004
 116414619.276 8  90544740.166 7  21747222.574    21747223.267    21747228.123
        48.100          44.700
 125029752.359 6  97425812.44045  23792365.403    23792364.4244   23792368.1284
        38.700          32.0004
 129767416.123 6 101117479.33043  24693915.120    24693913.9364   24693912.7344
        41.200          23.6004
 25  1  1 11 19 15.0000000  0 35G10G24E19R04S31S35G21S48S33E27R13E29
                                G23R19G18E07E02E30R15G12E33R20E26R14
                                G08G27R05G32R18E12G28G31R03G25G02
 107394759.907 8  83684249.06648  20436536.052    20436535.4044   20436537.2934
        51.500          52.8004
 126081730.832 6  98245538.64445  23992549.978    23992549.5054   23992553.5814
        40.000          35.0004
 135120514.769 6                  25712576.768
        38.100
 106696134.854 8  82985935.564 8  19924748.321    19924748.659    19924753.686
        52.800          48.200
 198975648.627 7                  37863799.332
        45.600
 200952583.634 7                  38240007.356
        44.000
 122194045.778 6  95216152.93644  23252745.481    23252744.1364   23252744.6334
        40.700          25.9004
 412695647.962 5                  78533288.281
        32.300
 202090935.706 7                  38456592.349
        45.000
 147156657.774 6                  28002979.274
        39.200
 117306616.944 7                  21967747.648    21967747.235
        43.600
 123582053.639 8                  23516874.296
        48.800
 115573712.714 7  90057448.53945  21992940.826    21992940.4424   21992940.3964
        45.100          33.2004
 113179040.550 6  88028168.438 7  21157618.289    21157618.945    21157624.056
        39.400          44.000
 134970131.838 5 105171523.30542  25683965.221    25683964.8284   25683968.6494
        34.900          12.8004
 130761540.486 7                  24883087.222
        46.700
 150224042.092 6                  28586690.875
        36.800
 145600386.992 6                  27706824.261
        38.100
 126826384.145 7  98642785.285 6  23733827.651    23733827.341    23733836.192
        43.600          41.200
 128108152.367 6  99824548.83145  24378162.366    24378161.7544   24378161.8514
        40.800          32.4004
 125649393.997 8                  23910277.106
        48.000
 114425966.594 6  88998022.758 7  21398224.601    21398225.366    21398232.930
        38.500          45.500
 130495035.875 7                  24832376.716
        46.000
 112772752.376 8  87712189.752 7  21155871.972    21155872.223    21155878.081
        51.200          46.400
 134409356.430 5 104734582.31144  25577243.881    25577243.1264   25577246.3124
        35.500          25.6004
 136720363.058 5 106535365.88344  26017015.652    26017014.8974   26017016.3524
        35.900          26.3004
 116233780.113 8  90404062.747 7  21743925.808    21743926.393    21743932.002
        50.000          44.700
 109668866.779 8  85456275.39348  20869283.083    20869282.6324   20869283.9804
        52.100          52.2004
 126202130.391 7  98157248.742 6  23641908.938    23641908.092    23641915.858
        42.800          40.700
 144725454.958 5                  27540335.350
        35.600
 116627429.145 7  90878520.76545  22193460.390    22193460.0154   22193459.9304
        45.500          33.3004
 128472616.378 6 100108530.19545  24447528.348    24447527.8164   24447528.0894
        39.900          31.6004
 116447243.155 8  90570114.267 7  21753317.399    21753317.830    21753322.770
        48.700          44.900
 124988621.076 6  97393762.11145  23784537.588    23784536.6054   23784541.3184
        37.900          32.1004
 129730192.082 7 101088473.55843  24686831.304    24686830.1284   24686828.6594
        42.200          23.9004
 25  1  1 11 19 30.0000000  0 35G10G24E19R04S31S35G21S48S33E27R13E29
                                G23R19G18E07E02E30R15G12E33R20E26R14
                                G08G27R05G32R18E12G28G31R03G25G02
 107393778.299 8  83683484.18448  20436349.308    20436348.6654   20436350.5094
        51.900          52.9004
 126136095.328 6  98287900.52245  24002895.752    24002895.2964   24002899.0464
        39.700          35.1004
 135092423.842 6                  25707231.597
        38.400
 106697217.125 8  82986777.312 8  19924950.484    19924950.678    19924955.754
        52.800          48.100
 198975651.941 7                  37863799.680
        45.700
 200952572.320 7                  38240005.675
        44.300
 122173986.098 6  95200521.99844  23248928.193    23248926.8304   23248927.3114
        41.100          25.8004
 412695617.249 5                  78533274.495
        32.400
 202090934.869 7                  38456593.762
        44.900
 147118162.695 6                  27995654.058
        39.500
 117328445.727 7                  21971835.385    21971835.407
        43.600
 123576906.217 8                  23515894.908
        48.800
 115609250.524 7  90085140.31145  21999703.316    21999702.9364   21999703.0724
        45.400          33.3004
 113228279.875 6  88066465.654 7  21166822.996    21166823.440    21166829.356
        39.100          44.100
 135028518.950 6 105217019.79542  25695076.234    25695075.8414   25695079.3704
        36.600          14.2004
 130787823.934 7                  24888088.751
        46.900
 150232241.314 6                  28588251.231
        37.000
 145578482.419 6                  27702655.900
        38.500
 126761683.217 7  98592462.359 7  23721720.459    23721721.362    23721728.934
        45.600          42.100
 128086122.602 6  99807382.81945  24373970.372    24373969.7294   24373969.3434
        39.900          32.4004
 125649286.325 8                  23910256.822
        48.100
 114405522.669 6  88982121.900 7  21394401.845    21394402.509    21394409.814
        38.900          45.100
 130532544.925 7                  24839514.517
        46.000
 112732722.228 8  87681055.218 7  21148362.481    21148362.437    21148368.174
        51.600          46.400
 134441993.325 6 104760013.67144  25583454.658    25583453.9074   25583456.6134
        36.600          25.4004
 136759480.831 6 106565847.26444  26024459.792    26024459.0504   26024460.1374
        37.200          26.6004
 116201766.166 8  90379162.983 7  21737937.163    21737938.094    21737943.587
        50.700          45.100
 109663034.894 8  85451731.06648  20868173.262    20868172.8114   20868174.2044
        52.200          52.2004
 126268760.502 7  98209072.156 6  23654391.206    23654391.405    23654399.081
        43.400          41.800
 144688232.673 5                  27533251.602
        35.600
 116580881.546 7  90842249.92845  22184602.414    22184602.0344   22184602.2314
        45.100          33.4004
 128412583.831 6 100061751.59745  24436104.236    24436103.6914   24436104.4174
        40.200          31.8004
 116479887.834 8  90595504.562 7  21759415.740    21759416.260    21759421.227
        48.500          45.000
 124947531.956 6  97361744.63145  23776719.010    23776718.0224   23776721.9664
        37.600          31.7004
 129693042.840 6 101059526.09943  24679762.078    24679760.8894   24679759.6774
        41.400          23.8004
 25  1  1 11 19 45.0000000  0 35G10G24E19R04S31S35G21S48S33E27R13E29
                                G23R19G18E07E02E30R15G12E33R20E26R14
                                G08G27R05G32R18E12G28G31R03G25G02
 107392893.459 8  83682794.69448  20436180.828    20436180.1804   20436182.1394
        51.600          52.8004
 126190514.435 6  98330304.99745  24013250.901    24013250.4504   24013254.4974
        38.900          34.2004
 135064369.987 6                  25701892.992
        38.400
 106698355.685 8  82987662.868 8  19925162.880    19925163.349    19925168.272
        52.600          48.100
 198975659.388 7                  37863801.442
        45.900
 200952564.655 7                  38240000.233
        44.200
 122154039.663 6  95184979.34944  23245132.511    23245131.1434   23245131.7624
        40.900          25.7004
 412695590.032 5                  78533266.070
        32.200
 202090936.258 7                  38456595.783
        45.000
 147079668.295 6                  27988328.444
        38.900
 117350464.450 7                  21975958.665    21975958.703
        44.000
 123571808.539 8                  23514924.708
        48.800
 115644867.930 7  90112894.10645  22006480.983    22006480.5994   22006480.8624
        45.500          33.2004
 113277650.649 6  88104865.112 7  21176052.368    21176052.968    21176058.226
        39.200          43.900
 135086891.912 5 105262505.22842  25706183.556    25706183.0834   25706187.3904
        35.000          12.3004
 130814127.156 7                  24893094.203
        47.000
 150240542.568 6                  28589831.537
        36.300
 145556655.995 6                  27698502.241
        38.800
 126696973.479 7  98542132.665 6  23709610.192    23709610.988    23709619.060
        45.200          41.700
 128064203.373 6  99790302.94245  24369798.898    24369798.2684   24369798.4774
        40.100          32.5004
 125649292.687 8                  23910258.267
        48.300
 114385277.551 6  88966375.729 7  21390616.124    21390616.453    21390624.009
        38.600          45.100
 130570124.483 7                  24846665.698
        46.100
 112692836.957 8  87650033.381 7  21140879.821    21140880.227    21140885.544
        51.400          46.300
 134474669.115 6 104785475.33444  25589672.524    25589671.7694   25589674.0694
        36.200          25.2004
 136798576.977 6 106596311.80045  26031899.564    26031898.8134   26031900.4114
        39.000          31.5004
 116169786.074 8  90354289.603 7  21731954.355    21731954.790    21731961.124
        49.400          45.000
 109657270.753 8  85447239.53448  20867076.408    20867075.9524   20867077.3284
        52.200          52.1004
 126335386.387 7  98260892.266 7  23666871.691    23666871.381    23666880.618
        42.400          42.000
 144651069.588 5                  27526179.532
        35.500
 116534418.419 7  90806044.91145  22175760.881    22175760.5194   22175760.6084
        45.600          33.4004
 128352570.384 6 100014987.87245  24424684.823    24424684.2914   24424684.2604
        41.500          32.3004
 116512561.494 8  90620917.399 7  21765519.797    21765519.872    21765524.817
        48.800          44.800
 124906493.234 6  97329766.44145  23768910.248    23768909.2694   23768912.6704
        37.600          31.7004
 129655976.580 6 101030643.28343  24672708.311    24672707.1224   24672706.5384
        41.300          23.4004
 25  1  1 11 20  0.0000000  0 35G10G24E19R04S31S35G21S48S33E27R13E29
                                G23R19G18E07E02E30R15G12E33R20E26R14
                                G08G27R05G32R18E12G28G31R03G25G02
 107392101.258 8  83682177.38848  20436030.132    20436029.4894   20436031.4144
        51.400          53.0004
 126244983.496 6  98372748.47245  24023616.294    24023615.8294   24023619.5434
        38.900          34.5004
 135036348.992 6                  25696560.223
        38.500
 106699546.073 8  82988588.713 8  19925385.615    19925385.798    19925390.655
        52.600          48.100
 198975664.476 7                  37863801.786
        46.000
 200952555.775 7                  38240000.488
        44.400
 122134202.116 6  95169521.51844  23241357.684    23241356.3304   23241356.6714
        40.400          26.4004
 412695562.627 5                  78533258.714
        32.200
 202090936.949 7                  38456591.459
        45.000
 147041170.532 6                  27981002.954
        38.800
 117372668.287 7                  21980117.321    21980117.062
        43.800
 123566756.229 8                  23513963.392
        49.000
 115680560.588 7  90140706.55245  22013272.964    22013272.5714   22013272.9894
        44.800          33.2004
 113327148.093 6  88143363.055 7  21185306.620    21185306.002    21185311.399
        39.500          44.100
 135145246.272 6 105307976.14342  25717288.468    25717287.9994   25717292.0434
        37.400          16.0004
 130840445.793 7                  24898102.103
        46.800
 150248942.562 5                  28591429.822
        35.900
 145534903.616 6                  27694362.863
        38.500
 126632251.021 7  98491793.035 7  23697499.009    23697498.601    23697507.250
        44.700          42.400
 128042390.627 6  99773306.02345  24365648.734    24365648.0914   24365647.4524
        39.700          32.4004
 125649408.827 8                  23910280.113
        48.100
 114365227.171 6  88950781.021 7  21386865.976    21386867.168    21386874.607
        38.500          45.300
 130607770.039 7                  24853829.588
        46.100
 112653092.827 8  87619121.303 7  21133423.685    21133424.405    21133429.740
        50.900          46.500
 134507379.180 6 104810963.69944  25595896.570    25595895.8424   25595898.4024
        37.200          25.8004
 136837646.800 6 106626755.82644  26039334.110    26039333.3554   26039335.2444
        36.500          29.9004
 116137835.408 8  90329439.041 7  21725977.777    21725978.015    21725983.415
        50.200          44.800
 109651570.007 8  85442797.39948  20865991.463    20865991.0034   20865992.5134
        52.100          52.3004
 126402003.062 7  98312705.229 6  23679351.997    23679352.288    23679358.985
        43.800          40.800
 144613961.608 5                  27519118.681
        35.800
 116488035.728 7  90769902.57145  22166933.895    22166933.5204   22166934.2924
        45.000          33.7004
 128292572.066 6  99968235.93445  24413266.674    24413266.1074   24413266.5354
        40.200          32.1004
 116545259.708 8  90646349.325 7  21771628.262    21771628.556    21771632.620
        49.300          44.700
 124865501.166 6  97297824.58545  23761109.502    23761108.5104   23761112.1534
        38.300          31.9004
 129618989.269 6 101001822.03943  24665670.187    24665668.9944   24665667.8244
        40.700          23.8004
 25  1  1 11 20 15.0000000  0 35G10G24E19R04S31S35G21S48S33E27R13E29
                                G23R19G18E07E02E30R15G12E33R20E26R14
                                G08G27R05G32R18E12G28G31R03G25G02
 107391402.417 8  83681632.82948  20435897.112    20435896.4644   20435898.4424
        51.400          52.9004
 126299502.710 6  98415231.03845  24033990.618    24033990.1534   24033994.3744
        40.500          34.9004
 135008361.394 6                  25691234.597
        38.600
 106700788.835 8  82989555.313 8  19925617.364    19925617.576    19925622.741
        52.700          48.200
 198975669.970 7                  37863803.106
        45.700
 200952546.709 7                  38240000.291
        44.200
 122114474.309 6  95154149.19044  23237603.614    23237602.2514   23237602.6104
        40.500          25.9004
 412695535.236 5                  78533244.991
        32.400
 202090937.780 7                  38456592.895
        45.000
 147002670.245 6                  27973676.023
        39.500
 117395057.835 7                  21984310.249    21984309.383
        44.100
 123561749.815 8                  23513010.723
        48.900
 115716329.026 7  90168578.04545  22020079.933    22020079.5494   22020079.5184
        44.700          33.1004
 113376772.399 6  88181959.721 7  21194582.148    21194582.705    21194588.563
        39.200          44.200
 135203582.104 5 105353432.63942  25728390.484    25728389.9664   25728393.1284
        33.300          12.7004
 130866780.330 7                  24903113.587
        46.700
 150257441.428 5                  28593046.845
        34.600
 145513226.122 6                  27690238.367
        38.700
 126567516.891 7  98441444.327 6  23685385.165    23685384.716    23685392.180
        43.300          41.200
 128020685.400 6  99756392.89645  24361517.635    24361517.0054   24361517.0554
        39.500          32.7004
 125649635.379 8                  23910323.272
        48.100
 114345372.136 6  88935338.213 7  21383155.510    21383154.379    21383161.644
        38.600          45.400
 130645482.000 7                  24861005.914
        46.200
 112613490.947 8  87588319.876 7  21125994.397    21125994.974    21126000.483
        50.900          46.400
 134540123.723 5 104836478.95144  25602127.856    25602127.1054   25602129.7564
        35.900          24.8004
 136876690.614 5 106657179.59044  26046763.106    26046762.3374   26046764.9254
        31.800          24.9004
 116105914.501 8  90304611.668 7  21720006.379    21720006.888    21720012.300
        50.000          45.000
 109645933.150 8  85438405.03948  20864918.751    20864918.2864   20864919.8604
        51.700          52.2004
 126468610.594 7  98364511.066 6  23691829.995    23691829.890    23691837.401
        43.600          41.700
 144576909.617 5                  27512067.661
        35.100
 116441734.390 7  90733823.64045  22158123.764    22158123.3894   22158123.3714
        45.600          33.6004
 128232589.847 6  99921496.52945  24401852.975    24401852.4124   24401851.9314
        40.300          32.0004
 116577983.026 8  90671800.801 7  21777740.833    21777741.193    21777746.097
        48.600          45.000
 124824556.747 6  97265919.86445  23753317.426    23753316.4294   23753320.4764
        38.400          32.0004
 129582081.857 6 100973063.06043  24658647.099    24658645.9104   24658644.1124
        41.200          23.4004
 25  1  1 11 20 30.0000000  0 35G10G24E19R04S31S35G21S48S33E27R13E29
                                G23R19G18E07E02E30R15G12E33R20E26R14
                                G08G27R05G32R18E12G28G31R03G25G02
 107390797.809 8  83681161.70548  20435782.167    20435781.5244   20435783.4004
        51.200          53.0004
 126354072.138 6  98457752.66845  24044374.677    24044374.2084   24044378.4524
        40.600          35.0004
 134980407.815 6                  25685915.161
        38.800
 106702084.452 8  82990562.998 8  19925859.562    19925859.755    19925864.625
        52.500          48.100
 198975675.795 7                  37863805.149
        45.700
 200952537.299 7                  38239997.438
        44.200
 122094856.861 6  95138862.88844  23233870.500    23233869.1504   23233869.4804
        40.700          26.0004
 412695508.242 5                  78533241.584
        32.200
 202090938.207 7                  38456594.536
        44.800
 146964168.355 6                  27966349.632
        39.400
 117417632.818 7                  21988538.009    21988537.141
        44.000
 123556789.903 8                  23512066.818
        49.000
 115752173.815 7  90196509.02945  22026900.645    22026900.2564   22026900.4824
        45.200          33.2004
 113426523.724 6  88220655.174 7  21203882.461    21203883.300    21203888.549
        39.100          44.000
 135261900.057 6 105398875.22442  25739487.973    25739487.4644   25739490.6584
        36.200          15.7004
 130893131.331 7                  24908128.082
        46.500
 150266038.728 6                  28594683.134
        36.800
 145491624.287 6                  27686127.064
        38.600
 126502772.332 7  98391087.490 6  23673267.720    23673267.719    23673277.289
        44.600          41.900
 127999088.819 6  99739564.43545  24357408.182    24357407.5524   24357407.6874
        38.200          32.9004
 125649973.022 8                  23910387.703
        48.100
 114325713.712 6  88920048.322 7  21379477.106    21379477.762    21379485.219
        38.700          45.200
 130683260.820 7                  24868194.843
        46.300
 112574032.718 8  87557630.154 7  21118592.514    21118592.650    21118598.217
        51.100          46.400
 134572903.098 5 104862021.32144  25608366.539    25608365.7754   25608367.8034
        34.400          25.0004
 136915709.063 5 106687583.56743  26054188.570    26054187.8014   26054189.7824
        34.100          22.8004
 116074024.553 8  90279808.347 7  21714040.446    21714041.667    21714046.664
        50.300          44.700
 109640360.793 8  85434062.93648  20863858.807    20863858.3474   20863859.4914
        51.600          52.3004
 126535209.271 7  98416310.039 6  23704305.779    23704305.816    23704312.566
        43.000          40.500
 144539914.560 5                  27505027.947
        35.500
 116395515.347 7  90697808.84045  22149328.062    22149327.6784   22149328.2084
        45.000          33.7004
 128172624.575 6  99874770.33945  24390442.065    24390441.4984   24390441.1914
        39.800          32.4004
 116610732.822 7  90697272.848 7  21783858.037    21783858.600    21783864.100
        47.900          44.800
 124783661.030 6  97234053.08945  23745535.200    23745534.1854   23745538.4044
        38.100          32.2004
 129545255.090 6 100944366.87243  24651639.675    24651638.4914   24651636.1234
        39.900          23.2004
