     2.11           OBSERVATION DATA    M (MIXED)           RINEX VERSION / TYPE
teqc  2019Feb25                         20260317 16:20:09UTCPGM / RUN BY / DATE
Linux 2.4.21-27.ELsmp|Opteron|gcc -static|Linux 64|=+       COMMENT
BIT 2 OF LLI FLAGS DATA COLLECTED UNDER A/S CONDITION       COMMENT
-Unknown-                                                   MARKER NAME
-Unknown-           -Unknown-                               OBSERVER / AGENCY
-Unknown-           -Unknown-           -Unknown-           REC # / TYPE / VERS
-Unknown-           -Unknown-                               ANT # / TYPE
        0.0000        0.0000        0.0000                  APPROX POSITION XYZ
        0.0000        0.0000        0.0000                  ANTENNA: DELTA H/E/N
     1     1                                                WAVELENGTH FACT L1/2
     7    L1    L2    C1    P1    P2    S1    S2            # / TYPES OF OBSERV
 SNR is mapped to RINEX snr flag value [0-9]                COMMENT
  L1 & L2: min(max(int(snr_dBHz/6), 0), 9)                  COMMENT
  2025     1     1    21     0    0.0000000     GPS         TIME OF FIRST OBS
    18                                                      LEAP SECONDS
                                                            END OF HEADER
 25  1  1 21  0  0.0000000  0 33G09E05G17G08S31S35G07G15E33S48S33G30
                                E04E31E12R01E06E10R20R10E26R11G21E24
                                R21E09R02G13G14G02R12G19R22
 134320193.750 5 104665004.55243  25560351.997    25560351.4564   25560376.4244
        33.600          21.9004
 128463815.581 7                  24445854.387
        43.600
 115001810.939 7  89611973.74147  21884046.984    21884046.3854   21884050.7854
        47.200          43.9004
 120178298.065 7  93645561.58246  22869122.376    22869121.6704   22869127.5424
        43.500          39.4004
 198973725.921 7                  37863446.874
        45.300
 200891214.802 7                  38228344.868
        43.900
 109175259.451 8  85071671.89347  20775346.589    20775345.9284   20775347.9134
        48.000          46.9004
 131166050.777 6 102207323.57344  24960068.204    24960067.8204   24960071.5294
        38.600          27.0004
 132816425.432 7                  25274061.927
        44.100
 412972096.323 5                  78585681.746
        33.300
 202128311.427 7                  38463727.114
        44.900
 106742669.280 8  83176140.72548  20312446.578    20312445.7244   20312449.5504
        50.600          52.1004
 146001918.464 6                  27783297.929
        38.100
 124061172.826 7                  23608003.004
        47.800
 144425810.306 5                  27483277.393
        34.700
 122843062.568 6  95544611.687 5  22980352.867    22980352.052    22980366.887
        41.400          35.600
 137889285.819 7                  26239480.627
        42.400
 151537050.882 5                  28836538.012
        35.700
 112390774.703 6  87415227.044 7  21017575.824    21017576.573    21017586.588
        39.100          46.700
 114023505.393 7                  21390479.119    21390478.240
        46.100
 140190763.126 7                  26677340.172
        42.900
 105576394.360 8  82115136.574 8  19757131.830    19757131.818    19757137.587
        53.500          49.700
 114303038.162 7  89067463.55245  21751083.505    21751082.1644   21751085.0344
        43.900          32.0004
 133245304.620 7                  25355676.897
        45.100
 105977412.888 8  82427092.253 7  19804350.276    19804350.487    19804358.327
        51.300          47.400
 134401499.414 7                  25575763.846
        44.600
 121899924.435 7  94811150.948 6  22843971.540    22843971.860    22843979.705
        46.700          41.700
 119674188.290 7  93252625.35644  22773239.596    22773238.9934   22773240.5544
        44.100          27.4004
 111290658.333 7  86720154.40346  21177846.402    21177845.9824   21177847.5554
        47.400          37.0004
 114396491.401 7  89140279.20546  21768864.515    21768863.2774   21768865.3604
        47.400          37.7004
 122085345.011 7  94955314.239 7  22854626.378    22854626.584    22854634.802
        46.400          42.800
 130956636.185 6 102044237.80043  24920196.733    24920195.2364   24920215.4294
        38.300          19.9004
 122425357.063 7  95219882.679 7  22934361.320    22934361.341    22934379.489
        45.800          42.000
 25  1  1 21  0 15.0000000  0 33G09E05G17G08S31S35G07G15E33S48S33G30
                                E04E31E12R01E06E10R20R10E26R11G21E24
                                R21E09R02G13G14G02R12G19R22
 134370934.755 5 104704542.88343  25570008.787    25570008.2334   25570032.5764
        34.800          22.0004
 128459759.870 7                  24445082.552
        43.500
 114962989.346 7  89581723.22747  21876659.603    21876659.0134   21876663.1014
        45.900          43.8004
 120228047.873 7  93684327.62546  22878589.484    22878588.7744   22878594.6024
        43.400          39.3004
 198973720.766 7                  37863447.960
        45.600
 200891206.798 7                  38228340.419
        43.600
 109198682.441 7  85089923.52647  20779803.562    20779802.8964   20779805.2044
        47.900          46.8004
 131142010.337 6 102188590.77444  24955493.782    24955493.3894   24955496.6754
        37.600          26.3004
 132792902.215 7                  25269585.476
        44.200
 412970993.596 5                  78585698.519
        32.600
 202128324.712 7                  38463726.975
        44.800
 106734950.675 8  83170126.21248  20310977.859    20310977.0104   20310980.7524
        51.000          52.1004
 146047452.323 6                  27791963.580
        38.100
 124066719.255 7                  23609058.450
        47.800
 144379500.547 5                  27474464.197
        34.900
 122888053.881 6  95579604.698 5  22988768.680    22988768.706    22988782.865
        40.600          35.100
 137931817.572 7                  26247574.041
        42.200
 151491746.847 6                  28827917.028
        36.100
 112426014.412 6  87442635.680 7  21024166.936    21024167.302    21024176.580
        39.400          46.600
 114054518.453 7                  21396297.507    21396296.666
        46.800
 140204017.074 7                  26679862.131
        42.500
 105563913.636 8  82105429.349 8  19754796.309    19754796.254    19754802.081
        53.300          49.800
 114311620.356 7  89074150.99145  21752716.531    21752715.1864   21752718.1914
        43.700          32.1004
 133223339.198 7                  25351496.752
        45.200
 105949835.615 8  82405643.311 7  19799196.526    19799196.991    19799204.809
        51.500          47.500
 134434697.389 7                  25582081.130
        44.500
 121902250.435 7  94812960.044 6  22844407.144    22844407.884    22844415.326
        47.100          41.600
 119658124.358 7  93240107.99944  22770182.746    22770182.1434   22770183.6774
        45.100          27.6004
 111266259.286 7  86701142.16346  21173203.309    21173202.8894   21173204.5624
        46.800          37.0004
 114382342.223 7  89129253.89946  21766172.290    21766171.0564   21766172.7324
        47.400          37.7004
 122039649.109 7  94919772.993 7  22846072.494    22846072.620    22846080.942
        46.100          43.100
 130904429.417 6 102003557.86143  24910261.491    24910259.9764   24910280.4994
        38.800          20.6004
 122358187.460 7  95167640.110 6  22921777.950    22921778.642    22921795.860
        45.200          41.300
 25  1  1 21  0 30.0000000  0 33G09E05G17G08S31S35G07G15E33S48S33G30
                                E04E31E12R01E06E10R20R10E26R11G21E24
                                R21E09R02G13G14G02R12G19R22
 134421630.840 5 104744046.18043  25579655.628    25579655.0704   25579680.2584
        34.800          23.4004
 128455814.205 7                  24444332.008
        44.000
 114924258.957 7  89551543.77947  21869289.670    21869289.0944   21869292.8394
        46.100          43.8004
 120277834.668 7  93723122.49246  22888063.878    22888063.1684   22888068.6734
        43.500          39.3004
 198973718.299 7                  37863446.941
        45.400
 200891201.379 7                  38228339.507
        43.700
 109222227.404 8  85108270.21547  20784283.933    20784283.2674   20784285.6804
        48.100          46.8004
 131118101.018 6 102169960.17744  24950944.281    24950943.8974   24950946.0574
        38.500          25.8004
 132769474.176 7                  25265127.418
        44.600
 412971494.366 5                  78585723.667
        32.500
 202128339.967 7                  38463729.743
        44.700
 106727361.963 8  83164212.91848  20309533.648    20309532.7994   20309536.7004
        50.800          52.1004
 146092973.345 6                  27800625.906
        37.300
 124072296.068 8                  23610119.509
        48.200
 144333196.155 5                  27465652.734
        35.800
 122933136.309 6  95614668.613 5  22997202.196    22997202.553    22997216.739
        41.400          35.200
 137974377.830 7                  26255673.398
        42.800
 151446411.891 5                  28819289.924
        35.500
 112461428.863 6  87470180.229 7  21030788.449    21030789.418    21030799.209
        38.900          46.500
 114085605.088 7                  21402128.836    21402128.252
        45.800
 140217379.663 7                  26682405.237
        42.700
 105551510.854 8  82095782.735 8  19752475.167    19752475.236    19752481.117
        53.600          49.900
 114320361.844 7  89080962.55545  21754380.048    21754378.7254   21754381.5284
        43.900          31.8004
 133201395.950 7                  25347321.426
        45.600
 105922452.367 8  82384345.259 7  19794079.503    19794079.764    19794087.609
        51.300          47.300
 134467964.353 7                  25588411.728
        44.700
 121904764.241 7  94814915.191 6  22844878.849    22844878.728    22844886.819
        46.100          41.500
 119642208.904 7  93227706.34644  22767153.760    22767153.1574   22767155.1504
        44.400          27.3004
 111241906.491 7  86682165.96446  21168569.087    21168568.6724   21168570.3924
        47.300          37.0004
 114368332.925 7  89118337.58546  21763506.267    21763505.0384   21763506.8504
        47.500          37.6004
 121993951.927 7  94884230.772 7  22837517.790    22837517.758    22837525.757
        45.800          42.600
 130852246.009 6 101962896.09443  24900331.176    24900329.6344   24900349.7094
        37.500          19.5004
 122291053.281 7  95115425.099 6  22909200.840    22909201.546    22909218.384
        45.100          41.600
 25  1  1 21  0 45.0000000  0 33G09E05G17G08S31S35G07G15E33S48S33G30
                                E04E31E12R01E06E10R20R10E26R11G21E24
                                R21E09R02G13G14G02R12G19R22
 134472275.619 5 104783509.51043  25589293.090    25589292.5324   25589317.7724
        34.200          21.5004
 128451972.649 7                  24443600.338
        43.800
 114885613.781 7  89521430.73647  21861935.192    21861934.6294   21861938.8224
        46.200          43.8004
 120327652.156 7  93761941.27646  22897543.578    22897542.8724   22897548.9164
        43.400          39.5004
 198973713.844 7                  37863447.303
        45.700
 200891193.111 7                  38228335.532
        43.400
 109245888.415 7  85126707.32247  20788786.628    20788785.9584   20788788.2384
        47.600          46.7004
 131094317.163 6 102151427.33344  24946417.990    24946417.5974   24946419.9304
        37.100          25.8004
 132746135.480 7                  25260686.072
        44.500
 412971991.837 5                  78585754.244
        32.800
 202128353.394 7                  38463729.984
        44.500
 106719897.295 8  83158396.28148  20308113.266    20308112.4124   20308116.2494
        50.600          52.1004
 146138475.310 6                  27809284.741
        37.600
 124077897.255 8                  23611185.584
        48.300
 144286891.380 5                  27456840.805
        35.300
 122978303.452 6  95649798.375 5  23005652.616    23005652.672    23005666.536
        41.700          35.100
 138016960.340 7                  26263776.770
        42.200
 151401040.314 5                  28810656.047
        34.900
 112497011.673 6  87497855.730 7  21037443.330    21037443.876    21037453.435
        38.900          46.400
 114116759.079 7                  21407973.503    21407972.663
        45.500
 140230844.761 7                  26684967.130
        42.600
 105539180.016 8  82086192.066 8  19750167.451    19750167.758    19750173.424
        53.400          49.800
 114329256.642 7  89087893.57845  21756072.554    21756071.2314   21756074.0734
        43.500          31.9004
 133179468.855 7                  25343148.565
        45.600
 105895257.322 8  82363193.593 7  19788997.266    19788997.676    19789005.525
        51.100          47.400
 134501294.050 7                  25594754.148
        45.000
 121907459.344 7  94817011.374 6  22845384.096    22845383.713    22845391.594
        45.400          41.800
 119626436.016 7  93215415.76944  22764152.553    22764151.9414   22764153.8104
        44.100          27.5004
 111217594.025 7  86663221.19146  21163942.491    21163942.0674   21163943.8414
        47.200          37.0004
 114354457.546 7  89107525.63146  21760865.740    21760864.5064   21760866.4554
        47.000          37.6004
 121948247.403 7  94848682.829 7  22828960.979    22828961.420    22828969.527
        46.000          42.500
 130800080.109 6 101922247.97543  24890404.156    24890402.6144   24890421.2324
        38.100          19.8004
 122223948.979 7  95063233.302 6  22896631.331    22896631.305    22896647.607
        45.800          41.700
 25  1  1 21  1  0.0000000  0 33G09E05G17G08S31S35G07G15E33S48S33G30
                                E04E31E12R01E06E10R20R10E26R11G21E24
                                R21E09R02G13G14G02R12G19R22
 134522869.217 6 104822932.97743  25598920.116    25598919.5714   25598945.4974
        36.100          23.0004
 128448235.417 7                  24442889.473
        44.000
 114847054.213 7  89491384.39047  21854597.738    21854597.1804   21854601.0954
        46.200          43.9004
 120377500.283 7  93800783.94046  22907029.717    22907029.0204   22907034.5694
        43.200          39.4004
 198973706.304 7                  37863444.531
        45.400
 200891183.031 7                  38228333.260
        43.300
 109269665.415 7  85145234.81647  20793311.357    20793310.6874   20793312.8764
        47.700          46.8004
 131070659.161 6 102132992.53944  24941916.332    24941915.9434   24941917.9274
        37.600          25.6004
 132722886.552 7                  25256261.918
        44.600
 412972485.263 5                  78585773.012
        32.800
 202128363.923 7                  38463733.016
        44.700
 106712557.045 8  83152676.59648  20306716.313    20306715.4594   20306719.4524
        50.800          52.1004
 146183958.207 6                  27817940.048
        37.400
 124083523.061 8                  23612256.114
        48.100
 144240586.730 5                  27448029.356
        34.800
 123023554.607 6  95684993.492 5  23014117.563    23014117.556    23014132.171
        40.900          35.000
 138059565.112 6                  26271884.030
        41.800
 151355632.526 5                  28802014.861
        35.600
 112532762.217 6  87525661.693 7  21044129.127    21044129.507    21044139.065
        39.400          46.500
 114147980.820 7                  21413830.633    21413830.194
        45.600
 140244412.573 7                  26687549.365
        42.900
 105526921.643 8  82076657.774 8  19747873.504    19747873.744    19747879.558
        53.500          49.700
 114338305.103 7  89094944.32845  21757794.461    21757793.1514   21757795.9384
        43.900          32.0004
 133157558.136 7                  25338979.183
        45.500
 105868251.071 8  82342188.761 7  19783950.920    19783951.034    19783958.803
        51.600          47.600
 134534686.534 7                  25601108.618
        44.500
 121910336.130 7  94819248.835 6  22845922.857    22845922.892    22845930.822
        46.500          41.900
 119610806.078 7  93203236.57544  22761177.937    22761177.3294   22761179.6404
        44.100          27.5004
 111193322.155 7  86644308.04946  21159323.733    21159323.3044   21159325.0714
        46.700          37.1004
 114340716.424 7  89096818.29346  21758250.744    21758249.5104   21758251.5894
        47.100          37.5004
 121902535.898 7  94813129.462 7  22820403.804    22820403.727    22820412.643
        45.200          42.700
 130747932.181 6 101881613.87243  24880480.134    24880478.5924   24880497.4674
        38.600          20.6004
 122156875.224 7  95011065.290 6  22884064.238    22884063.757    22884082.079
        44.500          41.600
 25  1  1 21  1 15.0000000  0 32E05G17G08S31S35G07G15E33S48S33G30E04
                                E31E12R01E06E10R20R10E26R11G21E24R21
                                E09R02G13G14G02R12G19R22
 128444607.255 7                  24442199.321
        43.500
 114808585.031 7  89461408.48147  21847277.111    21847276.5444   21847280.6374
        46.300          44.0004
 120427383.452 7  93839653.91046  22916522.127    22916521.4434   22916526.8754
        43.500          39.5004
 198973700.905 7                  37863448.761
        45.500
 200891175.000 7                  38228335.062
        43.700
 109293563.039 8  85163856.30547  20797859.149    20797858.4794   20797860.4854
        48.100          46.8004
 131047132.034 6 102114659.73044  24937438.947    24937438.5764   24937440.9964
        37.500          26.1004
 132699732.313 7                  25251855.749
        44.800
 412971380.614 5                  78585793.447
        32.000
 202128376.734 7                  38463733.745
        44.600
 106705346.138 8  83147057.69648  20305344.251    20305343.3934   20305347.2814
        51.000          52.2004
 146229426.597 6                  27826592.517
        37.700
 124089178.175 8                  23613332.260
        48.100
 144194287.128 5                  27439218.547
        34.800
 123068894.299 6  95720257.463 5  23022599.609    23022599.392    23022614.003
        41.000          35.300
 138102196.606 7                  26279996.970
        43.200
 151310193.439 6                  28793367.816
        36.000
 112568685.559 6  87553602.035 7  21050846.849    21050847.122    21050856.869
        39.100          46.600
 114179274.830 7                  21419700.877    21419700.875
        45.900
 140258087.666 7                  26690151.455
        43.200
 105514740.623 8  82067183.618 8  19745594.023    19745594.415    19745600.086
        53.300          49.900
 114347511.389 7  89102118.06745  21759546.205    21759544.9004   21759547.9294
        43.700          31.9004
 133135668.532 7                  25334813.586
        45.400
 105841438.821 8  82321334.800 7  19778939.977    19778940.456    19778948.220
        51.700          47.500
 134568146.257 7                  25607475.988
        44.900
 121913399.292 7  94821631.243 6  22846496.894    22846496.990    22846504.920
        46.700          41.900
 119595323.837 7  93191172.49344  22758232.573    22758231.9834   22758233.5254
        44.300          27.7004
 111169095.672 7  86625430.27646  21154713.799    21154713.3664   21154714.8994
        47.200          37.2004
 114327114.595 7  89086219.49446  21755662.572    21755661.3384   21755663.1634
        47.100          37.6004
 121856822.370 7  94777574.470 7  22811846.933    22811846.678    22811854.695
        46.400          42.500
 130695807.054 6 101840997.55643  24870560.455    24870558.9314   24870578.0984
        38.100          20.3004
 122089837.326 7  94958925.122 6  22871505.791    22871505.674    22871523.152
        45.700          41.700
 25  1  1 21  1 30.0000000  0 32E05G17G08S31S35G07G15E33S48S33G30E04
                                E31E12R01E06E10R20R10E26R11G21E24R21
                                E09R02G13G14G02R12G19R22
 128441086.871 7                  24441529.461
        44.100
 114770205.097 7  89431502.11347  21839973.671    21839973.0814   21839977.0604
        46.800          44.0004
 120477300.107 7  93878549.97046  22926020.739    22926020.0554   22926025.9074
        43.700          39.6004
 198973696.758 7                  37863442.433
        45.400
 200891167.335 7                  38228331.203
        43.600
 109317580.018 7  85182570.78747  20802429.290    20802428.6154   20802430.7834
        47.600          46.8004
 131023734.526 6 102096427.92244  24932986.533    24932986.1674   24932988.2804
        37.500          25.5004
 132676671.622 7                  25247467.272
        45.000
 412971877.745 5                  78585810.354
        32.100
 202128390.343 7                  38463733.839
        44.600
 106698263.396 8  83141538.66648  20303996.433    20303995.5704   20303999.4904
        50.800          52.2004
 146274878.942 6                  27835241.796
        38.600
 124094861.321 8                  23614413.659
        48.400
 144147991.547 5                  27430408.266
        35.200
 123114320.648 6  95755588.836 5  23031098.033    23031097.769    23031111.513
        41.200          35.100
 138144853.272 7                  26288113.734
        42.600
 151264721.959 5                  28784714.695
        35.900
 112604779.865 6  87581675.373 7  21057596.586    21057597.099    21057606.359
        38.900          46.300
 114210640.076 7                  21425585.244    21425584.994
        45.800
 140271868.665 7                  26692773.607
        42.700
 105502635.877 8  82057768.821 8  19743328.903    19743329.158    19743334.927
        53.500          49.800
 114356874.116 7  89109413.70145  21761327.975    21761326.6524   21761329.5174
        43.700          31.9004
 133113798.700 7                  25330651.957
        45.600
 105814819.434 8  82300630.878 7  19773965.399    19773965.843    19773973.616
        51.200          47.400
 134601671.677 7                  25613855.674
        45.000
 121916647.290 7  94824157.484 7  22847104.633    22847105.015    22847113.638
        45.800          42.100
 119579988.201 7  93179222.62644  22755313.665    22755313.0804   22755315.2104
        44.200          27.3004
 111144913.306 7  86606586.88046  21150111.971    21150111.5424   21150113.0954
        46.900          37.1004
 114313650.819 7  89075728.26446  21753100.669    21753099.4444   21753101.0584
        47.100          37.5004
 121811105.552 7  94742016.975 7  22803288.742    22803289.334    22803297.190
        47.200          42.800
 130643703.778 6 101800398.22143  24860644.964    24860643.4354   24860662.3514
        39.100          20.3004
 122022834.497 7  94906812.233 6  22858954.741    22858954.398    22858970.744
        46.300          41.200
 25  1  1 21  1 45.0000000  0 32E05G17G08S31S35G07G15E33S48S33G30E04
                                E31E12R01E06E10R20R10E26R11G21E24R21
                                E09R02G13G14G02R12G19R22
 128437670.262 7                  24440879.281
        43.900
 114731910.612 7  89401662.32747  21832686.072    21832685.4824   21832689.7464
        46.500          43.9004
 120527245.969 7  93917468.78346  22935525.521    22935524.8334   22935530.3774
        43.800          39.5004
 198973689.263 7                  37863442.957
        45.500
 200891157.038 7                  38228331.628
        43.600
 109341712.345 8  85201375.15047  20807021.521    20807020.8464   20807023.0454
        48.000          46.7004
 131000462.916 6 102078294.22044  24928557.305    24928556.9394   24928559.7914
        37.700          25.2004
 132653700.702 7                  25243096.098
        44.500
 412972370.012 5                  78585837.568
        32.900
 202128400.327 7                  38463739.639
        44.500
 106691304.990 8  83136116.51648  20302672.465    20302671.6024   20302675.3664
        50.900          52.1004
 146320311.014 6                  27843887.607
        37.900
 124100568.493 8                  23615499.672
        48.200
 144101696.235 5                  27421598.490
        35.500
 123159828.744 6  95790983.762 5  23039611.484    23039610.974    23039625.862
        41.100          35.300
 138187530.892 7                  26296235.632
        42.400
 151219214.276 5                  28776054.699
        35.900
 112641040.510 6  87609878.071 7  21064377.147    21064377.796    21064387.740
        39.000          46.500
 114242072.461 7                  21431481.801    21431481.499
        45.300
 140285751.535 7                  26695416.006
        43.100
 105490603.728 8  82048410.481 8  19741077.616    19741077.504    19741083.166
        53.600          49.800
 114366389.427 7  89116828.23745  21763138.996    21763137.6774   21763140.1714
        43.600          31.9004
 133091944.631 7                  25326493.404
        45.600
 105788388.981 8  82280073.863 7  19769026.300    19769026.672    19769034.360
        51.700          47.500
 134635258.594 7                  25620247.343
        44.900
 121920076.037 7  94826824.231 7  22847747.660    22847748.428    22847756.165
        46.900          42.000
 119564795.289 7  93167383.97944  22752422.479    22752421.8944   22752424.1904
        43.900          27.0004
 111120771.133 7  86587774.80446  21145517.827    21145517.4034   21145519.0084
        47.400          37.1004
 114300321.271 7  89065341.63246  21750563.860    21750562.6314   21750564.5394
        47.200          37.3004
 121765381.600 7  94706453.913 7  22794728.918    22794728.994    22794737.262
        46.400          42.700
 130591618.465 6 101759812.90843  24850732.919    24850731.3954   24850750.2044
        39.000          20.9004
 121955863.108 7  94854723.783 6  22846407.418    22846407.745    22846424.306
        45.200          41.400
 25  1  1 21  2  0.0000000  0 32E05G17G08S31S35G07G15E33S48S33G30E04
                                E31E12R01E06E10R20R10E26R11G21E24R21
                                E09R02G13G14G02R12G19R22
 128434365.756 7                  24440250.202
        44.000
 114693709.964 7  89371895.65447  21825416.775    21825416.1764   21825420.2574
        46.200          43.8004
 120577229.071 7  93956416.62146  22945036.869    22945036.1594   22945041.8894
        43.400          39.6004
 198973686.352 7                  37863440.600
        45.200
 200891151.969 7                  38228329.669
        43.500
 109365968.176 8  85220275.74447  20811637.352    20811636.6824   20811638.8244
        48.000          46.7004
 130977325.702 6 102060265.24744  24924155.231    24924154.8654   24924156.9954
        37.400          25.8004
 132630828.017 7                  25238743.698
        44.300
 412972865.905 5                  78585856.148
        32.000
 202128415.775 7                  38463735.176
        44.200
 106684479.388 8  83130797.85448  20301373.435    20301372.5684   20301376.5124
        50.900          52.2004
 146365730.883 6                  27852530.817
        38.500
 124106308.000 8                  23616591.947
        48.400
 144055409.732 5                  27412789.987
        35.300
 123205426.760 6  95826448.664 5  23048140.139    23048140.174    23048156.788
        39.200          35.700
 138230237.495 7                  26304362.508
        42.500
 151173678.906 5                  28767389.759
        35.700
 112677475.165 6  87638216.155 7  21071191.091    21071191.445    21071201.232
        38.500          46.400
 114273580.329 7                  21437393.358    21437392.635
        45.800
 140299744.452 7                  26698078.550
        43.000
 105478652.650 8  82039115.202 8  19738840.834    19738841.022    19738846.599
        53.400          49.800
 114376065.481 7  89124368.02745  21764980.060    21764978.7414   21764981.4154
        43.700          31.8004
 133070114.646 7                  25322339.152
        45.500
 105762156.419 8  82259670.796 7  19764124.017    19764124.549    19764132.380
        51.500          47.400
 134668915.085 7                  25626651.476
        45.100
 121923693.795 7  94829638.038 7  22848426.084    22848426.272    22848433.974
        46.400          42.000
 119549753.507 7  93155663.10344  22749560.479    22749559.8894   22749561.5244
        44.400          27.1004
 111096677.509 7  86569000.55546  21140932.597    21140932.1644   21140934.1594
        47.200          37.2004
 114287134.481 7  89055066.23346  21748054.310    21748053.0814   21748055.1764
        46.800          37.3004
 121719659.012 7  94670891.923 7  22786169.323    22786169.633    22786177.744
        46.700          42.800
 130539559.610 6 101719248.17943  24840825.873    24840824.3314   24840842.8454
        38.300          20.9004
 121888932.098 7  94802666.755 6  22833868.699    22833868.644    22833885.706
        46.100          41.400
 25  1  1 21  2 15.0000000  0 32E05G17G08S31S35G07G15E33S48S33G30E04
                                E31E12R01E06E10R20R10E26R11G21E24R21
                                E09R02G13G14G02R12G19R22
 128431164.934 7                  24439641.672
        43.600
 114655594.960 7  89342195.72347  21818163.930    21818163.3364   21818167.0574
        45.800          44.0004
 120627240.673 7  93995386.66046  22954553.655    22954552.9454   22954558.9154
        43.800          39.8004
 198973680.830 7                  37863439.755
        45.400
 200891142.924 7                  38228331.270
        43.500
 109390339.091 7  85239266.01347  20816275.129    20816274.4544   20816276.5584
        47.800          46.9004
 130954314.494 6 102042334.45444  24919776.365    24919775.9994   24919778.1684
        37.800          25.7004
 132608045.332 7                  25234408.124
        44.600
 412971757.208 5                  78585871.700
        32.800
 202128428.280 7                  38463740.148
        44.300
 106677778.321 8  83125576.23348  20300098.384    20300097.5174   20300101.3534
        50.700          52.2004
 146411129.954 6                  27861170.247
        38.100
 124112071.405 8                  23617688.624
        48.200
 144009123.910 5                  27403982.202
        34.900
 123251105.470 6  95861976.284 5  23056687.029    23056686.276    23056701.321
        40.300          35.200
 138272964.387 7                  26312493.434
        42.400
 151128107.668 5                  28758717.019
        35.100
 112714075.129 6  87666682.757 7  21078035.754    21078035.800    21078045.524
        38.600          46.400
 114305155.088 7                  21443316.491    21443315.943
        45.800
 140313838.916 7                  26700760.754
        42.800
 105466774.355 8  82029876.519 8  19736618.052    19736618.057    19736623.684
        53.300          49.800
 114385893.848 7  89132026.50345  21766849.695    21766848.3764   21766851.7394
        43.700          31.8004
 133048300.265 7                  25318188.011
        45.300
 105736113.415 8  82239415.154 7  19759257.427    19759257.751    19759265.631
        51.500          47.300
 134702632.460 7                  25633068.121
        44.900
 121927491.980 7  94832592.175 7  22849137.473    22849138.279    22849146.067
        46.800          42.000
 119534854.363 7  93144053.36844  22746724.816    22746724.2264   22746726.1714
        43.800          27.3004
 111072624.067 7  86550257.61946  21136355.500    21136355.0674   21136356.8994
        47.000          37.2004
 114274082.059 7  89044895.54646  21745570.893    21745569.6684   21745571.3194
        46.900          37.3004
 121673929.291 7  94635324.381 7  22777608.141    22777608.484    22777616.801
        45.800          42.600
 130487518.961 6 101678697.62043  24830922.452    24830920.9284   24830939.2664
        38.300          20.3004
 121822033.340 7  94750634.786 6  22821335.346    22821335.648    22821352.039
        45.100          41.000
 25  1  1 21  2 30.0000000  0 32E05G17G08S31S35G07G15E33S48S33G30E04
                                E31E12R01E06E10R20R10E26R11G21E24R21
                                E09R02G13G14G02R12G19R22
 128428068.049 7                  24439052.033
        43.300
 114617566.008 7  89312562.84147  21810927.104    21810926.5324   21810930.3394
        46.900          43.9004
 120677280.758 7  94034378.91046  22964076.059    22964075.3264   22964081.2494
        43.800          39.8004
 198973672.490 7                  37863436.996
        45.600
 200891131.794 7                  38228320.261
        43.400
 109414825.229 7  85258346.07347  20820934.613    20820933.9344   20820936.1954
        47.700          46.8004
 130931429.850 6 102024502.29344  24915421.777    24915421.4204   24915423.8904
        37.100          26.7004
 132585353.094 7                  25230089.736
        44.400
 412972246.071 5                  78585911.033
        33.600
 202128437.236 7                  38463744.683
        44.800
 106671202.150 8  83120451.93648  20298846.864    20298846.0064   20298849.9654
        50.500          52.2004
 146456508.193 6                  27869805.422
        37.700
 124117858.924 8                  23618790.026
        48.000
 143962839.261 5                  27395174.402
        34.300
 123296864.419 6  95897566.339 5  23065246.500    23065246.165    23065261.956
        40.200          35.100
 138315711.587 7                  26320627.918
        42.200
 151082501.009 6                  28750038.752
        36.000
 112750840.546 6  87695278.058 7  21084911.040    21084911.027    21084920.943
        38.700          46.400
 114336797.283 7                  21449252.574    21449251.732
        45.600
 140328035.086 7                  26703461.905
        42.900
 105454969.168 8  82020694.718 8  19734408.712    19734408.785    19734414.631
        53.400          49.900
 114395874.865 7  89139803.93345  21768749.424    21768748.1014   21768751.1234
        43.600          31.8004
 133026501.757 7                  25314040.101
        45.100
 105710260.440 8  82219307.316 7  19754426.439    19754426.588    19754434.227
        51.700          47.200
 134736410.736 7                  25639495.779
        44.700
 121931470.490 7  94835686.557 6  22849883.604    22849883.735    22849891.441
        46.300          41.900
 119520098.458 7  93132555.25444  22743917.307    22743916.7134   22743918.4534
        43.500          27.1004
 111048611.103 7  86531546.22646  21131786.177    21131785.7444   21131787.4284
        47.100          37.3004
 114261164.596 7  89034830.01846  21743112.779    21743111.5684   21743113.0494
        47.100          37.2004
 121628192.954 7  94599751.682 7  22769047.238    22769047.276    22769055.405
        47.000          42.800
 130435496.955 6 101638161.57043  24821022.557    24821021.0554   24821039.6924
        39.800          21.5004
 121755167.655 7  94698628.537 6  22808809.453    22808809.470    22808826.447
        46.100          41.800
 25  1  1 21  2 45.0000000  0 32E05G17G08S31S35G07G15E33S48S33G30E04
                                E31E12R01E06E10R20R10E26R11G21E24R21
                                E09R02G13G14G02R12G19R22
 128425086.353 7                  24438484.639
        43.800
 114579634.402 7  89283005.81147  21803708.542    21803707.9394   21803712.2014
        46.300          44.0004
 120727360.290 7  94073401.88946  22973605.878    22973605.1414   22973611.0374
        43.300          39.8004
 198973671.450 7                  37863436.741
        45.600
 200891128.971 7                  38228322.376
        43.700
 109439437.719 7  85277524.58347  20825618.411    20825617.7414   20825619.8394
        47.400          46.8004
 130908683.035 6 102006777.50844  24911092.601    24911092.2264   24911095.4674
        37.500          26.6004
 132562762.708 7                  25225790.945
        44.600
 412972743.534 5                  78585933.623
        33.500
 202128454.659 7                  38463747.589
        44.700
 106664762.307 8  83115433.86448  20297621.506    20297620.6484   20297624.5084
        50.600          52.2004
 146501876.654 6                  27878438.846
        38.200
 124123681.820 8                  23619898.024
        48.200
 143916567.283 5                  27386368.672
        34.800
 123342714.707 6  95933227.412 5  23073824.047    23073823.948    23073839.592
        40.500          35.400
 138358490.083 7                  26328768.265
        42.700
 151036870.353 5                  28741354.928
        35.700
 112787781.874 6  87724010.196 7  21091820.391    21091819.742    21091828.880
        39.100          46.300
 114368518.196 7                  21455203.257    21455202.849
        45.800
 140342344.085 7                  26706185.184
        42.800
 105443248.784 8  82011578.837 8  19732215.575    19732215.588    19732221.362
        53.200          49.900
 114406019.737 7  89147709.04045  21770680.209    21770678.8864   21770681.6524
        43.300          31.7004
 133004730.313 7                  25309896.673
        45.300
 105684609.197 8  82199356.367 7  19749632.637    19749632.981    19749640.683
        52.000          47.300
 134770260.933 7                  25645937.725
        44.800
 121935640.845 7  94838930.141 7  22850665.725    22850665.030    22850672.629
        46.100          42.200
 119505497.170 7  93121177.61544  22741139.093    22741138.5214   22741140.0014
        43.900          27.2004
 111024649.889 7  86512875.15646  21127226.770    21127226.3464   21127227.7374
        47.100          37.3004
 114248393.411 7  89024878.47046  21740682.334    21740681.1234   21740682.7584
        46.800          37.1004
 121582461.433 7  94564182.770 7  22760485.089    22760484.977    22760493.988
        45.300          42.500
 130383505.086 6 101597649.01643  24811127.788    24811126.2774   24811145.9594
        38.500          21.4004
 121688346.963 7  94646657.270 6  22796292.027    22796291.606    22796307.970
        45.700          41.800
 25  1  1 21  3  0.0000000  0 33E05G17G08S31S35G07G15E33S48S33G30E04
                                E31E12R01E03E06E10R20R10E26R11G21E24
                                R21E09R02G13G14G02R12G19R22
 128422206.397 7                  24437936.569
        43.800
 114541786.887 7  89253514.30547  21796506.526    21796505.9234   21796510.0324
        46.400          43.9004
 120777465.486 7  94112444.85946  22983140.686    22983139.9404   22983145.8604
        44.200          39.8004
 198973665.829 7                  37863436.965
        45.300
 200891120.530 7                  38228318.835
        43.500
 109464163.093 7  85296791.05147  20830323.534    20830322.8734   20830324.9924
        47.700          46.8004
 130886060.839 6 101989149.85644  24906788.273    24906787.8984   24906790.7204
        38.300          26.7004
 132540260.873 7                  25221509.207
        44.400
 412973236.342 5                  78585944.798
        32.600
 202128466.895 7                  38463751.131
        44.800
 106658445.453 8  83110511.62948  20296419.344    20296418.4904   20296422.4644
        50.800          52.1004
 146547221.652 6                  27887067.532
        37.700
 124129526.598 8                  23621010.467
        48.000
 143870294.714 5                  27377563.334
        34.700
 123388642.095 6  95968948.439 5  23082416.244    23082415.657    23082431.712
        40.800          35.300


 138401286.169 7                  26336912.476
        42.200
 150991202.430 6                  28732664.530
        36.400
 112824884.739 6  87752867.979 7  21098757.127    21098757.929    21098767.126
        39.000          46.200
 114400304.110 7                  21461165.425    21461165.198
        45.300
 140356752.360 7                  26708926.977
        42.600
 105431599.793 8  82002518.505 8  19730035.503    19730035.570    19730041.379
        53.200          49.700
 114416314.761 7  89155731.14645  21772638.906    21772637.5834   21772640.6884
        43.000          31.6004
 132982972.495 7                  25305756.659
        45.700
 105659146.328 8  82179551.943 7  19744873.932    19744874.531    19744882.412
        51.500          47.600
 134804169.332 7                  25652390.207
        44.900
 121939989.103 7  94842312.096 7  22851479.712    22851480.632    22851488.231
        46.300          42.100
 119491037.000 7  93109909.94044  22738386.828    22738386.2344   22738388.4114
        44.200          27.1004
 111000727.061 7  86494233.99846  21122674.034    21122673.6144   21122675.3884
        47.500          37.3004
 114235755.175 7  89015030.51146  21738277.230    21738276.0194   21738277.7544
        46.900          37.1004
 121536721.258 7  94528607.080 7  22751922.659    22751923.220    22751931.380
        47.200          42.700
 130331530.006 6 101557149.51843  24801237.552    24801236.0234   24801253.9794
        39.700          20.7004
 121621558.011 7  94594710.691 6  22783779.201    22783779.362    22783795.359
        45.300          41.000
 25  1  1 21  3 15.0000000  0 33E05G17G08S31S35G07G15E33S48S33G30E04
                                E31E12R01E03E06E10R20R10E26R11G21E24
                                R21E09R02G13G14G02R12G19R22
 128419432.955 7                  24437408.738
        43.700
 114504028.344 7  89224092.12847  21789321.563    21789320.9644   21789324.7164
        46.600          43.9004
 120827600.900 7  94151511.37746  22992680.936    22992680.1764   22992686.3484
        43.900          39.7004
 198973659.604 7                  37863429.622
        45.500
 200891111.197 7                  38228323.691
        44.100
 109489006.112 8  85316149.19647  20835051.025    20835050.3504   20835052.5484
        48.200          46.8004
 130863568.300 6 101971623.23944  24902507.489    24902507.1234   24902510.1884
        38.700          26.4004
 132517852.619 7                  25217245.003
        44.700
 412972127.936 5                  78585966.664
        33.100
 202128478.397 7                  38463751.909
        44.900
 106652256.564 8  83105689.10648  20295241.584    20295240.7354   20295244.7734
        50.700          52.1004
 146592547.785 6                  27895693.450
        38.400
 124135398.109 8                  23622127.534
        48.000
 143824026.722 5                  27368757.811
        34.900
 123434650.778 6  96004732.724 5  23091023.487    23091023.620    23091038.834
        40.200          35.100


 138444104.409 7                  26345060.772
        42.300
 150945502.281 6                  28723967.993
        36.400
 112862154.226 6  87781855.348 7  21105727.567    21105727.203    21105736.820
        39.300          46.000
 114432160.245 7                  21467142.244    21467142.336
        46.200
 140371264.648 7                  26711688.485
        42.800
 105420027.304 8  81993517.678 8  19727869.872    19727870.030    19727875.679
        53.200          49.700
 114426764.530 7  89163873.83345  21774627.769    21774626.4554   21774629.0894
        43.400          31.4004
 132961233.077 7                  25301619.690
        45.700
 105633876.964 8  82159898.019 7  19740151.610    19740152.382    19740160.267
        50.900          47.600
 134838140.534 7                  25658854.816
        45.100
 121944520.202 7  94845836.288 7  22852329.343    22852328.809    22852337.236
        45.600          42.400
 119476722.823 7  93098756.01144  22735662.989    22735662.3864   22735664.5624
        44.800          27.3004
 110976847.473 7  86475626.53146  21118130.031    21118129.6164   21118131.2724
        47.200          37.3004
 114223254.918 7  89005290.07046  21735898.601    21735897.3904   21735898.9584
        47.200          37.0004
 121490977.383 7  94493028.548 7  22743359.259    22743359.642    22743367.794
        45.900          42.600
 130279576.762 6 101516667.04243  24791350.473    24791348.9354   24791367.0474
        39.200          20.7004
 121554806.221 7  94542793.032 6  22771274.365    22771274.527    22771290.605
        45.700          41.700
 25  1  1 21  3 30.0000000  0 33E05G17G08S31S35G07G15E33S48S33G30E04
                                E31E12R01E03E06E10R20R10E26R11G21E24
                                R21E09R02G13G14G02R12G19R22
 128416771.221 7                  24436902.767
        43.900
 114466364.039 7  89194743.38547  21782154.151    21782153.5484   21782157.3754
        46.600          43.9004
 120877771.407 7  94190605.22946  23002228.364    23002227.6094   23002233.4994
        44.100          39.9004
 198973657.297 7                  37863431.183
        45.600
 200891107.180 7                  38228320.127
        43.800
 109513971.914 8  85335603.01847  20839801.801    20839801.1354   20839803.4694
        48.100          46.8004
 130841210.605 6 101954201.68144  24898253.004    24898252.6334   24898254.9744
        38.100          25.9004
 132495543.262 7                  25212999.653
        44.600
 412972622.408 5                  78585992.211
        33.000
 202128494.702 7                  38463759.256
        45.000
 106646200.917 8  83100970.40648  20294089.472    20294088.6324   20294092.4144
        50.700          52.1004
 146637859.947 6                  27904316.074
        38.200
 124141301.463 8                  23623250.906
        48.000
 143777768.562 5                  27359955.770
        34.000
 123480745.503 6  96040583.933 5  23099647.227    23099646.375    23099661.674
        40.300          34.400
 152056250.152 6                  28935340.463
        37.600
 138486949.681 7                  26353213.968
        42.400
 150899775.247 5                  28715265.746
        35.500
 112899594.829 6  87810975.815 7  21112728.678    21112729.125    21112738.532
        39.000          46.000
 114464091.560 7                  21473132.479    21473132.043
        45.700
 140385885.978 7                  26714470.704
        42.700
 105408536.675 8  81984580.495 8  19725719.386    19725719.729    19725725.454
        53.700          49.700
 114437374.296 7  89172141.20145  21776646.450    21776645.1224   21776647.9684
        43.700          31.3004
 132939517.226 7                  25297487.534
        45.600
 105608806.585 8  82140398.846 7  19735466.975    19735467.445    19735475.138
        51.200          47.400
 134872179.415 7                  25665332.066
        45.000
 121949239.005 7  94849506.448 7  22853213.863    22853213.323    22853221.262
        45.800          42.100
 119462559.971 7  93087720.00144  22732967.892    22732967.2844   22732969.4354
        44.300          26.9004
 110953016.312 7  86457056.80346  21113595.141    21113594.7304   21113596.2914
        47.600          37.4004
 114210897.809 7  88995661.17646  21733546.863    21733545.6524   21733547.4894
        46.700          36.9004
 121445235.027 7  94457451.183 7  22734796.523    22734796.373    22734804.972
        46.400          42.800
 130227650.627 6 101476205.66043  24781468.577    24781467.0394   24781485.2894
        39.100          20.7004
 121488097.269 7  94490908.695 6  22758776.731    22758776.414    22758793.556
        45.300          41.400
 25  1  1 21  3 45.0000000  0 32E05G17G08S31S35G07G15E33S48S33G30E04
                                E31E12R01E06E10R20R10E26R11G21E24R21
                                E09R02G13G14G02R12G19R22
 128414214.826 7                  24436415.807
        43.200
 114428787.945 7  89165463.36947  21775003.322    21775002.6964   21775006.7864
        46.700          43.7004
 120927970.342 7  94229721.22646  23011780.756    23011779.9964   23011786.2674
        43.800          39.7004
 198973654.341 7                  37863433.553
        45.700
 200891101.573 7                  38228312.883
        43.200
 109539053.952 7  85355147.41347  20844574.775    20844574.1054   20844576.4784
        47.500          46.6004
 130818981.583 6 101936880.40544  24894023.147    24894022.7724   24894024.3464
        38.800          25.9004
 132473326.574 7                  25208771.872
        44.300
 412973112.014 5                  78586006.623
        32.600
 202128509.803 7                  38463758.352
        44.800
 106640272.299 8  83096350.68848  20292961.320    20292960.4804   20292964.2504
        50.600          51.8004
 146683151.568 6                  27912934.846
        38.000
 124147230.275 7                  23624379.411
        47.900
 143731514.181 5                  27351154.185
        34.800
 123526919.207 6  96076496.554 5  23108283.546    23108283.564    23108299.566
        40.200          34.500
 138529815.401 7                  26361371.110
        42.100
 150854015.153 5                  28706558.057
        34.600
 112937199.616 6  87840223.968 7  21119760.538    21119761.302    21119770.798
        39.200          45.700
 114496091.604 7                  21479135.419    21479135.116
        45.600
 140400609.888 7                  26717272.630
        42.800
 105397121.628 8  81975702.127 8  19723583.650    19723583.658    19723589.235
        53.500          49.800
 114448137.423 7  89180528.06245  21778694.306    21778692.9694   21778696.2174
        43.300          31.1004
 132917818.542 7                  25293357.788
        45.500
 105583928.852 8  82121049.525 7  19730818.320    19730818.446    19730826.184
        51.500          47.600
 134906279.420 7                  25671821.003
        44.900
 121954139.030 7  94853317.570 7  22854132.762    22854132.470    22854139.827
        46.400          42.700
 119448542.041 7  93076796.91844  22730300.553    22730299.9454   22730301.7684
        44.300          26.7004
 110929227.262 7  86438519.88546  21109068.112    21109067.7014   21109069.3954
        47.300          37.2004
 114198677.632 7  88986138.99646  21731221.605    21731220.3854   21731222.0304
        47.200          36.8004
 121399488.065 7  94421870.234 7  22726232.832    22726232.925    22726240.795
        46.700          43.000
 130175745.432 6 101435760.59143  24771591.470    24771589.9554   24771607.4344
        38.300          21.0004
 121421425.190 7  94439053.014 6  22746286.482    22746286.416    22746302.910
        44.800          41.600
 25  1  1 21  4  0.0000000  0 32E05G17G08S31S35G07G15E33S48S33G30E04
                                E31E12R01E06E10R20R10E26R11G21E24R21
                                E09R02G13G14G02R12G19R22
 128411759.911 7                  24435948.762
        43.700
 114391296.078 7  89136248.99547  21767869.120    21767868.5034   21767872.2414
        46.200          43.9004
 120978193.586 7  94268856.16846  23021338.217    23021337.4624   23021343.3544
        44.200          39.8004
 198973645.863 7                  37863430.150
        45.400
 200891090.586 7                  38228317.641
        43.500
 109564248.234 8  85374779.26447  20849369.344    20849368.6784   20849370.8584
        48.100          46.8004
 130796877.551 6 101919656.47844  24889816.532    24889816.1484   24889818.3114
        38.500          26.4004
 132451198.947 7                  25204561.060
        44.500
 412973596.250 5                  78586030.219
        32.100
 202128518.697 7                  38463764.246
        44.600
 106634467.040 8  83091827.09148  20291856.655    20291855.8154   20291859.5634
        50.800          52.0004
 146728418.670 6                  27921548.590
        38.200
 124153180.753 8                  23625511.498
        48.000
 143685260.025 5                  27342350.968
        34.300
 123573167.255 6  96112467.003 5  23116936.261    23116935.904    23116951.910
        40.400          35.200
 138572697.453 7                  26369531.185
        42.400
 150808218.412 6                  28697843.399
        36.500
 112974964.034 6  87869596.260 7  21126823.291    21126823.501    21126832.867
        39.800          45.800
 114528156.662 7                  21485151.203    21485151.058
        45.900
 140415432.482 7                  26720092.950
        42.900
 105385778.518 8  81966879.685 8  19721460.935    19721460.961    19721466.614
        53.500          49.800
 114459049.952 7  89189031.34245  21780771.408    21780770.0674   21780772.7944
        43.500          31.2004
 132896133.177 7                  25289231.553
        45.500
 105559240.294 8  82101847.330 7  19726204.289    19726204.747    19726212.458
        51.500          47.600
 134940436.422 7                  25678321.168
        45.400
 121959215.919 7  94857266.258 7  22855082.610    22855082.913    22855091.129
        45.900          42.400
 119434665.271 7  93065983.84044  22727659.483    22727658.8624   22727660.9934
        44.200          26.9004
 110905476.556 7  86420012.84646  21104548.658    21104548.2524   21104549.7784
        47.200          37.3004
 114186590.787 7  88976720.69446  21728921.420    21728920.2004   21728922.0384
        46.700          36.9004
 121353732.462 7  94386282.572 7  22717666.501    22717666.897    22717674.571
        46.600          42.600
 130123857.502 6 101395328.99943  24761717.385    24761715.9054   24761733.5194
        38.300          21.5004
 121354786.572 7  94387223.329 6  22733802.303    22733802.974    22733819.222
        44.800          41.900
 25  1  1 21  4 15.0000000  0 33E03E05G17G08S31S35G07G15E33S48S33G30
                                E04E31E12R01E06E10R20R10E26R11G21E24
                                R21E09R02G13G14G02R12G19R22
 151959308.926 5                  28916890.651
        32.800
 128409414.055 7                  24435502.308
        43.600
 114353896.139 7  89107106.24447  21760752.101    21760751.4894   21760755.2384
        46.900          44.0004
 121028448.441 7  94308015.74646  23030901.553    23030900.7934   23030906.4734
        43.600          40.0004
 198973638.588 7                  37863432.489
        45.500
 200891080.837 7                  38228319.385
        43.300
 109589562.272 7  85394504.43947  20854186.245    20854185.5754   20854188.0484
        47.800          46.9004
 130774906.249 6 101902535.99544  24885636.681    24885636.2844   24885638.0774
        37.800          27.4004
 132429168.069 7                  25200368.992
        44.900
 412974083.272 5                  78586049.291
        32.300
 202128528.946 7                  38463768.007
        44.500
 106628792.835 8  83087405.61548  20290776.794    20290775.9454   20290779.8274
        50.800          52.1004
 146773668.503 6                  27930159.722
        38.800
 124159160.437 8                  23626649.320
        48.100
 143639013.962 5                  27333551.011
        35.400
 123619497.026 6  96148501.032 5  23125603.498    23125603.124    23125618.267
        40.300          34.700
 138615603.173 7                  26377695.885
        42.200
 150762392.765 6                  28689122.625
        37.200
 113012895.725 6  87899098.671 7  21133916.980    21133916.956    21133926.220
        39.000          45.500
 114560294.519 7                  21491180.831    21491180.021
        45.700
 140430361.177 7                  26722933.842
        43.000
 105374515.215 8  81958119.339 8  19719352.734    19719353.006    19719358.794
        53.300          49.800
 114470119.503 7  89197656.97545  21782877.833    21782876.4964   21782879.1974
        43.000          31.2004
 132874468.693 7                  25285108.885
        45.400
 105534748.870 8  82082798.478 7  19721627.037    19721628.006    19721635.707
        51.600          47.700
 134974657.760 7                  25684833.226
        44.800
 121964477.669 7  94861358.720 7  22856068.875    22856069.590    22856077.118
        45.000          42.400
 119420937.311 7  93055286.70944  22725047.303    22725046.6824   22725048.6184
        44.500          27.1004
 110881771.805 7  86401541.62146  21100037.804    21100037.4074   21100038.9534
        47.500          37.5004
 114174644.875 7  88967412.21346  21726648.146    21726646.9304   21726648.7464
        46.300          36.9004
 121307976.398 7  94350694.556 7  22709101.134    22709101.487    22709109.902
        46.500          43.000
 130071994.710 6 101354916.93843  24751847.224    24751845.7714   24751863.4234
        39.300          20.8004
 121288189.581 7  94335426.050 7  22721327.202    22721326.946    22721342.908
        45.300          42.000
 25  1  1 21  4 30.0000000  0 33E03E05G17G08S31S35G07G15E33S48S33G30
                                E04E31E12R01E06E10R20R10E26R11G21E24
                                R21E09R02G13G14G02R12G19R22
 151927124.159 5                  28910766.087
        35.400
 128407176.388 7                  24435076.672
        43.200
 114316587.479 7  89078034.62147  21753652.226    21753651.5964   21753655.5934
        46.500          44.1004
 121078733.758 7  94347199.04746  23040470.595    23040469.8314   23040475.5004
        43.700          40.0004
 198973633.736 7                  37863428.245
        45.600
 200891073.541 7                  38228315.754
        43.900
 109614995.160 7  85414322.22347  20859026.189    20859025.5284   20859027.8464
        47.800          47.1004
 130753066.911 6 101885518.33944  24881480.454    24881480.0524   24881482.3704
        39.200          27.3004
 132407233.291 7                  25196194.716
        44.700
 412972970.358 5                  78586067.969
        32.500
 202128542.415 7                  38463773.449
        44.700
 106623248.950 8  83083085.68748  20289721.831    20289720.9824   20289724.8734
        50.800          52.2004
 146818899.964 6                  27938766.989
        37.700
 124165168.456 7                  23627792.888
        47.700
 143592775.290 5                  27324751.591
        34.600
 123665907.122 6  96184597.526 5  23134285.747    23134285.187    23134300.862
        40.500          34.400
 138658531.411 6                  26385865.171
        41.700
 150716537.555 5                  28680395.624
        35.000
 113050993.170 6  87928730.011 7  21141041.559    21141041.020    21141050.879
        39.000          45.500
 114592504.225 7                  21497221.358    21497221.957
        46.000
 140445395.030 7                  26725795.131
        42.900
 105363331.090 8  81949420.548 8  19717259.646    19717260.166    19717265.985
        52.900          49.800
 114481345.292 7  89206404.35245  21785013.848    21785012.5114   21785015.3674
        42.900          31.2004
 132852824.185 7                  25280990.229
        45.400
 105510453.789 8  82063902.313 7  19717087.312    19717087.677    19717095.414
        51.400          47.600
 135008942.325 7                  25691357.573
        44.700
 121969922.889 7  94865593.859 7  22857090.172    22857090.180    22857098.025
        46.100          42.500
 119407357.588 7  93044705.09344  22722463.525    22722462.8994   22722464.7444
        43.800          27.1004
 110858112.177 7  86383105.55546  21095535.555    21095535.1584   21095536.6644
        47.300          37.6004
 114162839.250 7  88958213.04946  21724401.743    21724400.5274   21724402.1444
        46.900          36.9004
 121262218.856 7  94315105.362 7  22700535.293    22700535.539    22700543.480
        47.000          42.900
 130020156.324 6 101314523.89643  24741982.312    24741980.8414   24741998.2194
        38.600          21.0004
 121221633.871 7  94283660.837 7  22708858.839    22708859.052    22708874.177
        46.300          42.300
 25  1  1 21  4 45.0000000  0 33E03E05G17G08S31S35G07G15E33S48S33G30
                                E04E31E12R01E06E10R20R10E26R11G21E24
                                R21E09R02G13G14G02R12G19R22
 151895006.781 5                  28904654.493
        35.100
 128405046.357 7                  24434671.291
        43.600
 114279369.776 7  89049033.87647  21746569.797    21746569.1674   21746573.2594
        46.500          44.1004
 121129048.700 7  94386405.44246  23050044.829    23050044.0604   23050050.2904
        44.400          40.0004
 198973629.023 7                  37863429.533
        45.200
 200891066.378 7                  38228307.642
        43.200
 109640546.204 7  85434232.07347  20863888.492    20863887.8354   20863890.1324
        47.700          47.0004
 130731359.169 6 101868603.22144  24877348.942    24877348.5494   24877351.3474
        38.600          27.1004
 132385394.267 7                  25192038.808
        44.300
 412973459.259 5                  78586101.260
        32.100
 202128554.565 7                  38463768.382
        44.800
 106617834.982 8  83078866.99248  20288691.731    20288690.8824   20288694.6474
        50.700          52.0004
 146864112.391 6                  27947370.820
        37.800
 124171204.244 7                  23628941.339
        47.600
 143546543.746 5                  27315954.394
        33.300
 123712396.128 6  96220755.342 5  23142982.185    23142981.920    23142997.980
        40.400          35.500
 138701481.377 6                  26394038.470
        41.700
 150670652.447 5                  28671664.384
        35.400
 113089255.680 6  87958489.709 7  21148195.995    21148196.685    21148206.181
        39.400          45.300
 114624785.117 7                  21503278.519    21503278.269
        45.800
 140460533.415 7                  26728675.662
        43.100
 105352225.733 8  81940783.059 8  19715181.620    19715181.975    19715187.696
        53.200          49.600
 114492726.530 7  89215272.86045  21787179.689    21787178.3574   21787181.1264
        43.200          31.2004
 132831199.126 7                  25276874.959
        45.300
 105486355.060 8  82045158.883 7  19712584.066    19712584.364    19712592.070
        51.500          47.600
 135043289.354 7                  25697893.726
        44.900
 121975551.208 7  94869971.438 7  22858143.595    22858144.495    22858152.554
        46.300          42.600
 119393925.595 7  93034238.59644  22719907.002    22719906.3854   22719908.7294
        44.200          27.1004
 110834497.213 7  86364704.28446  21091041.985    21091041.5924   21091042.8404
        47.700          37.6004
 114151173.459 7  88949122.84346  21722181.218    21722180.0074   21722182.1674
        46.600          36.8004
 121216459.424 7  94279514.716 7  22691969.013    22691969.565    22691977.515
        47.200          43.300
 129968341.821 6 101274149.42843  24732122.408    24732120.9734   24732138.0504
        38.500          21.2004
 121155119.314 7  94231927.641 7  22696397.076    22696397.391    22696414.167
        44.900          42.700
 25  1  1 21  5  0.0000000  0 33E03E05G17G08S31S35G07G15E33S48S33G30
                                E04E31E12R01E06E10R20R10E26R11G21E24
                                R21E09R02G13G14G02R12G19R22
 151862956.912 6                  28898555.346
        36.800
 128403023.988 7                  24434286.404
        43.600
 114242243.160 7  89020104.10147  21739504.949    21739504.3234   21739508.2204
        46.500          44.0004
 121179393.053 7  94425634.75646  23059624.841    23059624.0724   23059630.4824
        44.100          40.0004
 198973624.757 7                  37863426.479
        45.300
 200891059.627 7                  38228312.127
        43.400
 109666215.511 8  85454234.07947  20868772.966    20868772.3094   20868774.9194
        48.100          47.0004
 130709783.141 6 101851790.72744  24873242.739    24873242.3334   24873245.6464
        38.400          26.9004
 132363651.159 7                  25187901.521
        44.400
 412973948.563 5                  78586120.162
        32.700
 202128567.925 7                  38463772.018
        44.600
 106612551.110 8  83074749.67148  20287686.211    20287685.3664   20287689.1844
        50.800          52.0004
 146909305.502 6                  27955970.924
        38.400
 124177267.873 7                  23630095.202
        47.800
 143500319.607 5                  27307157.862
        35.200
 123758963.569 6  96256974.188 5  23151692.991    23151693.455    23151709.344
        39.500          35.200
 138744452.897 7                  26402216.067
        42.000
 150624737.695 6                  28662927.362
        36.200
 113127682.359 6  87988377.107 7  21155382.375    21155382.837    21155391.828
        39.200          45.400
 114657137.393 7                  21509347.428    21509347.383
        45.800
 140475776.250 7                  26731576.197
        42.700
 105341199.388 8  81932206.992 8  19713117.972    19713118.514    19713124.319
        53.300          49.800
 114504263.136 7  89224262.42845  21789375.125    21789373.7934   21789376.4424
        43.000          31.0004
 132809593.518 7                  25272763.826
        45.000
 105462452.700 8  82026568.168 7  19708117.304    19708117.593    19708125.183
        51.500          47.700
 135077698.642 7                  25704441.601
        44.700
 121981362.177 7  94874491.049 7  22859232.915    22859234.014    22859241.726
        47.000          43.000
 119380641.322 7  93023887.18444  22717379.333    22717378.7254   22717380.7424
        44.200          26.9004
 110810927.000 7  86346337.88446  21086556.339    21086555.9424   21086557.5704
        47.900          37.5004
 114139647.762 7  88940141.79646  21719988.626    21719987.4104   21719988.9124
        46.800          36.8004
 121170698.340 7  94243922.793 7  22683402.114    22683402.575    22683410.870
        45.900          43.000
 129916551.714 6 101233793.97543  24722266.697    24722265.3074   24722281.9724
        38.700          21.5004
 121088646.444 7  94180226.859 7  22683944.136    22683945.036    22683960.362
        45.200          42.300
 25  1  1 21  5 15.0000000  0 33E03E05G17G08S31S35G07G15E33S48S33G30
                                E04E31E12R01E06E10R20R10E26R11G21E24
                                R21E09R02G13G14G02R12G19R22
 151830971.160 5                  28892468.686
        35.900
 128401105.664 7                  24433921.376
        44.000
 114205204.114 7  88991242.56947  21732456.475    21732455.8584   21732459.8124
        46.700          44.1004
 121229762.914 7  94464883.94846  23069210.560    23069209.8004   23069215.6784
        43.300          39.9004
 198973617.673 7                  37863423.657
        45.300
 200891050.070 7                  38228301.480
        43.400
 109691999.432 8  85474325.39347  20873679.589    20873678.9374   20873681.5014
        48.200          47.0004
 130688335.631 6 101835078.41044  24869162.034    24869161.6234   24869164.3334
        38.000          26.8004
 132342000.567 7                  25183781.242
        44.500
 412974433.025 5                  78586140.190
        32.800
 202128579.312 7                  38463774.781
        44.600
 106607393.868 8  83070731.02148  20286704.658    20286703.8094   20286707.8114
        50.900          51.9004
 146954475.525 6                  27964566.827
        38.000
 124183355.693 8                  23631253.604
        48.000
 143454099.506 5                  27298362.153
        34.000
 123805605.484 6  96293250.993 5  23160418.161    23160418.632    23160435.345
        38.900          35.300
 138787442.047 7                  26410396.675
        42.100
 150578789.896 5                  28654183.276
        35.700
 113166269.490 6  88018389.293 7  21162599.209    21162599.137    21162607.838
        39.800          45.200
 114689557.078 7                  21515429.471    21515429.456
        45.400
 140491119.802 7                  26734496.270
        42.800
 105330248.625 8  81923689.721 8  19711069.172    19711069.523    19711075.131
        53.200          49.800
 114515951.425 7  89233370.19245  21791599.360    21791598.0324   21791600.6054
        43.300          31.0004
 132788003.794 7                  25268655.204
        45.800
 105438743.405 8  82008127.621 7  19703686.606    19703686.855    19703694.811
        51.200          47.700
 135112166.324 7                  25711000.685
        45.000
 121987352.109 7  94879149.840 7  22860355.887    22860356.195    22860363.709
        45.700          42.600
 119367501.289 7  93013648.18044  22714878.950    22714878.3474   22714880.2514
        44.700          26.8004
 110787397.970 7  86328003.57846  21082078.974    21082078.5684   21082080.1524
        47.900          37.6004
 114128258.635 7  88931267.16946  21717821.086    21717819.8704   21717821.6554
        47.200          36.8004
 121124932.154 8  94208326.874 7  22674834.243    22674835.684    22674843.120
        48.000          42.800
 129864782.309 6 101193454.65143  24712414.333    24712412.9294   24712430.0584
        38.900          20.9004
 121022212.142 7  94128556.059 7  22671498.824    22671499.142    22671515.707
        45.500          42.700
 25  1  1 21  5 30.0000000  0 33E03E05G17G08S31S35G07G15E33S48S33G30
                                E04E31E12R01E06E10R20R10E26R11G21E24
                                R21E09R02G13G14G02R12G19R22
 151799054.567 6                  28886395.371
        36.400
 128399296.315 7                  24433577.141
        44.100
 114168257.717 7  88962453.22647  21725426.030    21725425.3964   21725429.1204
        46.200          44.0004
 121280162.925 7  94504156.62046  23078801.544    23078800.7984   23078806.5344
        43.600          39.7004
 198973612.641 7                  37863428.044
        45.200
 200891042.667 7                  38228302.746
        43.100
 109717902.665 8  85494509.67047  20878608.631    20878607.9704   20878610.7984
        48.100          46.9004
 130667021.537 6 101818470.02644  24865106.787    24865106.3674   24865108.5904
        38.200          27.1004
 132320447.527 7                  25179679.992
        44.700
 412973319.577 5                  78586166.792
        32.600
 202128591.152 7                  38463772.434
        44.400
 106602368.305 8  83066814.97548  20285748.292    20285747.4384   20285751.4924
        50.700          51.7004
 146999627.150 6                  27973158.751
        38.500
 124189472.605 8                  23632417.815
        48.200
 143407888.674 5                  27289567.866
        35.000
 123852326.105 6  96329588.940 5  23169160.509    23169158.799    23169175.677
        39.000          35.600
 138830453.541 7                  26418581.707
        42.800
 150532814.163 6                  28645434.321
        36.400
 113205021.295 6  88048529.565 7  21169845.119    21169845.500    21169855.099
        39.400          45.500
 114722049.510 7                  21521525.539    21521524.631
        45.000
 140506568.907 7                  26737436.063
        43.400
 105319378.664 8  81915235.311 8  19709035.045    19709035.274    19709040.843
        53.100          49.800
 114527796.193 7  89242599.88845  21793853.258    21793851.9214   21793854.5934
        43.300          30.7004
 132766434.784 7                  25264550.851
        45.900
 105415232.332 8  81989841.258 7  19699292.651    19699293.222    19699301.129
        51.500          47.800
 135146697.066 7                  25717571.850
        45.600
 121993525.526 7  94883951.381 7  22861512.245    22861513.071    22861520.697
        46.700          42.500
 119354510.506 7  93003525.48244  22712406.668    22712406.0654   22712408.0344
        44.100          26.5004
 110763915.094 7  86309705.23346  21077610.329    21077609.9184   21077611.5264
        47.400          37.4004
 114117011.107 7  88922502.88146  21715680.476    21715679.2604   21715681.3314
        46.400          36.6004
 121079165.837 7  94172730.891 7  22666267.458    22666267.300    22666275.724
        46.500          42.900
 129813038.909 6 101153135.56743  24702568.159    24702566.7914   24702582.9954
        38.200          20.5004
 120955821.842 7  94076919.499 7  22659061.560    22659061.064    22659078.081
        44.700          43.000
 25  1  1 21  5 45.0000000  0 33E03E05G17G08S31S35G07G15E33S48S33G30
                                E04E31E12R01E06E10R20R10E26R11G21E24
                                R21E09R02G13G14G02R12G19R22
 151767205.897 6                  28880334.338
        36.000
 128397594.430 7                  24433253.190
        43.800
 114131402.626 7  88933735.03247  21718412.770    21718412.1444   21718415.8814
        46.800          44.2004
 121330591.286 7  94543451.39446  23088397.595    23088396.8494   23088402.8424
        43.900          40.1004
 198973607.928 7                  37863423.465
        45.500
 200891035.973 7                  38228310.982
        43.700
 109743923.638 8  85514785.68947  20883560.430    20883559.7694   20883562.5124
        48.000          47.1004
 130645839.561 6 101801964.61144  24861074.995    24861074.5624   24861077.7714
        39.200          27.9004
 132298990.792 7                  25175596.870
        44.600
 412973807.639 5                  78586191.010
        32.900
 202128604.726 7                  38463774.973
        44.700
 106597473.085 8  83063000.49748  20284817.112    20284816.2584   20284819.9864
        50.900          51.8004
 147044758.663 6                  27981747.417
        38.100
 124195617.180 8                  23633586.916
        48.000
 143361685.811 5                  27280775.721
        35.000
 123899123.395 6  96365986.581 5  23177915.169    23177914.271    23177930.273
        39.300          35.000
 138873485.611 7                  26426770.689
        42.200
 150486809.257 6                  28636679.013
        36.700
 113243936.018 6  88078796.521 7  21177122.534    21177122.932    21177132.182
        39.400          45.300
 114754613.004 7                  21527634.821    21527633.753
        45.700
 140522121.989 7                  26740395.484
        43.000
 105308588.129 8  81906842.656 8  19707015.755    19707015.804    19707021.681
        52.900          49.700
 114539795.881 7  89251950.30045  21796136.696    21796135.3594   21796138.0814
        42.800          30.7004
 132744885.017 7                  25260450.120
        45.900
 105391918.265 8  81971708.091 7  19694936.389    19694936.627    19694944.289
        51.900          47.700
 135181289.153 7                  25724154.302
        45.000
 121999881.313 7  94888894.738 7  22862703.049    22862704.441    22862711.893
        46.200          42.300
 119341667.585 7  92993517.99944  22709963.081    22709962.4824   22709964.0644
        43.900          26.6004
 110740476.965 7  86291441.75546  21073150.258    21073149.8524   21073151.3864
        47.600          37.6004
 114105903.850 7  88913847.90346  21713567.248    21713566.0284   21713567.6494
        46.900          36.8004
 121033398.024 7  94137133.728 7  22657699.562    22657699.201    22657708.113
        47.100          43.200
 129761320.215 6 101112835.73943  24692726.206    24692724.8874   24692740.6144
        38.400          20.5004
 120889474.486 7  94025316.296 7  22646632.305    22646632.569    22646648.191
        44.700          42.800
 25  1  1 21  6  0.0000000  0 33E03E05G17G08S31S35G07G15E33S48S33G30
                                E04E31E12R01E06E10R20R10E26R11G21E24
                                R21E09R02G13G14G02R12G19R22
 151735422.811 5                  28874286.238
        33.600
 128395997.576 7                  24432949.629
        43.500
 114094636.616 7  88905086.24747  21711416.223    21711415.5974   21711419.5314
        46.700          44.4004
 121381045.353 7  94582766.20446  23097998.665    23097997.9194   23098003.9794
        43.600          40.1004
 198973601.574 7                  37863425.857
        45.500
 200891027.127 7                  38228305.044
        43.700
 109770059.876 8  85535151.52647  20888533.987    20888533.3264   20888536.1774
        48.300          47.3004
 130624787.323 6 101785560.27544  24857068.804    24857068.3624   24857072.2304
        39.100          28.3004
 132277628.052 7                  25171531.224
        45.000
 412974293.716 5                  78586205.789
        32.700
 202128615.749 7                  38463775.635
        44.500
 106592705.879 8  83059285.77148  20283909.602    20283908.7394   20283912.8374
        50.700          52.0004
 147089867.430 6                  27990331.406
        38.000
 124201786.955 7                  23634760.963
        47.800
 143315488.777 5                  27271984.794
        34.100
 123945994.228 6  96402441.373 5  23186682.945    23186682.730    23186699.809
        39.900          35.300
 138916535.609 7                  26434962.644
        42.200
 150440772.899 5                  28627918.706
        35.800
 113283010.663 6  88109187.877 7  21184430.415    21184429.863    21184439.310
        38.900          45.200
 114787245.191 7                  21533755.786    21533755.230
        45.200
 140537776.486 7                  26743374.742
        42.900
 105297874.723 8  81898510.001 8  19705010.760    19705010.885    19705016.749
        53.100          49.700
 114551947.912 7  89261419.42545  21798449.144    21798447.8074   21798450.5414
        42.700          30.8004
 132723352.058 7                  25256352.446
        45.700
 105368798.937 8  81953726.417 7  19690615.275    19690616.168    19690623.789
        51.700          47.400
 135215939.916 7                  25730748.465
        44.900
 122006416.407 7  94893977.554 7  22863927.840    22863927.971    22863936.084
        45.200          42.200
 119328970.140 7  92983623.86744  22707546.794    22707546.2004   22707547.9174
        44.400          26.6004
 110717081.174 7  86273211.26846  21068698.158    21068697.7564   21068699.3234
        47.300          37.7004
 114094934.478 7  88905300.36146  21711479.515    21711478.2864   21711480.2294
        46.800          36.9004
 120987626.338 7  94101533.546 7  22649130.180    22649130.370    22649139.492
        46.100          43.100
 129709623.888 6 101072553.33343  24682887.948    24682886.6114   24682903.3264
        38.900          21.0004
 120823168.166 7  93973745.068 7  22634210.424    22634210.210    22634226.663
        45.000          42.900
 25  1  1 21  6 15.0000000  0 33E03E05G17G08S31S35G07G15E33S48S33G30
                                E04E31E12R01E06E10R20R10E26R11G21E24
                                R21E09R02G13G14G02R12G19R22
 151703709.282 5                  28868251.140
        34.300
 128394509.327 7                  24432666.249
        44.100
 114057963.233 7  88876509.63947  21704437.372    21704436.7424   21704440.7774
        46.400          44.3004
 121431528.404 7  94622103.60546  23107605.286    23107604.5444   23107610.5854
        43.700          40.0004
 198973596.974 7                  37863426.523
        45.700
 200891020.058 7                  38228299.633
        43.200
 109796314.947 8  85555609.96547  20893530.066    20893529.3874   20893532.4154
        48.000          47.2004
 130603868.703 6 101769260.06244  24853088.209    24853087.7674   24853091.0594
        38.300          27.9004
 132256363.073 7                  25167484.875
        44.500
 412974779.808 5                  78586228.402
        33.300
 202128628.606 7                  38463784.708
        44.900
 106588070.426 8  83055673.71248  20283027.666    20283026.8034   20283030.7424
        50.800          51.8004
 147134956.771 6                  27998911.540
        38.600
 124207985.485 8                  23635940.638
        48.200
 143269301.341 5                  27263195.738
        35.200
 123992941.854 6  96438955.937 5  23195465.704    23195465.050    23195481.709
        40.200          35.200
 138959606.827 7                  26443158.980
        42.200
 150394708.903 6                  28619153.363
        36.300
 113322248.135 6  88139705.890 7  21191767.140    21191767.473    21191777.001
        39.100          45.200
 114819949.932 7                  21539891.762    21539890.962
        45.500
 140553535.886 7                  26746373.319
        42.600
 105287242.325 8  81890240.355 8  19703020.876    19703021.228    19703027.096
        53.300          49.600
 114564256.072 7  89271010.20545  21800791.088    21800789.7514   21800792.7774
        43.100          30.5004
 132701839.449 7                  25252258.794
        46.100
 105345878.290 8  81935899.264 7  19686332.493    19686332.841    19686340.561
        51.800          47.600
 135250652.672 7                  25737353.986
        45.100
 122013134.619 7  94899202.824 7  22865187.508    22865187.193    22865195.414
        45.300          42.400
 119316421.780 7  92973845.90844  22705158.657    22705158.0674   22705160.0124
        43.900          26.6004
 110693731.388 7  86255016.63146  21064255.087    21064254.6984   21064256.0324
        47.600          37.6004
 114084106.780 7  88896863.21246  21709419.115    21709417.8904   21709419.7634
        46.500          36.8004
 120941854.689 7  94065933.391 7  22640561.670    22640562.437    22640570.378
        47.200          42.900
 129657953.689 6 101032291.25543  24673054.887    24673053.5284   24673070.1924
        39.100          20.6004
 120756906.996 7  93922208.904 7  22621798.327    22621798.273    22621812.965
        46.200          42.400
 25  1  1 21  6 30.0000000  0 34E03E05G17G08S31S35G07G15E33S48S33R03
                                G30E04E31E12R01E06E10R20R10E26R11G21
                                E24R21E09R02G13G14G02R12G19R22
 151672060.729 5                  28862228.841
        33.700
 128393124.960 7                  24432402.939
        43.400
 114021377.991 7  88848001.70947  21697475.705    21697475.0754   21697478.7074
        46.400          44.6004
 121482035.468 7  94661459.72446  23117216.258    23117215.5034   23117221.8644
        43.700          40.2004
 198973588.438 7                  37863426.626
        45.400
 200891009.694 7                  38228298.609
        43.000
 109822683.897 7  85576157.13747  20898548.473    20898547.8034   20898550.3454
        47.800          47.4004
 130583079.016 6 101753060.30244  24849132.182    24849131.7404   24849134.7154
        38.700          27.7004
 132235191.285 7                  25163456.291
        44.500
 412973661.358 5                  78586252.459
        33.000
 202128637.541 7                  38463781.819
        44.700
 132318053.129 6 102914079.131 5  24718122.298    24718123.699    24718133.491
        41.200          34.100
 106583562.137 8  83052160.74148  20282169.834    20282168.9714   20282172.8484
        50.400          52.0004
 147180021.804 6                  28007487.564
        38.500
 124214208.061 8                  23637124.657
        48.000
 143223119.193 5                  27254407.055
        34.900
 124039960.769 6  96475525.937 5  23204261.008    23204261.452    23204277.145
        40.000          34.300
 139002694.325 7                  26451358.879
        42.000
 150348612.763 6                  28610380.969
        36.200
 113361643.930 6  88170347.028 7  21199134.979    21199135.125    21199144.451
        39.500          45.200
 114852722.017 7                  21546038.550    21546038.674
        45.500
 140569395.380 7                  26749391.579
        42.700
 105276686.556 8  81882030.298 8  19701045.767    19701045.884    19701051.743
        53.000          49.700
 114576715.115 7  89280718.55945  21803162.197    21803160.8654   21803163.6984
        42.500          30.6004
 132680342.473 7                  25248167.776
        46.200
 105323151.707 8  81918223.043 7  19682085.213    19682085.765    19682093.709
        52.200          47.700
 135285422.489 7                  25743970.637
        44.800
 122020030.819 7  94904566.507 7  22866480.186    22866480.167    22866488.343
        45.700          42.800
 119304017.971 7  92964180.58544  22702798.514    22702797.9424   22702799.5104
        44.300          26.8004
 110670422.941 7  86236854.20746  21059819.344    21059818.9514   21059820.5944
        47.600          37.9004
 114073416.250 7  88888532.96646  21707384.948    21707383.7194   21707385.4034
        46.900          37.0004
 120896078.256 7  94030329.523 7  22631992.899    22631993.368    22632000.455
        47.100          42.900
 129606305.135 6 100992046.03343  24663227.244    24663225.8904   24663241.7134
        38.500          21.2004
 120690686.639 7  93870704.503 7  22609391.412    22609390.925    22609408.228
        44.900          43.200
 25  1  1 21  6 45.0000000  0 34E03E05G17G08S31S35G07G15E33S48S33R03
                                G30E04E31E12R01E06E10R20R10E26R11G21
                                E24R21E09R02G13G14G02R12G19R22
 151640487.088 5                  28856220.628
        35.500
 128391854.358 7                  24432160.887
        43.300
 113984890.808 7  88819570.19847  21690532.352    21690531.7184   21690535.3684
        47.000          44.8004
 121532576.147 7  94700842.04046  23126834.159    23126833.4174   23126839.3624
        43.700          40.2004
 198973587.249 7                  37863423.849
        45.100
 200891006.651 7                  38228296.392
        43.200
 109849176.525 8  85596800.68347  20903589.488    20903588.8134   20903591.7554
        48.100          47.6004
 130562428.351 6 101736968.88644  24845202.548    24845202.1014   24845204.9154
        37.600          27.7004
 132214122.820 7                  25159446.963
        44.700
 412974150.661 5                  78586270.600
        32.600
 202128654.556 7                  38463787.333
        44.700
 132283490.974 7 102887197.181 6  24711666.582    24711667.307    24711677.094
        43.400          36.200
 106579191.053 8  83048754.68448  20281338.047    20281337.1804   20281341.0864
        50.600          52.0004
 147225072.220 6                  28016059.802
        38.000
 124220464.580 7                  23638315.260
        47.700
 143176952.315 5                  27245621.528
        34.500
 124087060.543 6  96512158.827 5  23213072.642    23213072.534    23213089.215
        39.900          35.400
 139045807.747 7                  26459562.947
        42.500
 150302494.667 6                  28601604.717
        36.000
 113401207.215 6  88201118.438 7  21206533.680    21206533.353    21206543.063
        38.800          45.100
 114885571.843 7                  21552201.923    21552201.603
        45.500
 140585364.720 7                  26752430.451
        42.600
 105266217.466 8  81873887.655 8  19699086.597    19699086.884    19699092.511
        53.200          49.700
 114589335.003 7  89290552.24845  21805563.696    21805562.3644   21805565.1294
        42.800          30.8004
 132658871.046 7                  25244082.273
        46.000
 105300629.560 8  81900705.833 7  19677876.748    19677877.061    19677884.731
        52.100          47.600
 135320259.017 7                  25750600.033
        44.500
 122027114.837 7  94910076.247 7  22867808.150    22867808.320    22867815.646
        47.400          42.300
 119291768.675 7  92954635.66244  22700467.533    22700466.9614   22700468.4354
        43.500          26.8004
 110647165.768 7  86218731.73646  21055393.639    21055393.2464   21055394.9314
        47.600          38.0004
 114062872.832 7  88880317.35646  21705378.555    21705377.3124   21705379.0224
        46.600          37.2004
 120850307.259 7  93994729.878 7  22623424.892    22623424.715    22623433.050
        47.200          42.900
 129554688.330 6 100951825.59643  24653403.937    24653402.5604   24653418.9944
        39.100          21.6004
 120624517.661 7  93819240.037 7  22596996.308    22596995.949    22597011.370
        46.000          42.700
 25  1  1 21  7  0.0000000  0 34E03E05G17G08S31S35G07G15E33S48S33R03
                                G30E04E31E12R01E06E10R20R10E26R11G21
                                E24R21E09R02G13G14G02R12G19R22
 151608978.456 6                  28850224.667
        36.600
 128390687.251 7                  24431938.875
        43.700
 113948491.582 7  88791207.21747  21683605.559    21683604.9204   21683608.8074
        47.000          45.0004
 121583139.877 7  94740242.31746  23136456.193    23136455.4424   23136461.3824
        43.200          40.1004
 198973582.734 7                  37863418.515
        45.500
 200890999.747 7                  38228291.544
        43.000
 109875782.501 8  85617532.55747  20908652.635    20908651.9694   20908654.7774
        48.300          47.6004
 130541906.518 6 101720977.87244  24841296.813    24841296.3984   24841299.8784
        38.200          28.1004
 132193147.494 7                  25155455.178
        44.700
 412974634.978 5                  78586296.925
        33.000
 202128667.334 7                  38463789.873
        44.900
 132249065.651 7 102860421.913 5  24705235.876    24705236.483    24705246.400
        43.400          35.600
 106574947.025 8  83045447.63048  20280530.072    20280529.2054   20280533.4894
        50.500          52.1004
 147270097.469 6                  28024628.310
        38.000
 124226744.793 7                  23639510.345
        47.800
 143130790.781 5                  27236837.257
        35.000
 124134230.071 6  96548845.929 5  23221898.326    23221897.576    23221913.135
        40.000          35.200
 139088936.549 7                  26467770.096
        42.200
 150256344.468 5                  28592822.506
        35.300
 113440926.865 6  88232011.481 7  21213960.460    21213961.393    21213970.679
        38.800          45.300
 114918488.946 7                  21558376.586    21558376.641
        45.300
 140601433.586 7                  26755488.156
        42.800
 105255824.751 8  81865804.415 8  19697141.710    19697141.867    19697147.722
        53.600          49.600
 114602105.391 7  89300503.21245  21807993.468    21807992.1314   21807995.1974
        43.100          30.8004
 132637414.891 7                  25239998.936
        46.000
 105278301.495 8  81883339.575 7  19673703.778    19673704.492    19673712.229
        51.800          47.600
 135355151.732 7                  25757239.926
        44.600
 122034376.151 7  94915723.940 7  22869167.993    22869169.035    22869176.464
        46.600          42.500
 119279663.617 7  92945203.13744  22698164.187    22698163.6464   22698164.9194
        43.600          27.0004
 110623949.691 7  86200641.28946  21050975.686    21050975.2934   21050977.0394
        47.800          38.0004
 114052466.419 7  88872208.50446  21703398.015    21703396.7724   21703398.7324
        46.900          37.3004
 120804531.459 7  93959126.485 7  22614854.685    22614854.891    22614863.525
        47.100          43.100
 129503093.132 6 100911621.95543  24643585.005    24643583.6064   24643599.7854
        38.700          20.7004
 120558390.128 7  93767807.813 7  22584606.848    22584607.681    22584623.639
        46.200          42.900
 25  1  1 21  7 15.0000000  0 34E03E05G17G08S31S35G07G15E33S48S33R03
                                G30E04E31E12R01E06E10R20R10E26R11G21
                                E24R21E09R02G13G14G02R12G19R22
 151577538.441 5                  28844241.548
        35.300
 128389627.131 7                  24431736.926
        44.100
 113912184.045 7  88762915.68647  21676696.451    21676695.8124   21676699.7034
        46.800          45.0004
 121633729.908 7  94779663.09346  23146083.127    23146082.3764   23146088.3564
        44.000          40.3004
 198973578.093 7                  37863420.366
        45.200
 200890992.844 7                  38228296.369
        43.500
 109902505.286 8  85638355.45347  20913737.856    20913737.1904   20913739.9824
        48.500          47.7004
 130521517.310 6 101705090.20744  24837417.275    24837416.8644   24837419.8874
        37.400          27.6004
 132172269.047 7                  25151482.174
        44.600
 412975118.705 5                  78586307.201
        32.500
 202128680.440 7                  38463791.527
        44.400
 132214780.415 7 102833755.431 6  24698831.759    24698831.814    24698841.646
        42.400          36.700
 106570833.732 8  83042242.45148  20279747.823    20279746.9524   20279750.7634
        50.900          52.1004
 147315100.921 6                  28033192.332
        37.300
 124233052.207 7                  23640710.650
        47.800
 143084638.312 5                  27228054.405
        35.100
 124181472.404 6  96585589.707 5  23230734.762    23230734.803    23230750.984
        40.400          35.200
 139132084.040 7                  26475980.993
        42.200
 150210165.924 5                  28584035.360
        35.800
 113480806.575 6  88263029.012 7  21221418.591    21221419.196    21221428.192
        39.400          45.200
 114951476.886 7                  21564565.968    21564565.085
        46.100
 140617605.337 7                  26758565.362
        43.300
 105245512.363 8  81857783.674 8  19695211.892    19695212.103    19695217.770
        53.600          49.700
 114615029.613 7  89310574.04545  21810453.182    21810451.8284   21810454.6034
        42.900          30.8004
 132615977.496 7                  25235919.716
        46.100
 105256171.423 8  81866127.316 7  19669568.610    19669569.064    19669576.524
        52.300          47.600
 135390103.944 7                  25763891.024
        44.800
 122041817.943 7  94921511.987 7  22870562.581    22870562.853    22870571.436
        46.400          42.700
 119267706.398 7  92935885.81044  22695888.832    22695888.3184   22695889.7134
        44.100          26.9004
 110600778.263 7  86182585.63346  21046566.404    21046566.0074   21046567.6224
        47.700          38.1004
 114042200.597 7  88864209.19746  21701444.809    21701443.5624   21701445.2014
        46.700          37.3004
 120758754.584 7  93923522.285 7  22606285.357    22606285.590    22606293.799
        47.000          43.100
 129451523.272 6 100871438.07343  24633771.384    24633769.9854   24633786.0224
        38.600          21.8004
 120492308.116 7  93716410.981 7  22572228.718    22572228.347    22572243.312
        44.900          42.300
 25  1  1 21  7 30.0000000  0 33E03E05G17G08S31S35G07G15E33S48S33G30
                                E04E31E12R01E06E10R20R10E26R11G21E24
                                R21E09R02G13G14G02R12G19R22
 151546165.916 5                  28838272.000
        35.500
 128388672.762 7                  24431555.728
        43.900
 113875967.057 7  88734694.71047  21669804.803    21669804.1644   21669807.8284
        47.000          44.9004
 121684344.738 7  94819103.18046  23155714.929    23155714.1744   23155720.1064
        43.600          39.9004
 198973572.341 7                  37863420.192
        45.300
 200890985.573 7                  38228300.429
        43.700
 109929343.551 8  85659268.34047  20918845.087    20918844.4174   20918847.1924
        48.200          47.6004
 130501259.472 6 101689304.88744  24833562.829    24833562.4004   24833564.8484
        36.900          27.0004
 132151486.386 7                  25147527.591
        45.100
 412975600.594 5                  78586340.013
        33.100
 202128692.288 7                  38463795.869
        44.700
 106566850.051 8  83039138.27048  20278989.460    20278988.5894   20278992.7114
        50.600          51.9004
 147360081.074 6                  28041752.125
        38.100
 124239385.602 8                  23641916.015
        48.000
 143038494.014 5                  27219274.256
        35.300
 124228785.746 6  96622388.697 5  23239587.827    23239586.765    23239601.358
        40.400          34.700
 139175248.687 7                  26484195.034
        42.600
 150163958.004 6                  28575241.501
        37.400
 113520844.323 6  88294169.469 7  21228906.442    21228906.289    21228915.553
        38.900          45.200
 114984534.307 7                  21570767.331    21570766.948
        45.900
 140633878.645 7                  26761662.223
        43.000
 105235279.228 8  81849824.560 8  19693296.591    19693297.113    19693302.793
        53.400          49.700
 114628106.348 7  89320763.71845  21812941.476    21812940.1134   21812942.9894
        42.800          30.5004
 132594557.636 7                  25231843.519
        46.400
 105234238.250 8  81849068.212 7  19665469.776    19665470.361    19665477.794
        52.100          47.600
 135425114.133 7                  25770553.410
        44.900
 122049439.061 7  94927439.493 7  22871991.139    22871991.626    22871999.109
        46.200          42.400
 119255895.854 7  92926682.77544  22693641.023    22693640.5004   22693642.3964
        44.300          26.6004
 110577650.325 8  86164563.86846  21042165.000    21042164.6074   21042166.5484
        48.100          37.8004
 114032074.284 7  88856318.58846  21699517.898    21699516.6554   21699518.2184
        47.000          37.2004
 120712975.461 7  93887916.324 7  22597715.759    22597716.168    22597724.239
        47.400          43.400
 129399977.583 6 100831273.03043  24623962.243    24623960.8304   24623977.0214
        38.500          20.9004
 120426270.872 7  93665048.980 7  22559857.988    22559857.438    22559873.069
        45.600          42.900
 25  1  1 21  7 45.0000000  0 34E03E05G17G08S31S35G07G15E33S48S33R03
                                G30E04E31E12R01E06E10R20R10E26R11G21
                                E24R21E09R02G13G14G02R12G19R22
 151514865.297 5                  28832315.293
        35.700
 128387828.203 7                  24431394.979
        44.200
 113839844.726 7  88706547.49347  21662930.705    21662930.0714   21662933.9164
        47.400          44.8004
 121734988.205 7  94858565.58646  23165352.298    23165351.5434   23165357.2134
        43.800          39.6004
 198973569.889 7                  37863417.433
        45.200
 200890980.311 7                  38228290.739
        43.300
 109956301.328 8  85680274.34647  20923975.224    20923974.5764   20923977.1584
        48.300          47.3004
 130481137.456 6 101673625.43244  24829733.309    24829732.8764   24829735.8474
        38.500          27.6004
 132130803.777 7                  25143591.434
        45.200
 412974484.969 5                  78586352.932
        32.700
 202128707.129 7                  38463794.000
        44.400
 132146626.229 7 102780758.768 6  24686100.576    24686101.663    24686111.482
        42.300          36.700
 106563000.147 8  83036138.32848  20278256.995    20278256.1244   20278260.1254
        50.800          51.5004
 147405041.829 6                  28050307.799
        38.300
 124245749.003 8                  23643126.831
        48.000
 142992362.137 5                  27210494.383
        35.800
 124276173.711 6  96659245.702 5  23248450.335    23248450.482    23248467.839
        39.000          34.800
 139218434.343 7                  26492413.312
        42.400
 150117724.973 6                  28566443.292
        36.800
 113561043.666 6  88325435.609 7  21236423.055    21236423.637    21236433.347
        38.900          45.300
 115017665.766 7                  21576982.586    21576982.025
        45.600
 140650257.467 7                  26764778.971
        42.900
 105225129.653 8  81841930.412 8  19691397.776    19691397.818    19691403.502
        53.300          49.700
 114641339.549 7  89331075.30445  21815459.689    21815458.3354   21815461.0274
        42.500          30.2004
 132573159.332 7                  25227771.980
        46.200
 105212506.422 8  81832165.676 7  19661408.829    19661409.023    19661416.636
        52.100          47.400
 135460186.151 7                  25777227.178
        45.200
 122057243.420 7  94933509.534 7  22873454.090    22873454.101    22873461.602
        47.000          42.400
 119244236.257 7  92917597.35644  22691422.372    22691421.8404   22691423.6764
        43.600          26.5004
 110554569.988 8  86146579.19146  21037772.976    21037772.5744   21037774.5294
        48.100          37.6004
 114022091.747 7  88848540.00146  21697618.058    21697616.8244   21697618.5034
        46.700          37.0004
 120667198.293 7  93852311.898 7  22589145.989    22589145.950    22589154.683
        47.000          42.800
 129348460.582 6 100791130.35143  24614158.863    24614157.4554   24614173.2134
        39.600          21.0004
 120360282.917 7  93613725.307 7  22547495.363    22547494.819    22547510.875
        45.000          42.900
 25  1  1 21  8  0.0000000  0 34E03E05G17G08S31S35G07G15E33S48S33R03
                                G30E04E31E12R01E06E10R20R10E26R11G21
                                E24R21E09R02G13G14G02R12G19R22
 151483628.876 5                  28826371.162
        35.500
 128387085.539 7                  24431253.562
        44.100
 113803809.258 7  88678467.95447  21656073.282    21656072.6524   21656076.5664
        46.900          45.0004
 121785652.080 7  94898043.88746  23174993.296    23174992.5324   23174998.3754
        43.400          39.7004
 198973561.809 7                  37863417.044
        45.600
 200890970.479 7                  38228295.014
        43.700
 109983370.588 8  85701367.22647  20929126.261    20929125.6184   20929128.2884
        48.900          47.4004
 130461143.327 6 101658045.62044  24825928.692    24825928.2684   24825931.2654
        39.100          28.2004
 132110213.450 7                  25139673.398
        45.300
 412974962.918 5                  78586376.171
        32.900
 202128716.917 7                  38463796.397
        44.700
 132112760.916 6 102754419.051 6  24679774.869    24679775.923    24679785.304
        40.100          36.200
 106559276.288 8  83033236.60248  20277548.379    20277547.5084   20277551.5204
        50.500          51.6004
 147449975.048 6                  28058858.371
        38.300
 124252134.555 8                  23644341.974
        48.200
 142946235.102 5                  27201716.628
        35.100
 124323627.781 6  96696154.135 5  23257328.584    23257328.683    23257343.598
        40.000          34.300
 139261632.881 6                  26500633.812
        41.800
 150071459.197 6                  28557638.860
        36.300
 113601396.136 6  88356820.842 7  21243969.271    21243969.576    21243979.448
        38.400          45.200
 115050862.616 7                  21583209.920    21583209.542
        45.300
 140666733.800 7                  26767914.444
        42.700
 105215055.833 8  81834095.213 8  19689512.345    19689512.403    19689518.320
        53.100          49.800
 114654721.240 7  89341502.60345  21818005.848    21818004.4984   21818007.5454
        42.800          30.2004
 132551774.702 7                  25223702.311
        46.500
 105190968.082 8  81815413.649 7  19657384.058    19657384.187    19657391.567
        52.300          47.700
 135495311.850 7                  25783911.530
        44.900
 122065222.804 7  94939715.705 7  22874949.269    22874949.788    22874956.980
        47.100          42.500
 119232719.731 7  92908623.43344  22689231.068    22689230.5594   22689232.0484
        44.500          26.7004
 110531529.418 8  86128625.50446  21033388.680    21033388.2744   21033390.0764
        48.000          37.7004
 114012245.068 7  88840867.27846  21695744.290    21695743.0564   21695744.7774
        47.800          37.0004
 120621415.342 7  93816702.932 7  22580575.549    22580575.182    22580583.879
        46.900          43.400
 129296964.473 6 100751003.96143  24604359.093    24604357.6674   24604373.3214
        39.800          21.2004
 120294336.850 7  93562434.195 7  22535141.004    22535141.443    22535156.028
        45.800          42.800
 25  1  1 21  8 15.0000000  0 34E03E05G17G08S31S35G07G15E33S48S33R03
                                G30E04E31E12R01E06E10R20R10E26R11G21
                                E24R21E09R02G13G14G02R12G19R22
 151452464.768 5                  28820440.912
        35.300
 128386452.759 7                  24431133.152
        44.200
 113767868.833 7  88650462.47847  21649234.185    21649233.5734   21649237.3364
        47.400          45.0004
 121836344.141 7  94937544.14846  23184639.638    23184638.8564   23184644.9044
        43.800          39.6004
 198973557.032 7                  37863415.912
        45.500
 200890963.771 7                  38228294.710
        43.700
 110010559.331 8  85722553.21147  20934299.874    20934299.2264   20934302.1664
        48.500          47.4004
 130441284.992 6 101642571.62044  24822149.697    24822149.2734   24822152.1724
        39.100          28.2004
 132089723.606 7                  25135774.325
        44.900
 412975444.931 5                  78586399.347
        32.800
 202128729.089 7                  38463803.950
        44.900
 132079039.843 6 102728191.297 5  24673475.343    24673475.483    24673486.406
        36.900          33.900
 106555686.609 8  83030439.43348  20276865.522    20276864.6594   20276868.4354
        50.700          51.6004
 147494888.519 6                  28067405.139
        38.300
 124258550.277 8                  23645562.700
        48.200
 142900121.124 6                  27192941.029
        36.400
 124371155.186 6  96733119.627 5  23266219.807    23266219.516    23266235.652
        40.100          34.600
 139304851.992 7                  26508858.391
        42.600
 150025168.815 6                  28548829.983
        36.400
 113641909.591 6  88388331.288 7  21251546.596    21251546.043    21251555.570
        38.800          45.000
 115084133.521 7                  21589451.941    21589451.333
        45.300
 140683315.533 7                  26771070.088
        43.200
 105205066.017 8  81826325.344 8  19687642.939    19687643.068    19687648.913
        53.000          49.800
 114668259.479 7  89352051.88945  21820582.210    21820580.8694   21820583.7094
        42.400          30.2004
 132530411.782 7                  25219637.065
        46.700
 105169631.576 8  81798818.611 7  19653396.527    19653396.770    19653404.543
        51.800          47.500
 135530499.004 7                  25790607.727
        44.800
 122073385.012 7  94946064.070 7  22876478.648    22876478.577    22876486.874
        46.800          42.300
 119221354.295 7  92899767.22544  22687067.935    22687067.4174   22687069.3664
        44.200          26.8004
 110508536.706 7  86110709.10946  21029013.335    21029012.9294   21029014.6884
        47.700          37.7004
 114002542.304 7  88833306.69846  21693897.889    21693896.6424   21693898.3774
        47.100          37.0004
 120575634.776 7  93781095.858 7  22572004.718    22572005.773    22572013.348
        47.900          43.100
 129245497.469 6 100710900.24943  24594565.024    24594563.5984   24594579.4484
        38.900          21.5004
 120228441.242 7  93511182.354 7  22522796.688    22522796.885    22522811.550
        45.700          42.900
 25  1  1 21  8 30.0000000  0 34E03E05G17G08S31S35G07G15E33S48S33R03
                                G30E04E31E12R01E06E10R20R10E26R11G21
                                E24R21E09R02G13G14G02R12G19R22
 151421373.129 6                  28814524.477
        36.000
 128385929.711 7                  24431033.754
        43.800
 113732023.463 7  88622531.07047  21642412.835    21642412.2234   21642416.1484
        47.900          45.0004
 121887063.918 7  94977066.00946  23194290.915    23194290.1244   23194296.3694
        44.600          39.4004
 198973554.728 7                  37863414.651
        45.500
 200890959.849 7                  38228294.357
        43.700
 110037867.321 8  85743832.11347  20939496.940    20939496.2974   20939498.7374
        49.000          47.3004
 130421562.823 6 101627203.72844  24818396.767    24818396.3654   24818398.8264
        39.600          28.3004
 132069334.249 7                  25131894.282
        44.800
 412975928.960 5                  78586418.978
        32.500
 202128744.514 7                  38463802.590
        44.400
 132045463.523 6 102702075.948 5  24667204.787    24667204.211    24667213.668
        37.700          35.400
 106552231.064 8  83027746.77948  20276207.877    20276207.0144   20276210.8834
        50.900          51.5004
 147539781.895 6                  28075948.199
        37.200
 124264995.982 8                  23646789.343
        48.000
 142854020.274 5                  27184168.557
        35.400
 124418755.489 6  96770141.777 5  23275124.570    23275124.771    23275140.866
        40.500          34.900
 139348091.331 7                  26517086.318
        42.400
 149978853.945 6                  28540016.940
        37.100
 113682583.218 6  88419966.321 7  21259151.222    21259151.665    21259161.541
        38.400          45.200
 115117478.232 7                  21595707.523    21595706.596
        45.300
 140700002.426 7                  26774245.338
        42.800
 105195160.397 8  81818620.947 8  19685789.487    19685789.334    19685795.144
        53.000          49.800
 114681953.754 7  89362722.75745  21823188.535    21823187.1904   21823189.7574
        43.300          30.1004
 132509070.352 7                  25215576.012
        46.400
 105148496.969 8  81782380.590 7  19649447.261    19649447.469    19649454.867
        51.900          47.600
 135565747.194 7                  25797315.178
        44.800
 122081729.545 7  94952554.254 6  22878042.911    22878042.599    22878049.872
        46.000          41.900
 119210139.809 7  92891028.64944  22684934.314    22684933.8004   22684935.1904
        45.100          26.5004
 110485591.742 8  86092829.91846  21024647.057    21024646.6464   21024648.3944
        48.300          37.6004
 113992983.551 7  88825858.34146  21692078.976    21692077.7384   21692079.4244
        47.500          37.0004
 120529856.630 7  93745490.674 7  22563435.114    22563435.332    22563444.065
        47.000          43.100
 129194059.445 6 100670819.13543  24584775.986    24584774.5874   24584790.6864
        39.500          21.3004
 120162596.450 7  93459970.029 7  22510461.332    22510461.391    22510475.721
        45.800          42.500
 25  1  1 21  8 45.0000000  0 34E03E05G17G08S31S35G07G15E33S48S33R03
                                G30E04E31E12R01E06E10R20R10E26R11G21
                                E24R21E09R02G13G14G02R12G19R22
 151390347.462 5                  28808620.145
        35.900
 128385509.807 7                  24430953.743
        44.000
 113696266.730 7  88594668.73447  21635608.524    21635607.9124   21635611.7794
        47.500          45.0004
 121937804.657 7  95016604.20046  23203946.601    23203945.8104   23203952.0604
        43.500          39.3004
 198973549.282 7                  37863409.464
        45.400
 200890952.160 7                  38228291.857
        43.700
 110065287.664 8  85765198.55847  20944714.735    20944714.1054   20944716.6734
        48.800          47.2004
 130401970.301 6 101611936.88344  24814667.883    24814667.4904   24814670.9954
        40.200          28.7004
 132049038.984 7                  25128032.281
        45.100
 412974808.200 5                  78586442.208
        33.000
 202128756.376 7                  38463808.278
        44.900
 132012026.842 6 102676069.765 5  24660956.361    24660957.632    24660967.214
        39.000          33.300
 106548903.237 8  83025153.64948  20275574.207    20275573.3444   20275577.6434
        50.700          51.4004
 147584648.410 6                  28084486.459
        38.300
 124271465.135 7                  23648020.424
        47.800
 142807926.357 5                  27175396.893
        35.500
 124466421.495 6  96807215.049 5  23284041.493    23284042.125    23284057.290
        39.700          34.300
 139391344.104 7                  26525317.155
        42.000
 149932508.255 6                  28531197.254
        36.400
 113723409.818 6  88451720.338 7  21266787.002    21266786.781    21266796.434
        38.400          45.100
 115150889.843 7                  21601975.007    21601974.894
        45.400
 140716787.807 7                  26777439.480
        42.700
 105185332.461 8  81810976.992 8  19683950.098    19683950.214    19683956.055
        53.100          49.800
 114695797.436 7  89373510.05345  21825822.360    21825821.0104   21825824.1604
        42.600          30.0004
 132487743.887 7                  25211517.490
        46.200
 105127557.727 8  81766094.537 7  19645533.995    19645534.348    19645541.777
        52.000          47.300
 135601049.642 7                  25804032.894
        44.800
 122090249.970 7  94959181.196 7  22879639.324    22879639.201    22879647.480
        46.400          42.300
 119199069.830 7  92882402.68544  22682827.444    22682826.9174   22682828.7304
        44.600          26.6004
 110462688.035 7  86074982.87746  21020288.538    21020288.1234   21020289.9894
        47.800          37.5004
 113983562.445 7  88818517.23546  21690286.018    21690284.7714   21690286.5854
        47.200          37.0004
 120484074.392 7  93709882.274 7  22554864.555    22554864.855    22554872.975
        46.800          42.900
 129142644.172 6 100630755.70943  24574991.804    24574990.4004   24575005.0634
        39.300          20.8004
 120096796.287 7  93408792.434 7  22498133.929    22498133.995    22498149.622
        44.900          42.700
 25  1  1 21  9  0.0000000  0 34E03E05G17G08S31S35G07G15E33S48S33R03
                                G30E04E31E12R01E06E10R20R10E26R11G21
                                E24R21E09R02G13G14G02R12G19R22
 151359392.264 6                  28802729.666
        36.300
 128385197.411 7                  24430893.893
        43.700
 113660603.161 7  88566878.98647  21628822.114    21628821.5024   21628825.1614
        47.700          45.2004
 121988570.404 7  95056161.86746  23213607.466    23213606.6754   23213612.8534
        43.700          39.4004
 198973544.271 7                  37863411.369
        45.400
 200890945.609 7                  38228290.288
        43.800
 110092824.623 8  85786655.87347  20949954.686    20949954.0524   20949956.8434
        48.700          47.3004
 130382511.922 6 101596774.51744  24810965.635    24810965.2294   24810968.2194
        38.300          27.5004
 132028842.370 7                  25124188.827
        44.900
 412975288.353 5                  78586459.097
        32.400
 202128768.682 7                  38463809.758
        44.900
 131978733.199 6 102650174.659 5  24654737.960    24654738.168    24654747.741
        40.500          32.000
 106545707.628 8  83022663.54748  20274966.576    20274965.7184   20274969.5524
        50.900          51.4004
 147629492.150 6                  28093019.763
        37.500
 124277962.123 8                  23649256.819
        48.200
 142761843.872 5                  27166628.147
        34.800
 124514156.928 6  96844342.366 5  23292971.474    23292972.532    23292989.088
        39.700          35.900
 139434614.373 7                  26533551.593
        42.300
 149886136.313 6                  28522373.091
        36.900
 113764393.580 6  88483596.575 7  21274450.795    21274450.713    21274460.876
        38.100          45.200
 115184372.944 7                  21608257.055    21608255.865
        45.400
 140733675.909 7                  26780653.362
        42.700
 105175586.838 8  81803397.061 8  19682126.296    19682126.602    19682132.183
        53.400          49.800
 114709794.864 7  89384417.14445  21828485.991    21828484.6464   21828487.7984
        43.300          30.0004
 132466436.729 7                  25207463.193
        46.700
 105106818.708 8  81749964.207 7  19641658.386    19641658.806    19641666.382
        51.800          47.300
 135636410.466 7                  25810762.075
        45.200
 122098950.441 7  94965948.219 7  22881268.961    22881269.796    22881277.346
        46.800          42.100
 119188148.717 7  92873892.70244  22680749.049    22680748.5084   22680750.8034
        44.300          26.6004
 110439830.008 7  86057171.42946  21015938.898    21015938.4874   21015940.2364
        47.800          37.6004
 113974283.474 7  88811286.89046  21688520.434    21688519.1874   21688520.8664
        47.400          37.0004
 120438292.609 7  93674274.241 7  22546294.615    22546294.865    22546302.498
        47.200          43.100
 129091256.245 6 100590713.60843  24565212.880    24565211.4904   24565226.4794
        40.800          21.5004
 120031045.745 7  93357653.402 7  22485817.484    22485817.658    22485831.688
        46.100          42.400
 25  1  1 21  9 15.0000000  0 34E03E05G17G08S31S35G07G15E33S48S33R03
                                G30E04E31E12R01E06E10R20R10E26R11G21
                                E24R21E09R02G13G14G02R12G19R22
 151328509.850 5                  28796852.591
        35.700
 128384994.417 7                  24430855.941
        43.900
 113625034.901 7  88539163.50347  21622053.529    21622052.9354   21622056.8024
        47.300          45.2004
 122039362.853 7  95095740.34146  23223272.856    23223272.0784   23223278.1134
        43.200          39.1004
 198973541.654 7                  37863414.414
        45.500
 200890941.217 7                  38228287.381
        43.600
 110120480.208 8  85808205.61247  20955217.788    20955217.1584   20955219.6124
        48.900          47.2004
 130363189.647 6 101581718.19844  24807288.394    24807287.9974   24807291.4544
        39.200          27.8004
 132008746.494 7                  25120364.916
        45.200
 412975768.344 5                  78586476.988
        32.400
 202128783.829 7                  38463812.383
        44.700
 131945584.473 6 102624391.903 5  24648546.216    24648546.169    24648555.000
        40.500          32.100
 106542646.275 8  83020278.05548  20274383.799    20274382.9364   20274387.0074
        50.600          51.4004
 147674314.936 6                  28101549.396
        37.700
 124284488.843 8                  23650498.983
        48.300
 142715775.131 6                  27157861.646
        36.400
 124561963.341 6  96881524.821 5  23301915.334    23301915.594    23301931.403
        39.900          34.200
 139477903.880 7                  26541789.250
        42.800
 149839740.274 6                  28513543.735
        36.200
 113805535.719 6  88515595.985 7  21282144.596    21282145.021    21282154.588
        38.600          45.200
 115217929.573 7                  21614551.473    21614551.628
        45.300
 140750668.583 7                  26783886.577
        43.100
 105165925.749 8  81795882.891 8  19680318.253    19680318.631    19680324.244
        52.900          49.900
 114723947.595 7  89395445.24845  21831179.076    21831177.7314   21831180.9994
        42.400          30.0004
 132445150.797 7                  25203412.544
        46.600
 105086282.070 8  81733991.283 7  19637820.562    19637821.090    19637828.635
        51.700          47.500
 135671831.357 7                  25817502.521
        45.000
 122107832.534 7  94972856.501 7  22882933.545    22882933.834    22882942.283
        45.400          42.100
 119177378.604 7  92865500.39044  22678700.409    22678699.8774   22678701.4544
        44.700          26.5004
 110417019.648 7  86039397.12146  21011598.395    21011597.9844   21011599.5564
        47.600          37.4004
 113965148.569 7  88804168.80046  21686782.206    21686780.9684   21686782.5954
        47.000          36.9004
 120392513.416 7  93638668.216 7  22537724.238    22537724.647    22537733.094
        47.800          43.600
 129039897.754 6 100550694.48843  24555438.762    24555437.3544   24555453.1224
        40.000          22.1004
 119965347.205 7  93306554.821 7  22473508.723    22473509.347    22473523.811
        46.100          42.900
 25  1  1 21  9 30.0000000  0 34E03E05G17G08S31S35G07G15E33S48S33R03
                                G30E04E31E12R01E06E10R20R10E26R11G21
                                E24R21E09R02G13G14G02R12G19R22
 151297698.227 5                  28790989.396
        35.400
 128384898.851 7                  24430837.764
        44.100
 113589559.690 7  88511520.52547  21615302.986    21615302.3924   21615306.0784
        47.200          45.2004
 122090179.690 7  95135337.81446  23232943.272    23232942.4994   23232948.2614
        43.000          39.0004
 198973540.229 7                  37863417.759
        45.300
 200890937.514 7                  38228282.078
        43.200
 110148252.200 8  85829846.06047  20960502.452    20960501.8224   20960504.4884
        48.700          47.2004
 130344001.735 6 101566766.59444  24803637.192    24803636.7994   24803639.8654
        37.400          27.6004
 131988749.497 7                  25116559.357
        44.900
 412976248.673 5                  78586509.282
        33.100
 202128799.447 7                  38463813.282
        44.500
 131912580.185 6 102598721.717 5  24642379.986    24642380.893    24642391.164
        41.400          33.800
 106539717.292 8  83017995.71448  20273826.598    20273825.7354   20273829.6684
        50.300          51.4004
 147719114.506 6                  28110074.282
        38.000
 124291043.316 8                  23651745.880
        48.200
 142669718.279 5                  27149096.546
        35.800
 124609837.998 6  96918760.395 5  23310871.505    23310871.717    23310887.093
        40.300          33.800
 139521210.354 7                  26550030.180
        42.300
 149793318.337 6                  28504710.636
        37.700
 113846833.872 6  88547716.730 7  21289867.744    21289867.759    21289877.635
        38.600          45.000
 115251557.857 7                  21620860.181    21620860.086
        45.300
 140767763.711 7                  26787139.778
        42.800
 105156347.348 8  81788433.018 8  19678525.594    19678526.015    19678531.915
        52.700          49.800
 114738253.594 7  89406592.78545  21833902.071    21833900.7304   21833903.4304
        42.700          30.0004
 132423884.118 7                  25199365.374
        46.900
 105065945.802 8  81718174.207 7  19634020.088    19634020.599    19634028.136
        51.500          47.600
 135707310.066 7                  25824253.890
        44.600
 122116894.096 7  94979904.377 7  22884631.674    22884632.076    22884640.266
        46.200          42.200
 119166757.458 7  92857224.15544  22676678.779    22676678.2614   22676680.3074
        44.200          26.6004
 110394255.023 7  86021658.45146  21007266.323    21007265.9174   21007267.6184
        47.600          37.5004
 113956155.930 7  88797161.56946  21685071.085    21685069.8474   21685071.2964
        47.000          37.0004
 120346734.913 7  93603062.760 7  22529153.855    22529154.438    22529163.234
        47.700          43.500
 128988566.770 6 100510696.80043  24545670.210    24545668.7664   24545684.0574
        39.400          21.6004
 119899699.142 7  93255495.510 7  22461211.481    22461211.285    22461225.646
        46.200          42.500
 25  1  1 21  9 45.0000000  0 34E03E05G17G08S31S35G07G15E33S48S33R03
                                G30E04E31E12R01E06E10R20R10E26R11G21
                                E24R21E09R02G13G14G02R12G19R22
 151266951.966 5                  28785138.167
        34.900
 128384904.918 7                  24430838.596
        44.000
 113554171.987 7  88483945.74047  21608568.808    21608568.2144   21608571.9444
        47.800          45.5004
 122141014.971 7  95174949.65546  23242616.697    23242615.9244   23242622.0754
        43.500          39.0004
 198973533.471 7                  37863415.250
        45.600
 200890928.866 7                  38228285.123
        43.600
 110176134.839 8  85851572.73347  20965808.437    20965807.8074   20965810.4224
        48.700          47.3004
 130324942.519 6 101551915.27844  24800010.643    24800010.2464   24800012.5924
        37.800          27.7004
 131968845.800 7                  25112772.031
        45.500
 412975124.876 5                  78586524.222
        33.000
 202128809.905 7                  38463815.746
        44.600
 131879713.698 7 102573158.294 5  24636241.336    24636241.793    24636250.830
        42.300          34.000
 106536915.091 8  83015812.16048  20273293.296    20273292.4334   20273296.4414
        50.300          51.5004
 147763884.913 6                  28118593.591
        38.000
 124297619.827 8                  23652997.560
        48.300
 142623667.965 6                  27140333.461
        36.300
 124657774.372 6  96956043.993 5  23319837.751    23319839.221    23319855.093
        39.700          34.300
 139564527.834 7                  26558273.644
        42.400
 149746865.010 6                  28495869.448
        37.400
 113888281.973 6  88579954.117 7  21297618.610    21297619.245    21297628.714
        38.800          45.200
 115285251.890 7                  21627181.495    21627180.912
        45.100
 140784955.430 7                  26790411.528
        43.300
 105146846.033 8  81781043.095 8  19676747.818    19676748.228    19676753.886
        53.300          49.800
 114752707.255 7  89417855.37345  21836651.878    21836650.5504   21836653.6704
        42.600          30.1004
 132402630.931 7                  25195321.283
        46.700
 105045804.440 8  81702508.724 7  19630256.525    19630256.768    19630264.367
        51.700          47.400
 135742840.643 7                  25831015.129
        45.100
 122126129.158 7  94987087.149 7  22886363.363    22886362.965    22886371.249
        46.300          42.500
 119156279.555 7  92849059.53544  22674685.043    22674684.5204   22674686.4374
        43.700          26.8004
 110371530.478 7  86003951.01246  21002941.873    21002941.4624   21002943.3044
        47.400          37.7004
 113947299.940 7  88790260.81446  21683385.498    21683384.2514   21683386.0174
        46.800          37.1004
 120300951.393 7  93567453.367 7  22520583.578    22520583.943    22520592.148
        47.800          43.100
 128937257.770 6 100470716.26543  24535906.475    24535905.0274   24535920.1404
        38.700          21.6004
 119834096.221 7  93204471.333 7  22448920.567    22448921.111    22448935.521
        46.100          42.700
 25  1  1 21 10  0.0000000  0 34E03E05G17G08S31S35G07G15E33S48S33R03
                                G30E04E31E12R01E06E10R20R10E26R11G21
                                E24R21E09R02G13G14G02R12G19R22
 151236276.394 5                  28779300.945
        34.600
 128385017.783 7                  24430860.155
        43.100
 113518877.150 7  88456443.31247  21601852.255    21601851.6474   21601855.4824
        46.800          45.5004
 122191873.575 7  95214579.67246  23252294.767    23252293.9894   23252300.2764
        43.000          39.0004
 198973526.432 7                  37863411.950
        45.500
 200890920.504 7                  38228284.367
        43.500
 110204133.254 8  85873389.61647  20971136.367    20971135.7374   20971138.4144
        48.400          47.3004
 130306017.315 6 101537168.40644  24796408.689    24796408.2874   24796411.4964
        38.100          27.7004
 131949040.743 7                  25109002.820
        44.800
 412975601.399 5                  78586550.233
        32.400
 202128820.228 7                  38463817.592
        44.600
 131846992.277 6 102547708.283 6  24630127.697    24630128.585    24630138.636
        41.900          36.200
 106534244.942 8  83013731.50548  20272785.190    20272784.3274   20272788.3534
        50.200          51.5004
 147808631.059 6                  28127108.704
        37.400
 124304223.528 7                  23654254.151
        47.600
 142577629.451 5                  27131572.176
        35.900
 124705777.501 6  96993379.443 5  23328819.049    23328819.795    23328834.800
        40.900          34.200
 139607861.183 7                  26566519.651
        42.100
 149700385.628 6                  28487025.551
        36.000
 113929884.832 6  88612311.857 7  21305399.667    21305397.874    21305408.425
        38.100          45.200
 115319016.582 7                  21633515.910    21633515.055
        45.500
 140802248.778 7                  26793702.088
        42.100
 105137427.170 8  81773717.295 8  19674985.453    19674985.608    19674991.338
        53.300          49.900
 114767313.706 7  89429237.02245  21839431.630    21839430.2804   21839433.2484
        42.800          30.0004
 132381396.426 7                  25191280.686
        46.400
 105025863.128 8  81686998.821 7  19626529.916    19626530.426    19626537.703
        52.300          47.200
 135778427.973 7                  25837787.325
        44.400
 122135542.536 7  94994408.624 7  22888126.914    22888127.382    22888135.532
        46.100          42.900
 119145950.180 7  92841010.65144  22672719.206    22672718.6484   22672720.8964
        45.000          26.9004
 110348851.226 7  85986278.86946  20998626.241    20998625.8304   20998627.5934
        47.200          37.6004
 113938585.802 7  88783470.60146  21681727.229    21681725.9824   21681727.7974
        46.900          37.2004
 120255168.275 8  93531844.278 7  22512012.668    22512013.036    22512020.920
        48.400          42.800
 128885975.931 6 100430756.87243  24526148.265    24526146.8304   24526161.1864
        39.100          21.6004
 119768544.218 7  93153486.712 7  22436640.269    22436640.171    22436655.135
        45.300          42.500
 25  1  1 21 10 15.0000000  0 34E03E05G17G08S31S35G07G15E33S48S33R03
                                G30E04E31E12R01E06E10R20R10E26R11G21
                                E24R21E09R02G13G14G02R12G19R22
 151205678.676 5                  28773478.636
        35.000
 128385244.384 7                  24430903.344
        43.400
 113483682.316 7  88429018.81647  21595154.723    21595154.1154   21595158.1184
        47.100          45.6004
 122242762.232 7  95254233.11046  23261978.767    23261977.9854   23261983.9644
        42.600          39.1004
 198973526.120 7                  37863411.991
        45.600
 200890918.545 7                  38228280.714
        43.400
 110232254.322 8  85895302.07647  20976487.631    20976487.0014   20976489.7304
        48.500          47.3004
 130287233.231 6 101522531.48144  24792834.149    24792833.7524   24792837.1624
        38.800          27.9004
 131929341.444 7                  25105254.390
        45.000
 412976082.301 5                  78586562.584
        32.600
 202128837.764 7                  38463818.406
        44.600
 131814421.685 6 102522375.364 5  24624045.179    24624044.419    24624054.609
        36.900          34.100
 106531713.929 8  83011759.27248  20272303.707    20272302.8444   20272306.7464
        50.300          51.6004
 147853359.759 6                  28135620.667
        37.800
 124310861.373 7                  23655517.495
        47.800
 142531610.045 5                  27122815.409
        35.400
 124753853.737 6  97030771.813 5  23337812.168    23337813.288    23337829.969
        40.000          34.700
 139651217.130 7                  26574770.295
        42.000
 149653887.405 6                  28478176.841
        37.100
 113971648.049 6  88644794.336 7  21313208.046    21313208.596    21313218.633
        38.200          45.200
 115352859.440 7                  21639864.978    21639864.244
        45.700
 140819650.646 7                  26797013.486
        42.300
 105128098.139 8  81766461.377 8  19673239.364    19673239.605    19673245.433
        52.900          49.800
 114782079.538 7  89440742.85845  21842241.604    21842240.2544   21842243.0194
        42.000          30.1004
 132360187.484 7                  25187244.639
        46.600
 105006129.508 8  81671650.463 7  19622842.119    19622842.710    19622849.916
        52.100          47.400
 135814078.753 7                  25844571.631
        44.700
 122145141.435 7  95001874.409 7  22889925.595    22889926.285    22889934.215
        46.400          42.100
 119135776.268 7  92833082.90444  22670783.531    22670782.9684   22670784.7014
        44.300          27.0004
 110326224.282 7  85968647.48246  20994320.413    20994319.9984   20994321.8374
        47.300          37.8004
 113930020.609 7  88776796.45046  21680097.565    21680096.3184   21680097.8814
        47.100          37.3004
 120209392.688 7  93496241.083 7  22503443.548    22503443.798    22503451.703
        47.000          42.900
 128834728.525 6 100390824.28643  24516395.293    24516393.8404   24516408.8544
        39.100          22.5004
 119703050.658 7  93102547.578 7  22424371.589    22424371.715    22424385.490
        45.800          42.600
 25  1  1 21 10 30.0000000  0 34E03E05G17G08S31S35G07G15E33S48S33R03
                                G30E04E31E12R01E06E10R20R10E26R11G21
                                E24R21E09R02G13G14G02R12G19R22
 151175144.071 5                  28767668.139
        35.400
 128385569.840 7                  24430965.042
        42.900
 113448572.860 7  88401660.84547  21588473.800    21588473.1794   21588476.9334
        47.000          45.5004
 122293665.772 7  95293898.14546  23271665.375    23271664.5934   23271670.6524
        43.200          38.9004
 198973518.636 7                  37863412.031
        45.300
 200890909.254 7                  38228279.310
        42.900
 110260482.947 8  85917298.35047  20981859.490    20981858.8694   20981861.5174
        48.300          47.2004
 130268575.464 6 101507992.99544  24789284.012    24789283.6064   24789286.3904
        38.400          27.3004
 131909733.186 7                  25101522.855
        44.900
 412976555.603 5                  78586590.469
        32.500
 202128847.293 7                  38463817.548
        44.100
 131781988.958 6 102497150.236 5  24617986.339    24617985.652    24617995.458
        38.600          34.300
 106529307.320 8  83009883.97648  20271845.471    20271844.6044   20271848.7984
        50.200          51.6004
 147898055.952 6                  28144125.744
        37.700
 124317518.514 7                  23656784.138
        47.900
 142485595.193 5                  27114058.994
        35.800
 124801987.250 6  97068208.685 5  23346818.501    23346818.532    23346834.565
        40.000          35.100
 139694580.540 6                  26583022.390
        41.500
 149607355.694 6                  28469321.878
        36.700
 114013556.683 6  88677389.931 7  21321046.307    21321045.919    21321055.742
        38.200          45.200
 115386765.201 7                  21646224.892    21646224.913
        45.600
 140837146.024 7                  26800342.992
        42.300
 105118844.096 8  81759263.801 8  19671507.928    19671507.844    19671513.730
        53.100          49.800
 114796989.550 7  89452361.04045  21845078.840    21845077.4904   21845080.3184
        42.100          30.1004
 132338989.303 7                  25183210.667
        46.200
 104986588.403 8  81656451.860 7  19619190.348    19619190.803    19619198.241
        52.200          47.300
 135849777.935 7                  25851365.031
        44.400
 122154910.424 7  95009472.487 7  22891756.582    22891756.355    22891764.947
        45.700          42.300
 119125743.214 7  92825264.91544  22668873.960    22668873.3704   22668875.3634
        44.300          27.0004
 110303634.860 7  85951045.33046  20990021.746    20990021.3314   20990023.1594
        47.300          37.7004
 113921589.811 7  88770227.02246  21678492.646    21678491.3864   21678493.4634
        47.200          37.2004
 120163609.814 7  93460632.197 7  22494873.359    22494873.200    22494881.253
        47.500          43.300
 128783501.000 6 100350907.19043  24506646.660    24506645.2214   24506660.5384
        39.100          22.7004
 119637600.945 7  93051642.563 7  22412110.022    22412110.338    22412124.301
        45.200          42.600
 25  1  1 21 10 45.0000000  0 34E03E05G17G08S31S35G07G15E33S48S33R03
                                G30E04E31E12R01E06E10R20R10E26R11G21
                                E24R21E09R02G13G14G02R12G19R22
 151144683.377 6                  28761871.776
        36.300
 128386004.712 7                  24431047.977
        43.200
 113413559.249 7  88374377.55847  21581810.968    21581810.3424   21581814.0464
        47.100          45.7004
 122344594.564 7  95333582.87746  23281356.568    23281355.7814   23281362.3354
        43.200          39.1004
 198973513.404 7                  37863409.102
        45.200
 200890902.662 7                  38228277.535
        43.100
 110288829.713 8  85939386.68947  20987253.985    20987253.3684   20987255.7834
        49.000          47.4004
 130250054.845 6 101493561.35444  24785759.814    24785759.3994   24785761.2274
        38.600          27.9004
 131890226.746 7                  25097810.928
        44.700
 412975429.142 5                  78586606.124
        32.700
 202128858.874 7                  38463824.260
        44.400
 131749703.386 6 102472039.152 5  24611954.642    24611954.448    24611963.811
        41.900          34.700
 106527035.793 8  83008113.93648  20271413.447    20271412.5844   20271416.5714
        50.200          51.7004
 147942729.969 6                  28152627.016
        38.100
 124324205.559 7                  23658056.627
        47.900
 142439595.654 5                  27105305.317
        34.900
 124850188.531 6  97105698.306 5  23355835.307    23355835.197    23355851.266
        39.500          34.200
 139737961.810 6                  26591277.667
        41.500
 149560801.319 6                  28460462.989
        36.500
 114055621.655 6  88710107.089 7  21328912.719    21328912.657    21328921.970
        38.600          45.200
 115420744.443 7                  21652600.018    21652599.596
        46.100
 140854745.403 7                  26803691.926
        42.200
 105109675.956 8  81752133.031 8  19669791.995    19669792.248    19669797.892
        53.300          49.700
 114812054.352 7  89464099.84645  21847945.965    21847944.6244   21847947.2144
        42.800          30.2004
 132317812.432 7                  25179180.814
        46.300
 104967250.993 8  81641411.662 7  19615576.642    19615577.187    19615584.562
        52.100          47.300
 135885535.828 7                  25858169.711
        44.300
 122164859.854 7  95017210.897 6  22893620.330    22893620.632    22893628.303
        46.200          41.400
 119115861.569 7  92817564.90744  22666993.860    22666993.2754   22666994.9924
        44.200          27.0004
 110281093.622 7  85933480.72646  20985732.189    20985731.7694   20985733.7234
        47.100          37.7004
 113913303.830 7  88763770.43246  21676916.036    21676914.7764   21676916.6984
        47.300          37.3004
 120117830.518 7  93425026.114 7  22486303.259    22486303.246    22486311.379
        47.000          43.200
 128732304.044 6 100311013.88643  24496904.111    24496902.6764   24496917.2354
        38.800          22.6004
 119572206.333 7  93000780.377 7  22399859.236    22399859.331    22399873.406
        46.000          42.800
 25  1  1 21 11  0.0000000  0 34E03E05G17G08S31S35G07G15E33S48S33R03
                                G30E04E31E12R01E06E10R20R10E26R11G21
                                E24R21E09R02G13G14G02R12G19R22
 151114294.946 5                  28756088.800
        35.500
 128386547.078 7                  24431151.412
        43.500
 113378639.795 7  88347167.64347  21575166.182    21575165.5744   21575169.0494
        47.400          45.8004
 122395546.420 7  95373285.56646  23291052.364    23291051.5734   23291058.2304
        43.800          39.0004
 198973508.890 7                  37863407.439
        45.300
 200890896.494 7                  38228281.716
        43.700
 110317292.573 8  85961565.48547  20992669.954    20992669.3424   20992672.1524
        48.500          47.3004
 130231669.522 6 101479235.14944  24782261.103    24782260.6794   24782263.1304
        39.500          28.9004
 131870820.398 7                  25094118.079
        45.200
 412975903.408 5                  78586629.046
        32.700
 202128872.025 7                  38463830.828
        44.600
 131717563.302 6 102447040.843 5  24605950.996    24605951.125    24605959.464
        40.800          31.000
 106524897.590 8  83006447.78948  20271006.581    20271005.7144   20271009.6984
        50.600          51.8004
 147987379.747 6                  28161123.875
        38.400
 124330920.619 8                  23659334.369
        48.000
 142393609.863 5                  27096554.335
        35.800
 124898454.908 6  97143238.545 5  23364864.089    23364864.159    23364882.038
        38.500          34.700
 139781358.804 6                  26599535.827
        41.900
 149514222.578 6                  28451599.346
        36.500
 114097839.953 6  88742943.511 7  21336806.429    21336807.132    21336817.129
        38.300          45.400
 115454795.824 7                  21658987.923    21658987.581
        45.900
 140872446.774 7                  26807060.233
        42.400
 105100591.961 8  81745067.701 8  19668092.345    19668092.258    19668098.059
        53.300          49.800
 114827272.057 7  89475957.79045  21850841.295    21850839.9324   21850843.0504
        42.600          30.3004
 132296654.997 7                  25175154.686
        46.500
 104948115.514 8  81626528.530 7  19612000.867    19612001.288    19612008.597
        52.100          47.300
 135921350.298 7                  25864984.933
        44.300
 122174987.756 7  95025088.113 6  22895519.492    22895519.842    22895526.641
        46.600          41.300
 119106129.430 7  92809981.39944  22665142.059    22665141.4784   22665143.1814
        44.900          27.2004
 110258598.720 7  85915952.22746  20981451.649    20981451.2384   20981453.0484
        47.400          37.7004
 113905160.771 7  88757425.20546  21675366.613    21675365.3534   21675367.1284
        47.100          37.3004
 120072052.953 8  93389421.367 7  22477733.033    22477733.882    22477741.586
        48.000          42.800
 128681136.078 6 100271143.21943  24487166.645    24487165.2014   24487180.0624
        39.300          22.9004
 119506865.402 7  92949959.927 7  22387618.586    22387618.788    22387632.625
        45.800          42.900
 25  1  1 21 11 15.0000000  0 34E03E05G17G08S31S35G07G15E33S48S33R03
                                G30E04E31E12R01E06E10R20R10E26R11G21
                                E24R21E09R02G13G14G02R12G19R22
 151083979.755 6                  28750319.738
        36.900
 128387197.812 7                  24431275.136
        43.200
 113343815.612 7  88320031.96347  21568538.968    21568538.3694   21568542.2034
        47.300          45.6004
 122446522.025 7  95413006.77046  23300752.701    23300751.9324   23300758.4584
        42.600          38.7004
 198973506.521 7                  37863409.294
        45.500
 200890892.136 7                  38228279.587
        43.400
 110345872.252 8  85983835.31147  20998108.614    20998108.0024   20998110.7494
        49.100          47.2004
 130213420.244 6 101465014.93944  24778788.384    24778787.9734   24778790.5354
        38.700          28.3004
 131851515.161 7                  25090444.554
        45.100
 412976380.116 5                  78586649.016
        32.200
 202128886.903 7                  38463831.589
        44.600
 131685572.226 6 102422159.108 5  24599975.054    24599974.914    24599982.939
        40.600          32.000
 106522893.721 8  83004886.31548  20270625.372    20270624.5054   20270628.3894
        50.600          51.6004
 148032005.940 6                  28169615.705
        37.600
 124337664.583 7                  23660617.938
        47.800
 142347638.953 6                  27087806.134
        36.100
 124946786.680 6  97180829.584 5  23373905.847    23373905.632    23373923.847
        39.600          35.100
 139824772.146 6                  26607797.321
        41.700
 149467620.617 6                  28442730.688
        37.100
 114140212.112 6  88775899.606 7  21344731.978    21344730.865    21344741.023
        38.700          45.200
 115488919.684 7                  21665389.792    21665389.214
        45.800
 140890250.926 7                  26810448.560
        42.000
 105091593.192 8  81738068.677 8  19666408.147    19666408.209    19666414.001
        53.200          49.900
 114842643.342 7  89487935.41245  21853766.680    21853765.3264   21853768.1484
        42.900          30.2004
 132275517.888 7                  25171132.457
        46.500
 104929183.077 8  81611803.322 7  19608463.386    19608463.363    19608470.645
        52.400          47.200
 135957222.002 7                  25871811.230
        44.300
 122185294.824 7  95033104.682 6  22897450.278    22897449.750    22897459.151
        44.800          41.700
 119096547.495 7  92802514.92744  22663318.638    22663318.0484   22663319.8504
        44.900          27.1004
 110236151.149 7  85898460.60746  20977180.135    20977179.7334   20977181.4234
        47.400          37.5004
 113897161.832 7  88751192.27946  21673844.653    21673843.3844   21673844.9394
        46.900          37.1004
 120026278.197 8  93353818.794 7  22469164.351    22469164.934    22469172.589
        48.600          43.400
 128629998.114 6 100231295.93843  24477434.890    24477433.4104   24477448.3454
        39.800          22.8004
 119441579.523 7  92899182.338 7  22375388.326    22375388.198    22375402.067
        46.600          42.900
 25  1  1 21 11 30.0000000  0 34E03E05G17G08S31S35G07G15E33S48S33R03
                                G30E04E31E12R01E06E10R20R10E26R11G21
                                E24R21E09R02G13G14G02R12G19R22
 151053731.202 5                  28744563.963
        35.900
 128387950.066 7                  24431418.272
        42.700
 113309079.905 7  88292965.22047  21561929.325    21561928.7264   21561932.1394
        47.500          45.6004
 122497514.244 7  95452740.92346  23310456.547    23310455.8054   23310462.0404
        43.100          38.8004
 198973499.071 7                  37863405.592
        45.400
 200890883.817 7                  38228279.140
        43.600
 110374561.914 8  86006190.84447  21003568.286    21003567.6784   21003570.2384
        48.600          47.1004
 130195300.809 6 101450895.89844  24775339.847    24775339.4364   24775342.1584
        39.300          28.5004
 131832304.416 7                  25086788.622
        44.800
 412976849.946 5                  78586669.898
        32.500
 202128896.516 7                  38463833.359
        44.300
 131653721.254 6 102397385.945 5  24594024.893    24594023.792    24594034.362
        40.000          33.700
 106521017.472 8  83003424.28748  20270268.141    20270267.2744   20270271.3664
        50.700          51.6004
 148076601.527 6                  28178102.279
        37.700
 124344430.636 7                  23661905.549
        47.700
 142301676.274 5                  27079059.931
        35.200
 124995176.597 6  97218465.946 5  23382958.861    23382958.400    23382976.669
        39.200          35.000
 139868194.782 7                  26616060.425
        42.000
 149420988.822 6                  28433856.605
        37.000
 114182730.855 6  88808969.726 7  21352682.298    21352682.707    21352692.324
        38.600          45.300
 115523109.338 7                  21671803.704    21671802.921
        45.800
 140908150.895 7                  26813854.571
        42.100
 105082673.080 8  81731130.810 8  19664739.072    19664738.930    19664744.843
        53.000          49.800
 114858161.457 7  89500027.44645  21856719.363    21856718.0224   21856721.0424
        43.000          30.2004
 132254394.254 7                  25167112.591
        46.300
 104910446.627 8  81597230.548 7  19604961.755    19604962.047    19604969.190
        52.400          47.400
 135993143.878 7                  25878647.171
        44.300
 122195774.161 7  95041255.239 6  22899413.473    22899414.022    22899423.034
        44.700          41.500
 119087109.244 7  92795160.41744  22661522.372    22661521.7734   22661523.8464
        44.200          27.0004
 110213744.130 7  85881000.59846  20972916.089    20972915.6874   20972917.5214
        47.600          37.5004
 113889300.239 7  88745066.39146  21672348.612    21672347.3524   21672348.9134
        46.900          37.1004
 119980499.546 7  93318213.212 7  22460593.933    22460594.077    22460602.429
        47.700          43.100
 128578883.351 6 100191466.70743  24467707.589    24467706.1234   24467720.9964
        40.500          23.3004
 119376342.316 7  92848442.599 7  22363166.275    22363166.457    22363180.447
        45.700          42.500
 25  1  1 21 11 45.0000000  0 34E03E05G17G08S31S35G07G15E33S48S33R03
                                G30E04E31E12R01E06E10R20R10E26R11G21
                                E24R21E09R02G13G14G02R12G19R22
 151023562.592 6                  28738823.249
        36.500
 128388816.946 7                  24431583.162
        43.200
 113274445.803 7  88265977.65247  21555338.454    21555337.8734   21555341.4194
        47.400          45.5004
 122548535.929 7  95492498.04046  23320165.752    23320165.0194   23320171.0824
        42.900          38.6004
 198973499.132 7                  37863410.613
        45.300
 200890882.390 7                  38228276.010
        43.400
 110403374.477 8  86028642.14547  21009051.183    21009050.5804   21009053.1234
        48.500          47.0004
 130177324.262 6 101436888.20544  24771919.274    24771918.8774   24771921.5824
        39.700          28.8004
 131813201.392 7                  25083153.312
        45.200
 412977329.138 5                  78586690.048
        32.600
 202128914.101 7                  38463838.135
        44.500
 131622024.873 6 102372733.162 5  24588102.418    24588103.668    24588112.803
        41.800          33.400
 106519282.090 8  83002072.02748  20269937.970    20269937.0994   20269941.1554
        50.800          51.6004
 148121179.418 6                  28186585.444
        38.000
 124351231.889 8                  23663199.749
        48.100
 142255735.314 6                  27070317.221
        36.500
 125043637.470 6  97256157.443 5  23392024.890    23392024.910    23392042.034
        40.200          35.200
 139911639.544 7                  26624327.830
        42.500
 149374340.501 6                  28424980.057
        37.100
 114225408.924 6  88842163.764 7  21360662.784    21360663.024    21360673.012
        38.500          45.000
 115557377.969 7                  21678232.071    21678232.099
        46.100
 140926159.681 7                  26817281.613
        42.700
 105073844.981 8  81724264.490 8  19663086.804    19663086.907    19663092.703
        53.100          49.800
 114873839.147 7  89512243.82145  21859702.883    21859701.5424   21859704.4604
        43.400          30.2004
 132233297.258 7                  25163098.154
        46.600
 104891919.896 8  81582820.888 7  19601499.643    19601499.916    19601507.063
        52.500          47.300
 136029128.782 7                  25885494.546
        44.400
 122206438.470 7  95049549.669 6  22901412.922    22901413.410    22901421.143
        45.500          41.500
 119077827.891 7  92787928.17744  22659756.477    22659755.8654   22659757.6134
        44.500          27.2004
 110191390.848 7  85863582.45846  20968662.385    20968661.9744   20968663.8814
        47.200          37.4004
 113881589.212 7  88739057.82646  21670881.109    21670879.8574   21670881.5014
        47.500          37.1004
 119934730.430 8  93282615.028 7  22452025.789    22452026.188    22452034.286
        48.100          42.900
 128527805.182 6 100151666.00643  24457986.832    24457985.3614   24458000.6904
        39.900          23.2004
 119311167.610 7  92797751.440 7  22350956.876    22350957.224    22350971.420
        46.300          43.300
 25  1  1 21 12  0.0000000  0 34E03E05G17G08S31S35G07G15E33S48S33R03
                                G30E04E31E12R01E06E10R20R10E26R11G21
                                E24R21E09R02G13G14G02R12G19R22
 150993463.138 5                  28733094.762
        35.800
 128389787.479 7                  24431768.084
        42.800
 113239902.536 7  88239060.87047  21548764.980    21548764.3994   21548768.0134
        47.400          45.8004
 122599575.926 7  95532269.42646  23329878.425    23329877.7014   23329883.8804
        43.400          38.8004
 198973496.853 7                  37863408.467
        45.400
 200890878.165 7                  38228271.900
        43.200
 110432298.983 8  86051180.67547  21014555.341    21014554.7334   21014557.3594
        48.800          47.1004
 130159479.800 6 101422983.41144  24768523.522    24768523.1204   24768526.4314
        39.700          29.2004
 131794195.342 7                  25079536.653
        44.800
 412976205.150 5                  78586701.718
        32.100
 202128928.447 7                  38463837.187
        44.300
 131590472.035 6 102348191.934 5  24582208.037    24582208.442    24582218.784
        39.000          35.000
 106517676.723 8  83000821.08048  20269632.425    20269631.5544   20269635.6984
        50.400          51.8004
 148165728.434 6                  28195062.779
        37.800
 124358057.416 7                  23664498.537
        47.900
 142209805.411 5                  27061576.286
        35.400
 125092157.229 6  97293894.726 5  23401102.057    23401101.848    23401119.634
        40.100          34.700
 139955095.247 6                  26632597.500
        41.300
 149327664.980 6                  28416097.964
        37.500
 114268234.567 6  88875472.606 7  21368672.710    21368672.389    21368682.051
        39.000          45.500
 115591714.791 7                  21684674.500    21684673.525
        45.600
 140944266.229 7                  26820726.873
        42.400
 105065098.191 8  81717461.421 8  19661449.844    19661450.007    19661455.969
        52.800          49.800
 114889665.385 7  89524575.96345  21862714.253    21862712.8944   21862716.0894
        43.000          30.2004
 132212215.901 7                  25159086.569
        46.300
 104873591.886 8  81568565.781 7  19598074.376    19598074.814    19598081.921
        52.600          47.400
 136065165.535 7                  25892352.445
        44.100
 122217276.498 7  95057979.208 6  22903443.643    22903444.005    22903452.199
        45.300          41.300
 119068692.471 7  92780809.64044  22658017.898    22658017.3084   22658019.3644
        44.100          27.4004
 110169080.424 7  85846197.71846  20964416.914    20964416.5084   20964418.3574
        47.100          37.7004
 113874018.023 7  88733158.23246  21669440.274    21669439.0274   21669440.6734
        46.900          37.2004
 119888959.923 7  93247015.766 7  22443457.822    22443457.844    22443465.736
        47.400          43.200
 128476752.965 6 100111885.53843  24448272.305    24448270.8344   24448285.3214
        39.200          22.8004
 119246044.695 7  92747100.605 7  22338756.814    22338757.243    22338770.504
        44.500          43.000
 25  1  1 21 12 15.0000000  0 34E03E05G17G08S31S35G07G15E33S48S33R03
                                G30E04E31E12R01E06E10R20R10E26R11G21
                                E24R21E09R02G13G14G02R12G19R22
 150963433.435 6                  28727380.596
        36.900
 128390862.009 7                  24431972.598
        42.800
 113205450.570 7  88212215.23047  21542208.968    21542208.3834   21542211.9574
        47.300          45.7004
 122650634.273 7  95572055.12846  23339594.390    23339593.6624   23339599.8574
        43.000          38.6004
 198973491.706 7                  37863406.267
        45.300
 200890871.606 7                  38228273.703
        43.200
 110461335.561 8  86073806.53047  21020080.739    21020080.1314   21020082.9034
        48.500          47.1004
 130141767.876 6 101409181.94144  24765153.252    24765152.8414   24765155.7804
        38.900          28.6004
 131775286.764 7                  25075938.715
        45.000
 412976678.649 5                  78586730.802
        32.800
 202128940.686 7                  38463844.986
        44.400
 131559063.842 6 102323763.359 5  24576342.254    24576341.785    24576351.899
        39.300          34.700
 106516201.816 8  82999671.79348  20269351.788    20269350.9084   20269355.0504
        50.500          51.8004
 148210248.700 6                  28203534.359
        37.000
 124364907.595 8                  23665801.975
        48.000
 142163887.031 6                  27052838.693
        36.100
 125140735.805 6  97331677.777 5  23410188.536    23410189.281    23410206.937
        40.100          34.100
 139998562.017 7                  26640869.080
        42.000
 149280962.774 6                  28407211.071
        36.900
 114311207.624 6  88908896.099 7  21376707.784    21376708.154    21376717.941
        39.100          44.900
 115626120.056 7                  21691127.807    21691127.556
        45.300
 140962470.764 7                  26824191.511
        42.400
 105056433.175 8  81710721.957 8  19659828.411    19659828.561    19659834.317
        53.300          49.700
 114905640.333 7  89537023.98945  21865754.338    21865752.9704   21865755.9344
        42.800          30.3004
 132191150.531 7                  25155077.884
        46.400
 104855463.269 8  81554465.757 7  19594686.865    19594687.104    19594694.291
        52.800          47.300
 136101254.213 7                  25899220.198
        44.600
 122228288.554 7  95066544.097 6  22905507.264    22905507.659    22905515.347
        44.900          41.000
 119059703.493 7  92773805.23344  22656307.876    22656307.3044   22656308.7624
        44.300          27.4004
 110146813.250 7  85828846.68046  20960179.812    20960179.4104   20960181.0484
        47.000          37.5004
 113866587.033 7  88727367.88246  21668025.985    21668024.7254   21668026.5804
        47.000          37.2004
 119843188.349 8  93211415.671 7  22434888.711    22434889.580    22434897.392
        48.300          43.100
 128425727.119 6 100072125.62643  24438562.190    24438560.7154   24438574.9074
        38.600          22.9004
 119180974.430 7  92696490.696 7  22326567.210    22326567.193    22326581.048
        44.800          43.300
 25  1  1 21 12 30.0000000  0 34E03E05G17G08S31S35G07G15E33S48S33R03
                                G30E04E31E12R01E06E10R20R10E26R11G21
                                E24R21E09R02G13G14G02R12G19R22
 150933477.089 5                  28721679.790
        35.800
 128392043.923 7                  24432197.224
        43.000
 113171093.516 7  88185443.54547  21535671.240    21535670.6644   21535673.9664
        47.300          45.6004
 122701714.243 7  95611857.68546  23349314.513    23349313.7804   23349319.9934
        43.200          38.5004
 198973487.490 7                  37863406.991
        45.400
 200890865.873 7                  38228271.292
        43.400
 110490487.671 8  86096522.40647  21025628.239    21025627.6274   21025630.3984
        48.400          46.9004
 130124191.988 6 101395486.47344  24761808.891    24761808.4894   24761811.1584
        39.200          29.0004
 131756479.216 7                  25072359.541
        45.200
 412977152.685 5                  78586748.612
        32.700
 202128953.526 7                  38463843.962
        44.500
 131527803.167 6 102299449.252 5  24570501.755    24570502.181    24570511.678
        41.200          35.000
 106514860.966 8  82998626.96548  20269096.453    20269095.5734   20269099.9264
        50.500          51.7004
 148254743.587 6                  28212001.786
        37.000
 124371785.869 8                  23667110.880
        48.000
 142117983.995 6                  27044103.974
        36.000
 125189376.185 6  97369508.902 5  23419289.155    23419288.751    23419306.183
        40.300          34.700
 140042043.056 7                  26649143.326
        42.200
 149234237.635 6                  28398318.806
        38.000
 114354331.364 6  88942436.790 7  21384773.229    21384772.877    21384782.360
        39.000          45.300
 115660597.018 7                  21697595.735    21697595.485
        45.600
 140980776.653 7                  26827674.625
        42.500
 105047853.565 8  81704048.952 8  19658222.808    19658222.927    19658228.835
        53.000          49.900
 114921767.389 7  89549590.53145  21868823.319    21868821.9424   21868824.8534
        43.100          30.3004
 132170104.638 7                  25151072.910
        46.800
 104837537.678 8  81540523.659 7  19591337.225    19591337.241    19591344.456
        53.200          47.500
 136137398.067 7                  25906097.981
        44.600
 122239477.783 7  95075246.817 6  22907604.108    22907604.268    22907612.360
        45.000          41.500
 119050864.443 7  92766917.63344  22654625.197    22654624.6124   22654626.7574
        44.400          27.1004
 110124592.906 7  85811532.13146  20955951.202    20955950.7914   20955952.6324
        47.500          37.4004
 113859299.759 7  88721689.51646  21666639.419    21666638.1634   21666639.8364
        46.700          37.1004
 119797419.682 8  93175817.836 7  22426321.301    22426321.697    22426329.329
        48.200          43.100
 128374731.309 6 100032389.09043  24428857.876    24428856.4144   24428870.0954
        38.400          22.9004
 119115960.903 7  92645924.932 7  22314387.598    22314386.824    22314401.212
        45.100          43.000
 25  1  1 21 12 45.0000000  0 34E03E05G17G08S31S35G07G15E33S48S33R03
                                G30E04E31E12R01E06E10R20R10E26R11G21
                                E24R21E09R02G13G14G02R12G19R22
 150903592.369 5                  28715993.307
        35.700
 128393331.262 7                  24432442.025
        42.600
 113136829.552 7  88158744.39847  21529150.888    21529150.3124   21529153.6744
        47.300          45.6004
 122752813.531 7  95651675.30046  23359038.610    23359037.8774   23359043.9124
        42.900          38.4004
 198973482.269 7                  37863402.721
        45.700
 200890858.796 7                  38228271.561
        43.400
 110519753.210 8  86119326.66847  21031197.416    21031196.7954   21031199.4954
        48.500          46.9004
 130106750.307 6 101381895.60844  24758489.799    24758489.4104   24758491.9544
        39.700          28.9004
 131737770.885 7                  25068799.486
        45.300
 412977624.549 5                  78586773.600
        32.700
 202128965.626 7                  38463846.197
        44.500
 131496689.285 6 102275249.328 5  24564688.797    24564689.877    24564700.371
        41.000          35.200
 106513652.292 8  82997685.13248  20268866.640    20268865.7604   20268869.9334
        50.400          51.7004
 148299210.756 6                  28220464.318
        37.200
 124378690.291 7                  23668425.011
        47.800
 142072094.604 6                  27035371.065
        36.300
 125238075.745 6  97407386.062 5  23428398.726    23428399.302    23428417.114
        40.000          35.300
 140085536.135 6                  26657420.367
        41.600
 149187487.770 6                  28389422.600
        38.300
 114397602.885 6  88976092.412 7  21392864.717    21392864.542    21392874.191
        38.600          45.300
 115695143.726 7                  21704077.021    21704076.414
        45.300
 140999181.735 7                  26831177.309
        42.100
 105039357.695 8  81697441.064 8  19656632.992    19656633.001    19656639.012
        52.800          49.900
 114938044.377 7  89562273.90745  21871920.308    21871918.9314   21871922.1764
        43.000          30.2004
 132149076.230 7                  25147071.500
        46.400
 104819813.290 8  81526738.048 7  19588024.284    19588025.048    19588032.235
        52.900          47.600
 136173594.886 7                  25912986.064
        44.300
 122250841.935 7  95084085.576 6  22909733.958    22909733.280    22909742.314
        43.500          41.500
 119042173.199 7  92760145.20944  22652971.795    22652971.1924   22652972.8524
        44.600          27.4004
 110102417.441 7  85794252.55646  20951731.182    20951730.7624   20951732.7804
        47.100          37.4004
 113852154.332 7  88716121.68146  21665280.012    21665278.7834   21665280.1104
        46.800          37.1004
 119751651.896 7  93140220.725 7  22417752.869    22417753.258    22417761.812
        46.600          43.700
 128323763.658 6  99992674.47543  24419158.366    24419156.9094   24419170.7834
        39.400          23.4004
 119051002.584 7  92595402.084 7  22302218.633    22302219.110    22302232.263
        46.500          43.100
 25  1  1 21 13  0.0000000  0 34E03E05G17G08S31S35G07G15E33S48S33R03
                                G30E04E31E12R01E06E10R20R10E26R11G21
                                E24R21E09R02G13G14G02R12G19R22
 150873780.298 5                  28710320.008
        34.500
 128394724.787 7                  24432707.292
        42.800
 113102659.513 7  88132118.44047  21522648.534    21522647.9624   21522651.2644
        47.300          45.7004
 122803932.737 7  95691508.42346  23368766.365    23368765.6504   23368771.6004
        42.900          38.4004
 198973476.699 7                  37863400.686
        45.600
 200890852.400 7                  38228270.724
        43.200
 110549132.852 8  86142219.84347  21036788.245    21036787.6334   21036790.3434
        48.700          46.9004
 130089443.766 6 101368410.00644  24755195.717    24755195.2974   24755198.7424
        39.500          29.0004
 131719162.799 7                  25065258.213
        44.700
 412976495.523 5                  78586790.400
        32.500
 202128976.576 7                  38463845.697
        44.400
 131465723.293 7 102251164.518 5  24558905.210    24558905.417    24558915.160
        42.200          33.500
 106512576.779 8  82996847.06048  20268661.965    20268661.0804   20268665.2804
        50.600          51.8004
 148343651.006 6                  28228920.339
        37.600
 124385621.706 7                  23669743.946
        47.700
 142026219.923 6                  27026641.070
        36.600
 125286834.878 6  97445309.542 5  23437520.719    23437520.817    23437538.746
        40.200          34.900
 140129041.885 6                  26665698.815
        41.100
 149140714.274 6                  28380521.573
        38.000
 114441023.006 6  89009863.626 7  21400984.048    21400984.320    21400993.897
        39.100          45.400
 115729761.454 7                  21710571.519    21710571.074
        46.000
 141017686.806 6                  26834698.585
        41.900
 105030946.574 8  81690899.080 8  19655059.083    19655059.026    19655064.987
        52.800          49.900
 114954472.076 7  89575074.71745  21875046.605    21875045.2334   21875048.4664
        43.300          30.3004
 132128066.149 7                  25143073.490
        46.300
 104802291.001 8  81513109.618 7  19584749.932    19584750.613    19584757.644
        53.400          47.800
 136209845.231 7                  25919884.124
        44.500
 122262381.779 7  95093060.987 6  22911897.148    22911896.610    22911904.930
        44.200          41.400
 119033630.788 7  92753488.75844  22651346.031    22651345.4374   22651347.4124
        44.600          27.5004
 110080287.802 7  85777008.68546  20947520.501    20947520.0814   20947521.6254
        47.100          37.5004
 113845151.707 7  88710665.11346  21663947.278    21663946.0444   21663947.5354
        47.100          37.2004
 119705886.120 7  93104625.125 7  22409186.360    22409185.782    22409194.036
        47.100          43.200
 128272825.289 6  99952982.65443  24409465.164    24409463.7344   24409477.1964
        39.500          23.1004
 118986100.783 7  92544923.199 7  22290059.824    22290060.039    22290073.434
        45.500          43.100
 25  1  1 21 13 15.0000000  0 34E03E05G17G08S31S35G07G15E33S48S33R03
                                G30E04E31E12R01E06E10R20R10E26R11G21
                                E24R21E09R02G13G14G02R12G19R22
 150844043.290 5                  28704661.377
        35.600
 128396226.791 7                  24432993.471
        42.700
 113068585.791 8  88105567.53947  21516164.665    21516164.1024   21516167.2284
        48.000          45.8004
 122855073.838 7  95731358.58646  23378498.485    23378497.7614   23378503.5154
        43.200          38.4004
 198973473.054 7                  37863403.602
        45.400
 200890847.452 7                  38228264.849
        43.100
 110578628.684 8  86165203.55547  21042401.064    21042400.4434   21042403.3024
        48.400          47.0004
 130072274.844 6 101355031.66744  24751929.140    24751928.7344   24751931.2744
        39.800          28.7004
 131700657.317 7                  25061737.150
        45.200
 412976969.093 5                  78586809.601
        32.500
 202128990.564 7                  38463849.672
        44.500
 131434908.096 6 102227197.159 5  24553148.404    24553148.941    24553159.574
        41.300          35.000
 106511636.744 8  82996114.55548  20268483.089    20268482.1954   20268486.4024
        50.600          51.9004
 148388066.239 6                  28237372.900
        37.400
 124392582.341 7                  23671068.364
        47.900
 141980362.474 6                  27017914.537
        36.200
 125335655.171 6  97483280.575 5  23446654.479    23446654.294    23446671.154
        39.800          34.100
 140172562.306 6                  26673980.514
        41.900
 149093919.557 6                  28371616.794
        36.800
 114484593.534 6  89043751.810 7  21409132.256    21409132.484    21409142.316
        38.900          45.400
 115764452.030 7                  21717079.208    21717078.555
        46.200
 141036293.892 7                  26838239.511
        42.500
 105022622.617 8  81684424.875 8  19653501.333    19653501.300    19653507.119
        52.600          50.000
 114971052.454 7  89587994.49445  21878201.978    21878200.6014   21878203.4604
        42.700          30.5004
 132107076.647 7                  25139079.271
        46.500
 104784973.336 8  81499640.336 7  19581513.853    19581514.509    19581521.428
        53.700          47.700
 136246151.131 7                  25926793.279
        44.700
 122274099.151 7  95102174.458 6  22914092.953    22914093.402    22914100.760
        45.100          41.600
 119025239.376 7  92746949.97144  22649748.938    22649748.3394   22649750.6234
        44.600          27.6004
 110058206.271 7  85759802.29946  20943318.179    20943317.7644   20943319.6954
        46.800          37.5004
 113838294.189 7  88705321.61046  21662642.066    21662640.8374   21662642.5234
        47.000          37.1004
 119660124.620 8  93069032.846 7  22400619.690    22400619.964    22400627.409
        48.000          43.600
 128221918.702 6  99913315.61843  24399776.829    24399775.3854   24399790.1454
        39.700          23.8004
 118921258.291 7  92494490.459 7  22277912.502    22277911.875    22277926.075
        44.700          43.100
 25  1  1 21 13 30.0000000  0 34E03E05G17G08S31S35G07G15E33S48S33R03
                                G30E04E31E12R01E06E10R20R10E26R11G21
                                E24R21E09R02G13G14G02R12G19R22
 150814376.189 6                  28699015.488
        36.000
 128397831.824 7                  24433298.978
        42.600
 113034603.025 7  88079087.51147  21509697.474    21509696.8934   21509700.4894
        47.600          45.7004
 122906231.214 7  95771221.42046  23388233.077    23388232.3444   23388238.4024
        43.100          38.2004
 198973466.396 7                  37863402.618
        45.000
 200890839.522 7                  38228270.063
        43.300
 110608235.364 8  86188273.63647  21048034.989    21048034.3554   21048037.3374
        48.400          46.8004
 130055238.198 6 101341756.38944  24748687.382    24748686.9854   24748688.9724
        39.700          28.7004
 131682249.262 7                  25058234.005
        45.200
 412977437.860 5                  78586832.339
        32.600
 202129000.706 7                  38463853.634
        44.400
 131404237.870 6 102203342.473 5  24547419.065    24547419.250    24547429.614
        39.400          35.000
 106510826.941 8  82995483.52448  20268328.929    20268328.0404   20268332.3234
        50.500          51.8004
 148432450.989 6                  28245818.083
        37.100
 124399566.870 8                  23672397.612
        48.000
 141934517.142 6                  27009190.459
        36.000
 125384530.770 6  97521294.583 5  23455797.569    23455797.868    23455814.902
        39.700          35.200
 140216091.794 6                  26682264.381
        41.100
 149047098.571 6                  28362707.278
        37.900
 114528308.508 6  89077752.311 7  21417306.994    21417307.169    21417316.701
        39.100          45.300
 115799210.268 7                  21723600.033    21723599.335
        46.000
 141054997.558 6                  26841798.233
        41.300
 105014380.754 8  81678014.530 8  19651958.933    19651958.961    19651964.673
        53.100          50.000
 114987780.205 7  89601029.11645  21881385.326    21881383.9584   21881386.5844
        42.400          30.4004
 132086102.361 7                  25135087.915
        46.400
 104767855.019 8  81486326.113 7  19578314.864    19578315.421    19578322.367
        53.100          47.800
 136282506.974 7                  25933711.700
        44.300
 122285988.747 7  95111421.910 6  22916319.965    22916320.168    22916328.621
        44.100          41.300
 119016993.628 7  92740524.69344  22648179.985    22648179.3824   22648181.6694
        44.900          27.5004
 110036167.575 7  85742629.29646  20939124.256    20939123.8414   20939125.8584
        47.200          37.5004
 113831576.538 7  88700087.10546  21661363.804    21661362.5794   21661364.1584
        47.000          37.1004
 119614362.226 8  93033439.902 7  22392052.268    22392053.158    22392060.813
        48.300          43.500
 128171038.568 6  99873669.21143  24390094.733    24390093.2894   24390107.5984
        39.200          23.5004
 118856470.204 7  92444100.016 7  22265775.579    22265775.578    22265788.924
        46.000          43.000
 25  1  1 21 13 45.0000000  0 34E03E05G17G08S31S35G07G15E33S48S33R03
                                G30E04E31E12R01E06E10R20R10E26R11G21
                                E24R21E09R02G13G14G02R12G19R22
 150784784.850 6                  28693384.597
        36.300
 128399545.606 7                  24433624.821
        43.100
 113000717.245 7  88052683.05547  21503249.350    21503248.7694   21503252.1994
        46.900          45.7004
 122957410.359 7  95811101.21346  23397972.191    23397971.4544   23397977.3774
        42.500          38.0004
 198973461.812 7                  37863400.127
        45.200
 200890833.782 7                  38228273.059
        43.000
 110637958.543 8  86211434.50047  21053691.277    21053690.6384   21053693.5104
        48.000          46.7004
 130038339.593 6 101328588.66444  24745471.451    24745471.0624   24745473.4424
        40.100          29.6004
 131663944.529 7                  25054750.543
        45.000
 412977907.502 5                  78586854.429
        31.900
 202129012.551 7                  38463854.787
        44.500
 131373718.940 6 102179605.444 5  24541717.934    24541718.589    24541728.917
        41.000          34.900
 106510153.191 8  82994958.51148  20268200.728    20268199.8304   20268204.1134
        50.200          51.8004
 148476810.716 6                  28254259.483
        36.400
 124406581.060 8                  23673732.336
        48.100
 141888689.891 6                  27000469.603
        36.000
 125433466.820 6  97559355.631 5  23464951.705    23464952.044    23464969.338
        39.300          34.500
 140259635.815 6                  26690550.596
        41.400
 149000257.171 6                  28353792.992
        37.900
 114572173.414 6  89111869.441 7  21425509.760    21425510.356    21425519.786
        39.000          45.200
 115834041.853 7                  21730134.797    21730133.524
        45.500
 141073803.364 7                  26845377.265
        42.000
 105006226.833 8  81671672.592 8  19650432.832    19650433.011    19650438.830
        52.800          49.900
 115004660.789 7  89614182.82145  21884597.412    21884596.0444   21884598.8514
        42.400          30.4004
 132065149.022 7                  25131100.597
        46.600
 104750942.083 8  81473171.644 7  19575154.482    19575154.672    19575161.913
        52.800          47.800
 136318918.249 7                  25940640.370
        44.300
 122298055.758 7  95120807.325 6  22918582.317    22918582.308    22918590.453
        45.100          41.700
 119008899.429 7  92734217.51144  22646639.835    22646639.2144   22646641.5044
        44.400          27.4004
 110014177.503 7  85725494.18246  20934939.804    20934939.3844   20934941.2564
        46.700          37.3004
 113825004.613 7  88694966.14646  21660113.182    21660111.9534   21660113.5614
        46.900          37.0004
 119568604.689 7  92997850.744 7  22383487.350    22383486.964    22383494.494
        47.000          43.600
 128120191.013 6  99834048.14843  24380418.160    24380416.7164   24380430.7924
        39.800          23.8004
 118791742.791 7  92393756.754 7  22253649.639    22253650.273    22253662.952
        46.800          42.900
 25  1  1 21 14  0.0000000  0 34E03E05G17G08S31S35G07G15E33S48S33R03
                                G30E04E31E12R01E06E10R20R10E26R11G21
                                E24R21E09R02G13G14G02R12G19R22
 150755267.778 6                  28687768.254
        36.400
 128401366.361 7                  24433971.520
        42.900
 112966926.849 7  88026352.92647  21496819.412    21496818.8364   21496821.9974
        47.600          45.7004
 123008609.290 7  95850996.41646  23407715.459    23407714.7224   23407720.2834
        42.600          38.0004
 198973457.732 7                  37863399.054
        44.800
 200890828.486 7                  38228267.787
        42.900
 110667796.242 8  86234684.61047  21059369.124    21059368.4904   21059371.5004
        48.000          46.7004
 130021577.284 6 101315527.12644  24742281.609    24742281.2344   24742283.2074
        39.300          28.5004
 131645741.556 7                  25051286.754
        45.200
 412976777.371 5                  78586866.730
        32.100
 202129025.597 7                  38463859.787
        44.200
 131343349.485 7 102155984.534 6  24536043.981    24536044.828    24536055.340
        42.200          36.200
 106509613.899 8  82994538.27048  20268098.283    20268097.3854   20268101.5074
        50.000          51.8004
 148521143.489 6                  28262696.340
        36.900
 124413623.133 8                  23675072.429
        48.200
 141842879.345 6                  26991752.616
        36.400
 125482461.098 6  97597462.011 5  23474117.780    23474116.590    23474135.592
        38.800          34.700
 140303192.382 6                  26698838.918
        41.900
 148953393.884 6                  28344875.367
        37.800
 114616185.604 6  89146101.118 7  21433740.285    21433741.218    21433750.451
        39.200          45.200
 115868944.998 7                  21736682.024    21736681.227
        45.800
 141092709.535 6                  26848974.945
        41.900
 104998159.499 8  81665397.983 8  19648923.386    19648923.427    19648929.228
        52.900          50.000
 115021692.331 7  89627454.16545  21887838.571    21887837.2084   21887839.9684
        43.000          30.4004
 132044214.881 7                  25127117.075
        47.000
 104734233.015 8  81460175.709 8  19572031.820    19572032.295    19572039.500
        53.300          48.000
 136355382.969 7                  25947579.578
        44.500
 122310298.418 7  95130329.370 6  22920875.869    22920876.062    22920884.471
        45.100          41.500
 119000955.110 7  92728027.10844  22645127.951    22645127.3214   22645129.7514
        44.100          27.4004
 109992234.420 7  85708395.68246  20930764.195    20930763.7664   20930765.6014
        46.800          37.3004
 113818576.776 7  88689957.46746  21658890.225    21658889.0004   21658890.3804
        46.700          37.0004
 119522850.773 7  92962264.367 7  22374921.523    22374921.504    22374929.450
        47.900          43.600
 128069374.319 6  99794451.14843  24370747.761    24370746.3084   24370760.1884
        39.200          23.4004
 118727074.751 7  92343459.667 7  22241535.018    22241534.411    22241547.847
        46.000          43.000
 25  1  1 21 14 15.0000000  0 34E03E05G17G08S31S35G07G15E33S48S33R03
                                G30E04E31E12R01E06E10R20R10E26R11G21
                                E24R21E09R02G13G14G02R12G19R22
 150725825.977 5                  28682165.247
        35.600
 128403294.881 7                  24434338.186
        43.700
 112933232.647 7  88000097.75547  21490407.378    21490406.7974   21490410.1154
        47.200          45.8004
 123059828.603 7  95890907.49646  23417461.627    23417460.8814   23417467.1454
        42.600          37.9004
 198973455.766 7                  37863394.998
        45.100
 200890825.416 7                  38228266.266
        43.200
 110697749.119 7  86258024.45947  21065069.058    21065068.4194   21065071.4284
        47.900          46.7004
 130004952.571 6 101302572.80844  24739117.387    24739117.0124   24739119.6604
        39.800          28.9004
 131627641.295 7                  25047842.268
        45.200
 412977249.723 5                  78586897.459
        32.600
 202129040.857 7                  38463862.407
        44.400
 131313131.336 6 102132481.395 5  24530398.938    24530399.897    24530411.142
        40.000          35.200
 106509209.975 8  82994223.51048  20268021.415    20268020.5174   20268024.6634
        50.400          51.9004
 148565449.957 6                  28271127.420
        37.500
 124420693.969 8                  23676417.902
        48.200
 141797086.545 6                  26983037.590
        36.700
 125531513.898 6  97635613.824 5  23483295.447    23483294.810    23483313.034
        39.300          34.500
 140346762.130 7                  26707130.583
        42.000
 148906509.750 6                  28335953.861
        38.300
 114660345.452 6  89180447.634 7  21441998.996    21441999.017    21442008.679
        39.000          45.500
 115903920.588 7                  21743243.690    21743243.378
        46.900
 141111716.698 7                  26852591.745
        42.000
 104990179.802 8  81659191.545 8  19647429.757    19647430.196    19647436.028
        53.000          49.900
 115038875.650 7  89640843.77845  21891108.249    21891106.8954   21891109.6944
        42.800          30.4004
 132023300.811 7                  25123137.205
        46.900
 104717728.693 8  81447339.024 8  19568947.731    19568947.922    19568955.207
        53.300          48.000
 136391901.707 7                  25954529.062
        44.500
 122322717.073 7  95139988.287 6  22923203.720    22923203.663    22923211.866
        45.100          41.500
 118993161.427 7  92721954.07944  22643644.968    22643644.3344   22643646.7114
        43.600          27.5004
 109970339.186 7  85691334.47146  20926597.632    20926597.2034   20926599.0374
        46.800          37.3004
 113812293.951 7  88685061.78446  21657694.431    21657693.2064   21657694.7804
        46.900          37.0004
 119477101.281 7  92926681.439 7  22366357.135    22366356.961    22366364.795
        47.600          43.300
 128018589.392 6  99754878.93744  24361083.672    24361082.2154   24361095.7114
        39.800          24.3004
 118662467.474 7  92293209.862 7  22229431.090    22229430.860    22229444.470
        45.700          42.900
 25  1  1 21 14 30.0000000  0 34E03E05G17G08S31S35G07G15E33S48S33R03
                                G30E04E31E12R01E06E10R20R10E26R11G21
                                E24R21E09R02G13G14G02R12G19R22
 150696457.891 5                  28676576.628
        34.500
 128405329.400 7                  24434725.637
        43.100
 112899632.942 7  87973916.22347  21484013.685    21484013.1134   21484016.2894
        47.800          46.0004
 123111066.256 7  95930832.86846  23427212.024    23427211.2784   23427217.4474
        42.900          38.1004
 198973452.424 7                  37863402.654
        45.200
 200890821.253 7                  38228264.138
        42.900
 110727815.382 7  86281452.65947  21070790.631    21070790.0014   21070792.8924
        47.900          46.9004
 129988463.672 6 101289724.31644  24735980.431    24735980.0514   24735982.5444
        40.400          29.4004
 131609642.125 7                  25044416.950
        45.000
 412977719.985 5                  78586912.860
        32.200
 202129055.196 7                  38463864.482
        44.400
 131283062.732 7 102109094.512 5  24524783.448    24524784.849    24524794.208
        42.300          35.300
 106508939.755 8  82994012.93448  20267969.899    20267968.9964   20267973.2704
        50.300          52.1004
 148609728.077 6                  28279553.426
        37.100
 124427791.789 8                  23677768.766
        48.200
 141751309.946 6                  26974326.721
        36.600
 125580622.745 6  97673809.325 5  23492480.918    23492480.435    23492499.137
        39.600          34.300
 140390342.980 6                  26715423.518
        41.200
 148859603.259 6                  28327027.525
        38.200
 114704650.927 6  89214907.430 7  21450284.743    21450284.232    21450293.952
        39.100          45.300
 115938967.029 7                  21749817.976    21749817.647
        45.600
 141130823.016 6                  26856227.631
        41.400
 104982286.017 8  81653051.933 8  19645952.861    19645952.808    19645958.814
        52.700          50.000
 115056208.900 7  89654350.22445  21894406.633    21894405.2884   21894408.1604
        42.900          30.7004
 132002404.998 7                  25119160.613
        46.600
 104701427.458 8  81434660.317 7  19565901.262    19565901.723    19565908.883
        52.900          47.900
 136428472.464 7                  25961487.930
        44.400
 122335309.937 7  95149782.671 6  22925563.614    22925563.647    22925572.189
        45.800          41.400
 118985516.610 7  92715997.06544  22642190.559    22642189.9384   22642191.9174
        43.300          27.5004
 109948490.125 7  85674309.23546  20922439.983    20922439.5544   20922441.3004
        46.700          37.5004
 113806154.392 7  88680277.73746  21656526.155    21656524.9264   21656526.4174
        46.800          37.2004
 119431354.535 7  92891100.674 7  22357793.053    22357792.462    22357801.302
        47.900          43.900
 127967834.785 6  99715330.29243  24351424.949    24351423.5234   24351436.5414
        39.700          23.8004
 118597919.679 7  92243006.281 7  22217338.859    22217339.638    22217352.326
        46.200          42.900
 25  1  1 21 14 45.0000000  0 34E03E05G17G08S31S35G07G15E33S48S33R03
                                G30E04E31E12R01E06E10R20R10E26R11G21
                                E24R21E09R02G13G14G02R12G19R22
 150667159.791 6                  28671001.691
        36.000
 128407465.975 7                  24435132.170
        42.800
 112866124.057 7  87947805.45947  21477636.984    21477636.4124   21477639.6884
        47.300          46.0004
 123162318.140 7  95970769.34346  23436965.051    23436964.3094   23436970.6504
        43.000          38.1004
 198973445.948 7                  37863393.442
        45.000
 200890813.151 7                  38228260.341
        42.800
 110757991.040 7  86304966.10747  21076532.844    21076532.2104   21076535.1984
        47.900          46.9004
 129972106.779 6 101276978.69044  24732867.829    24732867.4404   24732870.0174
        39.600          29.4004
 131591740.313 7                  25041010.479
        45.500
 412978185.556 5                  78586937.118
        32.900
 202129064.872 7                  38463865.560
        44.200
 131253140.462 6 102085821.619 5  24519191.439    24519192.647    24519204.268
        40.500          34.500
 106508799.448 8  82993903.59148  20267943.297    20267942.3994   20267946.5934
        50.300          52.1004
 148653973.852 6                  28287973.019
        37.000
 124434912.721 8                  23679123.671
        48.200
 141705545.924 6                  26965617.985
        36.200
 125629783.330 6  97712045.036 5  23501676.833    23501677.748    23501696.759
        38.700          34.300
 140433930.815 7                  26723718.428
        42.300
 148812670.723 6                  28318096.091
        38.100
 114749097.518 6  89249476.958 7  21458595.360    21458595.650    21458605.862
        38.500          45.300
 115974080.134 7                  21756405.566    21756405.058
        46.200
 141150024.453 6                  26859881.764
        41.800
 104974474.452 8  81646976.262 8  19644491.165    19644491.164    19644496.970
        53.000          50.000
 115073687.754 7  89667970.13345  21897732.891    21897731.5504   21897734.2734
        42.600          30.7004
 131981523.570 7                  25115187.071
        46.700
 104685325.358 8  81422136.480 8  19562892.023    19562892.446    19562899.727
        53.000          48.100
 136465091.115 7                  25968456.478
        44.300
 122348072.860 7  95159709.354 7  22927954.376    22927954.266    22927964.051
        43.700          42.100
 118978016.692 7  92710152.95944  22640763.213    22640762.5924   22640764.7234
        44.100          27.8004
 109926683.422 7  85657316.99746  20918290.011    20918289.5784   20918291.5674
        46.800          37.6004
 113800154.281 7  88675602.35146  21655384.367    21655383.1384   21655384.5884
        46.600          37.2004
 119385606.873 7  92855519.184 7  22349228.216    22349228.813    22349236.772
        47.900          43.400
 127917106.740 6  99675802.33643  24341771.863    24341770.4374   24341782.8044
        40.000          23.8004
 118533427.898 7  92192846.289 7  22205257.292    22205257.470    22205271.035
        46.100          43.100
 25  1  1 21 15  0.0000000  0 34E03E05G17G08S31S35G07G15E33S48S33R03
                                G30E04E31E12R01E06E10R20R10E26R11G21
                                E24R21E09R02G13G14G02R12G19R22
 150637942.145 5                  28665441.633
        35.600
 128409714.841 7                  24435560.081
        42.800
 112832716.283 7  87921773.48547  21471279.623    21471279.0514   21471282.3384
        47.800          46.2004
 123213594.286 7  96010724.72446  23446722.485    23446721.7214   23446728.1604
        42.400          38.1004
 198973445.372 7                  37863398.003
        45.000
 200890811.561 7                  38228265.032
        43.500
 110788286.291 8  86328572.74447  21082297.828    21082297.2024   21082300.2734
        48.000          47.0004
 129955892.187 6 101264343.95344  24729782.552    24729782.1634   24729784.5584
        40.100          29.9004
 131573946.248 7                  25037624.472
        44.900
 412978657.815 5                  78586956.149
        32.300
 202129081.451 7                  38463868.913
        44.300
 131223374.464 7 102062669.930 5  24513633.088    24513634.662    24513644.378
        42.500          35.800
 106508799.409 8  82993903.55148  20267943.351    20267942.4534   20267946.6064
        50.300          52.2004
 148698197.288 6                  28296388.776
        37.000
 124442067.019 8                  23680485.062
        48.200
 141659805.034 6                  26956913.724
        36.200
 125679005.258 6  97750328.422 5  23510885.812    23510886.711    23510905.087
        39.600          35.200
 140477535.667 6                  26732016.477
        41.200
 148765722.657 6                  28309161.765
        38.100
 114793695.122 6  89284163.938 7  21466935.994    21466936.282    21466945.997
        38.800          45.700
 116009270.790 7                  21763007.167    21763006.461
        45.500
 141169331.177 7                  26863555.679
        42.000
 104966755.832 8  81640972.892 8  19643046.213    19643046.598    19643052.609
        53.100          50.000
 115091322.435 7  89681711.45545  21901088.496    21901087.1594   21901090.0874
        43.200          30.8004
 131960666.777 7                  25111218.199
        46.700
 104669433.281 8  81409776.000 8  19559922.502    19559922.716    19559929.877
        53.300          48.000
 136501767.633 7                  25975435.819
        44.200
 122361015.747 7  95169776.008 6  22930380.769    22930381.190    22930389.062
        45.400          41.400
 118970672.158 7  92704429.92444  22639365.845    22639365.2154   22639367.1314
        44.000          27.9004
 109904929.395 7  85640365.81446  20914150.752    20914150.3284   20914151.8914
        46.700          37.7004
 113794303.870 7  88671043.61746  21654271.286    21654270.0614   21654271.2444
        46.700          37.3004
 119339868.921 7  92819945.248 7  22340666.990    22340666.662    22340675.033
        47.600          43.300
 127866415.726 6  99636303.25044  24332125.436    24332123.9924   24332136.8884
        39.900          24.9004
 118469003.034 7  92142738.335 7  22193188.560    22193188.641    22193200.896
        46.300          42.700
 25  1  1 21 15 15.0000000  0 34E03E05G17G08S31S35G07G15E33S48S33R03
                                G30E04E31E12R01E06E10R20R10E26R11G21
                                E24R21E09R02G13G14G02R12G19R22
 150608794.036 5                  28659894.263
        34.600
 128412064.946 7                  24436007.729
        42.400
 112799398.725 7  87895811.80047  21464939.234    21464938.6624   21464942.1814
        47.600          46.2004
 123264883.368 7  96050690.18846  23456482.380    23456481.6254   23456487.9504
        43.100          38.1004
 198973439.299 7                  37863393.040
        44.800
 200890804.886 7                  38228263.024
        43.200
 110818689.827 8  86352263.76647  21088083.412    21088082.7914   21088085.9044
        48.300          47.0004
 129939809.068 6 101251811.66244  24726721.480    24726721.0784   24726723.4684
        40.000          29.4004
 131556249.044 7                  25034256.722
        45.000
 412977523.317 5                  78586966.456
        31.200
 202129092.177 7                  38463867.460
        44.000
 131193753.693 6 102039631.134 5  24508099.147    24508100.407    24508110.843
        40.700          35.500
 106508928.730 8  82994004.30548  20267967.976    20267967.0784   20267971.2364
        50.300          52.2004
 148742387.197 6                  28304797.351
        36.400
 124449243.718 8                  23681851.015
        48.100
 141614076.513 6                  26948211.767
        36.300
 125728276.981 6  97788650.590 5  23520104.085    23520103.078    23520121.606
        38.000          34.100
 140521146.256 6                  26740315.310
        41.000
 148718748.242 6                  28300223.027
        37.600
 114838431.801 6  89318959.081 7  21475302.319    21475302.205    21475311.759
        38.900          45.600
 116044526.929 7                  21769621.306    21769620.724
        45.900
 141188731.991 6                  26867247.374
        41.900
 104959119.055 8  81635033.165 8  19641617.288    19641617.565    19641623.228
        53.200          50.000
 115109101.529 7  89695565.31545  21904471.856    21904470.5154   21904473.2774
        43.000          30.9004
 131939823.606 7                  25107251.827
        46.600
 104653740.000 8  81397570.136 8  19556989.429    19556989.945    19556997.306
        52.300          48.000
 136538490.795 7                  25982424.260
        44.000
 122374127.368 7  95179973.914 6  22932838.780    22932838.494    22932846.460
        46.100          41.600
 118963471.955 7  92698819.36244  22637995.857    22637995.2314   22637996.8924
        43.900          27.9004
 109883217.098 7  85623447.14346  20910018.649    20910018.2204   20910020.2284
        46.800          37.8004
 113788592.408 7  88666593.15746  21653184.358    21653183.1384   21653184.3854
        47.000          37.4004
 119294129.466 7  92784370.139 7  22332104.080    22332104.064    22332111.952
        47.600          43.200
 127815750.979 6  99596824.61244  24322483.868    24322482.4154   24322495.1714
        40.400          24.8004
 118404634.390 7  92092674.117 7  22181129.437    22181129.503    22181142.312
        45.800          43.000
 25  1  1 21 15 30.0000000  0 34E03E05G17G08S31S35G07G15E33S48S33R03
                                G30E04E31E12R01E06E10R20R10E26R11G21
                                E24R21E09R02G13G14G02R12G19R22
 150579721.144 6                  28654362.550
        36.200
 128414521.649 7                  24436474.944
        42.500
 112766177.021 7  87869924.80947  21458617.522    21458616.9464   21458620.2054
        47.500          45.9004
 123316190.596 7  96090669.79746  23466245.576    23466244.8254   23466251.6624
        42.300          37.8004
 198973434.403 7                  37863396.005
        44.900
 200890798.842 7                  38228261.871
        43.000
 110849206.977 7  86376043.31947  21093890.517    21093889.8834   21093893.1154
        47.900          46.6004
 129923862.760 6 101239385.96444  24723687.256    24723686.8674   24723688.8864
        40.200          29.3004
 131538654.283 7                  25030908.413
        45.200
 412977988.501 5                  78586994.529
        31.600
 202129103.796 7                  38463871.086
        43.900
 131164285.367 6 102016711.245 6  24502594.867    24502594.794    24502606.513
        41.100          36.700
 106509192.897 8  82994210.13948  20268018.138    20268017.2404   20268021.5244
        49.800          51.9004
 148786548.699 6                  28313201.164
        37.200
 124456448.204 8                  23683221.915
        48.000
 141568366.012 6                  26939513.142
        36.500
 125777603.207 6  97827015.091 5  23529330.951    23529331.179    23529350.132
        38.100          34.200
 140564767.771 6                  26748616.561
        41.700
 148671753.114 6                  28291280.226
        37.700
 114883313.059 6  89353866.669 7  21483694.963    21483694.944    21483704.941
        38.400          45.700
 116079854.641 7                  21776248.158    21776248.317
        46.300
 141208232.245 6                  26870958.373
        41.800
 104951569.902 8  81629161.591 8  19640204.890    19640204.783    19640210.548
        53.300          49.800
 115127030.493 7  89709535.95245  21907883.366    21907882.0254   21907884.8974
        43.000          30.6004
 131918999.483 7                  25103289.185
        46.700
 104638251.108 8  81385523.237 8  19554095.191    19554095.481    19554102.848
        52.300          48.000
 136575265.740 7                  25989422.557
        44.300
 122387412.870 7  95190307.046 6  22935327.546    22935327.350    22935336.456
        44.000          41.600
 118956421.610 7  92693325.57244  22636653.964    22636653.3344   22636655.2354
        43.700          27.4004
 109861552.035 7  85606565.28446  20905896.251    20905895.8224   20905897.5094
        46.200          37.4004
 113783025.314 7  88662255.19346  21652124.448    21652123.2144   21652124.9504
        46.600          36.9004
 119248394.273 8  92748798.321 7  22323542.478    22323543.035    22323550.082
        48.400          43.000
 127765117.911 6  99557370.63644  24312848.146    24312846.6754   24312859.9204
        40.100          24.5004
 118340327.965 7  92042658.267 7  22169082.087    22169082.580    22169095.680
        45.800          43.000
 25  1  1 21 15 45.0000000  0 34E03E05G17G08S31S35G07G15E33S48S33R03
                                G30E04E31E12R01E06E10R20R10E26R11G21
                                E24R21E09R02G13G14G02R12G19R22
 150550725.348 5                  28648844.466
        35.800
 128417086.584 7                  24436962.954
        42.600
 112733052.856 7  87844113.82147  21452314.096    21452313.5334   21452316.8234
        47.400          46.0004
 123367517.394 6  96130664.65546  23476012.987    23476012.2504   23476018.9914
        41.900          37.8004
 198973431.559 7                  37863392.137
        44.800
 200890794.673 7                  38228261.486
        43.100
 110879839.397 7  86399912.69347  21099719.896    21099719.2624   21099722.3184
        47.600          46.7004
 129908055.243 6 101227068.41944  24720679.288    24720678.8954   24720681.0364
        40.100          29.7004
 131521163.809 7                  25027579.926
        44.900
 412978457.035 5                  78587013.730
        31.900
 202129118.261 7                  38463878.791
        44.200
 131134970.727 6 101993910.859 6  24497118.744    24497119.515    24497130.345
        41.200          36.300
 106509593.737 8  82994522.46948  20268094.722    20268093.8284   20268097.7964
        50.100          52.1004
 148830683.385 6                  28321599.524
        37.800
 124463682.207 7                  23684598.479
        47.900
 141522675.482 5                  26930818.437
        35.800
 125826985.060 6  97865422.888 5  23538569.507    23538569.341    23538587.565
        39.900          34.100
 140608401.634 6                  26756919.200
        40.900
 148624739.215 6                  28282333.767
        38.100
 114928340.054 6  89388887.647 7  21492115.192    21492115.242    21492124.877
        39.200          45.400
 116115255.801 7                  21782889.991    21782889.289
        46.200
 141227833.485 6                  26874688.495
        41.500
 104944110.345 8  81623359.717 8  19638808.654    19638808.935    19638814.669
        53.500          49.900
 115145110.882 7  89723624.58245  21911323.985    21911322.6404   21911325.5384
        42.800          30.7004
 131898196.074 7                  25099330.257
        46.500
 104622968.594 8  81373636.864 7  19551239.209    19551239.501    19551246.925
        52.400          47.800
 136612093.909 7                  25996430.414
        43.600
 122400873.782 7  95200776.625 6  22937850.094    22937850.288    22937859.426
        45.400          41.400
 118949522.669 7  92687949.74944  22635340.926    22635340.2924   22635342.4034
        43.900          27.6004
 109839935.960 7  85589721.59446  20901782.830    20901782.4014   20901784.1434
        46.800          37.5004
 113777604.258 7  88658031.02546  21651093.021    21651091.8014   21651093.3114
        46.800          37.1004
 119202665.205 7  92713231.321 7  22314980.805    22314981.617    22314989.831
        47.700          43.500
 127714518.553 6  99517942.93744  24303218.645    24303217.1744   24303230.7914
        39.900          24.2004
 118276085.983 7  91992692.562 7  22157047.211    22157047.780    22157061.037
        46.700          43.200
 25  1  1 21 16  0.0000000  0 34E03E05G17G08S31S35G07G15E33S48S33R03
                                G30E04E31E12R01E06E10R20R10E26R11G21
                                E24R21E09R02G13G14G02R12G19R22
 150521804.963 6                  28643341.102
        36.300
 128419757.896 7                  24437471.105
        42.400
 112700024.465 7  87818377.46447  21446029.299    21446028.7274   21446031.6624
        47.800          46.0004
 123418861.682 7  96170673.16046  23485784.044    23485783.3024   23485789.4154
        42.500          37.6004
 198973428.662 7                  37863398.272
        45.100
 200890791.128 7                  38228260.663
        43.100
 110910585.094 7  86423870.32447  21105570.518    21105569.8844   21105573.0704
        47.900          46.5004
 129892384.751 6 101214857.63844  24717697.516    24717697.1234   24717699.3004
        40.200          29.8004
 131503775.946 7                  25024271.126
        45.200
 412978924.823 5                  78587033.540
        32.700
 202129132.443 7                  38463871.806
        43.900
 131105807.787 6 101971228.221 6  24491671.291    24491671.671    24491682.326
        41.500          36.900
 106510129.461 8  82994939.91048  20268196.372    20268195.4784   20268199.7814
        50.300          51.9004
 148874789.145 6                  28329992.427
        36.700
 124470943.889 8                  23685980.350
        48.100
 141477003.369 6                  26922126.827
        36.200
 125876420.374 6  97903872.243 5  23547817.166    23547817.426    23547836.539
        39.200          33.800
 140652045.794 6                  26765224.885
        41.100
 148577704.926 6                  28273382.899
        38.600
 114973509.774 6  89424019.619 7  21500562.323    21500562.302    21500572.429
        38.300          45.800
 116150728.348 7                  21789544.120    21789544.065
        46.500
 141247533.760 6                  26878437.354
        41.700
 104936738.682 8  81617626.179 8  19637428.897    19637429.319    19637435.043
        53.200          49.900
 115163340.731 7  89737829.67745  21914793.400    21914792.0724   21914794.5384
        43.200          30.6004
 131877411.574 7                  25095375.324
        46.500
 104607890.752 8  81361909.651 8  19548421.524    19548421.869    19548429.186
        52.500          48.000
 136648973.229 7                  26003448.659
        44.000
 122414507.957 7  95211380.918 6  22940405.497    22940405.342    22940413.286
        45.100          40.700
 118942773.494 7  92682690.63644  22634056.921    22634056.3004   22634058.1844
        44.200          27.4004
 109818367.101 7  85572914.70246  20897678.137    20897677.7084   20897679.6864
        46.500          37.4004
 113772327.559 7  88653919.34246  21650089.164    21650087.9394   21650089.2224
        46.700          36.9004
 119156940.559 7  92677667.720 7  22306421.591    22306422.279    22306429.948
        46.900          42.900
 127663951.176 6  99478540.14944  24293596.595    24293595.1244   24293607.7294
        40.600          24.5004
 118211907.098 7  91942775.896 7  22145024.829    22145025.018    22145037.644
        46.500          43.300
 25  1  1 21 16 15.0000000  0 34E03E05G17G08S31S35G07G15E33S48S33R03
                                G30E04E31E12R01E06E10R20R10E26R11G21
                                E24R21E09R02G13G14G02R12G19R22
 150492959.312 6                  28637852.231
        36.200
 128422534.713 7                  24437999.742
        42.500
 112667091.107 8  87792715.15747  21439762.120    21439761.5534   21439764.6304
        48.100          45.9004
 123470222.343 7  96210694.41446  23495557.111    23495556.3654   23495563.1484
        42.700          37.6004
 198973425.841 7                  37863397.677
        44.700
 200890787.241 7                  38228255.020
        42.800
 110941443.029 8  86447915.41247  21111442.733    21111442.0994   21111445.1734
        48.000          46.5004
 129876850.491 6 101202753.01645  24714741.375    24714740.9864   24714743.7324
        40.900          30.5004
 131486489.984 7                  25020981.694
        45.000
 412977790.765 5                  78587055.012
        32.300
 202129145.998 7                  38463879.547
        44.200
 131076796.813 7 101948663.967 6  24486252.267    24486252.417    24486264.325
        42.700          38.600
 106510799.332 8  82995461.87648  20268323.910    20268323.0214   20268327.2584
        50.500          52.0004
 148918864.980 6                  28338380.098
        36.500
 124478232.425 8                  23687367.328
        48.100
 141431349.058 6                  26913438.794
        36.200
 125925907.698 6  97942362.044 5  23557077.188    23557076.027    23557093.540
        39.600          34.000
 140695699.137 6                  26773532.155
        41.200
 148530649.618 6                  28264428.226
        38.700
 115018821.348 6  89459261.946 7  21509035.978    21509036.304    21509046.006
        38.600          45.800
 116186271.383 7                  21796211.709    21796211.402
        45.600
 141267332.088 7                  26882204.673
        42.100
 104929454.176 8  81611960.454 8  19636065.866    19636066.274    19636072.017
        53.200          49.900
 115181718.884 7  89752150.33445  21918290.283    21918288.9424   21918291.8254
        43.300          30.5004
 131856645.131 7                  25091423.480
        46.500
 104593016.756 8  81350341.010 8  19545641.975    19545642.317    19545649.625
        52.100          48.000
 136685902.608 7                  26010475.923
        44.100
 122428314.145 7  95222119.049 6  22942992.529    22942992.176    22943000.719
        45.800          40.900
 118936173.263 7  92677547.58044  22632800.810    22632800.1764   22632802.2174
        43.900          27.4004
 109796844.682 7  85556143.99346  20893582.746    20893582.3314   20893584.0824
        46.900          37.4004
 113767194.481 7  88649919.57646  21649112.032    21649110.8074   21649112.4364
        46.900          36.9004
 119111219.584 8  92642106.979 7  22297863.339    22297863.289    22297871.079
        48.300          43.000
 127613415.060 6  99439161.73044  24283979.432    24283977.9754   24283990.5794
        40.500          24.9004
 118147790.903 7  91892908.005 7  22133012.999    22133013.426    22133025.909
        46.900          43.000
 25  1  1 21 16 30.0000000  0 34E03E05G17G08S31S35G07G15E33S48S33R03
                                G30E04E31E12R01E06E10R20R10E26R11G21
                                E24R21E09R02G13G14G02R12G19R22
 150464184.821 5                  28632376.504
        35.600
 128425413.212 7                  24438547.606
        42.700
 112634249.092 7  87767124.03947  21433512.327    21433511.7554   21433514.9654
        47.800          46.0004
 123521595.380 7  96250725.32246  23505333.789    23505333.0474   23505339.0854
        42.100          37.5004
 198973418.145 7                  37863386.950
        45.000
 200890779.384 7                  38228256.768
        43.200
 110972409.297 7  86472044.91947  21117335.590    21117334.9564   21117337.8864
        47.500          46.5004
 129861448.715 6 101190751.61944  24711810.127    24711809.7564   24711812.6244
        40.200          29.4004
 131469302.238 7                  25017710.953
        45.100
 412978252.495 5                  78587068.548
        32.500
 202129155.715 7                  38463885.431
        44.600
 131047933.858 6 101926214.926 6  24480859.139    24480860.083    24480871.566
        40.800          37.100
 106511599.696 8  82996085.52748  20268476.201    20268475.3034   20268479.5704
        50.300          51.9004
 148962906.828 6                  28346760.830
        36.800
 124485544.026 8                  23688758.741
        48.400
 141385709.036 6                  26904754.609
        36.900
 125975442.525 6  97980888.806 5  23566340.967    23566340.930    23566361.680
        38.100          33.800
 140739357.636 6                  26781839.990
        41.500
 148483569.764 6                  28255469.381
        38.600
 115064270.781 6  89494611.474 7  21517535.340    21517535.522    21517545.291
        38.600          46.000
 116221880.810 7                  21802893.179    21802892.422
        46.100
 141287224.530 6                  26885989.960
        41.800
 104922253.276 8  81606359.766 8  19634718.456    19634718.670    19634724.565
        53.200          50.000
 115200241.534 7  89766583.57645  21921815.196    21921813.8734   21921816.5414
        42.600          30.5004
 131835892.947 7                  25087474.536
        47.000
 104578342.778 8  81338927.953 8  19542899.986    19542900.148    19542907.474
        52.100          48.200
 136722878.006 7                  26017512.272
        44.100
 122442288.403 7  95232987.891 6  22945611.545    22945611.778    22945619.945
        46.600          41.100
 118929717.967 7  92672517.46244  22631572.325    22631571.7084   22631573.8094
        43.100          27.4004
 109775365.006 7  85539406.58346  20889495.295    20889494.8714   20889496.6214
        46.400          37.3004
 113762201.328 7  88646028.83546  21648161.884    21648160.6734   21648162.1804
        46.400          36.9004
 119065498.748 8  92606546.350 7  22289303.541    22289304.201    22289311.906
        48.500          43.200
 127562906.752 6  99399804.96144  24274367.538    24274366.0634   24274379.0414
        39.800          25.5004
 118083734.045 7  91843086.279 7  22121012.665    22121013.219    22121025.541
        46.600          43.200
 25  1  1 21 16 45.0000000  0 34E03E05G17G08S31S35G07G15E33S48S33R03
                                G30E04E31E12R01E06E10R20R10E26R11G21
                                E24R21E09R02G13G14G02R12G19R22
 150435486.325 5                  28626915.188
        35.400
 128428397.987 7                  24439115.782
        42.400
 112601503.189 7  87741607.81247  21427280.685    21427280.1044   21427283.5404
        47.300          46.2004
 123572985.174 7  96290769.28146  23515112.725    23515111.9884   23515118.2204
        42.000          37.8004
 198973411.117 7                  37863387.924
        44.900
 200890771.480 7                  38228258.222
        43.200
 111003488.450 8  86496262.38847  21123249.674    21123249.0404   21123252.0724
        48.000          46.6004
 129846184.249 6 101178857.24745  24708905.798    24708905.4234   24708907.7154
        40.200          30.2004
 131452217.530 7                  25014459.999
        44.700
 412978713.904 5                  78587093.750
        32.300
 202129165.074 7                  38463885.829
        44.000
 131019223.730 6 101903884.702 6  24475497.188    24475497.955    24475508.735
        40.800          36.900
 106512535.260 8  82996814.52848  20268654.193    20268653.2954   20268657.6084
        49.900          52.1004
 149006919.207 6                  28355136.021
        36.900
 124492883.396 8                  23690155.270
        48.200
 141340088.247 6                  26896072.699
        36.300
 126025029.169 6  98019455.863 5  23575617.968    23575618.044    23575637.310
        38.000          33.400
 140783025.719 6                  26790149.930
        40.800
 148436470.212 6                  28246506.240
        38.300
 115109861.918 6  89530071.216 7  21526061.011    21526060.939    21526070.842
        38.400          45.900
 116257561.801 7                  21809586.172    21809585.909
        46.800
 141307215.655 6                  26889794.132
        41.100
 104915140.977 8  81600827.977 8  19633387.681    19633387.674    19633393.546
        53.100          50.000
 115218913.103 7  89781132.87045  21925368.110    21925366.7824   21925369.5584
        42.800          30.7004
 131815159.694 7                  25083529.167
        46.700
 104563873.879 8  81327674.380 8  19540196.089    19540196.216    19540203.525
        51.800          48.000
 136759903.853 7                  26024557.930
        43.900
 122456435.290 7  95243990.983 6  22948263.229    22948263.235    22948271.389
        46.700          41.600
 118923412.315 7  92667603.95144  22630372.351    22630371.7394   22630373.8714
        43.400          27.7004
 109753932.788 7  85522706.16046  20885416.745    20885416.3254   20885418.1614
        46.500          37.7004
 113757352.812 7  88642250.79346  21647239.422    21647238.2114   21647239.5104
        46.600          37.1004
 119019782.874 8  92570989.595 7  22280745.731    22280745.878    22280753.971
        48.200          43.300
 127512430.987 6  99360473.55644  24264762.152    24264760.6864   24264773.2184
        39.700          24.9004
 118019741.799 7  91793314.787 7  22109025.483    22109025.667    22109037.787
        46.200          43.200
 25  1  1 21 17  0.0000000  0 34E03E05G17G08S31S35G07G15E33S48S33R03
                                G30E04E31E12R01E06E10R20R10E26R11G21
                                E24R21E09R02G13G14G02R12G19R22
 150406868.913 5                  28621469.309
        35.800
 128431493.914 7                  24439704.844
        42.300
 112568858.307 7  87716170.30447  21421068.927    21421068.3554   21421071.3744
        47.600          46.1004
 123624396.371 7  96330829.91346  23524895.868    23524895.1354   23524901.6424
        42.500          37.7004
 198973409.671 7                  37863390.384
        45.000
 200890768.991 7                  38228252.686
        43.200
 111034685.283 7  86520571.55647  21129186.305    21129185.6714   21129188.6704
        47.800          46.5004
 129831061.961 6 101167073.64144  24706027.985    24706027.6144   24706030.0834
        40.000          29.9004
 131435240.923 7                  25011229.405
        45.000
 412979181.459 5                  78587115.549
        31.600
 202129180.506 7                  38463887.327
        44.300
 130990671.956 6 101881677.492 6  24470162.801    24470163.689    24470175.981
        40.500          36.700
 106513610.995 8  82997652.75148  20268859.162    20268858.2684   20268862.3284
        50.100          52.1004
 149050906.818 5                  28363506.592
        34.900
 124500255.420 8                  23691558.288
        48.000
 141294491.841 6                  26887395.299
        36.700
 126074671.796 6  98058066.520 5  23584904.433    23584904.996    23584923.667
        38.000          33.000
 140826708.021 6                  26798462.668
        40.900
 148389356.096 6                  28237540.059
        37.400
 115155599.010 6  89565644.511 7  21534614.533    21534614.075    21534623.844
        38.700          45.800
 116293319.198 7                  21816295.062    21816294.018
        45.900
 141327310.152 6                  26893617.894
        41.100
 104908122.405 8  81595369.077 8  19632074.232    19632074.247    19632079.954
        53.300          49.900
 115237738.343 7  89795801.89545  21928950.234    21928948.9024   21928951.8924
        43.000          30.6004
 131794450.265 7                  25079588.052
        46.600
 104549615.141 8  81316584.279 8  19537531.458    19537531.442    19537538.979
        51.600          48.000
 136796984.773 7                  26031614.304
        43.600
 122470759.396 7  95255131.924 6  22950946.517    22950946.875    22950955.445
        46.400          41.500
 118917261.398 7  92662811.01344  22629202.345    22629201.7604   22629203.3574
        44.000          27.4004
 109732552.984 7  85506046.57246  20881348.411    20881347.9824   20881349.7004
        46.700          37.6004
 113752653.849 7  88638589.29146  21646345.029    21646343.8274   21646345.2484
        46.900          37.0004
 118974077.151 7  92535440.730 7  22272189.470    22272189.173    22272197.119
        47.900          43.000
 127461992.853 6  99321171.47044  24255163.802    24255162.3544   24255174.4734
        39.900          25.0004
 117955819.568 7  91743597.766 7  22097049.749    22097050.192    22097062.854
        46.500          43.600
 25  1  1 21 17 15.0000000  0 34E03E05G17G08S31S35G07G15E33S48S33R03
                                G30E04E31E12R01E06E10R20R10E26R11G21
                                E24R21E09R02G13G14G02R12G19R22
 150378326.081 6                  28616038.045
        36.600
 128434694.365 7                  24440313.933
        43.000
 112536308.004 7  87690806.49147  21414874.635    21414874.0684   21414877.1354
        47.500          46.0004
 123675822.124 7  96370901.86846  23534681.650    23534680.9084   23534687.7304
        42.200          37.6004
 198973406.575 7                  37863384.056
        45.000
 200890765.513 7                  38228258.204
        43.400
 111065993.051 8  86544967.16547  21135143.934    21135143.3044   21135146.3474
        48.000          46.3004
 129816075.430 6 101155395.81544  24703175.920    24703175.5544   24703177.8094
        40.200          29.6004
 131418365.917 7                  25008018.241
        44.900
 412979645.740 5                  78587132.550
        32.200
 202129193.745 7                  38463892.139
        44.600
 130962272.202 6 101859588.637 6  24464858.451    24464858.400    24464869.560
        41.400          37.600
 106514820.383 8  82998595.11748  20269089.119    20269088.2304   20269092.4914
        50.100          51.9004
 149094862.845 6                  28371871.356
        36.800
 124507653.483 8                  23692966.082
        48.200
 141248913.417 6                  26878722.000
        36.600
 126124363.435 6  98096715.246 5  23594201.183    23594201.285    23594221.150
        37.900          33.000
 140870397.697 6                  26806776.750
        40.500
 148342221.059 6                  28228571.233
        37.700
 115201475.056 6  89601325.866 7  21543192.725    21543192.829    21543203.363
        38.000          45.900
 116329145.866 7                  21823015.426    21823015.113
        45.800
 141347501.291 6                  26897460.284
        41.600
 104901191.060 8  81589978.029 8  19630776.777    19630776.984    19630782.776
        52.800          49.800
 115256710.594 7  89810585.47945  21932560.758    21932559.4264   21932562.2174
        42.800          30.5004
 131773758.069 7                  25075650.671
        46.600
 104535559.964 8  81305652.489 8  19534904.920    19534904.892    19534912.343
        52.400          48.000
 136834113.913 7                  26038679.925
        43.900
 122485253.688 7  95266405.238 6  22953662.622    22953662.273    22953671.580
        44.900          40.900
 118911258.553 7  92658133.45144  22628059.578    22628058.9794   22628061.1214
        43.800          27.5004
 109711219.094 7  85489422.75946  20877288.709    20877288.2854   20877289.9864
        46.400          37.4004
 113748097.918 7  88635039.24146  21645478.103    21645476.9054   21645478.2414
        46.400          36.8004
 118928374.988 8  92499894.616 7  22263633.465    22263634.145    22263641.957
        48.200          43.100
 127411585.996 6  99281893.74844  24245571.840    24245570.4014   24245582.1104
        39.900          24.9004
 117891961.234 7  91693930.418 7  22085087.746    22085087.577    22085099.752
        46.800          43.400
 25  1  1 21 17 30.0000000  0 34E03E05G17G08S31S35G07G15E33S48S33R03
                                G30E04E31E12R01E06E10R20R10E26R11G21
                                E24R21E09R02G13G14G02R12G19R22
 150349857.547 6                  28610620.297
        36.300
 128437998.714 7                  24440942.271
        42.300
 112503851.935 7  87665516.10847  21408698.345    21408697.7824   21408700.8804
        47.800          46.2004
 123727261.651 7  96410984.56646  23544470.198    23544469.4474   23544476.1974
        42.200          37.6004
 198973401.786 7                  37863387.155
        45.200
 200890759.429 7                  38228258.870
        43.600
 111097411.309 7  86569448.87147  21141122.643    21141122.0094   21141125.0584
        47.900          46.4004
 129801224.285 6 101143823.48745  24700350.299    24700349.9424   24700352.0214
        41.100          30.3004
 131401592.107 7                  25004826.143
        44.700
 412978506.787 5                  78587155.356
        32.500
 202129205.616 7                  38463897.599
        44.700
 130934023.472 7 101837617.050 6  24459581.495    24459581.997    24459593.122
        43.200          37.300
 106516163.022 8  82999641.31548  20269344.676    20269343.7914   20269348.0084
        50.100          52.1004
 149138786.522 6                  28380229.787
        36.800
 124515077.074 8                  23694378.721
        48.300
 141203352.767 6                  26870051.810
        36.500
 126174102.617 6  98135400.951 5  23603506.124    23603506.168    23603525.483
        37.400          33.700
 140914093.982 6                  26815091.668
        41.100
 148295064.777 6                  28219597.204
        38.100
 115247489.327 6  89637114.738 7  21551797.702    21551797.752    21551807.673
        38.300          45.500
 116365041.955 7                  21829748.836    21829748.961
        45.400
 141367788.452 6                  26901321.132
        41.000
 104894346.551 8  81584654.516 8  19629496.101    19629496.177    19629502.005
        52.900          49.700
 115275829.116 7  89825483.03745  21936198.825    21936197.5024   21936200.3654
        43.200          30.7004
 131753082.558 7                  25071716.166
        46.800
 104521707.891 8  81294878.682 8  19532316.142    19532316.480    19532323.743
        52.500          48.200
 136871290.492 7                  26045754.334
        43.700
 122499917.381 7  95277810.269 6  22956410.875    22956410.912    22956419.540
        45.300          40.600
 118905403.272 7  92653570.88344  22626945.633    22626945.0394   22626946.9544
        43.900          27.7004
 109689930.644 7  85472834.35546  20873237.797    20873237.3734   20873238.9464
        47.100          37.7004
 113743684.505 7  88631600.24546  21644638.131    21644636.9244   21644638.4034
        46.800          37.0004
 118882675.924 8  92464350.959 7  22255078.533    22255078.688    22255087.202
        48.100          43.600
 127361209.962 6  99242640.05644  24235985.095    24235983.6474   24235995.4614
        40.800          25.5004
 117828166.677 7  91644312.664 7  22073136.203    22073136.656    22073148.777
        47.500          43.300
 25  1  1 21 17 45.0000000  0 34E03E05G17G08S31S35G07G15E33S48S33R03
                                G30E04E31E12R01E06E10R20R10E26R11G21
                                E24R21E09R02G13G14G02R12G19R22
 150321466.679 5                  28605217.470
        35.800
 128441410.067 7                  24441591.631
        42.400
 112471493.220 7  87640301.58147  21402540.534    21402539.9764   21402543.2104
        47.700          46.2004
 123778717.861 7  96451080.25446  23554262.571    23554261.8074   23554267.9774
        42.000          37.7004
 198973398.177 7                  37863384.521
        44.800
 200890755.300 7                  38228249.753
        42.900
 111128942.749 7  86594018.77047  21147122.974    21147122.3404   21147125.3504
        47.800          46.5004
 129786511.764 6 101132359.18344  24697550.142    24697549.7854   24697552.2134
        40.700          29.4004
 131384922.800 7                  25001654.121
        45.100
 412978967.535 5                  78587165.064
        32.100
 202129218.970 7                  38463896.387
        44.300
 130905930.431 6 101815766.759 6  24454333.683    24454334.173    24454345.440
        41.600          38.500
 106517642.091 8  83000793.82148  20269626.186    20269625.3064   20269629.4844
        50.100          52.1004
 149182680.776 6                  28388582.436
        36.100
 124522529.385 8                  23695796.792
        48.100
 141157813.271 6                  26861385.983
        36.300
 126223892.344 6  98174125.971 5  23612820.702    23612819.431    23612839.403
        36.800          32.500
 140957799.771 6                  26823409.049
        40.600
 148247890.638 6                  28210620.016
        38.200
 115293644.258 6  89673012.983 7  21560429.321    21560428.627    21560439.474
        37.900          45.700
 116401010.077 7                  21836497.419    21836496.688
        45.500
 141388174.567 6                  26905200.332
        41.700
 104887592.408 8  81579401.289 8  19628231.978    19628232.372    19628238.195
        53.100          49.800
 115295096.715 7  89840496.75645  21939865.787    21939864.4644   21939866.8184
        42.400          30.8004
 131732426.868 7                  25067785.712
        46.600
 104508062.221 8  81284265.412 8  19529766.205    19529766.358    19529773.729
        52.600          48.100
 136908517.419 7                  26052838.537
        43.400
 122514753.450 7  95289349.397 6  22959191.550    22959191.286    22959200.393
        45.700          41.200
 118899698.433 7  92649125.54344  22625859.781    22625859.1824   22625861.4904
        43.900          27.8004
 109668690.842 7  85456283.85646  20869195.763    20869195.3304   20869197.1094
        46.900          37.9004
 113739416.835 7  88628274.81546  21643825.923    21643824.7214   21643826.2994
        46.600          37.1004
 118836983.458 8  92428812.376 7  22246525.308    22246525.941    22246533.444
        48.800          43.400
 127310868.095 6  99203412.98444  24226405.086    24226403.6514   24226415.5414
        40.600          25.2004
 117764439.539 7  91594747.380 7  22061197.836    22061197.992    22061209.514
        47.200          43.100
 25  1  1 21 18  0.0000000  0 34E03E05G17G08S31S35G07G15E33S48S33R03
                                G30E04E31E12R01E06E10R20R10E26R11G21
                                E24R21E09R02G13G14G02R12G19R22
 150293154.367 6                  28599830.249
        36.500
 128444929.215 7                  24442261.605
        42.800
 112439232.914 7  87615163.75047  21396401.674    21396401.1074   21396404.2144
        47.800          46.3004
 123830191.337 7  96491189.40346  23564057.204    23564056.4314   23564063.1294
        42.600          37.8004
 198973396.616 7                  37863383.913
        45.100
 200890753.342 7                  38228255.995
        43.400
 111160587.964 8  86618677.32447  21153144.941    21153144.3024   21153147.2394
        48.200          46.4004
 129771938.762 6 101121003.60144  24694777.043    24694776.6774   24694779.0334
        40.400          29.2004
 131368358.961 7                  24998501.893
        45.200
 412979431.109 5                  78587197.188
        32.700
 202129234.341 7                  38463896.637
        44.200
 130877993.822 7 101794038.337 6  24449113.376    24449114.461    24449126.798
        42.500          38.900
 106519258.538 8  83002053.37548  20269933.804    20269932.9284   20269937.0964
        50.100          52.1004
 149226546.288 6                  28396930.065
        36.600
 124530011.222 8                  23697220.554
        48.500
 141112295.985 6                  26852724.290
        37.300
 126273732.758 6  98212890.368 5  23622145.891    23622145.711    23622162.665
        38.200          32.400
 141001515.652 6                  26831727.688
        41.000
 148200699.719 6                  28201639.976
        38.400
 115339940.169 6  89709020.862 7  21569087.004    21569087.124    21569096.937
        38.500          45.700
 116437051.483 7                  21843258.852    21843258.019
        44.700
 141408660.374 6                  26909098.246
        41.500
 104880929.675 8  81574219.157 8  19626985.253    19626985.469    19626991.435
        52.700          49.800
 115314514.177 7  89855627.25945  21943560.845    21943559.5444   21943561.7294
        43.100          30.8004
 131711791.878 7                  25063858.725
        47.300
 104494624.031 8  81273813.494 8  19527254.924    19527255.117    19527262.466
        52.600          48.000
 136945795.243 7                  26059932.431
        44.000
 122529762.358 7  95301022.945 6  22962003.865    22962004.644    22962012.860
        46.300          41.400
 118894145.084 7  92644798.24044  22624802.864    22624802.2654   22624804.7924
        44.000          27.7004
 109647500.609 7  85439771.98746  20865163.568    20865163.1354   20865164.7304
        46.700          37.9004
 113735295.713 7  88625063.57746  21643041.853    21643040.6554   21643042.0214
        46.400          37.1004
 118791298.586 8  92393279.739 7  22237972.803    22237972.787    22237980.876
        48.100          43.300
 127260561.447 6  99164213.36744  24216831.491    24216830.0614   24216842.3394
        40.300          25.7004
 117700781.265 7  91545235.606 7  22049272.744    22049273.047    22049284.416
        47.900          43.200
 25  1  1 21 18 15.0000000  0 34E03E05G17G08S31S35G07G15E33S48S33R03
                                G30E04E31E12R01E06E10R20R10E26R11G21
                                E24R21E09R02G13G14G02R12G19R22
 150264913.492 5                  28594455.845
        35.800
 128448548.681 7                  24442950.120
        42.400
 112407063.564 7  87590096.78747  21390279.948    21390279.3814   21390282.5184
        47.500          46.4004
 123881674.445 6  96531306.06146  23573854.241    23573853.4684   23573860.2134
        41.500          37.9004
 198973390.058 7                  37863387.187
        45.300
 200890746.363 7                  38228252.628
        43.400
 111192339.518 7  86643418.74147  21159187.127    21159186.4884   21159189.3724
        47.700          46.6004
 129757497.928 6 101109750.99044  24692028.861    24692028.4814   24692031.1724
        39.800          29.6004
 131351893.306 7                  24995368.389
        44.800
 412979889.703 5                  78587220.351
        32.800
 202129244.310 7                  38463901.194
        44.500
 130850206.781 7 101772426.240 6  24443923.470    24443924.539    24443936.473
        42.200          38.800
 106521005.008 8  83003414.25048  20270266.057    20270265.1994   20270269.4494
        49.600          52.3004
 149270375.429 6                  28405269.642
        36.200
 124537515.211 8                  23698648.585
        48.300
 141066793.801 6                  26844065.220
        37.000
 126323615.684 6  98251687.897 5  23631477.200    23631476.507    23631496.426
        38.600          33.600
 141045233.928 6                  26840047.252
        41.300
 148153484.794 6                  28192654.892
        38.500
 115386368.920 6  89745132.122 7  21577768.126    21577769.217    21577779.107
        38.100          45.500
 116473158.556 7                  21850032.130    21850031.167
        45.900
 141429238.328 6                  26913014.039
        41.400
 104874350.970 8  81569102.393 8  19625754.409    19625754.270    19625760.312
        52.800          50.000
 115334073.939 7  89870868.64145  21947282.358    21947281.0444   21947283.7654
        42.900          30.9004
 131691170.120 7                  25059934.907
        47.000
 104481385.605 8  81263516.964 8  19524780.981    19524781.000    19524788.590
        52.600          48.200
 136983116.311 7                  26067034.335
        44.100
 122544936.457 7  95312824.980 6  22964848.143    22964848.055    22964856.374
        46.100          41.200
 118888735.772 7  92640583.17944  22623773.653    22623773.0544   22623775.3624
        43.400          28.1004
 109626352.599 7  85423293.01946  20861139.151    20861138.7134   20861140.4124
        46.500          38.1004
 113731314.004 7  88621960.97146  21642284.115    21642282.9174   21642284.2064
        46.300          37.3004
 118745613.964 8  92357747.293 7  22229419.817    22229420.603    22229428.343
        48.300          43.200
 127210282.828 6  99125035.58044  24207263.711    24207262.2904   24207274.2074
        40.500          25.7004
 117637184.760 7  91495771.902 7  22037358.854    22037359.124    22037370.967
        47.900          43.700
 25  1  1 21 18 30.0000000  0 34E03E05G17G08S31S35G07G15E33S48S33R03
                                G30E04E31E12R01E06E10R20R10E26R11G21
                                E24R21E09R02G13G14G02R12G19R22
 150236751.706 6                  28589097.047
        36.300
 128452276.017 7                  24443659.650
        42.400
 112374992.777 7  87565106.62047  21384177.122    21384176.5594   21384179.6114
        47.600          46.2004
 123933174.485 6  96571435.90346  23583654.370    23583653.6014   23583660.4174
        41.800          37.6004
 198973385.746 7                  37863385.966
        45.400
 200890741.128 7                  38228249.583
        43.400
 111224204.931 7  86668248.87647  21165250.845    21165250.2024   21165253.1964
        47.400          46.3004
 129743196.825 6 101098607.26244  24689307.594    24689307.2054   24689310.1274
        39.200          29.5004
 131335533.516 7                  24992255.302
        44.800
 412978749.117 5                  78587218.066
        31.600
 202129256.623 7                  38463898.913
        44.300
 130822576.121 7 101750935.738 6  24438761.309    24438762.199    24438774.115
        42.000          37.700
 106522889.165 8  83004882.41248  20270624.686    20270623.8284   20270627.9884
        49.900          52.1004
 149314175.508 6                  28413604.968
        36.500
 124545048.908 8                  23700082.094
        48.200
 141021314.531 6                  26835410.796
        36.500
 126373548.321 6  98290524.092 5  23640817.170    23640817.029    23640837.440
        37.800          32.600
 141088961.969 6                  26848368.636
        40.400
 148106253.652 6                  28183666.743
        38.500
 115432937.959 6  89781352.459 7  21586478.416    21586477.604    21586488.035
        38.400          45.700
 116509338.886 7                  21856819.526    21856819.247
        45.600
 141449915.847 6                  26916949.233
        41.200
 104867864.167 8  81564057.104 8  19624540.159    19624540.520    19624546.289
        53.100          49.800
 115353783.226 7  89886226.52845  21951032.903    21951031.5804   21951034.3254
        43.200          30.8004
 131670569.180 7                  25056014.437
        47.200
 104468354.869 8  81253381.975 8  19522345.815    19522345.942    19522353.416
        52.500          48.000
 137020487.939 7                  26074146.309
        44.100
 122560283.106 7  95324761.245 6  22967724.042    22967724.359    22967732.329
        46.500          40.800
 118883478.077 7  92636486.25344  22622773.336    22622772.7374   22622774.6354
        43.300          27.9004
 109605254.465 7  85406852.91246  20857124.392    20857123.9594   20857125.5444
        46.800          38.0004
 113727479.243 7  88618972.87046  21641554.384    21641553.1734   21641554.4554
        46.500          37.0004
 118699937.487 8  92322221.152 7  22220870.155    22220870.664    22220878.145
        48.400          43.400
 127160039.918 6  99085885.60944  24197702.230    24197700.7824   24197712.8134
        40.200          25.3004
 117573658.211 7  91446362.621 7  22025457.528    22025457.655    22025469.757
        47.800          44.000
 25  1  1 21 18 45.0000000  0 34E03E05G17G08S31S35G07G15E33S48S33R03
                                G30E04E31E12R01E06E10R20R10E26R11G21
                                E24R21E09R02G13G14G02R12G19R22
 150208668.083 6                  28583753.306
        36.900
 128456109.980 7                  24444389.308
        42.100
 112343019.621 7  87540192.53747  21378092.590    21378092.0184   21378095.2184
        47.800          46.2004
 123984690.063 7  96611577.85746  23593457.584    23593456.8064   23593463.5964
        42.000          37.7004
 198973382.048 7                  37863386.659
        45.500
 200890737.299 7                  38228248.223
        43.500
 111256182.934 7  86693166.74747  21171336.338    21171335.6994   21171338.4444
        47.900          46.2004
 129729034.373 6 101087571.58644  24686612.451    24686612.0764   24686615.2284
        40.500          29.0004
 131319278.609 7                  24989162.568
        44.800
 412979208.644 5                  78587252.189
        32.800
 202129270.006 7                  38463900.854
        44.100
 130795101.734 6 101729566.771 6  24433629.463    24433629.872    24433641.976
        41.700          38.800
 106524909.914 8  83006457.00948  20271009.102    20271008.2444   20271012.5344
        50.300          52.0004
 149357945.207 5                  28421934.528
        35.800
 124552611.174 8                  23701521.094
        48.000
 140975857.277 6                  26826760.652
        36.200
 126423529.052 6  98329397.625 5  23650169.012    23650168.435    23650186.064
        38.100          33.300
 141132698.333 6                  26856691.398
        40.800
 148059005.419 6                  28174675.352
        38.000
 115479645.381 6  89817680.428 7  21595213.326    21595212.901    21595222.527
        38.600          45.500
 116545591.361 7                  21863620.654    21863619.860
        45.700
 141470691.614 6                  26920903.123
        41.100
 104861468.256 8  81559082.505 8  19623343.266    19623343.484    19623349.419
        53.100          49.900
 115373640.852 7  89901700.00645  21954811.705    21954810.3774   21954813.2574
        43.400          30.7004
 131649987.904 7                  25052097.721
        46.700
 104455530.799 8  81243407.711 8  19519949.451    19519949.479    19519956.930
        52.800          48.000
 137057908.729 7                  26081267.040
        43.800
 122575800.648 7  95336830.414 6  22970632.071    22970632.027    22970640.699
        46.600          41.500
 118878370.928 7  92632506.63944  22621801.250    22621800.6564   22621802.7954
        44.100          28.0004
 109584205.090 7  85390450.80646  20853118.682    20853118.2444   20853119.9494
        46.800          37.9004
 113723790.386 7  88616098.45646  21640852.551    21640851.3404   21640852.5004
        46.700          37.1004
 118654267.998 8  92286700.461 7  22212320.297    22212320.488    22212328.335
        48.000          43.100
 127109831.674 6  99046762.67644  24188147.802    24188146.3404   24188158.4724
        40.300          25.4004
 117510200.944 7  91397007.212 7  22013569.656    22013569.426    22013581.770
        47.300          44.000
 25  1  1 21 19  0.0000000  0 34E03E05G17G08S31S35G07G15E33S48S33R03
                                G30E04E31E12R01E06E10R20R10E26R11G21
                                E24R21E09R02G13G14G02R12G19R22
 150180663.044 6                  28578423.806
        36.300
 128460050.807 6                  24445139.195
        41.700
 112311144.392 7  87515354.76347  21372027.047    21372026.4804   21372029.4484
        47.500          46.0004
 124036221.211 6  96651731.94746  23603263.601    23603262.8284   23603269.7344
        41.600          37.2004
 198973380.319 7                  37863386.091
        45.100
 200890735.194 7                  38228251.107
        43.300
 111288273.634 7  86718172.43447  21177442.907    21177442.2684   21177445.1334
        47.800          45.9004
 129715010.870 6 101076644.17944  24683943.818    24683943.4474   24683946.0544
        39.700          28.1004
 131303128.958 7                  24986089.189
        44.600
 412979669.808 5                  78587274.368
        32.300
 202129284.433 7                  38463909.762
        44.500
 130767783.413 6 101708318.892 6  24428525.708    24428527.218    24428539.121
        41.900          37.200
 106527067.609 8  83008138.32048  20271419.649    20271418.7914   20271423.1644
        50.300          51.7004
 149401684.604 5                  28430257.277
        34.300
 124560202.302 7                  23702965.739
        47.900
 140930422.592 6                  26818114.427
        36.600
 126473557.371 6  98368308.191 5  23659526.553    23659527.018    23659546.503
        38.000          32.500
 141176443.049 6                  26865015.884
        40.400
 148011740.552 6                  28165681.388
        37.600
 115526490.826 6  89854115.730 7  21603973.231    21603972.241    21603983.379
        37.800          46.000
 116581915.841 7                  21870434.648    21870434.752
        45.700
 141491565.779 6                  26924874.879
        40.900
 104855163.790 8  81554179.043 8  19622163.638    19622163.772    19622169.550
        52.900          49.800
 115393646.909 7  89917289.14745  21958618.717    21958617.3634   21958620.2544
        43.100          30.4004
 131629426.574 7                  25048185.208
        46.600
 104442913.880 8  81233594.583 8  19517591.476    19517591.615    19517599.107
        52.600          48.000
 137095378.674 7                  26088397.573
        43.500
 122591489.345 7  95349032.692 6  22973571.589    22973571.479    22973580.281
        45.100          41.300
 118873414.608 7  92628644.55344  22620858.196    22620857.5934   22620859.6324
        44.200          27.7004
 109563204.851 7  85374086.98946  20849122.706    20849122.2734   20849123.7364
        46.900          37.7004
 113720247.716 7  88613337.95846  21640178.156    21640176.9454   21640178.3854
        46.700          36.7004
 118608605.983 7  92251185.594 7  22203771.939    22203772.100    22203780.838
        47.700          43.800
 127059658.508 6  99007667.05944  24178600.143    24178598.6544   24178609.8994
        40.400          24.9004
 117446813.767 8  91347706.297 7  22001695.106    22001695.260    22001707.077
        48.000          43.800
 25  1  1 21 19 15.0000000  0 34E03E05G17G08S31S35G07G15E33S48S33R03
                                G30E04E31E12R01E06E10R20R10E26R11G21
                                E24R21E09R02G13G14G02R12G19R22
 150152733.666 6                  28573108.986
        36.500
 128464095.328 7                  24445908.893
        42.200
 112279364.027 7  87490590.90947  21365979.508    21365978.9364   21365981.7444
        47.600          45.8004
 124087764.522 7  96691895.51346  23613072.253    23613071.4714   23613078.1454
        42.200          37.0004
 198973376.835 7                  37863383.605
        45.200
 200890730.661 7                  38228252.927
        43.200
 111320473.671 7  86743263.31747  21183570.650    21183570.0024   21183572.6564
        47.700          45.7004
 129701123.481 6 101065822.82144  24681301.202    24681300.8274   24681302.9764
        40.400          28.1004
 131287081.557 7                  24983035.204
        44.300
 412980128.641 5                  78587288.914
        32.300
 202129297.446 7                  38463904.838
        44.300
 130740618.930 6 101687190.752 6  24423452.384    24423452.159    24423464.429
        41.300          38.400
 106529359.196 8  83009923.96248  20271855.769    20271854.9064   20271859.2504
        50.100          51.6004
 149445390.308 5                  28438574.457
        35.400
 124567819.153 8                  23704415.292
        48.000
 140885007.548 6                  26809471.726
        36.600
 126523629.623 6  98407252.976 5  23668892.828    23668892.903    23668914.887
        37.500          33.700
 141220192.740 6                  26873341.303
        40.600
 147964456.142 6                  28156682.627
        37.500
 115573470.940 6  89890655.804 7  21612759.376    21612758.291    21612768.118
        38.200          45.500
 116618309.801 7                  21877261.967    21877261.900
        44.800
 141512535.094 6                  26928865.469
        40.900
 104848947.840 8  81549344.389 8  19620999.849    19621000.408    19621006.285
        52.700          49.800
 115413798.042 7  89932991.33445  21962453.640    21962452.2864   21962454.8044
        43.000          30.3004
 131608882.080 7                  25044275.755
        46.800
 104430500.896 8  81223940.046 8  19515271.673    19515271.934    19515279.399
        52.500          48.000
 137132894.432 7                  26095536.393
        43.500
 122607345.584 7  95361365.277 6  22976544.522    22976544.205    22976552.426
        46.700          41.600
 118868605.836 7  92624897.44044  22619943.188    22619942.5984   22619944.4784
        44.200          27.6004
 109542250.676 7  85357759.05946  20845135.330    20845134.9064   20845136.2654
        47.000          37.6004
 113716847.971 7  88610688.82846  21639531.468    21639530.2484   21639531.4404
        47.100          36.6004
 118562948.578 8  92215674.281 7  22195225.332    22195225.520    22195233.430
        48.200          43.400
 127009517.611 6  98968596.59344  24169058.153    24169056.6564   24169068.2254
        40.700          25.6004
 117383493.907 8  91298457.734 7  21989832.451    21989833.186    21989844.461
        48.200          43.500
 25  1  1 21 19 30.0000000  0 34E03E05G17G08S31S35G07G15E33S48S33R03
                                G30E04E31E12R01E06E10R20R10E26R11G21
                                E24R21E09R02G13G14G02R12G19R22
 150124881.981 5                  28567808.567
        35.600
 128468245.348 7                  24446698.599
        42.500
 112247680.405 7  87465902.43747  21359950.410    21359949.8294   21359952.5174
        47.800          45.9004
 124139321.710 6  96732069.88646  23622882.786    23622881.9824   23622889.1444
        41.800          37.1004
 198973373.173 7                  37863384.879
        45.100
 200890727.094 7                  38228249.176
        43.300
 111352784.915 7  86768440.86047  21189719.046    21189718.3944   21189721.3564
        47.400          45.7004
 129687374.097 6 101055109.02344  24678684.808    24678684.4334   24678686.6254
        40.200          28.4004
 131271138.483 7                  24980001.594
        44.900
 412980587.441 5                  78587307.972
        32.400
 202129310.971 7                  38463911.438
        44.700
 130713610.645 7 101666184.148 6  24418407.813    24418408.209    24418418.726
        42.300          38.400
 106531786.653 8  83011815.47648  20272317.813    20272316.9554   20272321.1824
        50.100          51.7004
 149489064.099 5                  28446885.131
        35.900
 124575463.660 8                  23705869.843
        48.100
 140839614.360 6                  26800833.426
        36.700
 126573747.346 6  98446233.081 5  23678270.823    23678269.886    23678289.613
        37.500          33.300
 141263949.092 6                  26881667.832
        40.700
 147917154.341 6                  28147681.259
        38.100
 115620587.666 6  89927302.106 7  21621569.596    21621569.181    21621579.536
        38.000          45.700
 116654774.787 7                  21884103.294    21884102.664
        45.400
 141533601.294 6                  26932874.003
        40.900
 104842822.504 8  81544580.243 8  19619853.988    19619854.143    19619860.181
        52.900          49.500
 115434095.936 7  89948807.87245  21966315.877    21966314.5274   21966317.3294
        43.100          30.4004
 131588356.300 7                  25040369.794
        46.700
 104418293.931 8  81214445.759 7  19512990.310    19512990.807    19512998.151
        52.700          47.800
 137170457.626 7                  26102684.493
        43.200
 122623371.061 7  95373829.491 6  22979546.526    22979546.721    22979555.004
        46.600          41.400
 118863946.555 7  92621266.81044  22619056.455    22619055.8704   22619058.1314
        44.200          27.6004
 109521344.536 7  85341468.56346  20841156.802    20841156.3784   20841157.9574
        47.200          37.7004
 113713593.122 7  88608152.60346  21638911.922    21638910.7154   21638912.0264
        46.400          36.6004
 118517297.675 8  92180168.040 7  22186679.703    22186679.972    22186687.019
        48.000          43.400
 126959411.047 6  98929552.88244  24159522.843    24159521.3684   24159533.0944
        39.500          25.3004
 117320243.829 7  91249263.463 7  21977983.904    21977983.833    21977995.855
        47.600          44.000
 25  1  1 21 19 45.0000000  0 34E03E05G17G08S31S35G07G15E33S48S33R03
                                G30E04E31E12R01E06E10R20R10E26R11G21
                                E24R21E09R02G13G14G02R12G19R22
 150097108.011 6                  28562523.794
        36.400
 128472500.664 7                  24447508.014
        42.000
 112216093.563 8  87441289.36947  21353939.299    21353938.7144   21353941.7044
        48.000          46.0004
 124190892.304 6  96772254.70546  23632696.738    23632695.9254   23632702.7054
        41.500          37.2004
 198973369.727 7                  37863388.269
        45.300
 200890723.342 7                  38228246.081
        43.300
 111385206.877 7  86793704.67747  21195888.906    21195888.2494   21195891.1264
        47.600          45.8004
 129673762.523 6 101044502.59644  24676095.065    24676094.6854   24676096.5944
        40.000          28.7004
 131255299.615 7                  24976987.147
        44.600
 412979446.881 5                  78587329.414
        32.300
 202129323.477 7                  38463909.162
        44.300
 130686758.316 6 101645298.863 6  24413390.857    24413390.812    24413403.493
        41.000          37.900
 106534349.841 8  83013812.75248  20272805.464    20272804.6014   20272808.9424
        50.400          51.7004
 149532705.557 5                  28455189.769
        35.500
 124583135.651 8                  23707329.744
        48.100
 140794243.069 6                  26792200.062
        36.800
 126623909.340 6  98485247.612 5  23687654.543    23687653.667    23687673.827
        37.200          33.600
 141307711.627 6                  26889995.428
        39.900
 147869835.151 6                  28138676.677
        37.500
 115667839.356 6  89964053.368 7  21630405.784    21630405.948    21630415.833
        37.800          45.500
 116691310.813 7                  21890956.725    21890956.495
        44.600
 141554764.043 6                  26936901.068
        40.900
 104836787.853 8  81539886.614 8  19618724.732    19618724.714    19618730.900
        52.600          49.800
 115454540.085 7  89964738.37945  21970206.444    21970205.0994   21970207.7354
        43.100          30.5004
 131567849.065 7                  25036467.539
        46.700
 104406292.877 8  81205111.618 7  19510747.961    19510748.132    19510755.534
        52.500          47.900
 137208067.801 7                  26109841.847
        43.000
 122639565.378 7  95386425.038 6  22982582.258    22982581.826    22982590.386
        46.800          41.600
 118859436.602 7  92617752.53244  22618198.653    22618198.0814   22618199.7854
        44.100          27.6004
 109500486.331 7  85325215.42146  20837187.454    20837187.0214   20837188.8104
        47.200          37.7004
 113710483.135 7  88605729.25146  21638320.052    21638318.8504   21638320.2074
        46.800          36.8004
 118471653.421 8  92144666.984 7  22178134.023    22178134.826    22178142.629
        49.000          43.300
 126909338.680 6  98890535.81444  24149994.631    24149993.1834   24150004.2634
        40.500          25.7004
 117257063.902 8  91200123.738 7  21966148.697    21966148.526    21966159.833
        48.100          44.100
 25  1  1 21 20  0.0000000  0 34E03E05G17G08S31S35G07G15E33S48S33R03
                                G30E04E31E12R01E06E10R20R10E26R11G21
                                E24R21E09R02G13G14G02R12G19R22
 150069411.113 6                  28557253.120
        36.500
 128476860.362 7                  24448338.056
        42.400
 112184602.856 7  87416751.21747  21347946.903    21347946.3184   21347949.1484
        47.700          46.1004
 124242475.279 7  96812449.17346  23642512.781    23642511.9724   23642518.7314
        42.200          37.3004
 198973365.413 7                  37863382.219
        45.500
 200890718.807 7                  38228244.552
        43.500
 111417738.758 7  86819054.14347  21202079.318    21202078.6614   21202081.7304
        47.700          45.8004
 129660288.013 6 101034002.96644  24673530.943    24673530.5634   24673532.7854
        40.100          28.8004
 131239564.254 7                  24973993.124
        44.700
 412979903.667 5                  78587347.416
        32.800
 202129335.600 7                  38463919.322
        44.600
 130660062.007 7 101624535.083 6  24408403.183    24408403.584    24408415.787
        42.000          38.200
 106537048.030 8  83015915.22648  20273318.739    20273317.8854   20273322.4014
        50.100          51.8004
 149576313.633 5                  28463488.093
        35.500
 124590834.270 8                  23708794.760
        48.400
 140748893.069 6                  26783569.367
        36.300
 126674114.462 6  98524295.709 5  23697047.201    23697046.842    23697067.042
        38.600          33.800
 141351479.303 6                  26898324.938
        40.400
 147822497.942 6                  28129668.103
        37.100
 115715224.648 6  90000908.546 7  21639267.066    21639267.076    21639277.252
        38.100          45.500
 116727916.568 7                  21897824.594    21897823.776
        44.400
 141576022.400 6                  26940946.396
        41.000
 104830843.197 8  81535262.992 8  19617611.988    19617612.349    19617618.159
        52.800          49.500
 115475129.635 7  89980782.18645  21974124.539    21974123.1894   21974125.8334
        43.100          30.5004
 131547359.507 7                  25032568.188
        46.900
 104394496.941 8  81195937.019 8  19508543.488    19508543.734    19508551.127
        52.800          48.000
 137245723.885 7                  26117007.584
        43.200
 122655927.263 7  95399150.915 6  22985647.485    22985647.369    22985656.046
        45.600          41.400
 118855075.091 7  92614353.92644  22617368.588    22617368.0164   22617369.7324
        45.000          27.8004
 109479675.314 7  85308999.04646  20833227.611    20833227.1874   20833228.5674
        47.100          37.8004
 113707517.223 7  88603418.16546  21637755.783    21637754.5814   21637755.7634
        46.700          36.8004
 118426015.113 8  92109170.524 7  22169590.872    22169591.335    22169598.852
        48.400          43.400
 126859300.195 6  98851545.16044  24140472.149    24140470.6964   24140481.9614
        40.100          25.9004
 117193953.633 7  91151038.201 7  21954324.892    21954325.413    21954336.594
        47.400          43.700
 25  1  1 21 20 15.0000000  0 34E03E05G17G08S31S35G07G15E33S48S33R03
                                G30E04E31E12R01E06E10R20R10E26R11G21
                                E24R21E09R02G13G14G02R12G19R22
 150041795.353 6                  28551998.337
        36.700
 128481328.345 7                  24449188.336
        42.400
 112153212.083 7  87392290.93947  21341973.611    21341973.0124   21341975.5264
        47.700          46.1004
 124294074.297 6  96852656.15546  23652332.061    23652331.2704   23652337.9674
        41.600          37.3004
 198973364.415 7                  37863383.301
        45.300
 200890716.761 7                  38228246.099
        43.300
 111450384.428 7  86844492.27247  21208291.752    21208291.0914   21208294.0344
        47.200          45.8004
 129646954.774 6 101023613.40044  24670993.128    24670992.7444   24670996.0344
        39.700          29.2004
 131223936.517 7                  24971019.026
        45.100
 412980362.226 5                  78587374.608
        32.700
 202129351.576 7                  38463923.655
        44.700
 130633525.053 6 101603895.263 6  24403446.248    24403446.210    24403458.725
        41.800          38.800
 106539885.210 8  83018126.00148  20273858.913    20273858.0594   20273862.3134
        49.800          51.8004
 149619892.153 5                  28471780.700
        35.700
 124598563.512 8                  23710265.698
        48.400
 140703568.627 6                  26774944.920
        37.200
 126724366.246 6  98563380.105 5  23706446.891    23706447.100    23706467.641
        38.500          33.900
 141395255.809 6                  26906655.718
        40.700
 147775146.993 6                  28120657.194
        38.200
 115762747.246 6  90037870.542 7  21648154.032    21648154.149    21648164.199
        38.700          45.700
 116764596.210 7                  21904705.765    21904704.825
        44.400
 141597380.140 6                  26945010.617
        41.100
 104824992.826 8  81530712.692 8  19616517.553    19616517.647    19616523.470
        53.400          49.600
 115495868.432 7  89996942.27945  21978070.681    21978069.3314   21978072.2464
        42.900          30.5004
 131526891.613 7                  25028673.317
        47.200
 104382910.389 8  81186925.275 7  19506378.134    19506378.481    19506385.959
        52.600          47.800
 137283429.578 7                  26124182.502
        43.300
 122672460.355 7  95412009.961 6  22988746.133    22988746.029    22988754.116
        46.200          41.500
 118850865.992 7  92611074.07944  22616567.793    22616567.2034   22616568.7304
        44.500          28.0004
 109458915.478 7  85292822.56546  20829277.156    20829276.7324   20829278.0454
        47.200          38.0004
 113704699.362 7  88601222.44646  21637219.498    21637218.3054   21637219.5134
        46.700          36.9004
 118380387.044 8  92073682.041 7  22161049.362    22161049.677    22161057.324
        48.700          43.400
 126809299.392 6  98812583.87044  24130957.206    24130955.7584   24130966.4784
        40.700          25.8004
 117130917.647 7  91102010.462 7  21942515.775    21942516.640    21942528.175
        47.100          44.000
 25  1  1 21 20 30.0000000  0 34E03E05G17G08S31S35G07G15E33S48S33R03
                                G30E04E31E12R01E06E10R20R10E26R11G21
                                E24R21E09R02G13G14G02R12G19R22
 150014256.289 6                  28546757.685
        36.900
 128485899.901 7                  24450058.154
        42.100
 112121916.823 7  87367905.08647  21336017.902    21336017.3124   21336020.1834
        47.800          46.2004
 124345684.521 7  96892871.86446  23662153.215    23662152.4244   23662158.9824
        42.100          37.3004
 198973361.659 7                  37863381.731
        45.300
 200890713.845 7                  38228253.907
        43.500
 111483138.945 7  86870015.21947  21214524.716    21214524.0464   21214527.1274
        47.600          45.9004
 129633758.019 6 101013330.20444  24668481.813    24668481.4294   24668484.9504
        39.600          28.9004
 131208411.874 7                  24968064.899
        44.700
 412980819.977 5                  78587384.848
        32.600
 202129364.644 7                  38463922.555
        44.500
 130607143.834 7 101583376.492 6  24398517.849    24398519.179    24398530.398
        42.100          38.300
 106542856.828 8  83020441.53448  20274424.513    20274423.6644   20274427.8264
        49.800          51.9004
 149663436.146 5                  28480066.956
        35.300
 124606318.755 8                  23711741.487
        48.100
 140658265.348 6                  26766323.265
        36.500
 126774659.272 6  98602496.571 5  23715855.664    23715854.938    23715876.654
        37.300          33.400
 141439036.304 6                  26914986.742
        40.700
 147727777.785 6                  28111642.593
        37.500
 115810402.414 6  90074935.649 7  21657066.200    21657065.408    21657076.192
        38.200          45.900
 116801345.327 7                  21911598.952    21911598.949
        44.300
 141618832.510 6                  26949093.103
        41.100
 104819232.088 8  81526232.107 8  19615439.470    19615439.570    19615445.523
        53.100          49.400
 115516751.560 7  90013214.84745  21982044.722    21982043.3774   21982046.2084
        43.700          30.7004
 131506440.755 7                  25024781.919
        47.100
 104371528.294 8  81178072.550 7  19504251.426    19504251.545    19504258.956
        52.800          47.800
 137321179.969 7                  26131366.597
        43.300
 122689160.047 7  95424998.573 6  22991876.036    22991876.290    22991883.988
        46.700          41.500
 118846804.671 7  92607909.38944  22615794.952    22615794.3534   22615796.0744
        44.200          28.1004
 109438202.266 7  85276682.40446  20825335.180    20825334.7514   20825336.4534
        47.600          38.1004
 113702024.990 7  88599138.53346  21636710.449    21636709.2514   21636710.5844
        47.200          37.0004
 118334764.461 8  92038197.834 7  22152508.997    22152508.852    22152516.806
        48.300          43.300
 126759331.842 6  98773648.49744  24121448.343    24121446.8954   24121457.6354
        40.600          26.1004
 117067951.651 7  91053037.125 7  21930720.339    21930720.907    21930732.133
        47.700          43.900
 25  1  1 21 20 45.0000000  0 34E03E05G17G08S31S35G07G15E33S48S33R03
                                G30E04E31E12R01E06E10R20R10E26R11G21
                                E24R21E09R02G13G14G02R12G19R22
 149986792.669 5                  28541530.851
        35.700
 128490573.587 7                  24450947.894
        42.100
 112090715.664 7  87343592.56347  21330080.493    21330079.9084   21330082.7804
        47.600          46.3004
 124397304.267 6  96933095.00846  23671975.852    23671975.0614   23671981.8494
        41.600          37.4004
 198973355.749 7                  37863379.723
        45.000
 200890707.820 7                  38228252.207
        43.400
 111516000.708 7  86895621.72647  21220778.248    21220777.5874   21220780.6654
        46.900          46.0004
 129620696.391 6 101003152.31144  24665996.540    24665996.1654   24665999.1794
        40.200          29.5004
 131192989.026 7                  24965130.101
        44.700
 412979674.310 5                  78587410.779
        32.200
 202129375.228 7                  38463929.365
        44.400
 130580916.460 6 101562977.339 6  24393618.728    24393618.782    24393630.819
        40.900          37.500
 106545961.539 8  83022860.77448  20275015.402    20275014.5714   20275018.6394
        50.300          52.0004
 149706944.072 5                  28488346.585
        35.700
 124614098.565 8                  23713221.903
        48.000
 140612982.020 6                  26757706.211
        36.400
 126824991.837 6  98641643.733 5  23725272.431    23725272.605    23725293.757
        38.400          34.700
 141482819.066 6                  26923318.219
        40.800
 147680389.183 6                  28102624.727
        37.400
 115858187.794 6  90112102.027 7  21666000.730    21666001.834    21666012.466
        37.700          45.600
 116838162.380 7                  21918506.607    21918506.094
        45.000
 141640377.897 6                  26953192.724
        40.900
 104813559.835 8  81521820.342 8  19614377.730    19614377.957    19614383.924
        52.600          49.400
 115537777.422 7  90029598.64145  21986045.953    21986044.5944   21986047.2194
        43.000          30.7004
 131486005.474 7                  25020892.936
        47.100
 104360349.521 8  81169377.954 7  19502162.182    19502162.434    19502169.738
        52.200          47.700
 137358973.405 7                  26138558.477
        43.300
 122706024.099 7  95438115.018 6  22995036.508    22995036.471    22995045.179
        47.000          41.700
 118842889.815 7  92604858.83544  22615050.066    22615049.4814   22615051.0704
        44.300          28.1004
 109417534.309 7  85260577.50046  20821402.503    20821402.0794   20821403.4864
        47.100          38.2004
 113699492.827 7  88597165.43446  21636228.421    21636227.2014   21636228.7354
        47.200          37.1004
 118289146.204 8  92002716.954 7  22143969.399    22143969.354    22143977.045
        48.300          43.400
 126709396.213 6  98734738.00644  24111945.133    24111943.6894   24111954.6684
        41.200          26.2004
 117005054.671 7  91004117.461 7  21918937.184    21918937.354    21918948.625
        47.700          43.400
 25  1  1 21 21  0.0000000  0 34E03E05G17G08S31S35G07G15E33S48S33R03
                                G30E04E31E12R01E06E10R20R10E26R11G21
                                E24R21E09R02G13G14G02R12G19R22
 149959409.793 6                  28536320.531
        36.100
 128495354.416 7                  24451857.261
        42.400
 112059613.863 8  87319357.46047  21324162.182    21324161.6064   21324164.2214
        48.400          46.5004
 124448938.403 6  96973329.36646  23681801.631    23681800.8404   23681807.5874
        41.500          37.5004
 198973352.255 7                  37863376.790
        45.500
 200890704.109 7                  38228249.314
        43.600
 111548974.623 7  86921315.62847  21227053.020    21227052.3594   21227055.4874
        47.300          46.2004
 129607775.045 6 100993083.72444  24663537.457    24663537.1044   24663540.3014
        39.500          28.9004
 131177673.218 7                  24962215.302
        44.500
 412980130.020 5                  78587426.475
        32.200
 202129388.146 7                  38463928.873
        44.700
 130554848.938 6 101542702.627 6  24388749.808    24388749.243    24388760.774
        41.800          38.200
 106549204.488 8  83025387.73448  20275632.272    20275631.4414   20275635.7724
        50.400          52.2004
 149750420.800 5                  28496619.503
        35.700
 124621908.066 8                  23714707.993
        48.200
 140567724.077 6                  26749093.568
        37.300
 126875368.345 6  98680825.098 5  23734697.200    23734695.753    23734717.210
        38.000          33.400
 141526609.008 6                  26931651.425
        40.800
 147632986.447 6                  28093604.039
        38.100
 115906108.144 6  90149373.374 7  21674963.104    21674964.008    21674973.227
        38.200          45.800
 116875052.446 7                  21925427.480    21925426.655
        45.200
 141662021.289 6                  26957311.516
        41.200
 104807981.459 8  81517481.599 8  19613334.290    19613334.146    19613340.005
        53.200          49.400
 115558950.900 7  90046097.45445  21990075.113    21990073.7634   21990076.3794
        43.600          30.8004
 131465590.902 7                  25017008.224
        46.800
 104349379.226 8  81160845.528 7  19500112.173    19500112.410    19500119.704
        52.300          47.700
 137396814.725 7                  26145759.287
        43.400
 122723057.682 7  95451363.308 6  22998228.707    22998228.516    22998236.518
        47.100          41.600
 118839126.222 7  92601926.14144  22614333.445    22614332.8604   22614335.0744
        44.500          28.4004
 109396916.816 7  85244511.92346  20817479.041    20817478.6174   20817480.1074
        47.700          38.4004
 113697107.885 7  88595307.05546  21635774.778    21635773.5584   21635774.8214
        46.700          37.3004
 118243537.719 8  91967243.721 7  22135430.395    22135431.188    22135438.307
        48.200          43.500
 126659497.828 6  98695856.53044  24102449.845    24102448.3834   24102459.1104
        41.200          26.8004
 116942232.461 7  90955255.941 7  21907168.339    21907169.090    21907180.562
        47.700          44.300
 25  1  1 21 21 15.0000000  0 34E03E05G17G08S31S35G07G15E33S48S33R03
                                G30E04E31E12R01E06E10R20R10E26R11G21
                                E24R21E09R02G13G14G02R12G19R22
 149932106.422 6                  28531124.798
        36.800
 128500240.925 7                  24452787.011
        42.500
 112028610.011 8  87295198.67847  21318262.155    21318261.5744   21318264.2644
        48.300          46.7004
 124500585.245 6  97013573.62046  23691629.589    23691628.7944   23691635.6724
        41.900          37.7004
 198973349.444 7                  37863384.445
        45.000
 200890700.879 7                  38228239.432
        43.200
 111582059.320 7  86947095.85447  21233348.725    21233348.0684   21233351.3264
        47.400          46.3004
 129594992.656 6 100983123.41044  24661105.512    24661105.1414   24661107.5504
        40.400          28.7004
 131162463.097 7                  24959321.085
        44.800
 412980584.691 5                  78587442.581
        32.100
 202129402.306 7                  38463932.048
        44.500
 130528939.876 7 101522551.040 6  24383909.165    24383909.270    24383921.424
        42.100          38.700
 106552584.317 8  83028021.35448  20276275.582    20276274.7554   20276278.9484
        50.100          52.3004
 149793864.673 5                  28504886.529
        35.800
 124629745.864 8                  23716199.477
        48.300
 140522490.319 6                  26740485.705
        36.800
 126925786.723 6  98720039.093 5  23744128.150    23744128.073    23744147.473
        38.000          32.500
 141570404.434 6                  26939985.493
        40.700
 147585568.426 6                  28084580.462
        37.800
 115954161.237 6  90186747.957 7  21683949.037    21683949.469    21683959.847
        37.600          45.700
 116912014.178 7                  21932361.046    21932360.612
        44.900
 141683761.129 6                  26961448.537
        41.100
 104802495.687 8  81513214.879 8  19612307.278    19612307.498    19612313.540
        52.300          49.300
 115580270.357 7  90062710.02845  21994131.878    21994130.5284   21994133.4114
        43.100          31.0004
 131445195.597 7                  25013127.141
        47.000
 104338616.065 8  81152474.199 7  19498100.662    19498101.029    19498108.458
        52.200          47.800
 137434702.236 7                  26152969.051
        43.600
 122740258.926 7  95464742.024 6  23001451.585    23001451.926    23001460.124
        47.300          41.800
 118835512.509 7  92599110.25244  22613645.977    22613645.3834   22613647.4374
        44.600          28.7004
 109376348.445 7  85228484.62746  20813564.898    20813564.4694   20813566.0604
        47.800          38.6004
 113694868.771 7  88593562.31346  21635348.709    21635347.4894   21635348.7204
        47.400          37.5004
 118197937.667 8  91931777.042 7  22126894.351    22126894.454    22126902.252
        48.500          43.500
 126609635.571 6  98657003.19144  24092961.244    24092959.7784   24092970.3454
        41.000          26.7004
 116879484.050 7  90906451.865 7  21895413.226    21895413.565    21895424.626
        47.600          43.700
 25  1  1 21 21 30.0000000  0 34E03E05G17G08S31S35G07G15E33S48S33R03
                                G30E04E31E12R01E06E10R20R10E26R11G21
                                E24R21E09R02G13G14G02R12G19R22
 149904880.954 6                  28525944.143
        37.100
 128505231.336 7                  24453737.055
        42.100
 111997702.473 7  87271114.94847  21312380.651    21312380.0754   21312382.6684
        47.900          46.6004
 124552242.870 7  97053826.27546  23701460.117    23701459.3304   23701465.7744
        42.000          37.6004
 198973345.032 7                  37863381.257
        44.900
 200890696.647 7                  38228241.493
        43.300
 111615252.767 7  86972960.82047  21239665.218    21239664.5614   21239667.9094
        47.400          46.2004
 129582347.400 6 100973269.96444  24658699.129    24658698.7494   24658700.9724
        39.300          28.4004
 131147357.116 7                  24956446.608
        44.600
 412981038.168 5                  78587459.489
        32.100
 202129413.722 7                  38463929.875
        44.400
 130503188.001 7 101502521.883 6  24379099.413    24379098.829    24379111.004
        42.100          39.300
 106556099.367 8  83030760.34248  20276944.405    20276943.5834   20276947.8494
        50.200          52.2004
 149837273.904 5                  28513146.738
        34.400
 124637610.230 8                  23717696.042
        48.200
 140477279.282 6                  26731882.330
        36.800
 126976244.741 5  98759283.837 5  23753566.828    23753566.229    23753587.261
        35.500          32.900
 141614203.327 6                  26948320.364
        40.700
 147538133.608 6                  28075553.600
        36.900
 116002345.133 6  90224224.281 7  21692960.359    21692960.656    21692970.305
        38.200          45.500
 116949045.863 7                  21939308.309    21939307.662
        45.000
 141705595.547 6                  26965603.547
        40.900
 104797101.035 8  81509019.030 8  19611298.235    19611298.087    19611303.977
        53.100          49.300
 115601733.951 7  90079434.90545  21998216.490    21998215.1494   21998217.7784
        43.100          30.9004
 131424817.857 7                  25009249.110
        47.000
 104328058.404 8  81144262.697 7  19496127.908    19496128.243    19496135.498
        52.200          47.900
 137472633.947 7                  26160187.641
        43.600
 122757625.953 7  95478249.683 6  23004706.364    23004706.248    23004714.907
        46.200          41.400
 118832046.972 7  92596409.82344  22612986.480    22612985.8864   22612987.8414
        45.100          28.5004
 109355827.531 7  85212494.31046  20809659.867    20809659.4384   20809661.0104
        47.600          38.5004
 113692773.803 7  88591929.88446  21634949.894    21634948.6654   21634950.0664
        47.300          37.4004
 118152344.462 8  91896315.659 7  22118358.908    22118360.210    22118366.439
        49.300          43.100
 126559807.852 6  98618176.77544  24083478.757    24083477.2734   24083487.9834
        41.800          26.9004
 116816808.144 7  90857704.147 7  21883671.579    21883672.055    21883684.345
        47.900          44.700
 25  1  1 21 21 45.0000000  0 34E03E05G17G08S31S35G07G15E33S48S33R03
                                G30E04E31E12R01E06E10R20R10E26R11G21
                                E24R21E09R02G13G14G02R12G19R22
 149877738.042 6                  28520779.439
        37.000
 128510330.054 7                  24454707.322
        42.800
 111966895.886 7  87247109.87847  21306518.271    21306517.6954   21306520.2634
        47.800          46.4004
 124603915.496 6  97094090.63246  23711292.876    23711292.0894   23711298.8774
        41.400          37.2004
 198973345.097 7                  37863374.890
        45.200
 200890695.918 7                  38228240.161
        42.900
 111648559.356 7  86998913.95047  21246003.418    21246002.7484   21246006.0094
        47.500          46.1004
 129569843.882 6 100963526.94444  24656319.281    24656318.8974   24656321.2644
        40.600          28.5004
 131132359.866 7                  24953592.632
        45.100
 412981495.796 5                  78587477.706
        31.400
 202129430.280 7                  38463933.421
        44.300
 130477597.638 6 101482618.136 6  24374318.260    24374317.019    24374330.200
        40.600          38.100
 106559754.197 8  83033608.24648  20277639.919    20277639.0884   20277643.3524
        50.500          52.1004
 149880652.623 5                  28521401.906
        35.700
 124645505.669 8                  23719198.539
        48.600
 140432095.704 6                  26723284.278
        37.000
 127026746.301 6  98798562.447 5  23763014.316    23763015.178    23763036.439
        38.200          34.000
 141658009.961 6                  26956656.680
        41.500
 147490686.680 6                  28066524.461
        38.600
 116050664.016 6  90261805.616 7  21701995.924    21701996.634    21702006.206
        38.200          45.500
 116986151.403 7                  21946269.483    21946268.548
        45.000
 141727528.817 6                  26969777.668
        41.300
 104791802.179 8  81504897.680 8  19610306.103    19610306.509    19610312.386
        52.500          49.300
 115623345.928 7  90096275.41345  22002329.223    22002327.9004   22002330.4724
        43.100          30.8004
 131404462.151 7                  25005375.969
        47.800
 104317710.843 8  81136214.601 7  19494194.140    19494194.347    19494201.669
        52.100          47.600
 137510614.138 7                  26167414.979
        44.000
 122775162.608 7  95491889.257 6  23007993.590    23007993.382    23008001.183
        46.400          41.400
 118828734.154 7  92593828.38844  22612356.210    22612355.6524   22612357.6024
        44.300          28.7004
 109335358.643 7  85196544.53646  20805764.872    20805764.4394   20805765.9144
        47.500          38.4004
 113690827.599 7  88590413.37846  21634579.975    21634578.7504   21634579.6644
        47.000          37.3004
 118106762.776 8  91860863.271 7  22109826.608    22109825.998    22109834.427
        48.100          43.800
 126510019.196 6  98579380.81344  24074004.341    24074002.8574   24074013.1694
        40.500          26.9004
 116754209.810 8  90809016.743 7  21871945.267    21871945.466    21871956.304
        48.300          44.000
 25  1  1 21 22  0.0000000  0 34E03E05G17G08S31S35G07G15E33S48S33R03
                                G30E04E31E12R01E06E10R20R10E26R11G21
                                E24R21E09R02G13G14G02R12G19R22
 149850668.002 6                  28515627.388
        37.200
 128515527.166 7                  24455695.939
        42.500
 111936180.371 7  87223175.77247  21300673.046    21300672.4744   21300675.2004
        47.900          46.3004
 124655593.039 6  97134358.81046  23721126.799    23721126.0174   23721132.9364
        41.800          37.1004
 198973338.132 7                  37863375.985
        45.200
 200890689.061 7                  38228240.823
        43.200
 111681969.068 7  87024947.43447  21252361.295    21252360.6344   21252363.7664
        47.200          45.9004
 129557472.671 6 100953887.04844  24653965.370    24653964.9904   24653967.4874
        40.400          28.6004
 131117461.582 7                  24950757.640
        45.100
 412980346.299 5                  78587506.932
        32.500
 202129439.567 7                  38463938.805
        44.500
 130452159.258 6 101462832.607 6  24369565.393    24369564.851    24369578.086
        40.400          37.300
 106563538.991 8  83036557.42248  20278359.832    20278358.9874   20278363.5834
        50.500          51.9004
 149923990.845 5                  28529648.905
        35.800
 124653422.342 8                  23720705.024
        48.600
 140386929.955 6                  26714689.517
        37.200
 127077280.975 6  98837866.874 5  23772468.964    23772469.025    23772490.826
        38.300          33.000
 141701814.256 6                  26964992.596
        40.300
 147443218.088 6                  28057491.328
        38.200
 116099106.668 6  90299483.235 7  21711054.873    21711055.086    21711065.231
        38.200          45.800
 117023321.038 7                  21953241.669    21953241.801
        44.600
 141749551.000 6                  26973967.832
        41.400
 104786589.359 8  81500843.244 8  19609330.805    19609330.797    19609336.973
        52.600          49.400
 115645096.178 7  90113223.66545  22006468.152    22006466.8244   22006469.4244
        42.900          30.6004
 131384118.626 7                  25001504.328
        47.400
 104307563.312 8  81128322.082 7  19492297.620    19492298.093    19492305.477
        52.400          47.800
 137548632.646 7                  26174649.947
        43.900
 122792859.010 7  95505653.093 6  23011309.026    23011309.555    23011317.664
        47.100          41.500
 118825564.037 7  92591358.15244  22611752.746    22611752.1884   22611754.2864
        44.200          28.3004
 109314931.990 7  85180627.67246  20801877.632    20801877.1994   20801878.7954
        47.600          38.3004
 113689020.280 7  88589005.09846  21634235.577    21634234.3524   21634235.7064
        47.100          37.0004
 118061183.032 8  91825412.393 7  22101293.549    22101294.133    22101301.489
        48.800          43.900
 126460260.036 6  98540607.82444  24064534.903    24064533.4414   24064543.6594
        39.800          26.7004
 116691679.539 8  90760382.323 7  21860230.999    21860231.626    21860242.289
        48.500          44.200
 25  1  1 21 22 15.0000000  0 35E03E05G17G08S31S35G07G15E33E25S48S33
                                R03G30E04E31E12R01E06E10R20R10E26R11
                                G21E24R21E09R02G13G14G02R12G19R22
 149823681.636 6                  28510492.429
        37.400
 128520833.196 7                  24456706.086
        42.200
 111905566.659 7  87199320.98447  21294847.698    21294847.1314   21294849.5254
        47.900          46.2004
 124707285.857 6  97174638.89046  23730963.862    23730963.0674   23730969.3844
        40.600          36.6004
 198973335.270 7                  37863376.396
        45.200
 200890686.332 7                  38228236.476
        43.100
 111715492.292 7  87051069.37047  21258740.474    21258739.8174   21258743.1444
        47.500          45.8004
 129545244.209 6 100944358.36244  24651638.168    24651637.8064   24651640.7144
        40.200          28.9004
 131102673.037 7                  24947943.315
        44.600
 151573711.222 6                  28843518.435
        36.200
 412980800.154 5                  78587523.607
        31.600
 202129453.631 7                  38463938.429
        44.200
 130426884.190 6 101443174.196 6  24364844.993    24364844.329    24364856.169
        40.000          37.500
 106567464.429 8  83039616.19048  20279106.851    20279105.9934   20279110.5814
        50.400          51.8004
 149967298.950 5                  28537890.140
        35.100
 124661370.874 8                  23722217.674
        48.300
 140341792.902 6                  26706099.719
        36.900
 127127858.941 6  98877204.934 5  23781930.589    23781930.915    23781951.988
        37.900          33.200
 141745626.591 6                  26973330.032
        40.100
 147395738.546 6                  28048455.933
        38.400
 116147683.986 6  90337265.573 7  21720139.562    21720139.152    21720149.171
        38.200          45.300
 117060566.262 7                  21960229.151    21960228.926
        44.400
 141771672.513 6                  26978177.622
        40.800
 104781473.595 8  81496864.300 8  19608373.557    19608373.570    19608379.545
        52.800          49.400
 115666995.189 7  90130287.83945  22010635.440    22010634.1084   22010636.5474
        43.000          30.4004
 131363797.940 7                  24997637.697
        47.200
 104297626.791 8  81120593.692 7  19490440.984    19490441.283    19490448.587
        52.500          47.900
 137586699.858 7                  26181893.930
        43.100
 122810725.406 7  95519549.141 6  23014656.664    23014657.128    23014666.114
        46.300          41.900
 118822547.324 7  92589007.44944  22611178.523    22611177.9564   22611180.3404
        44.600          28.2004
 109294558.275 7  85164752.05846  20798000.659    20798000.2124   20798001.8274
        47.700          38.2004
 113687362.487 7  88587713.32346  21633920.063    21633918.8344   21633920.2654
        46.600          37.0004
 118015615.902 8  91789971.322 7  22092763.587    22092763.346    22092770.827
        48.600          43.700
 126410541.070 6  98501866.16544  24055074.107    24055072.6634   24055082.3324
        41.400          26.8004
 116629228.554 7  90711809.558 7  21848531.722    21848531.138    21848542.642
        46.900          43.900
 25  1  1 21 22 30.0000000  0 35E03E05G17G08S31S35G07G15E33E25S48S33
                                R03G30E04E31E12R01E06E10R20R10E26R11
                                G21E24R21E09R02G13G14G02R12G19R22
 149796774.526 6                  28505372.136
        36.800
 128526243.461 6                  24457735.765
        41.500
 111875050.128 7  87175541.93147  21289040.462    21289039.8954   21289042.3454
        47.900          46.3004
 124758989.052 6  97214927.04846  23740802.529    23740801.7204   23740808.2504
        41.200          37.0004
 198973332.326 7                  37863381.682
        45.600
 200890683.631 7                  38228238.954
        43.200
 111749124.273 7  87077276.05147  21265140.172    21265139.5114   21265143.1674
        47.500          45.9004
 129533153.920 6 100934937.35544  24649337.338    24649336.9814   24649340.0514
        39.500          28.2004
 131087989.692 7                  24945148.889
        44.300
 151542552.815 5                  28837588.990
        35.000
 412981252.997 5                  78587541.583
        32.500
 202129466.409 7                  38463942.655
        44.600
 130401767.376 6 101423638.803 6  24360152.658    24360151.960    24360164.458
        40.300          37.600
 106571525.920 8  83042780.97148  20279879.910    20279879.0434   20279883.4564
        50.100          51.8004
 150010572.137 5                  28546124.390
        34.800
 124669346.643 8                  23723735.450
        48.200
 140296680.215 6                  26697515.382
        36.600
 127178474.940 6  98916572.552 5  23791399.163    23791398.807    23791421.091
        37.500          32.900
 141789442.078 6                  26981667.592
        40.100
 147348243.710 6                  28039417.076
        38.000
 116196390.679 6  90375148.542 7  21729247.393    21729247.865    21729257.830
        38.100          45.300
 117097881.519 7                  21967230.219    21967229.296
        45.300
 141793888.588 6                  26982405.316
        40.300
 104776450.366 8  81492957.326 8  19607433.656    19607433.657    19607439.624
        52.900          49.400
 115689038.042 7  90147464.09945  22014830.164    22014828.8364   22014831.2024
        43.000          30.5004
 131343495.397 7                  24993774.078
        46.800
 104287896.506 8  81113025.711 7  19488622.562    19488622.902    19488630.202
        52.600          47.700
 137624810.865 7                  26189146.275
        43.700
 122828756.790 7  95533573.495 6  23018035.467    23018036.302    23018044.769
        46.100          41.500
 118819679.373 7  92586772.65444  22610633.104    22610632.5414   22610634.6144
        44.900          28.5004
 109274232.924 7  85148914.13346  20794133.029    20794132.5824   20794134.0704
        47.300          38.2004
 113685849.613 7  88586534.48046  21633632.435    21633631.2064   21633632.3734
        47.000          37.1004
 117970057.086 8  91754536.700 7  22084234.174    22084234.589    22084242.437
        48.400          43.800
 126360857.847 6  98463152.35544  24045618.675    24045617.2314   24045627.6674
        40.700          27.0004
 116566852.696 7  90663295.230 7  21836845.842    21836846.690    21836858.019
        47.400          44.400
 25  1  1 21 22 45.0000000  0 35E03E05G17G08S31S35G07G15E33E25S48S33
                                R03G30E04E31E12R01E06E10R20R10E26R11
                                G21E24R21E09R02G13G14G02R12G19R22
 149769948.506 6                  28500267.139
        36.300
 128531759.630 7                  24458785.250
        42.100
 111844632.548 7  87151839.97247  21283252.189    21283251.6224   21283254.0444
        47.900          46.4004
 124810704.159 6  97255224.46446  23750643.585    23750642.7764   23750649.6434
        40.600          37.0004
 198973330.975 7                  37863373.866
        45.100
 200890681.884 7                  38228235.770
        42.900
 111782866.546 7  87103568.67547  21271561.069    21271560.3994   21271564.1134
        47.100          45.9004
 129521203.628 6 100925625.45044  24647063.281    24647062.9244   24647065.3954
        39.100          27.7004
 131073413.406 7                  24942375.472
        44.600
 151511391.865 5                  28831658.657
        33.700
 412981706.388 5                  78587564.692
        32.700
 202129481.293 7                  38463944.569
        44.500
 130376811.119 6 101404228.191 6  24355490.135    24355490.365    24355502.867
        41.700          39.100
 106575725.270 8  83046053.17448  20280679.069    20280678.1844   20280682.5754
        50.000          51.8004
 150053811.918 5                  28554352.888
        34.500
 124677351.423 8                  23725258.422
        48.000
 140251593.928 6                  26688935.583
        36.100
 127229130.011 6  98955970.573 5  23800875.661    23800876.827    23800896.401
        37.500          32.700
 141833262.134 6                  26990006.660
        40.800
 147300735.549 6                  28030376.598
        37.800
 116245228.020 6  90413133.145 7  21738380.247    21738380.675    21738390.686
        38.200          45.100
 117135268.882 7                  21974242.927    21974243.045
        44.800
 141816200.775 6                  26986651.199
        41.400
 104771521.596 8  81489123.815 8  19606510.924    19606511.287    19606517.222
        53.000          49.400
 115711226.338 7  90164753.68645  22019052.239    22019050.9164   22019053.5004
        43.200          30.6004
 131323212.787 7                  24989914.567
        47.300
 104278374.548 8  81105619.751 7  19486843.122    19486843.313    19486850.858
        52.400          47.600
 137662967.153 7                  26196406.688
        43.300
 122846954.391 7  95547727.156 6  23021446.580    23021445.950    23021455.088
        45.500          41.800
 118816961.719 7  92584654.98444  22610115.918    22610115.3554   22610117.4004
        44.600          28.4004
 109253957.734 7  85133115.29246  20790274.899    20790274.4524   20790275.7394
        47.200          38.3004
 113684483.320 7  88585469.84946  21633372.503    21633371.2874   21633372.3354
        46.600          37.1004
 117924508.409 8  91719109.953 7  22075707.851    22075707.907    22075715.759
        49.000          43.900
 126311212.279 6  98424467.87344  24036171.242    24036169.8164   24036179.9024
        41.200          27.3004
 116504554.158 7  90614841.015 7  21825174.361    21825175.474    21825186.472
        47.200          44.200
 25  1  1 21 23  0.0000000  0 35E03E05G17G08S31S35G07G15E33E25S48S33
                                R03G30E04E31E12R01E06E10R20R10E26R11
                                G21E24R21E09R02G13G14G02R12G19R22
 149743201.320 6                  28495177.444
        36.700
 128537379.155 7                  24459854.303
        42.000
 111814311.650 8  87128213.35647  21277482.194    21277481.6184   21277484.1224
        48.000          46.4004
 124862428.501 6  97295529.07746  23760486.657    23760485.8844   23760492.3504
        40.100          36.7004
 198973327.928 7                  37863373.772
        45.200
 200890678.805 7                  38228240.335
        43.200
 111816716.477 7  87129945.18347  21278002.524    21278001.8454   21278005.5714
        46.900          45.9004
 129509390.900 6 100916420.73544  24644815.478    24644815.1124   24644817.1084
        39.700          28.0004
 131058941.836 7                  24939621.399
        44.600
 151480225.923 5                  28825727.733
        34.700
 412980558.894 5                  78587583.925
        32.900
 202129494.563 7                  38463947.395
        44.200
 130352014.006 6 101384941.656 6  24350858.435    24350857.939    24350871.273
        41.500          40.100
 106580060.098 8  83049430.94448  20281503.856    20281502.9764   20281507.4834
        49.900          51.8004
 150097015.695 5                  28562574.574
        34.800
 124685382.766 8                  23726786.956
        48.400
 140206531.772 6                  26680359.982
        36.400
 127279821.400 6  98995396.826 5  23810359.361    23810359.059    23810380.927
        36.800          33.200
 141877084.135 6                  26998345.866
        40.400
 147253211.858 6                  28021332.842
        38.200
 116294192.534 6  90451216.669 7  21747537.173    21747537.123    21747547.321
        38.000          45.000
 117172725.691 7                  21981269.624    21981270.115
        44.700
 141838606.489 6                  26990914.840
        40.500
 104766685.042 8  81485362.058 8  19605606.150    19605606.324    19605611.987
        52.800          49.300
 115733557.322 7  90182154.46745  22023301.428    22023300.0964   22023302.9104
        42.500          30.7004
 131302947.645 7                  24986058.004
        47.000
 104269058.249 8  81098373.774 7  19485101.974    19485102.390    19485109.908
        52.300          47.600
 137701166.026 7                  26203676.059
        43.600
 122865315.730 7  95562008.166 6  23024886.839    23024887.405    23024896.055
        46.200          41.500
 118814391.950 7  92582652.55744  22609626.927    22609626.3604   22609628.3164
        44.400          28.6004
 109233730.340 7  85117353.69146  20786425.755    20786425.3134   20786426.6024
        47.400          38.4004
 113683261.113 7  88584517.50046  21633139.490    21633138.2564   21633139.7794
        46.600          37.1004
 117878967.525 8  91683689.291 7  22067182.614    22067182.808    22067190.266
        48.900          43.700
 126261602.139 6  98385810.99644  24026730.018    24026728.5834   24026739.1274
        41.600          27.2004
 116442330.981 7  90566445.446 7  21813518.380    21813518.928    21813530.119
        46.900          44.100
 25  1  1 21 23 15.0000000  0 35E03E05G17G08S31S35G07G15E33E25S48S33
                                R03G30E04E31E12R01E06E10R20R10E26R11
                                G21E24R21E09R02G13G14G02R12G19R22
 149716534.398 6                  28490102.607
        36.100
 128543103.274 7                  24460943.820
        42.000
 111784088.844 7  87104663.17447  21271730.983    21271730.3984   21271732.8514
        47.900          46.3004
 124914163.083 6  97335841.66046  23770331.590    23770330.8034   23770337.1334
        40.500          36.5004
 198973324.965 7                  37863376.142
        45.100
 200890676.344 7                  38228241.216
        43.300
 111850675.267 7  87156406.52347  21284465.188    21284464.5094   21284467.8304
        46.700          45.8004
 129497716.936 6 100907324.15444  24642593.891    24642593.5204   24642596.2774
        40.200          28.9004
 131044576.333 7                  24936887.833
        44.900
 151449056.190 5                  28819796.393
        35.500
 412981011.829 5                  78587593.977
        32.300
 202129507.646 7                  38463946.317
        44.000
 130327376.657 7 101365779.167 6  24346255.950    24346256.997    24346268.149
        43.200          39.600
 106584531.674 8  83052915.26648  20282355.062    20282354.1774   20282358.4234
        50.000          51.7004
 150140184.444 5                  28570789.062
        35.500
 124693441.916 8                  23728320.651
        48.300
 140161495.304 6                  26671790.068
        36.900
 127330549.452 6  99034851.611 5  23819849.371    23819849.600    23819870.927
        36.900          32.200
 141920909.037 6                  27006685.656
        40.700
 147205674.065 6                  28012286.949
        38.300
 116343285.193 6  90489399.811 7  21756717.698    21756717.861    21756728.153
        37.700          45.300
 117210253.391 7                  21988310.831    21988310.023
        44.500
 141861106.824 6                  26995196.318
        40.600
 104761942.095 8  81481673.067 8  19604718.497    19604718.591    19604724.477
        52.700          49.500
 115756032.117 7  90199667.30845  22027578.271    22027576.9484   22027579.6414
        42.600          30.5004
 131282701.234 7                  24982205.526
        47.100
 104259948.965 8  81091288.757 7  19483399.951    19483400.097    19483407.512
        52.300          47.500
 137739408.470 7                  26210953.462
        43.200
 122883841.799 7  95576417.250 6  23028359.880    23028360.134    23028368.104
        47.100          41.600
 118811971.260 7  92580766.28844  22609166.287    22609165.7204   22609167.8644
        44.300          28.5004
 109213552.038 7  85101630.33346  20782585.785    20782585.3384   20782586.7984
        47.200          38.2004
 113682184.495 7  88583678.59346  21632934.797    21632933.5634   21632934.8764
        47.000          37.0004
 117833436.046 8  91648275.906 7  22058658.932    22058658.965    22058666.213
        49.000          43.400
 126212028.741 6  98347182.74044  24017297.151    24017295.7214   24017305.3494
        41.500          27.3004
 116380184.926 8  90518109.792 7  21801876.348    21801877.202    21801888.133
        48.400          44.300
