     2.11           OBSERVATION DATA    M (MIXED)           RINEX VERSION / TYPE
teqc  2019Feb25                         20260317 16:20:08UTCPGM / RUN BY / DATE
Linux 2.4.21-27.ELsmp|Opteron|gcc -static|Linux 64|=+       COMMENT
BIT 2 OF LLI FLAGS DATA COLLECTED UNDER A/S CONDITION       COMMENT
-Unknown-                                                   MARKER NAME
-Unknown-           -Unknown-                               OBSERVER / AGENCY
-Unknown-           -Unknown-           -Unknown-           REC # / TYPE / VERS
-Unknown-           -Unknown-                               ANT # / TYPE
        0.0000        0.0000        0.0000                  APPROX POSITION XYZ
        0.0000        0.0000        0.0000                  ANTENNA: DELTA H/E/N
     1     1                                                WAVELENGTH FACT L1/2
     7    L1    L2    C1    P1    P2    S1    S2            # / TYPES OF OBSERV
 SNR is mapped to RINEX snr flag value [0-9]                COMMENT
  L1 & L2: min(max(int(snr_dBHz/6), 0), 9)                  COMMENT
  2025     1     1     6     0    0.0000000     GPS         TIME OF FIRST OBS
    18                                                      LEAP SECONDS
                                                            END OF HEADER
 25  1  1  6  0  0.0000000  0 31G25E03E08S31S35G13E21E13S48S33R02G16
                                G20E15G23G05G11G26G18E07G29G15R23E27
                                R15E26R24R16R17R01R08
 129152212.328 6 100638169.23945  24576826.057    24576825.1054   24576828.4184
        39.400          31.3004
 133535198.887 7                  25410887.548
        44.100
 129964363.228 7                  24731388.355
        45.700
 198977646.692 7                  37864183.144
        45.900
 200949396.014 7                  38239413.672
        44.200
 111521971.661 7  86900261.85345  21221916.032    21221915.4334   21221915.7454
        47.600          35.2004
 138440899.231 7                  26344412.769
        42.200
 124918680.057 8                  23771212.565
        48.500
 412847644.074 5                  78562352.696
        33.100
 202117699.588 7                  38461691.501
        45.400
 109441639.339 8  85121316.710 7  20509312.412    20509312.409    20509318.832
        50.500          47.300
 133433277.573 5 103973991.33841  25391508.955    25391507.9494   25391510.6164
        32.200          10.3004
 120728719.364 7  94074381.36844  22973885.530    22973884.1494   22973884.3394
        43.000          29.3004
 130454603.452 7                  24824647.251
        45.300
 124564557.780 6  97063295.33944  23703846.285    23703845.9234   23703847.7984
        41.100          26.9004
 109075291.558 8  84993785.37948  20756317.327    20756316.8764   20756316.1254
        48.900          49.2004
 126821704.248 6  98822204.19344  24133334.870    24133334.5174   24133336.5974
        40.300          24.6004
 130225820.576 6 101474693.80245  24781145.422    24781144.7924   24781149.5204
        37.700          30.6004
 119165087.618 7  92855915.18045  22676357.695    22676357.2984   22676357.9934
        44.800          32.7004
 143993832.554 6                  27401117.264
        39.300
 107161631.431 8  83502609.13148  20392163.902    20392163.2814   20392163.3664
        49.900          51.4004
 112094260.167 7  87346194.43347  21330821.262    21330820.8204   21330821.3364
        47.800          46.0004
 122429266.315 7                  22886832.839    22886832.556
        42.400
 145743603.871 6                  27734034.796
        38.500
 127829136.787 7  99422708.626 6  23921479.244    23921479.826    23921486.736
        43.600          38.900
 141807482.072 6                  26985067.871
        41.200
 104580104.692 8  81340157.432 8  19556989.764    19556990.180    19556995.602
        52.700          48.000
 128100287.033 7  99633616.936 6  23980638.184    23980637.821    23980645.605
        42.500          38.800
 113101861.222 8  87968158.641 7  21135781.488    21135781.849    21135787.328
        50.700          46.100
 103162369.749 8  80237452.947 7  19298639.942    19298640.126    19298647.502
        49.200          42.200
 122912582.380 7  95598743.527 6  22953044.947    22953045.566    22953050.601
        43.600          41.800
 25  1  1  6  0 15.0000000  0 31G25E03E08S31S35G13E21E13S48S33R02G16
                                G20E15G23G05G11G26G18E07G29G15R23E27
                                R15E26R24R16R17R01R08
 129198322.774 6 100674099.43445  24585599.590    24585598.6024   24585603.6064
        39.100          31.0004
 133546219.020 7                  25412984.595
        44.400
 129935630.131 7                  24725920.461
        46.000
 198977638.123 7                  37864184.642
        46.000
 200949407.908 7                  38239414.531
        44.600
 111500599.656 7  86883608.36345  21217848.911    21217848.3124   21217848.7694
        47.700          35.2004
 138467717.273 7                  26349516.191
        42.400
 124908177.932 8                  23769213.863
        48.700
 412847399.082 5                  78562322.356
        33.100
 202117677.617 7                  38461688.277
        45.400
 109393831.472 8  85084132.818 7  20500353.516    20500353.388    20500359.663
        51.000          47.400
 133407796.566 5 103954135.96441  25386661.112    25386660.0394   25386661.7054
        34.300          10.6004
 120770138.301 7  94106655.87244  22981767.122    22981765.7594   22981766.0484
        44.000          29.3004
 130473147.942 7                  24828176.424
        45.600
 124521486.005 6  97029732.92044  23695650.288    23695649.9044   23695651.3234
        41.300          26.9004
 109101806.978 8  85014446.74748  20761362.900    20761362.4494   20761361.8194
        49.300          49.0004
 126860596.303 6  98852509.63144  24140735.473    24140735.1294   24140737.4504
        40.200          24.5004
 130228464.076 6 101476753.60545  24781649.076    24781648.4424   24781652.3054
        37.500          30.5004
 119128853.157 7  92827680.54145  22669462.248    22669461.8464   22669462.6614
        45.400          32.7004
 143946795.611 6                  27392166.259
        39.600
 107159954.751 8  83501302.62548  20391844.839    20391844.2134   20391844.3294
        49.800          51.2004
 112050093.464 7  87311778.87547  21322416.218    21322415.7714   21322416.6044
        47.600          45.9004
 122474024.169 6                  22895197.485    22895198.425
        40.900
 145786282.867 6                  27742156.100
        38.700
 127868764.518 7  99453530.159 6  23928895.661    23928895.883    23928901.907
        43.900          38.700
 141777388.868 6                  26979341.005
        41.100
 104581930.591 8  81341577.588 8  19557331.265    19557331.570    19557336.984
        52.400          48.000
 128103234.519 7  99635909.416 6  23981190.594    23981190.826    23981198.338
        44.600          39.500
 113057833.233 8  87933914.648 7  21127553.987    21127554.193    21127559.950
        50.600          46.000
 103173705.145 8  80246269.359 7  19300760.899    19300760.592    19300768.088
        49.000          42.300
 122972476.788 7  95645328.084 6  22964229.435    22964229.532    22964235.649
        42.400          41.800
 25  1  1  6  0 30.0000000  0 31G25E03E08S31S35G13E21E13S48S33R02G16
                                G20E15G23G05G11G26G18E07G29G15R23E27
                                R15E26R24R16R17R01R08
 129244423.372 6 100710021.97245  24594372.766    24594371.7744   24594376.1704
        39.500          31.4004
 133557341.159 7                  25415101.210
        44.500
 129906977.414 7                  24720468.304
        46.400
 198977627.320 7                  37864178.963
        46.000
 200949417.536 7                  38239412.577
        44.400
 111479370.850 7  86867066.45545  21213809.179    21213808.5764   21213808.9984
        47.400          35.3004
 138494604.947 7                  26354632.868
        42.100
 124897697.807 8                  23767219.808
        48.800
 412847151.985 5                  78562289.235
        32.900
 202117652.793 7                  38461677.626
        45.200
 109346156.087 8  85047051.994 7  20491418.898    20491418.862    20491425.169
        51.200          47.900
 133382434.394 6 103934373.23842  25381833.870    25381832.7934   25381835.4344
        37.100          15.0004
 120811571.631 7  94138941.54744  22989651.266    22989649.8984   22989650.4854
        43.400          29.2004
 130491717.017 7                  24831709.817
        45.500
 124478458.346 7  96996204.88344  23687462.025    23687461.6454   23687463.3704
        42.100          27.2004
 109128397.457 8  85035166.58748  20766422.793    20766422.3464   20766421.7774
        49.100          49.1004
 126899515.415 6  98882836.16544  24148142.099    24148141.7604   24148143.9514
        40.000          24.5004
 130231227.700 6 101478907.00245  24782174.599    24782173.9784   24782178.2794
        38.000          30.6004
 119092636.800 7  92799460.01245  22662570.757    22662570.3554   22662570.8944
        44.600          32.8004
 143899755.717 6                  27383214.631
        39.500
 107158421.385 8  83500107.80448  20391553.237    20391552.6164   20391552.5514
        49.800          51.4004
 112006025.475 7  87277440.23747  21314030.701    21314030.2544   21314030.7654
        47.700          46.2004
 122518846.119 6                  22903578.821    22903577.906
        41.100
 145828946.795 6                  27750274.951
        39.000
 127908478.219 7  99484418.615 6  23936327.653    23936327.505    23936333.605
        44.200          38.100
 141747291.135 6                  26973613.233
        41.300
 104583868.840 8  81343085.108 8  19557693.442    19557693.937    19557699.530
        52.500          48.100
 128106352.779 7  99638334.734 6  23981773.277    23981773.380    23981780.338
        43.100          37.800
 113013837.357 8  87899695.640 7  21119332.237    21119332.659    21119338.272
        50.500          46.000
 103185229.779 8  80255232.967 7  19302916.831    19302916.602    19302923.755
        49.200          42.000
 123032426.081 7  95691955.299 6  22975425.565    22975425.844    22975430.714
        43.500          41.800
 25  1  1  6  0 45.0000000  0 31G25E03E08S31S35G13E21E13S48S33R02G16
                                G20E15G23G05G11G26G18E07G29G15R23E27
                                R15E26R24R16R17R01R08
 129290516.044 6 100745938.33145  24603143.818    24603142.8214   24603147.1374
        38.800          31.5004
 133568567.489 7                  25417237.647
        44.900
 129878407.563 7                  24715031.475
        46.600
 198977616.663 7                  37864177.720
        45.900
 200949427.237 7                  38239414.527
        44.500
 111458287.813 7  86850638.13145  21209797.505    21209796.9024   21209797.0314
        47.200          35.6004
 138521564.340 7                  26359763.321
        42.600
 124887241.963 8                  23765229.867
        49.100
 412846904.291 5                  78562269.001
        33.100
 202117627.991 7                  38461679.750
        45.600
 109298616.028 8  85010076.404 7  20482509.944    20482510.420    20482516.561
        51.200          47.600
 133357193.551 5 103914705.05842  25377030.324    25377029.2744   25377032.3484
        35.200          15.2004
 120853021.453 7  94171240.09944  22997539.493    22997538.1304   22997538.2844
        43.900          29.8004
 130510313.007 7                  24835248.525
        46.100
 124435477.169 6  96962713.07144  23679283.154    23679282.7654   23679284.3934
        41.300          27.3004
 109155064.838 8  85055946.36548  20771497.555    20771497.1084   20771496.3944
        49.200          49.2004
 126938463.829 6  98913185.52244  24155554.040    24155553.7144   24155555.5404
        40.100          24.8004
 130234113.609 6 101481155.70345  24782723.199    24782722.5734   24782727.5734
        37.800          30.6004
 119056440.900 7  92771255.42145  22655683.010    22655682.6134   22655683.1114
        45.100          33.1004
 143852715.304 6                  27374263.469
        40.000
 107157033.526 8  83499026.36048  20391289.117    20391288.4964   20391288.4574
        49.400          51.6004
 111962058.630 7  87243180.37647  21305664.164    21305663.7224   21305664.1404
        47.400          46.4004
 122563734.335 6                  22911969.226    22911969.089
        41.400
 145871597.634 6                  27758390.663
        38.800
 127948279.922 7  99515375.488 6  23943775.520    23943775.162    23943782.689
        43.300          39.000
 141717191.160 6                  26967885.768
        41.800
 104585922.017 8  81344682.039 8  19558077.547    19558077.987    19558083.521
        52.300          48.200
 128109644.263 7  99640894.788 6  23982390.190    23982390.066    23982397.355
        43.400          38.800
 112969876.508 8  87865503.856 7  21111117.332    21111117.421    21111123.222
        50.700          45.900
 103196945.610 8  80264345.284 7  19305108.656    19305108.167    19305115.583
        49.000          42.100
 123092431.828 7  95738626.451 6  22986629.914    22986630.760    22986636.095
        42.900          41.600
 25  1  1  6  1  0.0000000  0 31G25E03E08S31S35G13E21E13S48S33R02G16
                                G20E15G23G05G11G26G18E07G29G15R23E27
                                R15E26R24R16R17R01R08
 129336602.942 6 100781850.19045  24611914.027    24611913.0264   24611917.3434
        37.900          31.2004
 133579900.467 7                  25419394.048
        45.000
 129849923.278 7                  24709611.119
        46.800
 198977608.118 7                  37864177.595
        46.000
 200949439.005 7                  38239415.260
        44.500
 111437353.439 7  86834325.65145  21205814.154    21205813.5464   21205813.3754
        47.300          35.7004
 138548597.725 7                  26364907.541
        42.600
 124876813.025 8                  23763245.366
        49.100
 412846660.389 5                  78562239.161
        32.800
 202117605.082 7                  38461673.467
        45.200
 109251214.297 8  84973208.426 7  20473626.738    20473626.884    20473633.218
        51.100          47.800
 133332076.607 5 103895133.43642  25372251.323    25372250.2824   25372252.7064
        35.600          14.4004
 120894490.370 7  94203553.57144  23005430.497    23005429.1254   23005429.5394
        43.100          29.8004
 130528938.453 7                  24838792.986
        46.000
 124392545.059 6  96929259.48044  23671113.414    23671113.0174   23671114.6004
        41.700          27.3004
 109181811.231 8  85076787.73748  20776587.012    20776586.5614   20776586.0574
        48.800          49.2004
 126977444.029 6  98943559.64744  24162971.438    24162971.1034   24162973.1434
        40.300          24.7004
 130237124.177 6 101483501.52945  24783296.606    24783295.9944   24783299.9104
        38.300          30.3004
 119020268.045 7  92743068.77945  22648799.347    22648798.9364   22648799.6914
        45.000          33.4004
 143805677.160 6                  27365311.831
        40.200
 107155794.042 8  83498060.52948  20391053.261    20391052.6494   20391052.5794
        49.800          51.6004
 111918195.837 8  87209001.56847  21297317.382    21297316.9404   21297317.3114
        48.000          46.5004
 122608691.557 6                  22920374.029    22920373.320
        41.300
 145914237.727 6                  27766505.016
        38.800
 127988171.569 7  99546402.306 6  23951242.320    23951242.369    23951247.249
        44.600          38.600
 141687091.387 6                  26962157.702
        41.600
 104588092.763 8  81346370.411 8  19558483.704    19558483.849    19558489.397
        52.500          48.200
 128113111.347 7  99643591.437 6  23983039.559    23983039.735    23983046.210
        44.800          39.500
 112925953.455 8  87831341.475 7  21102909.020    21102909.355    21102915.174
        50.700          46.100
 103208854.921 8  80273608.069 7  19307336.636    19307336.126    19307343.507
        49.300          42.100
 123152496.196 7  95785343.136 6  22997847.326    22997847.638    22997852.691
        43.000          41.800
 25  1  1  6  1 15.0000000  0 31G25E03E08S31S35G13E21E13S48S33R02G16
                                G20E15G23G05G11G26G18E07G29G15R23E27
                                R15E26R24R16R17R01R08
 129382677.930 6 100817752.77245  24620681.924    24620680.9274   24620685.2074
        38.700          31.9004
 133591334.188 7                  25421569.808
        44.800
 129821518.922 7                  24704206.045
        46.700
 198977595.778 7                  37864174.264
        45.800
 200949447.036 7                  38239419.280
        44.600
 111416561.784 7  86818124.37945  21201857.341    21201856.7244   21201856.8564
        47.500          35.7004
 138575699.094 7                  26370064.537
        42.500
 124866405.187 8                  23761264.821
        49.200
 412846413.110 5                  78562203.295
        33.100
 202117579.406 7                  38461669.412
        45.100
 109203945.197 8  84936443.565 7  20464768.570    20464768.806    20464775.095
        51.200          47.900
 133307078.014 5 103875654.09142  25367494.418    25367493.4444   25367495.5624
        35.100          12.4004
 120935972.207 7  94235877.05544  23013324.385    23013323.0044   23013323.2684
        43.700          29.6004
 130547587.635 7                  24842341.841
        46.000
 124349656.331 6  96895839.69244  23662951.874    23662951.4724   23662953.0304
        41.200          27.4004
 109208631.245 8  85097686.44448  20781690.982    20781690.5264   20781689.7084
        48.600          49.1004
 127016450.212 6  98973954.03544  24170394.930    24170394.5824   24170395.7464
        39.600          24.7004
 130240253.560 6 101485939.95545  24783892.905    24783892.2714   24783894.9174
        37.700          30.1004
 118984112.597 7  92714895.69445  22641919.065    22641918.6594   22641919.6174
        44.400          33.3004
 143758635.696 6                  27356360.435
        39.700
 107154697.254 8  83497205.88748  20390844.384    20390843.7634   20390843.8754
        49.400          51.7004
 111874431.858 7  87174899.80547  21288989.082    21288988.6494   21288989.3254
        46.900          46.5004
 122653711.563 6                  22928789.362    22928789.594
        41.400
 145956861.036 6                  27774616.480
        38.800
 128028146.715 7  99577494.121 6  23958721.217    23958721.601    23958728.707
        42.400          38.400
 141656986.014 6                  26956428.738
        41.900
 104590375.269 8  81348145.667 8  19558910.056    19558910.675    19558916.460
        52.500          48.200
 128116748.055 7  99646420.008 6  23983720.748    23983720.070    23983727.748
        44.800          39.600
 112882062.525 8  87797204.108 7  21094706.977    21094707.465    21094712.882
        51.100          46.000
 103220951.585 8  80283016.607 6  19309599.244    19309598.995    19309606.434
        49.100          41.900
 123212612.648 7  95832100.343 6  23009075.070    23009073.811    23009079.120
        43.900          41.800
 25  1  1  6  1 30.0000000  0 31G25E03E08S31S35G13E21E13S48S33R02G16
                                G20E15G23G05G11G26G18E07G29G15R23E27
                                R15E26R24R16R17R01R08
 129428747.655 6 100853651.24845  24629448.763    24629447.7754   24629452.2794
        39.200          31.4004
 133602875.560 7                  25423766.128
        44.800
 129793201.666 7                  24698817.301
        46.700
 198977587.683 7                  37864169.479
        45.800
 200949459.347 7                  38239424.266
        44.300
 111395920.570 7  86802040.33445  21197929.323    21197928.7024   21197928.8764
        47.500          35.5004
 138602875.188 7                  26375236.168
        42.600
 124856025.580 8                  23759289.766
        49.000
 412846167.646 5                  78562191.235
        33.400
 202117556.546 7                  38461666.644
        45.300
 109156816.395 8  84899787.857 7  20455936.422    20455936.636    20455942.938
        50.800          47.700
 133282205.155 5 103856272.67142  25362761.019    25362759.9694   25362762.5334
        35.100          12.9004
 120977473.855 7  94268215.94644  23021221.657    23021220.2714   23021220.9634
        43.300          29.4004
 130566267.560 7                  24845896.174
        45.800
 124306818.049 6  96862459.22944  23654800.163    23654799.7574   23654801.2674
        41.300          27.6004
 109235531.236 8  85118647.45648  20786809.633    20786809.1734   20786808.6164
        48.800          48.8004
 127055489.330 6  99004374.07144  24177822.886    24177822.5384   24177824.3544
        40.500          24.6004
 130243508.606 6 101488476.32045  24784511.982    24784511.3434   24784514.8724
        38.500          30.8004
 118947981.611 7  92686741.67145  22635043.481    22635043.0664   22635044.1804
        45.300          33.3004
 143711598.105 6                  27347409.236
        40.300
 107153750.079 8  83496467.83048  20390664.238    20390663.6174   20390663.6384
        49.700          51.5004
 111830773.997 7  87140880.75647  21280681.325    21280680.8964   21280681.4894
        47.700          46.5004
 122698801.460 7                  22937219.180    22937219.313
        42.200
 145999474.278 6                  27782725.379
        38.500
 128068212.013 7  99608656.017 6  23966220.129    23966220.100    23966226.000
        44.000          38.400
 141626881.962 7                  26950699.967
        42.000
 104592776.965 8  81350013.659 8  19559359.568    19559359.751    19559365.402
        52.400          48.100
 128120561.267 7  99649385.889 6  23984433.092    23984432.762    23984441.817
        42.800          40.300
 112838211.105 8  87763097.469 7  21086512.120    21086512.778    21086518.137
        51.700          45.800
 103233242.385 8  80292576.110 6  19311898.484    19311898.241    19311905.653
        48.800          41.800
 123272788.063 7  95878903.462 6  23020310.054    23020310.807    23020316.508
        43.400          41.900
 25  1  1  6  1 45.0000000  0 31G25E03E08S31S35G13E21E13S48S33R02G16
                                G20E15G23G05G11G26G18E07G29G15R23E27
                                R15E26R24R16R17R01R08
 129474805.488 6 100889540.47045  24638213.035    24638212.0384   24638216.0784
        37.500          30.5004
 133614518.239 7                  25425981.533
        44.500
 129764965.450 7                  24693444.089
        46.500
 198977576.495 7                  37864170.807
        46.000
 200949468.106 7                  38239422.088
        44.300
 111375423.631 7  86786068.71345  21194029.003    21194028.3914   21194028.3604
        47.200          35.3004
 138630119.542 7                  26380420.455
        43.100
 124845667.910 8                  23757318.754
        49.000
 412845918.713 5                  78562148.964
        32.600
 202117531.855 7                  38461659.145
        45.400
 109109821.930 8  84863236.623 7  20447129.536    20447130.057    20447136.543
        51.000          47.900
 133257451.894 5 103836984.47542  25358050.653    25358049.6524   25358052.1484
        34.100          12.3004
 121018989.022 7  94300565.43044  23029121.933    23029120.5474   23029120.8934
        43.900          29.4004
 130584971.990 7                  24849455.583
        45.900
 124264024.012 6  96829113.22244  23646656.725    23646656.3104   23646657.9634
        41.900          27.6004
 109262504.861 8  85139665.85048  20791942.454    20791941.9894   20791941.5474
        48.700          48.7004
 127094555.123 6  99034814.90644  24185257.431    24185257.1014   24185258.3554
        39.500          24.3004
 130246882.945 6 101491105.65045  24785153.649    24785152.9924   24785157.2524
        38.000          30.3004
 118911868.984 7  92658601.98345  22628171.923    22628171.5084   22628172.0974
        44.800          33.1004
 143664558.366 6                  27338458.150
        39.600
 107152946.447 8  83495841.61948  20390511.094    20390510.4734   20390510.7174
        49.700          51.4004
 111787216.245 7  87106939.67147  21272392.436    21272392.0164   21272392.6704
        47.600          46.4004
 122743954.821 6                  22945659.751    22945659.331
        41.100
 146042070.960 6                  27790830.973
        39.000
 128108360.461 7  99639882.564 6  23973731.641    23973732.637    23973738.800
        44.100          38.400
 141596772.973 6                  26944970.230
        41.500
 104595291.773 8  81351969.642 8  19559829.743    19559830.058    19559835.566
        52.600          48.100
 128124544.622 7  99652484.038 6  23985180.533    23985179.769    23985186.682
        43.500          39.300
 112794393.323 8  87729016.982 7  21078323.477    21078324.191    21078329.487
        51.200          46.100
 103245720.974 8  80302281.681 6  19314232.765    19314232.473    19314239.969
        48.700          41.800
 123333015.666 7  95925747.159 7  23031557.638    23031558.449    23031563.860
        43.600          42.300
 25  1  1  6  2  0.0000000  0 31G25E03E08S31S35G13E21E13S48S33R02G16
                                G20E15G23G05G11G26G18E07G29G15R23E27
                                R15E26R24R16R17R01R08
 129520856.155 6 100925424.11445  24646976.619    24646975.6364   24646979.2204
        38.600          30.8004
 133626267.246 7                  25428217.452
        44.600
 129736815.563 7                  24688087.325
        46.500
 198977567.790 7                  37864166.532
        46.000
 200949479.561 7                  38239426.180
        44.200
 111355076.282 7  86770213.64645  21190157.215    21190156.6034   21190156.3514
        47.700          35.3004
 138657436.995 7                  26385618.861
        42.600
 124835337.322 8                  23755352.765
        48.800
 412845672.321 5                  78562118.522
        33.300
 202117508.956 7                  38461653.023
        45.200
 109062967.194 8  84826794.072 7  20438349.422    20438349.436    20438355.542
        51.500          47.700
 133232823.332 6 103817793.45842  25353364.048    25353363.0244   25353365.3204
        36.000          12.4004
 121060522.372 7  94332929.05944  23037025.259    23037023.8644   23037024.3164
        43.300          29.1004
 130603706.100 7                  24853020.781
        45.400
 124221279.404 7  96795805.74844  23638522.642    23638522.2364   23638523.7064
        42.500          27.3004
 109289556.808 8  85160745.27048  20797090.767    20797090.3074   20797089.3864
        49.000          48.6004
 127133652.671 6  99065280.48244  24192697.736    24192697.4234   24192698.5094
        40.400          24.6004
 130250381.516 6 101493831.79245  24785819.127    24785818.4574   24785823.3054
        37.700          30.3004
 118875779.843 7  92630480.58245  22621303.989    22621303.5744   22621304.4984
        45.700          32.9004
 143617521.752 6                  27329507.688
        38.900
 107152291.529 8  83495331.28948  20390386.344    20390385.7144   20390386.1114
        49.900          51.3004
 111743764.024 8  87073080.81047  21264123.692    21264123.2724   21264123.9654
        48.200          46.4004
 122789176.659 7                  22954113.392    22954113.649
        42.100
 146084655.946 6                  27798934.635
        38.400
 128148597.075 7  99671177.711 6  23981261.855    23981262.853    23981268.717
        44.100          38.400
 141566664.270 6                  26939240.889
        41.400
 104597924.793 8  81354017.545 8  19560322.162    19560322.460    19560328.106
        52.400          48.300
 128128703.161 7  99655718.437 6  23985957.404    23985957.581    23985964.704
        43.800          38.400
 112750614.491 8  87694966.800 7  21070142.395    21070143.027    21070148.537
        50.900          46.400
 103258392.180 8  80312137.045 6  19316603.100    19316603.005    19316610.372
        48.800          41.900
 123393300.101 7  95972635.140 7  23042815.013    23042815.732    23042821.595
        42.900          42.300
 25  1  1  6  2 15.0000000  0 31G25E03E08S31S35G13E21E13S48S33R02G16
                                G20E15G23G05G11G26G18E07G29G15R23E27
                                R15E26R24R16R17R01R08
 129566895.454 6 100961298.87545  24655736.849    24655735.8664   24655740.5324
        38.800          31.2004
 133638118.634 7                  25430472.467
        44.700
 129708748.303 7                  24682746.417
        46.400
 198977557.652 7                  37864167.592
        46.200
 200949489.750 7                  38239431.402
        44.600
 111334874.772 8  86754472.23245  21186312.832    21186312.2334   21186312.1864
        48.000          35.2004
 138684823.539 7                  26390830.309
        42.100
 124825030.073 8                  23753391.450
        48.600
 412845425.114 5                  78562091.875
        33.200
 202117485.011 7                  38461652.938
        45.300
 109016248.701 8  84790457.493 7  20429594.153    20429594.518    20429600.543
        51.100          47.900
 133208315.974 5 103798696.86842  25348699.796    25348698.8444   25348701.5344
        34.900          13.0004
 121102070.060 7  94365303.85444  23044931.776    23044930.3864   23044930.6414
        43.900          29.1004
 130622466.052 7                  24856590.580
        45.300
 124178580.513 7  96762533.89644  23630396.804    23630396.3844   23630398.4554
        42.500          27.6004
 109316683.290 8  85181882.77748  20802252.271    20802251.8114   20802251.4314
        49.300          48.6004
 127172778.083 6  99095767.76944  24200142.363    24200142.0424   24200144.3564
        40.900          24.6004
 130254000.402 6 101496651.68645  24786508.134    24786507.4684   24786512.3014
        37.700          30.3004
 118839710.540 7  92602374.65945  22614440.201    22614439.7814   22614440.8044
        45.700          33.1004
 143570484.692 6                  27320556.388
        39.600
 107151781.481 8  83494933.84548  20390289.488    20390288.8674   20390289.0774
        49.700          51.3004
 111700413.710 8  87039301.27847  21255874.602    21255874.1694   21255874.6714
        48.200          46.4004
 122834462.964 6                  22962579.099    22962579.870
        41.400
 146127225.182 6                  27807034.913
        38.800
 128188916.904 7  99702537.569 6  23988806.799    23988808.395    23988813.932
        44.200          38.600
 141536551.997 6                  26933510.852
        41.500
 104600672.512 8  81356154.632 8  19560836.302    19560836.276    19560842.043
        52.300          48.300
 128133032.645 7  99659085.837 6  23986768.937    23986768.796    23986775.521
        44.300          38.900
 112706871.178 8  87660944.260 7  21061968.342    21061968.735    21061974.384
        51.000          46.300
 103271251.872 8  80322139.058 6  19319008.831    19319008.783    19319016.020
        48.900          41.700
 123453636.701 7  96019563.596 7  23054082.773    23054082.897    23054088.648
        43.400          42.200
 25  1  1  6  2 30.0000000  0 31G25E03E08S31S35G13E21E13S48S33R02G16
                                G20E15G23G05G11G26G18E07G29G15R23E27
                                R15E26R24R16R17R01R08
 129612926.582 6 100997167.28645  24664496.562    24664495.5884   24664499.9894
        39.100          31.5004
 133650075.872 7                  25432747.848
        44.600
 129680767.452 7                  24677421.727
        46.900
 198977549.761 7                  37864161.944
        46.200
 200949501.987 7                  38239427.087
        44.500
 111314823.155 7  86738847.61245  21182496.961    21182496.3584   21182496.4214
        47.600          35.3004
 138712282.445 7                  26396055.531
        42.800
 124814749.761 8                  23751435.129
        48.900
 412845180.393 5                  78562055.879
        32.500
 202117462.874 7                  38461647.192
        45.500
 108969670.436 8  84754229.963 8  20420865.361    20420865.553    20420872.124
        51.000          48.000
 133183933.611 5 103779697.70042  25344060.648    25344059.6244   25344061.5864
        35.700          13.6004
 121143635.602 7  94397692.55544  23052841.453    23052840.0584   23052840.5444
        43.700          29.3004
 130641255.442 7                  24860165.909
        45.800
 124135930.917 7  96729300.45744  23622281.607    23622281.2014   23622282.9164
        42.100          28.0004
 109343887.568 8  85203080.92748  20807429.228    20807428.7684   20807428.2334
        49.300          48.6004
 127211934.959 6  99126279.57144  24207593.616    24207593.2904   24207595.8764
        41.000          24.4004
 130257742.964 6 101499567.93545  24787220.521    24787219.8644   24787224.1434
        38.000          30.1004
 118803664.621 7  92574286.94145  22607581.021    22607580.5884   22607581.3884
        45.100          33.3004
 143523450.931 6                  27311606.408
        39.800
 107151419.773 8  83494651.98948  20390220.791    20390220.1744   20390220.2724
        49.800          51.4004
 111657169.403 8  87005604.34347  21247645.708    21247645.2844   21247645.5714
        48.200          46.6004
 122879817.394 6                  22971058.073    22971058.286
        41.300
 146169781.946 6                  27815133.653
        38.000
 128229323.220 7  99733964.715 6  23996369.624    23996368.907    23996375.039
        43.800          38.000
 141506439.591 6                  26927780.644
        41.900
 104603538.826 8  81358383.985 8  19561372.055    19561372.285    19561378.061
        52.200          48.200
 128137536.859 7  99662589.127 6  23987610.934    23987610.798    23987619.195
        42.900          39.700
 112663166.947 8  87626952.057 7  21053801.041    21053801.089    21053806.800
        50.800          46.000
 103284303.231 8  80332290.118 6  19321450.586    19321450.311    19321457.558
        48.800          41.800
 123514028.756 7  96066535.123 7  23065360.982    23065361.036    23065366.693
        42.400          42.200
 25  1  1  6  2 45.0000000  0 31G25E03E08S31S35G13E21E13S48S33R02G16
                                G20E15G23G05G11G26G18E07G29G15R23E27
                                R15E26R24R16R17R01R08
 129658945.477 6 101033026.14545  24673253.867    24673252.8884   24673257.3314
        38.700          31.3004
 133662135.104 7                  25435042.768
        44.600
 129652869.428 7                  24672112.929
        46.700
 198977540.317 7                  37864163.272
        46.300
 200949512.217 7                  38239430.678
        44.700
 111294917.585 7  86723336.79445  21178709.184    21178708.5814   21178708.5454
        47.600          35.5004
 138739809.772 7                  26401293.811
        42.400
 124804492.660 8                  23749483.205
        49.000
 412844933.288 5                  78562036.941
        33.300
 202117438.956 7                  38461642.667
        45.500
 108923228.782 8  84718108.695 7  20412162.199    20412162.465    20412168.674
        51.200          47.900
 133159672.490 5 103760792.98342  25339443.614    25339442.5954   25339444.8504
        35.900          14.0004
 121185215.056 7  94430092.12744  23060753.505    23060752.1064   23060752.8294
        43.800          29.5004
 130660070.603 7                  24863746.576
        45.600
 124093326.970 7  96696102.58044  23614173.728    23614173.3174   23614175.5704
        42.400          28.2004
 109371165.690 8  85224336.60948  20812619.999    20812619.5344   20812619.1214
        48.900          48.7004
 127251119.478 6  99156812.92444  24215050.255    24215049.9204   24215052.3524
        40.100          24.4004
 130261605.365 6 101502577.55445  24787955.242    24787954.5944   24787959.0734
        37.800          30.5004
 118767638.474 7  92546214.63445  22600725.265    22600724.8234   22600725.8364
        45.600          33.4004
 143476416.926 6                  27302656.167
        39.800
 107151202.889 8  83494482.99148  20390179.111    20390178.4944   20390179.0214
        49.500          51.6004
 111614027.775 8  86971987.41447  21239435.818    21239435.3894   21239436.0924
        48.200          46.8004
 122925236.062 6                  22979549.937    22979549.633
        41.300
 146212322.259 6                  27823228.675
        38.700
 128269811.713 7  99765455.747 6  24003945.595    24003946.970    24003952.140
        43.900          37.200
 141476323.400 6                  26922049.433
        41.400
 104606519.817 8  81360702.550 8  19561929.462    19561929.628    19561935.668
        51.800          48.400
 128142211.687 7  99666225.146 6  23988486.755    23988486.409    23988494.426
        43.200          40.200
 112619498.501 8  87592987.705 7  21045640.184    21045641.164    21045646.344
        51.300          46.200
 103297542.335 8  80342587.197 6  19323926.928    19323926.777    19323934.389
        48.700          41.500
 123574471.906 7  96113546.388 6  23076647.731    23076648.381    23076653.743
        43.000          41.700
 25  1  1  6  3  0.0000000  0 31G25E03E08S31S35G13E21E13S48S33R02G16
                                G20E15G23G05G11G26G18E07G29G15R23E27
                                R15E26R24R16R17R01R08
 129704953.433 6 101068876.49645  24682008.798    24682007.8244   24682012.1694
        38.700          31.8004
 133674297.975 7                  25437357.418
        44.200
 129625056.094 7                  24666819.954
        46.700
 198977530.197 7                  37864162.852
        46.100
 200949522.682 7                  38239433.616
        44.300
 111275160.264 8  86707941.49545  21174949.362    21174948.7684   21174948.7924
        48.100          35.5004
 138767406.949 7                  26406545.566
        42.300
 124794260.555 8                  23747536.031
        48.600
 412844685.792 5                  78562000.887
        32.700
 202117414.924 7                  38461638.920
        45.200
 108876926.133 8  84682095.558 8  20403485.013    20403485.443    20403491.562
        51.600          48.100
 133135534.825 5 103741984.53942  25334849.668    25334848.6444   25334851.5824
        34.900          12.1004
 121226809.820 7  94462503.62144  23068669.121    23068667.7004   23068667.9414
        43.000          29.4004
 130678913.257 7                  24867332.099
        45.500
 124050770.481 7  96662941.68444  23606075.839    23606075.4244   23606077.2384
        42.100          28.4004
 109398518.918 8  85245650.80448  20817825.401    20817824.9364   20817824.2864
        49.300          48.8004
 127290333.282 6  99187369.07844  24222512.234    24222511.9044   24222514.5284
        41.200          24.8004
 130265589.144 6 101505681.76645  24788713.636    24788712.9934   24788717.2504
        37.900          30.2004
 118731633.888 7  92518159.12445  22593873.927    22593873.4944   22593874.4214
        45.000          33.5004
 143429384.640 6                  27293705.896
        40.000
 107151132.804 8  83494428.36448  20390165.857    20390165.2404   20390165.6824
        49.700          51.6004
 111570990.714 8  86938451.95647  21231246.352    21231245.9194   21231246.5304
        48.400          46.8004
 122970720.528 7                  22988051.997    22988051.847
        42.000
 146254847.596 6                  27831320.564
        38.300
 128310383.493 7  99797011.590 6  24011539.007    24011538.707    24011544.781
        42.800          38.200
 141446205.139 6                  26916318.263
        41.400
 104609617.567 8  81363111.921 8  19562508.756    19562508.900    19562514.868
        52.000          48.400
 128147058.856 7  99669995.195 6  23989393.929    23989393.853    23989401.455
        43.200          39.900
 112575867.930 8  87559052.876 7  21037486.684    21037486.933    21037493.087
        51.000          46.400
 103310970.611 8  80353031.404 6  19326439.109    19326438.903    19326446.225
        48.800          41.700
 123634967.540 7  96160598.490 7  23087944.359    23087945.484    23087951.803
        42.900          42.400
 25  1  1  6  3 15.0000000  0 31G25E03E08S31S35G13E21E13S48S33R02G16
                                G20E15G23G05G11G26G18E07G29G15R23E27
                                R15E26R24R16R17R01R08
 129750952.563 6 101104719.95045  24690762.635    24690761.6704   24690765.9514
        38.200          31.7004
 133686566.795 7                  25439691.895
        44.400
 129597330.061 7                  24661543.864
        46.500
 198977523.710 7                  37864151.499
        45.400
 200949535.896 7                  38239442.385
        44.300
 111255553.796 7  86692663.75045  21171218.225    21171217.6224   21171217.8274
        47.400          35.5004
 138795076.230 7                  26411811.052
        42.500
 124784055.900 8                  23745594.214
        48.700
 412844440.893 5                  78561977.809
        33.200
 202117393.362 7                  38461633.357
        45.200
 108830765.389 8  84646192.811 8  20394834.391    20394834.668    20394841.288
        50.900          48.000
 133111522.811 5 103723273.94941  25330280.813    25330279.8034   25330282.2274
        34.300          11.5004
 121268422.367 7  94494928.96344  23076587.849    23076586.4414   23076586.5854
        42.900          29.4004
 130697785.854 7                  24870923.242
        45.400
 124008263.897 6  96629819.69244  23597987.343    23597986.9414   23597988.4394
        40.900          28.3004
 109425949.165 8  85267025.04348  20823045.050    20823044.5814   20823044.0964
        48.400          48.8004
 127329578.818 6  99217949.96744  24229981.020    24229980.6634   24229982.8224
        40.100          24.7004
 130269696.677 6 101508882.37345  24789495.013    24789494.3794   24789499.0644
        37.700          30.9004
 118695653.440 7  92490122.41945  22587027.145    22587026.7254   22587027.5624
        45.200          33.7004
 143382356.646 6                  27284756.857
        39.200
 107151211.947 8  83494490.02648  20390180.969    20390180.3574   20390180.7474
        49.400          51.7004
 111528061.119 8  86905000.31647  21223077.006    21223076.5734   21223077.3674
        48.000          46.8004
 123016273.124 6                  22996567.142    22996566.616
        40.700
 146297360.147 6                  27839411.607
        38.400
 128351040.726 7  99828633.908 6  24019147.963    24019146.646    24019154.070
        42.100          38.300
 141416087.260 6                  26910587.093
        41.500
 104612834.758 8  81365614.184 8  19563110.580    19563110.423    19563116.436
        52.100          48.400
 128152080.655 7  99673901.085 6  23990333.631    23990333.730    23990340.723
        42.500          39.100
 112532277.742 8  87525149.378 7  21029340.829    21029341.349    21029347.307
        50.800          46.300
 103324590.371 8  80363624.587 6  19328987.261    19328986.708    19328993.928
        48.500          41.500
 123695517.532 7  96207692.855 6  23099252.513    23099253.042    23099258.167
        42.700          41.900
 25  1  1  6  3 30.0000000  0 31G25E03E08S31S35G13E21E13S48S33R02G16
                                G20E15G23G05G11G26G18E07G29G15R23E27
                                R15E26R24R16R17R01R08
 129796936.085 6 101140551.26545  24699512.088    24699511.1234   24699515.9024
        38.400          30.9004
 133698935.037 7                  25442045.569
        44.700
 129569685.061 7                  24656283.268
        46.800
 198977512.505 7                  37864157.728
        45.200
 200949544.385 7                  38239439.831
        44.200
 111236091.914 7  86677498.65945  21167515.092    21167514.4934   21167514.3214
        47.600          35.5004
 138822810.930 7                  26417088.014
        42.700
 124773872.293 8                  23743656.318
        49.000
 412845792.316 5                  78561952.316
        33.000
 202117368.992 7                  38461629.288
        44.900
 108784739.911 8  84610395.237 7  20386209.372    20386209.669    20386215.582
        51.200          47.700
 133087630.218 5 103704656.38441  25325734.482    25325733.4904   25325735.2364
        34.400          11.6004
 121310046.157 7  94527363.08144  23084508.465    23084507.0664   23084507.2554
        43.400          29.4004
 130716682.031 7                  24874519.310
        46.000
 123965800.927 7  96596731.66244  23589906.952    23589906.5594   23589908.1634
        42.400          28.6004
 109453450.159 8  85288454.38048  20828278.508    20828278.0434   20828277.3794
        48.700          48.9004
 127368849.643 6  99248550.55044  24237453.951    24237453.6124   24237455.7584
        40.100          24.5004
 130273921.307 6 101512174.21145  24790299.517    24790298.8874   24790303.2984
        38.600          30.8004
 118659690.758 7  92462099.55045  22580183.754    22580183.3344   22580184.1504
        44.800          33.8004
 143335326.787 6                  27275807.204
        40.000
 107151433.810 8  83494662.90548  20390223.444    20390222.8324   20390222.9684
        49.600          51.8004
 111485233.174 8  86871628.00647  21214927.118    21214926.6894   21214927.4244
        48.400          47.0004
 123061887.163 6                  23005094.829    23005094.372
        41.200
 146339853.247 6                  27847496.868
        38.300
 128391776.319 7  99860317.132 6  24026770.591    24026770.874    24026777.140
        44.100          39.200
 141385963.253 6                  26904854.544
        41.500
 104616164.768 8  81368204.189 8  19563733.243    19563733.271    19563739.199
        52.000          48.400
 128157270.329 7  99677937.523 6  23991306.061    23991305.785    23991312.872
        44.100          39.500
 112488721.949 8  87491272.658 7  21021201.750    21021202.097    21021207.836
        51.000          46.200
 103338394.612 8  80374361.209 6  19331569.633    19331569.240    19331576.325
        48.800          41.400
 123756114.973 7  96254824.127 7  23110568.148    23110568.389    23110575.061
        42.200          42.400
 25  1  1  6  3 45.0000000  0 31G25E03E08S31S35G13E21E13S48S33R02G16
                                G20E15G23G05G11G26G18E07G29G15R23E27
                                R15E26R24R16R17R01R08
 129842907.566 6 101176373.19245  24708260.825    24708259.8914   24708263.8224
        38.100          31.0004
 133711406.638 7                  25444418.753
        44.700
 129542125.307 7                  24651038.921
        46.700
 198977501.057 7                  37864154.687
        45.400
 200949553.137 7                  38239439.076
        43.700
 111216778.902 7  86662449.57745  21163839.791    21163839.1974   21163839.1404
        47.600          35.3004
 138850614.758 7                  26422379.383
        42.500
 124763713.785 8                  23741723.181
        48.700
 412845544.394 5                  78561917.003
        33.200
 202117342.809 7                  38461621.932
        44.900
 108738854.363 8  84574706.520 7  20377610.763    20377610.779    20377616.894
        51.100          47.900
 133063861.376 5 103686135.26142  25321211.419    25321210.3644   25321211.9934
        35.200          12.1004
 121351684.950 7  94559808.87344  23092432.073    23092430.6874   23092430.9484
        43.400          29.2004
 130735605.828 7                  24878120.337
        45.700
 123923385.557 7  96563680.74244  23581835.447    23581835.0584   23581836.7014
        42.000          28.5004
 109481025.614 8  85309941.74548  20833525.951    20833525.4914   20833524.8374
        48.800          48.7004
 127408149.719 6  99279173.93444  24244932.439    24244932.0954   24244934.2654
        39.400          24.3004
 130278266.935 6 101515560.33545  24791125.820    24791125.1814   24791130.2044
        38.000          30.7004
 118623749.953 7  92434093.74445  22573344.859    22573344.4394   22573344.7634
        45.000          33.7004
 143288299.279 6                  27266858.258
        39.500
 107151802.508 8  83494950.20148  20390293.743    20390293.1354   20390293.1284
        49.700          51.7004
 111442510.965 8  86838338.06147  21206797.212    21206796.7834   21206797.5584
        48.000          46.9004
 123107566.765 6                  23013633.419    23013633.507
        41.200
 146382330.644 6                  27855579.937
        37.700
 128432593.483 7  99892063.823 6  24034408.954    24034409.121    24034414.537
        43.600          37.400
 141355837.103 6                  26899121.732
        41.600
 104619611.992 8  81370885.361 8  19564377.998    19564377.815    19564383.859
        52.100          48.400
 128162631.837 7  99682107.598 6  23992309.269    23992309.964    23992316.398
        44.900          40.100
 112445204.858 8  87457426.056 7  21013069.193    21013069.338    21013075.537
        50.500          46.400
 103352387.292 8  80385244.384 6  19334186.882    19334186.749    19334193.812
        49.100          41.500
 123816763.799 7  96301995.494 7  23121894.992    23121894.950    23121900.630
        42.500          42.100
 25  1  1  6  4  0.0000000  0 32G25E03E08S31S35G13E21E13S48S33R02G16
                                G20E15G23G05G11G26G18E07G29G15R23E27
                                R15E26R24R16R17R03R01R08
 129888868.030 6 101212186.53045  24717006.699    24717005.7604   24717009.4974
        38.300          30.7004
 133723982.772 7                  25446812.072
        44.300
 129514652.254 7                  24645810.818
        46.400
 198977491.294 7                  37864155.156
        45.700
 200949563.248 7                  38239440.346
        44.600
 111197616.309 7  86647517.70645  21160193.223    21160192.6244   21160192.6164
        47.300          35.1004
 138878488.907 7                  26427683.699
        42.300
 124753581.776 8                  23739795.192
        48.400
 412845297.736 5                  78561895.025
        33.100
 202117318.545 7                  38461615.685
        44.800
 108693110.420 8  84539127.939 7  20369038.015    20369038.173    20369044.248
        51.000          47.500
 133040217.920 5 103667711.87942  25316711.496    25316710.4054   25316712.5884
        35.000          12.7004
 121393340.002 7  94592267.36944  23100358.657    23100357.2854   23100357.8074
        43.500          29.1004
 130754558.596 7                  24881726.936
        45.400
 123881019.297 7  96530668.08644  23573773.073    23573772.6934   23573774.7154
        42.000          28.5004
 109508676.469 8  85331487.87648  20838787.537    20838787.0724   20838786.6364
        49.200          48.7004
 127447480.353 6  99309821.13444  24252417.142    24252416.8124   24252418.6834
        39.900          24.3004
 130282734.781 6 101519041.66845  24791976.767    24791976.1334   24791980.1084
        37.700          30.1004
 118587832.526 7  92406106.18045  22566509.690    22566509.2754   22566509.7774
        45.700          33.5004
 143241275.617 6                  27257910.215
        39.000
 107152319.395 8  83495352.97148  20390391.868    20390391.2564   20390391.5044
        49.700          51.6004
 111399896.163 8  86805131.81247  21198688.023    21198687.5944   21198688.1504
        48.200          46.8004
 123153313.110 6                  23022185.757    23022185.280
        41.400
 146424793.401 6                  27863660.590
        37.700
 128473493.425 7  99923874.891 6  24042062.392    24042062.231    24042068.855
        42.500          38.600
 141325710.205 6                  26893388.735
        41.400
 104623177.964 8  81373658.882 8  19565044.699    19565044.740    19565050.717
        52.000          48.400
 128168166.281 7  99686412.105 6  23993344.977    23993345.355    23993352.062
        43.900          39.200
 112401728.227 8  87423610.882 7  21004945.403    21004944.852    21004950.617
        50.600          46.200
 131837605.207 6 102540388.307 6  24628370.271    24628371.253    24628378.742
        37.400          38.100
 103366569.389 8  80396274.934 6  19336839.984    19336839.736    19336847.067
        49.100          41.800
 123877463.905 7  96349206.515 7  23133229.638    23133230.201    23133236.457
        43.100          42.400
 25  1  1  6  4 15.0000000  0 32G25E03E08S31S35G13E21E13S48S33R02G16
                                G20E15G23G05G11G26G18E07G29G15R23E27
                                R15E26R24R16R17R03R01R08
 129934812.261 6 101247987.21545  24725749.888    24725748.9584   24725752.3474
        39.500          30.8004
 133736658.482 7                  25449224.019
        43.900
 129487261.191 7                  24640598.526
        46.000
 198977478.338 7                  37864151.472
        46.000
 200949569.735 7                  38239441.450
        44.200
 111178599.495 7  86632699.42445  21156574.345    21156573.7514   21156573.8314
        47.700          35.1004
 138906428.192 6                  26433000.387
        41.900
 124743471.396 8                  23737871.191
        48.300
 412845046.804 5                  78561865.548
        32.900
 202117291.000 7                  38461612.533
        44.700
 108647503.655 8  84503656.052 7  20360491.549    20360491.726    20360497.814
        51.000          47.800
 133016694.955 6 103649382.34142  25312235.315    25312234.2204   25312236.3374
        36.400          13.5004
 121435006.070 7  94624734.39844  23108287.483    23108286.1204   23108286.6654
        43.500          29.1004
 130773535.476 7                  24885338.048
        45.400
 123838697.304 7  96497689.92744  23565719.889    23565719.5144   23565721.0774
        42.800          28.7004
 109536397.868 8  85353088.95848  20844062.590    20844062.1174   20844061.8544
        48.900          48.6004
 127486836.620 6  99340488.29344  24259906.241    24259905.8934   24259908.3384
        39.500          24.3004
 130287319.793 6 101522614.29545  24792849.458    24792848.8154   24792853.1344
        38.200          31.0004
 118551933.582 7  92378133.00745  22559678.226    22559677.8114   22559678.5104
        45.500          33.7004
 143194251.152 6                  27248962.154
        39.400
 107152979.696 8  83495867.49148  20390517.429    20390516.8174   20390517.1524
        50.100          51.7004
 111357384.207 8  86772005.72847  21190597.986    21190597.5574   21190598.3004
        48.200          47.0004
 123199121.168 6                  23030749.434    23030748.960
        40.700
 146467236.418 6                  27871737.040
        37.100
 128514470.368 7  99955745.831 6  24049731.095    24049730.760    24049737.035
        43.600          37.700
 141295577.565 6                  26887654.712
        41.700
 104626858.021 8  81376521.161 8  19565733.152    19565732.860    19565738.998
        51.700          48.400
 128173868.878 7  99690847.479 6  23994413.801    23994413.335    23994420.024
        44.400          38.800
 112358287.262 8  87389823.486 7  20996827.001    20996826.965    20996832.883
        50.400          46.400
 131771303.805 5 102488820.579 5  24615984.575    24615985.708    24615993.139
        34.700          35.700
 103380935.649 8  80407448.702 6  19339527.341    19339527.387    19339534.360
        48.900          41.900
 123938210.669 7  96396454.028 6  23144573.352    23144575.011    23144579.631
        42.800          41.600
 25  1  1  6  4 30.0000000  0 32G25E03E08S31S35G13E21E13S48S33R02G16
                                G20E15G23G05G11G26G18E07G29G15R23E27
                                R15E26R24R16R17R03R01R08
 129980747.729 6 101283781.08145  24734490.756    24734489.8264   24734493.9084
        39.300          31.8004
 133749441.542 7                  25451656.648
        44.300
 129459960.207 7                  24635403.354
        46.700
 198977469.139 7                  37864152.764
        46.100
 200949580.424 7                  38239444.334
        44.400
 111159736.514 7  86618001.01445  21152984.909    21152984.3154   21152984.2584
        47.500          35.0004
 138934440.238 7                  26438331.044
        42.200
 124733390.541 8                  23735952.992
        48.600
 412844800.689 5                  78561838.580
        32.700
 202117267.672 7                  38461610.932
        44.700
 108602042.281 8  84468297.220 7  20351971.732    20351972.020    20351978.296
        51.200          47.800
 132993300.735 6 103631153.13942  25307783.553    25307782.4094   25307784.3944
        36.500          14.6004
 121476690.896 7  94657216.01144  23116220.092    23116218.7334   23116218.9474
        43.100          28.7004
 130792544.399 7                  24888955.278
        45.800
 123796427.460 7  96464752.39844  23557676.045    23557675.6654   23557677.3254
        42.800          28.6004
 109564197.319 8  85374750.88548  20849352.703    20849352.2304   20849351.9404
        48.900          48.7004
 127526226.376 6  99371181.55744  24267401.871    24267401.5454   24267403.7034
        40.200          24.5004
 130292029.760 6 101526284.30345  24793745.509    24793744.8754   24793749.9274
        38.100          30.9004
 118516061.096 7  92350180.45245  22552851.855    22552851.4404   22552852.3014
        45.400          33.8004
 143147234.007 6                  27240014.561
        39.700
 107153791.426 8  83496500.00248  20390672.066    20390671.4494   20390671.6244
        50.000          51.6004
 111314983.034 8  86738965.95747  21182529.549    21182529.1254   21182529.4994
        48.400          47.0004
 123244998.778 6                  23039324.889    23039324.862
        41.000
 146509667.342 6                  27879811.550
        38.200
 128555531.860 7  99987682.542 6  24057414.859    24057415.194    24057420.432
        43.200          38.000
 141265447.125 6                  26881920.997
        41.800
 104630660.044 8  81379478.276 8  19566443.774    19566443.763    19566450.022
        51.600          48.400
 128179747.175 7  99695419.491 6  23995514.092    23995514.320    23995521.081
        44.400          40.100
 112314890.267 8  87356070.256 7  20988716.981    20988717.284    20988723.036
        50.900          46.500
 131705013.715 6 102437261.717 6  24603600.606    24603601.688    24603609.915
        37.400          38.900
 103395493.938 8  80418771.817 6  19342251.137    19342250.784    19342257.820
        49.100          41.900
 123999011.544 7  96443743.655 7  23155927.357    23155928.126    23155934.350
        42.700          42.500
 25  1  1  6  4 45.0000000  0 32G25E03E08S31S35G13E21E13S48S33R02G16
                                G20E15G23G05G11G26G18E07G29G15R23E27
                                R15E26R24R16R17R03R01R08
 130026666.187 6 101319561.68145  24743228.424    24743227.4944   24743231.9644
        38.800          31.1004
 133762323.954 7                  25454108.083
        44.600
 129432741.560 7                  24630223.706
        46.600
 198977456.319 7                  37864144.425
        45.700
 200949587.977 7                  38239446.204
        44.200
 111141019.547 7  86603416.37745  21149423.084    21149422.4904   21149422.5214
        47.100          35.1004
 138962516.946 7                  26443673.759
        42.500
 124723331.439 8                  23734038.772
        48.800
 412844551.871 5                  78561802.964
        33.000
 202117241.061 7                  38461604.430
        44.900
 108556718.761 8  84433045.646 7  20343478.197    20343478.406    20343484.234
        50.900          47.700
 132970027.204 6 103613017.94242  25303354.272    25303353.1504   25303355.5794
        36.300          14.1004
 121518386.523 7  94689706.03744  23124154.255    23124152.8964   23124153.3814
        42.800          28.9004
 130811577.533 7                  24892577.168
        45.800
 123754201.994 7  96431849.45244  23549640.504    23549640.1294   23549642.0214
        42.600          28.9004
 109592066.582 8  85396467.19448  20854656.104    20854655.6314   20854655.3064
        49.000          48.8004
 127565641.714 6  99401894.74744  24274901.942    24274901.6124   24274904.3274
        39.100          24.1004
 130296856.621 6 101530045.37345  24794663.798    24794663.1684   24794668.5194
        38.300          31.0004
 118480207.333 7  92322242.47845  22546029.198    22546028.7784   22546029.5574
        45.200          33.9004
 143100216.456 6                  27231067.307
        39.800
 107154746.724 8  83497244.38448  20390853.859    20390853.2334   20390853.4324
        49.900          51.8004
 111272685.298 8  86706006.74047  21174480.186    21174479.7714   21174480.3864
        48.000          47.0004
 123290937.907 6                  23047913.074    23047913.373
        40.500
 146552078.008 6                  27887881.694
        38.000
 128596669.284 7 100019678.316 6  24065113.110    24065113.316    24065119.792
        44.300          38.700
 141235310.986 6                  26876185.795
        41.600
 104634576.376 8  81382524.315 8  19567176.071    19567176.300    19567182.397
        51.900          48.500
 128185792.944 7  99700121.764 6  23996645.148    23996645.291    23996651.936
        43.900          39.500
 112271529.553 8  87322345.253 7  20980614.041    20980614.369    20980620.170
        51.100          46.500
 131638727.061 5 102385705.486 6  24591219.372    24591219.139    24591226.852
        35.800          36.800
 103410235.990 8  80430237.854 6  19345009.344    19345008.640    19345015.702
        48.800          41.900
 124059857.829 7  96491068.476 7  23167290.428    23167291.100    23167296.801
        42.500          42.300
 25  1  1  6  5  0.0000000  0 32G25E03E08S31S35G13E21E13S48S33R02G16
                                G20E15G23G05G11G26G18E07G29G15R23E27
                                R15E26R24R16R17R03R01R08
 130072575.865 6 101355335.45945  24751964.974    24751964.0534   24751968.2004
        39.100          30.7004
 133775314.120 7                  25456580.292
        44.400
 129405613.914 7                  24625061.519
        46.700
 198977449.123 7                  37864147.420
        45.900
 200949600.006 7                  38239446.874
        44.300
 111122457.528 7  86588952.48545  21145891.027    21145890.4334   21145890.3644
        47.200          34.8004
 138990666.596 7                  26449030.327
        42.800
 124713302.631 8                  23732130.285
        48.700
 412844308.132 5                  78561783.467
        33.200
 202117218.824 7                  38461599.471
        45.000
 108511541.801 8  84397908.054 7  20335012.216    20335012.238    20335018.612
        51.100          47.700
 132946883.215 5 103594983.75742  25298950.525    25298949.4124   25298951.5184
        35.100          13.0004
 121560101.288 7  94722211.00144  23132092.489    23132091.1304   23132091.6074
        42.800          28.7004
 130830643.380 7                  24896205.265
        45.700
 123712029.540 7  96398987.83944  23541615.354    23541614.9654   23541616.9704
        42.600          28.7004
 109620013.793 8  85418244.24748  20859974.234    20859973.7524   20859973.5064
        49.000          48.7004
 127605091.117 6  99432634.48244  24282408.933    24282408.6034   24282411.5864
        39.500          24.0004
 130301808.800 6 101533904.11445  24795606.678    24795606.0444   24795610.9544
        37.300          30.4004
 118444380.904 7  92294325.80945  22539211.674    22539211.2544   22539211.7644
        45.100          33.6004
 143053207.269 6                  27222121.619
        39.700
 107155854.106 8  83498107.27748  20391064.531    20391063.9014   20391064.1844
        50.000          51.7004
 111230499.786 7  86673134.95247  21166452.633    21166452.2184   21166452.6524
        47.800          46.9004
 123336947.014 6                  23056514.489    23056514.052
        41.300
 146594476.686 6                  27895950.573
        37.400
 128637890.942 7 100051739.630 6  24072826.373    24072826.914    24072834.244
        42.400          38.600
 141205177.707 6                  26870451.870
        41.600
 104638615.972 8  81385666.217 8  19567931.614    19567931.651    19567937.847
        51.900          48.500
 128192015.007 7  99704961.127 6  23997810.146    23997810.239    23997817.639
        43.800          40.200
 112228214.063 8  87288655.422 7  20972519.612    20972519.462    20972525.406
        50.500          46.600
 131572452.853 6 102334158.954 6  24578837.892    24578838.034    24578845.993
        36.300          37.200
 103425169.956 8  80441853.171 6  19347802.714    19347802.362    19347809.465
        48.700          41.700
 124120757.789 7  96538435.107 7  23178662.907    23178664.001    23178669.671
        42.500          42.000
 25  1  1  6  5 15.0000000  0 33G25E03E08S31S35G13E21E13S48S33R02G16
                                G20E15G23G05G11G26G18E07G29G15R23E27
                                R15E26G30R24R16R17R03R01R08
 130118472.883 6 101391099.35445  24760699.585    24760698.6514   24760702.5264
        38.100          30.7004
 133788408.512 7                  25459071.815
        44.800
 129378574.021 7                  24619915.890
        47.100
 198977442.934 7                  37864146.003
        45.700
 200949613.563 7                  38239449.271
        44.500
 111104047.187 7  86574606.77945  21142387.414    21142386.8064   21142386.9694
        46.900          34.7004
 139018885.503 7                  26454400.420
        43.000
 124703300.676 8                  23730226.959
        48.700
 412844064.918 5                  78561740.669
        32.600
 202117197.558 7                  38461590.935
        44.700
 108466508.484 8  84362882.188 7  20326572.955    20326572.963    20326578.836
        50.700          47.700
 132923865.402 5 103577047.85741  25294569.788    25294568.6714   25294571.4214
        34.100          11.9004
 121601831.792 7  94754728.23344  23140033.305    23140031.9514   23140032.6054
        43.200          28.7004
 130849738.565 7                  24899838.985
        46.000
 123669906.647 7  96366164.79644  23533599.574    23533599.1854   23533601.1574
        42.300          28.7004
 109648035.348 8  85440079.23548  20865306.657    20865306.1794   20865305.8314
        48.200          48.7004
 127644571.097 6  99463398.04743  24289922.057    24289921.7314   24289924.2254
        39.000          23.3004
 130306882.736 6 101537857.74544  24796572.266    24796571.6364   24796576.2434
        37.900          29.8004
 118408578.416 7  92266427.78945  22532398.760    22532398.3454   22532398.7684
        45.000          33.6004
 143006203.183 6                  27213177.282
        39.800
 107157110.204 8  83499086.04748  20391303.613    20391302.9794   20391303.2234
        49.400          51.6004
 111188423.492 7  86640348.25547  21158445.686    21158445.2754   21158445.7924
        47.600          46.9004
 123383022.813 7                  23065128.566    23065129.182
        42.000
 146636859.738 6                  27904015.841
        37.600
 128679192.777 7 100083863.281 6  24080556.164    24080556.051    24080562.947
        42.700          38.400
 141175043.790 6                  26864717.894
        41.400
 136743514.895 5                  26021425.995
        33.800
 104642775.245 8  81388901.227 8  19568709.470    19568709.409    19568715.668
        52.100          48.400
 128198409.416 7  99709934.593 6  23999006.975    23999006.737    23999014.522
        43.500          39.500
 112184940.696 8  87254998.372 7  20964432.556    20964432.537    20964439.063
        50.500          46.600
 131506187.640 6 102282619.380 6  24566459.417    24566459.997    24566467.115
        38.300          38.300
 103440292.193 8  80453614.922 6  19350631.531    19350631.222    19350638.276
        49.100          41.500
 124181707.293 7  96585840.316 7  23190045.712    23190045.416    23190051.243
        43.300          42.800
 25  1  1  6  5 30.0000000  0 33G25E03E08S31S35G13E21E13S48S33R02G16
                                G20E15G23G05G11G26G18E07G29G15R23E27
                                R15E26G30R24R16R17R03R01R08
 130164349.509 6 101426847.35545  24769429.101    24769428.1624   24769432.8284
        39.400          31.2004
 133801599.612 7                  25461581.646
        44.700
 129351614.590 7                  24614785.764
        46.700
 198977430.889 7                  37864140.413
        46.000
 200949620.825 7                  38239452.768
        44.500
 111085781.239 7  86560373.59145  21138911.610    21138911.0024   21138910.9764
        47.000          34.7004
 139047166.030 7                  26459781.852
        42.700
 124693318.254 8                  23728327.412
        48.800
 412843814.837 5                  78561716.599
        33.500
 202117171.684 7                  38461590.863
        45.300
 108421611.619 8  84327962.447 7  20318158.915    20318159.238    20318165.532
        51.100          47.800
 132900966.626 5 103559204.80341  25290213.268    25290212.2134   25290213.7534
        34.400          11.0004
 121643570.349 7  94787251.75044  23147976.101    23147974.7474   23147975.5124
        42.500          29.0004
 130868855.663 7                  24903476.962
        46.000
 123627825.997 7  96333374.69144  23525591.759    23525591.3704   23525593.6794
        42.200          29.0004
 109676123.802 8  85461966.31348  20870651.707    20870651.2384   20870650.8954
        48.800          48.7004
 127684074.229 6  99494179.65444  24297439.586    24297439.2824   24297441.3274
        39.200          24.0004
 130312070.762 6 101541900.27545  24797559.235    24797558.6094   24797563.1844
        38.000          30.0004
 118372792.583 7  92238542.73445  22525588.937    22525588.5354   22525588.9214
        45.400          33.8004
 142959197.006 6                  27204232.217
        39.800
 107158507.646 8  83500174.95948  20391569.615    20391568.9724   20391569.1424
        49.500          51.7004
 111146449.294 7  86607641.10147  21150458.492    21150458.0864   21150458.3964
        47.800          47.1004
 123429157.108 6                  23073752.911    23073752.635
        41.300
 146679219.429 6                  27912076.409
        38.000
 128720566.488 7 100116042.833 6  24088297.111    24088298.093    24088305.280
        42.700          37.800
 141144901.868 6                  26858981.868
        41.800
 136727310.601 5                  26018342.942    26018342.5764
        33.900
 104647046.864 8  81392223.588 8  19569508.092    19569508.291    19569514.470
        52.200          48.400
 128204968.720 7  99715036.292 6  24000234.483    24000234.833    24000241.849
        43.900          39.200
 112141702.085 8  87221368.351 7  20956352.563    20956352.771    20956358.407
        50.800          46.500
 131439924.145 6 102231081.218 6  24554079.654    24554080.900    24554088.376
        36.100          36.600
 103455594.817 8  80465516.956 6  19353494.143    19353493.991    19353500.915
        49.000          41.500
 124242698.617 7  96633277.985 7  23201434.897    23201435.010    23201440.931
        43.300          42.200
 25  1  1  6  5 45.0000000  0 33G25E03E08S31S35G13E21E13S48S33R02G16
                                G20E15G23G05G11G26G18E07G29G15R23E27
                                R15E26G30R24R16R17R03R01R08
 130210214.079 6 101462585.97445  24778156.606    24778155.6544   24778160.6394
        39.100          30.8004
 133814896.030 7                  25464112.388
        44.700
 129324744.565 7                  24609672.595
        46.700
 198977421.547 7                  37864137.780
        45.600
 200949630.981 7                  38239453.832
        44.500
 111067668.781 7  86546260.00445  21135464.833    21135464.2214   21135464.2444
        47.300          34.9004
 139075516.595 7                  26465176.973
        42.300
 124683364.078 8                  23726433.069
        48.800
 412843568.215 5                  78561684.032
        32.500
 202117147.273 7                  38461588.247
        44.700
 108376860.312 8  84293155.944 7  20309772.590    20309773.126    20309779.008
        50.900          47.900
 132878195.747 5 103541461.31342  25285879.467    25285878.3634   25285880.4474
        35.500          12.2004
 121685325.510 7  94819788.17944  23155921.873    23155920.5414   23155921.3974
        42.300          28.6004
 130888003.475 7                  24907120.620
        46.000
 123585796.389 7  96300624.37444  23517593.989    23517593.5874   23517595.6774
        42.200          28.9004
 109704287.641 8  85483912.16748  20876011.176    20876010.7074   20876010.3494
        48.600          48.9004
 127723609.195 6  99524986.08344  24304962.506    24304962.2074   24304964.7024
        39.200          24.0004
 130317381.551 6 101546038.47945  24798569.667    24798569.0414   24798573.8204
        38.600          30.7004
 118337032.278 7  92210677.59845  22518783.598    22518783.2054   22518784.0244
        45.800          34.0004
 142912197.658 6                  27195288.525
        40.300
 107160055.249 8  83501380.87848  20391864.011    20391863.3684   20391863.6434
        50.000          51.8004
 111104586.307 8  86575020.57347  21142492.183    21142491.7724   21142492.1784
        48.100          47.3004
 123475358.826 6                  23082390.143    23082388.537
        40.300
 146721564.313 6                  27920134.235
        38.100
 128762020.620 7 100148284.917 6  24096056.050    24096057.217    24096063.000
        44.200          38.800
 141114760.618 7                  26853246.210
        42.100
 136711195.615 5 106528215.31344  26015275.769    26015275.1354   26015279.0814
        34.700          24.4004
 104651440.140 8  81395640.564 8  19570329.684    19570329.952    19570336.027
        52.600          48.400
 128211701.435 7  99720272.836 6  24001496.158    24001496.269    24001502.931
        44.600          39.700
 112098507.381 8  87187772.481 7  20948280.815    20948280.795    20948286.632
        50.400          46.700
 131373672.010 6 102179551.822 5  24541704.419    24541704.697    24541711.810
        36.300          34.200
 103471086.512 8  80477566.075 6  19356392.517    19356392.067    19356398.911
        48.800          41.600
 124303740.036 7  96680754.772 7  23212834.476    23212834.102    23212840.152
        42.600          42.000
 25  1  1  6  6  0.0000000  0 33G25E03E08S31S35G13E21E13S48S33R02G16
                                G20E15G23G05G11G26G18E07G29G15R23E27
                                R15E26G30R24R16R17R03R01R08
 130256061.195 6 101498310.98645  24786881.437    24786880.5034   24786884.3774
        38.300          30.3004
 133828292.583 7                  25466661.320
        44.500
 129297958.970 7                  24604575.302
        46.500
 198977410.214 7                  37864139.483
        46.000
 200949638.959 7                  38239458.532
        44.400
 111049704.931 7  86532262.21445  21132046.219    21132045.6114   21132045.8544
        47.500          34.9004
 139103931.945 7                  26470584.174
        42.600
 124673433.159 8                  23724543.407
        48.600
 412843319.531 5                  78561661.902
        33.600
 202117120.819 7                  38461583.659
        45.400
 108332249.891 8  84258459.021 7  20301412.502    20301413.047    20301418.737
        51.300          47.700
 132855548.016 6 103523813.76342  25281569.493    25281568.4024   25281570.5634
        36.100          13.3004
 121727092.019 7  94852333.48044  23163869.716    23163868.3844   23163869.1164
        43.200          28.6004
 130907176.936 7                  24910769.243
        45.500
 123543812.800 7  96267909.90044  23509604.921    23509604.5194   23509606.2964
        42.600          28.9004
 109732521.540 8  85505912.65848  20881383.825    20881383.3654   20881383.1074
        49.400          49.0004
 127763170.852 6  99555813.28543  24312491.150    24312490.8334   24312493.1974
        40.100          23.8004
 130322809.872 6 101550268.27945  24799603.507    24799602.8774   24799606.9614
        38.300          31.0004
 118301292.454 7  92182828.41545  22511982.923    22511982.5344   22511983.0574
        46.100          34.1004
 142865200.280 6                  27186345.097
        39.500
 107161747.979 8  83502699.88048  20392186.289    20392185.6414   20392185.7614
        50.300          51.9004
 111062829.767 8  86542482.95947  21134546.239    21134545.8284   21134546.2534
        48.700          47.3004
 123521623.035 6                  23091037.496    23091036.887
        39.700
 146763889.044 6                  27928188.106
        37.500
 128803549.415 7 100180585.106 6  24103827.621    24103828.906    24103834.859
        43.900          38.800
 141084615.010 6                  26847509.697
        41.400
 136695165.504 6 106515724.42044  26012225.560    26012224.8544   26012228.8264
        37.100          24.6004
 104655949.713 8  81399148.028 8  19571173.148    19571173.170    19571179.304
        52.000          48.500
 128218602.345 7  99725640.242 6  24002786.781    24002786.985    24002795.172
        43.400          39.700
 112055351.986 8  87154207.171 7  20940216.015    20940216.309    20940221.922
        50.900          46.800
 131307426.065 5 102128027.262 5  24529329.101    24529329.647    24529336.201
        35.500          33.300
 103486761.571 8  80489757.776 7  19359325.012    19359324.396    19359331.254
        49.000          42.000
 124364825.794 7  96728265.910 6  23224241.893    23224241.738    23224247.310
        42.700          41.600
 25  1  1  6  6 15.0000000  0 33G25E03E08S31S35G13E21E13S48S33R02G16
                                G20E15G23G05G11G26G18E07G29G15R23E27
                                R15E26G30R24R16R17R03R01R08
 130301894.407 6 101534025.18345  24795603.565    24795602.6224   24795605.4904
        39.100          30.3004
 133841793.104 7                  25469230.525
        44.700
 129271261.958 7                  24599495.001
        46.800
 198977399.964 7                  37864140.570
        45.800
 200949648.785 7                  38239454.297
        44.300
 111031893.762 7  86518383.39645  21128656.912    21128656.2914   21128656.4674
        47.700          34.9004
 139132415.754 7                  26476004.405
        42.400
 124663529.503 8                  23722658.820
        48.600
 412843072.453 5                  78561626.844
        33.000
 202117095.897 7                  38461577.515
        44.800
 108287784.727 8  84223875.068 7  20293079.986    20293080.188    20293085.967
        51.200          47.800
 132833027.265 6 103506265.23242  25277284.889    25277283.7944   25277284.8934
        36.800          13.8004
 121768873.848 7  94884890.75344  23171820.814    23171819.4954   23171819.8944
        43.000          28.6004
 130926380.025 7                  24914423.586
        45.600
 123501879.253 7  96235234.41944  23501625.257    23501624.8644   23501626.6684
        42.600          29.3004
 109760828.803 8  85527970.28648  20886770.523    20886770.0634   20886769.7754
        49.100          49.1004
 127802763.191 6  99586664.38743  24320025.847    24320025.5214   24320027.3984
        40.200          23.9004
 130328359.479 6 101554592.57145  24800659.824    24800659.1854   24800663.3024
        39.300          31.0004
 118265577.136 7  92154998.31945  22505186.460    22505186.0714   22505186.6784
        45.500          34.2004
 142818209.044 6                  27177402.841
        39.700
 107163589.673 8  83504134.96448  20392536.912    20392536.2694   20392536.2244
        50.100          52.0004
 111021183.951 8  86510031.66947  21126621.347    21126620.9414   21126621.3934
        48.500          47.4004
 123567953.528 6                  23099699.352    23099699.672
        40.700
 146806197.296 6                  27936239.171
        37.400
 128845156.247 7 100212945.972 6  24111613.914    24111614.658    24111621.009
        43.300          38.700
 141054469.009 6                  26841773.407
        41.900
 136679223.911 5 106503302.32643  26009192.223    26009191.4954   26009195.2734
        35.900          23.4004
 104660579.966 8  81402749.334 8  19572039.291    19572039.037    19572045.064
        52.100          48.600
 128225675.120 7  99731141.383 6  24004110.110    24004110.545    24004118.531
        42.800          39.200
 112012240.015 8  87120675.656 7  20932158.912    20932159.540    20932165.529
        50.800          46.400
 131241190.865 6 102076510.990 6  24516954.913    24516955.911    24516962.900
        39.500          37.100
 103502623.959 8  80502095.182 6  19362292.193    19362291.846    19362298.824
        49.500          41.800
 124425959.359 7  96775814.284 7  23235658.104    23235657.625    23235663.689
        42.200          42.500
 25  1  1  6  6 30.0000000  0 33G25E03E08S31S35G13E21E13S48S33R02G16
                                G20E15G23G05G11G26G18E07G29G15R23E27
                                R15E26G30R24R16R17R03R01R08
 130347709.928 6 101569725.58645  24804321.760    24804320.8214   24804324.0724
        38.700          30.3004
 133855393.969 7                  25471818.723
        44.400
 129244650.207 7                  24594431.001
        46.400
 198977388.188 7                  37864136.626
        45.900
 200949656.031 7                  38239457.749
        44.500
 111014231.943 7  86504620.95445  21125296.151    21125295.5254   21125295.5514
        47.300          34.8004
 139160964.333 7                  26481437.030
        42.500
 124653649.658 8                  23720778.579
        48.500
 412842822.802 5                  78561610.648
        33.300
 202117069.770 7                  38461570.267
        45.200
 108243461.321 8  84189401.346 7  20284773.520    20284774.073    20284779.584
        51.600          47.900
 132810630.239 6 103488813.06942  25273022.331    25273021.1964   25273022.6234
        36.100          13.0004
 121810667.236 7  94917457.04944  23179773.568    23179772.2544   23179773.1574
        42.700          28.5004
 130945609.340 7                  24918082.856
        45.600
 123459992.335 7  96202595.27844  23493654.912    23493654.5324   23493656.1394
        42.800          29.3004
 109789206.027 8  85550082.40848  20892170.625    20892170.1784   20892169.7744
        48.900          49.0004
 127842382.640 6  99617536.63243  24327564.903    24327564.5774   24327566.8544
        39.400          23.8004
 130334026.788 6 101559008.60345  24801737.806    24801737.1584   24801741.7724
        38.200          31.3004
 118229882.968 7  92127184.67145  22498393.994    22498393.6284   22498394.2434
        45.500          34.0004
 142771220.650 6                  27168461.388
        39.600
 107165577.054 8  83505683.56248  20392914.932    20392914.2844   20392914.4254
        49.900          51.8004
 110979645.575 8  86477664.10347  21118716.704    21118716.2894   21118716.9374
        48.700          47.4004
 123614346.439 6                  23108371.990    23108371.526
        41.800
 146848485.409 6                  27944286.328
        38.200
 128886837.170 7 100245364.499 6  24119413.819    24119414.371    24119421.053
        43.400          38.500
 141024319.103 6                  26836035.726
        41.400
 136663368.203 5 106490947.31744  26006174.036    26006173.2414   26006177.8764
        34.800          24.2004
 104665327.450 8  81406441.812 8  19572927.090    19572926.914    19572932.869
        52.200          48.600
 128232916.121 7  99736773.290 6  24005466.882    24005466.336    24005474.676
        43.100          40.000
 111969168.224 8  87087175.376 7  20924110.173    20924110.785    20924116.756
        51.000          46.600
 131174962.758 6 102025000.264 5  24504583.851    24504584.296    24504591.087
        36.600          35.600
 103518669.845 8  80514575.312 7  19365294.029    19365293.579    19365300.700
        49.500          42.100
 124487136.896 7  96823396.861 7  23247081.910    23247081.673    23247088.180
        42.000          42.000
 25  1  1  6  6 45.0000000  0 33G25E03E08S31S35G13E21E13S48S33R02G16
                                G20E15G23G05G11G26G18E07G29G15R23E27
                                R15E26G30R24R16R17R03R01R08
 130393514.045 6 101605417.08745  24813037.761    24813036.8004   24813040.4854
        38.600          30.3004
 133869101.804 7                  25474427.302
        44.300
 129218130.569 7                  24589384.496
        46.800
 198977381.277 7                  37864130.777
        45.700
 200949668.684 7                  38239461.335
        44.500
 110996726.412 7  86490980.29345  21121965.207    21121964.5814   21121964.3094
        47.400          34.7004
 139189584.084 7                  26486883.290
        42.400
 124643800.360 8                  23718904.251
        48.600
 412842577.774 5                  78561572.027
        32.600
 202117047.305 7                  38461564.132
        44.800
 108199287.065 8  84155043.644 7  20276495.354    20276495.597    20276501.591
        51.600          47.900
 132788363.736 6 103471462.58742  25268785.420    25268784.3124   25268785.5104
        36.700          13.5004
 121852478.694 7  94950037.40944  23187730.087    23187728.7774   23187729.5384
        43.400          28.5004
 130964871.569 7                  24921748.113
        46.000
 123418158.822 7  96169997.75544  23485693.508    23485693.1194   23485695.2344
        43.000          29.2004
 109817659.703 8  85572254.10148  20897585.133    20897584.6864   20897584.3374
        49.100          49.0004
 127882035.913 6  99648435.23643  24335110.542    24335110.2124   24335112.4934
        39.300          23.8004
 130339818.280 6 101563521.37945  24802840.444    24802839.8014   24802843.6834
        38.900          31.0004
 118194216.795 7  92099392.85145  22491607.004    22491606.6474   22491607.0714
        45.600          34.1004
 142724242.050 6                  27159522.001
        39.900
 107167716.876 8  83507350.95348  20393322.081    20393321.4334   20393321.5984
        50.200          51.8004
 110938221.804 8  86445385.83647  21110834.025    21110833.6104   21110834.3024
        48.800          47.5004
 123660808.670 6                  23117057.460    23117057.608
        41.400
 146890759.785 6                  27952330.971
        38.000
 128928598.443 7 100277845.468 6  24127228.462    24127228.531    24127235.987
        42.700          38.600
 140994171.884 6                  26830299.207
        41.500
 136647604.870 6 106478664.25744  26003175.133    26003174.3294   26003178.1104
        37.700          28.2004
 104670199.048 8  81410230.842 8  19573837.987    19573837.918    19573844.105
        52.300          48.600
 128240332.205 7  99742541.399 6  24006855.034    24006855.084    24006861.594
        44.200          39.400
 111926143.732 8  87053711.914 7  20916070.437    20916070.276    20916076.153
        50.900          46.400
 131108749.087 6 101973500.776 6  24492214.176    24492214.053    24492220.898
        40.100          36.800
 103534905.618 8  80527203.146 6  19368331.151    19368330.893    19368337.616
        49.200          41.900
 124548364.678 7  96871018.431 6  23258516.526    23258517.231    23258521.627
        43.000          41.700
 25  1  1  6  7  0.0000000  0 33G25E03E08S31S35G13E21E13S48S33R02G16
                                G20E15G23G05G11G26G18E07G29G15R23E27
                                R15E26G30R24R16R17R03R01R08
 130439296.111 6 101641091.42644  24821750.398    24821749.4594   24821752.4084
        37.800          29.8004
 133882906.142 7                  25477053.805
        44.500
 129191692.861 7                  24584353.461
        46.700
 198977368.358 7                  37864129.543
        45.600
 200949675.387 7                  38239462.588
        44.300
 110979367.007 7  86477453.49945  21118661.214    21118660.5844   21118660.9744
        47.000          34.6004
 139218264.456 7                  26492340.862
        42.600
 124633971.317 8                  23717033.988
        48.400
 412842327.893 5                  78561543.797
        33.100
 202117019.896 7                  38461562.500
        45.000
 108155251.633 8  84120793.887 8  20268243.033    20268243.710    20268249.355
        51.600          48.000
 132766217.545 6 103454205.84642  25264570.332    25264569.2464   25264571.0504
        36.300          14.7004
 121894297.796 7  94982623.71444  23195687.874    23195686.5604   23195687.2954
        43.800          28.0004
 130984156.456 7                  24925417.976
        45.700
 123376368.439 7  96137433.83744  23477741.049    23477740.6384   23477742.7174
        43.400          29.0004
 109846178.718 8  85594476.70648  20903011.947    20903011.5004   20903011.3034
        49.000          48.9004
 127921712.579 6  99679352.05343  24342660.706    24342660.3854   24342662.7524
        39.100          23.8004
 130345723.482 6 101568122.76345  24803963.372    24803962.7244   24803967.3304
        38.200          30.6004
 118158568.384 7  92071614.89745  22484823.274    22484822.9124   22484823.3704
        45.700          34.0004
 142677263.074 6                  27150581.740
        40.000
 107169998.891 8  83509129.14148  20393756.366    20393755.7144   20393755.8464
        49.900          51.6004
 110896902.561 8  86413188.96647  21102971.254    21102970.8304   21102971.4954
        48.400          47.3004
 123707329.403 6                  23125754.076    23125754.234
        41.200
 146933009.872 6                  27960371.129
        37.700
 128970428.990 7 100310380.328 6  24135056.554    24135056.809    24135063.987
        42.500          38.400
 140964017.042 6                  26824560.769
        41.700
 136631923.616 6 106466444.99844  26000190.731    26000189.9224   26000194.2054
        37.000          28.7004
 104675184.430 8  81414108.352 8  19574770.209    19574770.170    19574776.331
        52.300          48.500
 128247912.458 7  99748437.182 6  24008273.717    24008273.912    24008280.807
        45.300          40.000
 111883156.343 8  87020277.281 7  20908037.370    20908037.185    20908043.281
        50.600          46.800
 131042539.752 6 101922004.677 6  24479845.871    24479846.256    24479852.967
        37.600          36.700
 103551320.627 8  80539970.393 6  19371402.083    19371401.802    19371408.503
        49.500          41.800
 124609631.787 7  96918670.737 7  23269956.685    23269956.960    23269963.118
        42.500          42.500
 25  1  1  6  7 15.0000000  0 33G25E03E08S31S35G13E21E13S48S33R02G16
                                G20E15G23G05G11G26G18E07G29G15R23E27
                                R15E26G30R24R16R17R03R01R08
 130485063.365 6 101676754.22044  24830459.398    24830458.4684   24830461.8864
        38.400          29.8004
 133896814.515 7                  25479700.807
        44.400
 129165344.905 7                  24579339.688
        46.700
 198977357.929 7                  37864125.890
        45.400
 200949683.886 7                  38239467.421
        44.200
 110962161.503 7  86464046.62845  21115387.682    21115387.0564   21115386.8204
        47.200          34.5004
 139247012.845 7                  26497811.736
        42.400
 124624170.173 8                  23715168.770
        48.400
 412842078.957 5                  78561513.592
        33.100
 202116994.972 7                  38461558.108
        44.900
 108111363.210 8  84086658.474 7  20260018.497    20260018.867    20260024.248
        51.200          47.900
 132744199.562 6 103437048.99742  25260381.062    25260379.9454   25260381.0694
        36.700          14.2004
 121936132.023 7  95015221.82844  23203648.356    23203647.0284   23203647.8524
        43.200          28.1004
 131003471.615 7                  24929093.460
        45.500
 123334628.851 7  96104909.50344  23469798.286    23469797.8664   23469799.9974
        43.100          29.3004
 109874771.015 8  85616756.42748  20908452.895    20908452.4444   20908452.2534
        49.400          49.0004
 127961420.331 6  99710293.10443  24350216.640    24350216.3324   24350218.6094
        39.100          23.2004
 130351749.892 6 101572818.58345  24805110.938    24805110.2954   24805114.7224
        38.100          30.9004
 118122945.447 7  92043856.78845  22478044.403    22478044.0374   22478044.4934
        46.100          34.2004
 142630291.631 6                  27141643.795
        39.600
 107172430.747 8  83511024.09148  20394219.104    20394218.4564   20394218.6234
        50.300          51.6004
 110855695.894 8  86381079.82347  21095130.260    21095129.8454   21095130.1884
        48.800          47.4004
 123753916.297 6                  23134463.290    23134462.898
        41.300
 146975243.071 6                  27968407.518
        37.000
 129012336.041 7 100342974.692 6  24142899.803    24142900.325    24142906.081
        44.100          38.000
 140933862.303 6                  26818822.596
        41.900
 136616332.645 5 106454296.10143  25997223.934    25997223.1254   25997227.4314
        34.600          23.2004
 104680291.539 8  81418080.523 8  19575725.227    19575725.251    19575731.456
        51.900          48.400
 128255664.450 7  99754466.532 6  24009724.831    24009725.003    24009732.090
        44.000          38.900
 111840214.157 8  86986877.818 7  20900012.617    20900012.630    20900018.610
        50.800          46.900
 130976342.726 5 101870518.177 5  24467479.643    24467479.818    24467486.690
        35.500          35.300
 103567922.056 8  80552882.632 6  19374507.275    19374507.344    19374514.223
        49.500          41.800
 124670945.331 7  96966359.087 6  23281406.367    23281407.163    23281412.752
        42.600          41.800
 25  1  1  6  7 30.0000000  0 33G25E03E08S31S35G13E21E13S48S33R02G16
                                G20E15G23G05G11G26G18E07G29G15R23E27
                                R15E26G30R24R16R17R03R01R08
 130530816.493 6 101712406.00145  24839165.545    24839164.6244   24839168.4844
        38.600          30.2004
 133910827.774 7                  25482367.439
        44.300
 129139087.827 7                  24574343.265
        46.400
 198977350.484 7                  37864128.269
        45.600
 200949695.659 7                  38239466.692
        44.100
 110945111.000 7  86450760.53745  21112142.752    21112142.1264   21112142.1934
        47.000          34.4004
 139275830.003 7                  26503295.402
        42.000
 124614398.058 8                  23713309.269
        48.200
 412841833.354 5                  78561485.335
        32.700
 202116972.280 7                  38461551.866
        44.800
 108067623.062 8  84052638.400 7  20251821.118    20251821.779    20251827.692
        51.000          47.800
 132722311.072 6 103419993.08842  25256215.913    25256214.7914   25256215.8464
        36.900          14.0004
 121977982.219 7  95047832.35344  23211612.858    23211611.5214   23211611.7854
        42.600          27.8004
 131022818.093 7                  24932775.036
        45.400
 123292941.143 7  96072425.58044  23461865.343    23461864.9284   23461867.1914
        43.000          29.1004
 109903437.380 8  85639093.85648  20913907.892    20913907.4324   20913907.2844
        48.800          48.9004
 128001160.033 6  99741259.07443  24357778.932    24357778.5844   24357781.3484
        39.500          23.1004
 130357898.337 6 101577609.51745  24806280.882    24806280.2394   24806285.2454
        38.100          31.1004
 118087349.095 7  92016119.39945  22471270.586    22471270.2064   22471270.7044
        45.600          34.1004
 142583328.853 6                  27132706.728
        39.800
 107175013.669 8  83513036.75448  20394710.541    20394709.8894   20394710.1264
        50.300          51.4004
 110814603.091 8  86349059.43147  21087310.221    21087309.8194   21087310.5584
        48.200          47.3004
 123800570.559 6                  23143183.990    23143184.015
        41.000
 147017460.112 6                  27976441.586
        37.500
 129054319.877 7 100375628.784 6  24150754.668    24150755.620    24150762.128
        43.000          37.700
 140903708.648 6                  26813083.959
        41.900
 136600833.400 6 106442218.79843  25994274.745    25994273.9364   25994277.5164
        36.300          23.3004
 104685521.820 8  81422148.525 8  19576703.267    19576703.316    19576709.431
        51.900          48.200
 128263589.050 7  99760630.163 6  24011208.869    24011208.615    24011216.038
        44.300          39.900
 111797318.456 8  86953514.479 7  20891995.861    20891996.003    20892002.104
        50.900          46.600
 130910159.694 6 101819042.525 6  24455116.127    24455115.965    24455123.365
        38.200          37.600
 103584710.739 8  80565940.500 6  19377648.213    19377648.073    19377654.644
        49.500          41.900
 124732305.816 7  97014083.916 7  23292866.222    23292866.160    23292871.656
        43.400          42.000
 25  1  1  6  7 45.0000000  0 33G25E03E08S31S35G13E21E13S48S33R02G16
                                G20E15G23G05G11G26G18E07G29G15R23E27
                                R15E26G30R24R16R17R03R01R08
 130576548.269 6 101748041.14945  24847868.030    24847867.1054   24847871.0534
        38.900          30.1004
 133924939.027 7                  25485052.715
        44.400
 129112914.944 7                  24569362.716
        46.800
 198977339.162 7                  37864119.857
        45.800
 200949703.837 7                  38239466.420
        44.400
 110928209.164 7  86437590.28445  21108926.850    21108926.2334   21108925.8714
        46.800          34.5004
 139304708.829 7                  26508790.954
        42.100
 124604648.119 8                  23711454.051
        48.400
 412843184.177 5                  78561459.561
        33.000
 202116946.355 7                  38461549.067
        44.900
 108024024.869 8  84018728.731 8  20243651.244    20243651.668    20243657.626
        51.000          48.100
 132700545.368 6 103403032.85442  25252073.862    25252072.7584   25252074.0104
        37.300          15.1004
 122019841.463 7  95080449.94344  23219577.913    23219576.5854   23219577.3374
        42.300          27.5004
 131042189.108 7                  24936461.363
        45.400
 123251298.576 7  96039976.85144  23453940.937    23453940.5084   23453942.8994
        42.300          29.1004
 109932170.478 8  85661483.29748  20919375.883    20919375.4234   20919375.0184
        48.800          49.0004
 128040924.881 6  99772244.58643  24365346.769    24365346.4214   24365348.2814
        38.300          23.1004
 130364161.815 6 101582490.05845  24807473.030    24807472.3824   24807477.2274
        38.600          31.0004
 118051772.529 7  91988397.41245  22464500.623    22464500.2524   22464500.7394
        45.300          34.1004
 142536368.154 6                  27123770.507
        39.300
 107177740.486 8  83515161.54148  20395229.352    20395228.6864   20395229.0364
        49.700          51.5004
 110773617.655 8  86317122.71847  21079511.099    21079510.6974   21079511.3474
        48.200          47.4004
 123847284.724 6                  23151916.571    23151917.242
        40.500
 147059653.896 6                  27984470.387
        38.300
 129096373.126 7 100408336.886 6  24158625.773    24158625.926    24158632.317
        43.800          38.200
 140873549.179 6                  26807345.277
        41.400
 136585419.240 5 106430207.88243  25991341.114    25991340.3014   25991344.1674
        32.800          23.6004
 104690868.081 8  81426306.711 8  19577703.308    19577703.144    19577709.206
        52.000          48.200
 128271679.066 7  99766922.402 6  24012723.355    24012723.691    24012729.861
        44.700          39.500
 111754462.679 8  86920182.240 7  20883987.459    20883987.855    20883993.898
        50.900          47.000
 130843983.856 6 101767572.438 6  24442753.031    24442753.789    24442761.671
        38.700          36.100
 103601679.622 8  80579138.519 7  19380822.686    19380822.536    19380829.340
        49.400          42.100
 124793705.802 7  97061839.411 6  23304331.480    23304331.343    23304336.825
        42.900          41.500
 25  1  1  6  8  0.0000000  0 33G25E03E08S31S35G13E21E13S48S33R02G16
                                G20E15G23G05G11G26G18E07G29G15R23E27
                                R15E26G30R24R16R17R03R01R08
 130622264.002 6 101783663.79645  24856567.325    24856566.3864   24856570.8144
        39.000          30.3004
 133939153.759 7                  25487757.614
        44.400
 129086832.065 7                  24564399.119
        46.800
 198977329.814 7                  37864124.119
        46.000
 200949713.523 7                  38239470.239
        44.200
 110911461.692 7  86424540.32045  21105739.555    21105738.9344   21105738.9604
        47.200          34.5004
 139333654.724 7                  26514299.279
        42.200
 124594926.022 8                  23709603.814
        48.400
 412842936.999 5                  78561426.981
        32.900
 202116921.712 7                  38461543.638
        45.000
 107980574.335 8  83984933.903 8  20235509.022    20235508.884    20235514.484
        51.100          48.000
 132678908.138 6 103386172.79442  25247956.397    25247955.2974   25247956.4464
        36.800          13.8004
 122061715.173 7  95113078.84744  23227546.643    23227545.3334   23227545.4424
        42.700          27.6004
 131061590.307 7                  24940153.214
        45.400
 123209706.759 7  96007567.64244  23446026.628    23446026.1994   23446028.0384
        42.400          29.2004
 109960975.686 8  85683928.91448  20924857.080    20924856.6244   20924856.4544
        49.000          48.9004
 128080720.429 6  99803254.05143  24372919.410    24372919.0754   24372921.2474
        39.500          23.0004
 130370545.739 6 101587464.44745  24808687.477    24808686.8434   24808691.6264
        38.700          30.3004
 118016221.551 7  91960695.37645  22457735.341    22457734.9844   22457735.6314
        45.800          34.1004
 142489415.353 6                  27114836.141
        39.300
 107180616.681 8  83517402.73248  20395776.849    20395776.1744   20395776.3534
        50.200          51.4004
 110732745.478 8  86285274.28247  21071733.133    21071732.7274   21071733.6174
        48.400          47.3004
 123894064.546 6                  23160662.158    23160662.550
        39.900
 147101829.836 6                  27992496.066
        37.800
 129138501.106 7 100441103.108 6  24166508.665    24166509.325    24166515.967
        43.800          37.200
 140843389.564 6                  26801606.019
        41.600
 136570095.953 5 106418267.99543  25988425.065    25988424.2204   25988428.5534
        34.000          20.0004
 104696336.345 8  81430559.803 8  19578725.950    19578725.813    19578731.785
        52.100          48.300
 128279940.113 7  99773347.684 6  24014269.936    24014270.215    24014276.515
        45.400          39.500
 111711652.665 8  86886885.569 7  20875987.876    20875987.389    20875993.561
        49.900          46.700
 130777821.004 6 101716112.456 6  24430394.177    24430393.938    24430401.664
        37.900          36.900
 103618833.865 8  80592480.705 7  19384031.504    19384031.498    19384038.225
        49.400          42.000
 124855150.634 7  97109629.793 6  23315805.880    23315806.783    23315812.015
        42.300          41.300
 25  1  1  6  8 15.0000000  0 33G25E03E08S31S35G13E21E13S48S33R02G16
                                G20E15G23G05G11G26G18E07G29G15R23E27
                                R15E26G30R24R16R17R03R01R08
 130667961.908 6 101819272.54545  24865263.209    24865262.2664   24865266.9614
        38.200          30.1004
 133953470.463 7                  25490481.966
        44.400
 129060837.948 7                  24559452.511
        46.900
 198977321.058 7                  37864121.400
        45.600
 200949723.933 7                  38239473.816
        44.400
 110894867.392 7  86411609.71345  21102581.602    21102580.9814   21102581.1534
        47.200          34.5004
 139362666.050 7                  26519819.732
        42.300
 124585230.473 8                  23707758.882
        48.600
 412842690.050 5                  78561392.777
        32.700
 202116897.779 7                  38461539.980
        45.200
 107937270.472 8  83951253.134 8  20227393.872    20227393.935    20227399.545
        51.700          48.000
 132657398.037 5 103369411.69941  25243863.004    25243861.9184   25243863.2354
        35.900          11.9004
 122103601.685 7  95145717.69644  23235517.199    23235515.8944   23235516.3104
        43.600          27.7004
 131081020.332 7                  24943850.628
        45.600
 123168164.433 7  95975197.02044  23438121.994    23438121.5834   23438122.8044
        42.300          29.2004
 109989851.368 8  85706429.45348  20930351.961    20930351.5014   20930351.3144
        49.400          48.9004
 128120545.300 6  99834286.35843  24380497.066    24380496.7134   24380499.5704
        39.900          22.8004
 130377048.689 6 101592531.57845  24809925.755    24809925.1294   24809928.4954
        38.300          30.1004
 117980694.865 7  91933012.28245  22450974.699    22450974.3334   22450975.1324
        46.200          34.3004
 142442469.302 6                  27105902.429
        39.800
 107183641.357 8  83519759.61348  20396352.349    20396351.6654   20396351.9414
        50.100          51.4004
 110691985.365 8  86253513.12547  21063977.018    21063976.6034   21063977.1984
        48.500          47.3004
 123940908.775 6                  23169419.629    23169419.204
        40.200
 147143986.319 6                  28000518.388
        38.200
 129180701.776 7 100473925.844 6  24174406.734    24174407.127    24174412.758
        44.200          38.300
 140813228.399 6                  26795866.558
        41.500
 136554862.483 5 106406398.14543  25985526.966    25985526.1304   25985528.9074
        34.600          20.4004
 104701925.437 8  81434906.872 8  19579770.649    19579771.005    19579776.951
        51.900          48.100
 128288370.499 7  99779904.689 6  24015847.378    24015847.709    24015853.652
        43.800          38.700
 111668887.586 8  86853623.874 7  20867996.051    20867996.125    20868001.269
        50.500          46.700
 130711670.404 6 101664662.021 6  24418035.977    24418037.052    24418043.409
        38.100          36.700
 103636171.810 8  80605965.796 7  19387275.447    19387274.743    19387281.815
        49.500          42.100
 124916638.567 7  97157453.695 6  23327289.016    23327289.806    23327294.511
        43.600          41.800
 25  1  1  6  8 30.0000000  0 33G25E03E08S31S35G13E21E13S48S33R02G16
                                G20E15G23G05G11G26G18E07G29G15R23E27
                                R15E26G30R24R16R17R03R01R08
 130713640.740 6 101854866.42945  24873955.579    24873954.6234   24873959.4204
        37.800          30.4004
 133967888.120 7                  25493225.644
        44.700
 129034931.848 7                  24554522.824
        47.100
 198977311.195 7                  37864120.255
        45.500
 200949733.735 7                  38239474.375
        44.400
 110878425.494 7  86398797.86145  21099452.898    21099452.2774   21099452.2834
        47.400          34.5004
 139391741.643 7                  26525352.757
        42.700
 124575560.559 8                  23705918.804
        48.900
 412842442.210 5                  78561368.599
        32.800
 202116873.702 7                  38461539.207
        45.100
 107894112.784 8  83917686.074 8  20219305.490    20219305.843    20219311.752
        51.000          48.100
 132636014.325 5 103352749.09742  25239793.928    25239792.8464   25239794.3044
        35.400          12.2004
 122145500.076 7  95178365.74344  23243489.664    23243488.3234   23243489.2364
        42.700          27.3004
 131100478.333 7                  24947553.109
        45.800
 123126670.721 7  95942864.27144  23430225.289    23430224.8744   23430226.6744
        42.000          29.4004
 110018796.629 8  85728984.18148  20935860.064    20935859.5954   20935859.3964
        48.900          48.9004
 128160398.530 6  99865340.77543  24388081.342    24388080.9714   24388083.5354
        38.600          22.6004
 130383669.587 6 101597690.63345  24811185.533    24811184.9124   24811188.8264
        37.000          30.4004
 117945191.615 7  91905347.43045  22444218.707    22444218.3544   22444219.0164
        45.800          34.2004
 142395529.289 6                  27096970.036
        40.400
 107186813.518 8  83522231.42348  20396956.034    20396955.3504   20396955.5924
        49.700          51.3004
 110651336.998 8  86221839.06247  21056241.645    21056241.2254   21056242.1194
        48.300          47.4004
 123987815.963 6                  23178188.702    23178188.306
        40.900
 147186122.195 6                  28008536.424
        37.900
 129222973.655 7 100506803.977 6  24182316.300    24182316.556    24182324.078
        43.300          38.200
 140783064.735 6                  26790126.468
        41.700
 136539717.854 6 106394597.61344  25982642.877    25982642.0194   25982646.8664
        36.700          24.5004
 104707634.429 8  81439347.203 8  19580838.795    19580838.556    19580844.493
        52.400          48.300
 128296969.362 7  99786592.723 6  24017456.869    24017456.733    24017464.764
        43.700          39.400
 111626166.571 8  86820396.424 7  20860012.591    20860012.625    20860018.609
        50.600          46.800
 130645531.240 6 101613220.486 6  24405681.418    24405682.504    24405687.713
        38.500          36.300
 103653692.311 8  80619592.854 7  19390552.881    19390552.402    19390559.023
        49.600          42.200
 124978167.855 7  97205309.674 6  23338776.862    23338778.384    23338784.676
        42.000          41.300
 25  1  1  6  8 45.0000000  0 33G25E03E08S31S35G13E21E13S48S33R02G16
                                G20E15G23G05G11G26G18E07G29G15R23E27
                                R15E26G30R24R16R17R03R01R08
 130759301.552 6 101890446.27145  24882645.016    24882644.0734   24882648.3734
        37.900          30.0004
 133982407.987 7                  25495988.683
        44.500
 129009115.292 7                  24549610.182
        46.900
 198977302.744 7                  37864119.151
        45.500
 200949743.880 7                  38239477.697
        44.200
 110862137.723 7  86386106.10045  21096353.263    21096352.6294   21096352.7824
        47.000          34.4004
 139420882.655 7                  26530897.936
        42.200
 124565917.678 8                  23704083.684
        48.500
 412842195.139 5                  78561341.304
        32.400
 202116849.621 7                  38461535.379
        45.100
 107851102.851 8  83884233.923 7  20211245.735    20211245.865    20211251.782
        51.300          47.900
 132614758.665 6 103336186.32942  25235749.091    25235747.9514   25235749.3864
        36.300          12.3004
 122187411.530 7  95211023.96644  23251465.972    23251464.6444   23251464.6834
        42.600          27.1004
 131119965.705 7                  24951261.693
        45.400
 123085227.113 7  95910570.57244  23422338.757    23422338.3734   23422340.3514
        42.800          29.5004
 110047812.521 8  85751593.98648  20941381.536    20941381.0674   20941380.9374
        49.000          48.9004
 128200281.484 6  99896418.34243  24395671.169    24395670.7984   24395673.2564
        39.700          22.9004
 130390409.671 6 101602942.60045  24812468.683    24812468.0664   24812471.5784
        38.400          30.3004
 117909713.345 7  91877702.05045  22437467.447    22437467.0944   22437467.6624
        46.200          34.2004
 142348596.888 6                  27088038.853
        40.200
 107190134.567 8  83524819.25548  20397588.010    20397587.3404   20397587.5494
        49.700          51.2004
 110610801.990 8  86190253.32947  21048528.217    21048527.7974   21048528.5434
        48.700          47.4004
 124034787.465 7                  23186968.988    23186969.423
        42.000
 147228238.579 6                  28016550.982
        37.900
 129265317.662 7 100539738.203 6  24190241.865    24190241.666    24190248.688
        43.200          38.600
 140752899.975 6                  26784386.395
        41.400
 136524662.551 6 106382866.17043  25979778.949    25979778.0954   25979781.2084
        36.300          23.9004
 104713465.092 8  81443882.166 8  19581928.595    19581928.899    19581934.920
        52.100          48.400
 128305737.816 7  99793412.640 6  24019098.560    24019098.749    24019106.257
        44.000          39.300
 111583491.413 8  86787204.596 7  20852037.517    20852037.660    20852043.453
        50.900          46.600
 130579405.451 6 101561789.327 6  24393329.081    24393330.143    24393335.450
        40.900          36.700
 103671396.385 8  80633362.691 7  19393864.562    19393864.372    19393871.010
        49.500          42.200
 125039740.034 7  97253199.155 6  23350277.257    23350277.600    23350282.904
        42.200          41.400
 25  1  1  6  9  0.0000000  0 33G25E03E08S31S35G13E21E13S48S33R02G16
                                G20E15G23G05G11G26G18E07G29G15R23E27
                                R15E26G30R24R16R17R03R01R08
 130804940.972 6 101926009.44644  24891329.734    24891328.7914   24891333.2254
        37.400          29.9004
 133997026.961 7                  25498770.290
        44.400
 128983385.465 7                  24544713.790
        46.900
 198977291.953 7                  37864116.334
        45.500
 200949752.251 7                  38239478.685
        44.000
 110846001.139 7  86373532.14845  21093282.789    21093282.1594   21093282.1104
        47.000          34.5004
 139450085.841 6                  26536455.304
        41.700
 124556298.993 8                  23702253.422
        48.400
 412841946.226 5                  78561315.521
        32.800
 202116823.274 7                  38461528.135
        45.000
 107808238.059 8  83850894.613 8  20203212.968    20203213.087    20203218.852
        51.400          48.000
 132593628.118 6 103319720.98842  25231728.160    25231727.1054   25231728.3694
        37.500          12.9004
 122229332.978 7  95243689.94444  23259443.227    23259441.9044   23259442.0094
        42.100          27.1004
 131139479.494 7                  24954974.880
        45.200
 123043830.663 7  95878313.60944  23414461.542    23414461.1674   23414462.8274
        43.400          29.5004
 110076895.916 8  85774256.38448  20946916.107    20946915.6424   20946915.3174
        48.900          48.9004
 128240191.117 6  99927516.69143  24403265.255    24403264.8984   24403267.5964
        39.600          23.0004
 130397265.761 6 101608284.96645  24813772.460    24813771.8264   24813776.4744
        39.000          30.8004
 117874257.120 7  91850073.83145  22430720.338    22430719.9854   22430720.6184
        46.200          34.2004
 142301669.364 6                  27079108.833
        39.900
 107193601.554 8  83527520.79548  20398247.782    20398247.1074   20398247.2874
        49.900          51.2004
 110570377.601 8  86158753.75547  21040835.628    21040835.2134   21040836.0064
        48.500          47.3004
 124081820.374 6                  23195760.076    23195760.557
        39.600
 147270332.260 6                  28024561.124
        37.600
 129307730.221 7 100572725.741 6  24198178.545    24198179.364    24198185.371
        44.100          38.300
 140722731.162 6                  26778645.574
        41.900
 136509694.823 5 106371202.84643  25976929.298    25976928.4444   25976933.0624
        34.400          22.2004
 104719414.495 8  81448509.471 8  19583041.311    19583041.501    19583047.469
        52.200          48.200
 128314672.563 7  99800361.925 6  24020771.042    24020771.172    24020778.505
        44.000          39.500
 111540859.485 8  86754046.408 7  20844070.916    20844071.009    20844076.720
        50.500          46.900
 130513290.231 6 101510366.405 6  24380978.058    24380979.016    24380984.949
        40.700          37.600
 103689280.556 8  80647272.605 7  19397209.749    19397209.902    19397216.853
        49.800          42.300
 125101351.318 7  97301119.107 6  23361781.564    23361782.575    23361788.335
        43.000          41.500
 25  1  1  6  9 15.0000000  0 33G25E03E08S31S35G13E21E13S48S33R02G16
                                G20E15G23G05G11G26G18E07G29G15R23E27
                                R15E26G30R24R16R17R03R01R08
 130850560.839 6 101961557.38444  24900011.404    24900010.4484   24900014.2774
        38.200          29.9004
 134011747.092 7                  25501571.678
        44.000
 128957744.708 7                  24539834.777
        46.800
 198977281.452 7                  37864113.740
        45.700
 200949761.153 7                  38239476.991
        44.100
 110830018.192 7  86361077.91345  21090241.197    21090240.5714   21090240.6384
        46.900          34.5004
 139479353.151 6                  26542024.450
        41.900
 124546706.706 8                  23700428.053
        48.300
 412841697.464 5                  78561285.543
        32.700
 202116798.528 7                  38461523.315
        44.900
 107765521.031 8  83817670.286 8  20195207.887    20195208.126    20195213.848
        51.600          48.100
 132572625.231 6 103303355.19142  25227730.877    25227729.8004   25227731.6874
        37.400          14.6004
 122271266.380 7  95276365.27444  23267422.646    23267421.3364   23267421.9324
        42.100          27.1004
 131159021.920 7                  24958694.043
        45.300
 123002483.588 7  95846095.13144  23406593.124    23406592.7354   23406594.8204
        43.000          29.6004
 110106048.246 8  85796972.48348  20952463.560    20952463.0954   20952462.7994
        49.000          48.9004
 128280129.588 6  99958637.52243  24410865.058    24410864.6784   24410867.5484
        38.400          22.9004
 130404239.834 6 101613719.26045  24815099.918    24815099.2794   24815103.8754
        38.800          31.1004
 117838825.288 7  91822464.62145  22423978.122    22423977.7744   22423978.1854
        45.200          34.3004
 142254749.097 6                  27070180.295
        39.800
 107197216.734 8  83530337.81048  20398935.780    20398935.1054   20398935.2294
        49.600          51.2004
 110530066.414 8  86127342.38747  21033164.835    21033164.4154   21033165.0764
        48.500          47.2004
 124128916.813 6                  23204566.401    23204565.366
        40.300
 147312405.188 6                  28032567.323
        36.900
 129350212.827 7 100605767.785 6  24206127.985    24206128.295    24206135.223
        43.200          38.500
 140692560.484 6                  26772904.292
        41.500
 136494817.461 6 106359610.21044  25974099.443    25974098.5894   25974102.3024
        36.100          24.8004
 104725484.760 8  81453230.772 8  19584176.703    19584176.837    19584182.582
        52.500          48.300
 128323775.612 7  99807442.053 6  24022475.695    24022476.130    24022483.638
        45.400          40.100
 111498273.320 8  86720923.844 7  20836112.541    20836112.616    20836118.717
        50.800          46.800
 130447188.337 6 101458953.849 6  24368630.338    24368629.602    24368636.868
        38.100          37.000
 103707346.987 8  80661324.285 7  19400589.816    19400589.688    19400596.568
        49.900          42.300
 125163003.364 7  97349070.663 6  23373295.543    23373295.657    23373301.059
        42.000          41.300
 25  1  1  6  9 30.0000000  0 33G25E03E08S31S35G13E21E13S48S33R02G16
                                G20E15G23G05G11G26G18E07G29G15R23E27
                                R15E26G30R24R16R17R03R01R08
 130896163.242 6 101997091.71845  24908688.824    24908687.8904   24908692.1634
        37.500          30.2004
 134026570.735 7                  25504392.503
        44.300
 128932195.559 7                  24534972.654
        46.800
 198977273.218 7                  37864113.611
        45.800
 200949771.456 7                  38239481.883
        44.300
 110814191.342 7  86348745.31745  21087229.669    21087229.0664   21087228.9604
        46.600          34.7004
 139508686.744 7                  26547606.450
        42.100
 124537143.268 8                  23698608.088
        48.400
 412841451.676 5                  78561261.853
        33.200
 202116774.048 7                  38461517.211
        45.100
 107722954.447 8  83784562.977 7  20187230.756    20187230.899    20187236.612
        51.400          47.800
 132551752.295 6 103287090.60142  25223759.089    25223758.0524   25223759.5314
        36.400          14.0004
 122313214.105 7  95309051.78944  23275405.504    23275404.2214   23275404.3104
        43.000          27.3004
 131178595.421 7                  24962418.548
        45.600
 122961188.411 7  95813917.08245  23398734.419    23398734.0224   23398736.5874
        43.200          30.0004
 110135271.760 8  85819744.05848  20958024.693    20958024.2204   20958023.8384
        49.200          49.3004
 128320099.293 6  99989782.68943  24418472.270    24418471.9134   24418473.8854
        38.200          23.0004
 130411334.193 6 101619247.29145  24816449.350    24816448.7164   24816453.8714
        38.400          31.3004
 117803420.385 7  91794876.42245  22417240.727    22417240.3834   22417240.7874
        45.700          34.8004
 142207838.701 6                  27061253.797
        40.000
 107200982.717 8  83533272.33948  20399652.422    20399651.7474   20399651.8784
        49.500          51.5004
 110489871.403 8  86096021.56447  21025515.893    21025515.4604   21025516.2814
        48.700          47.7004
 124176078.773 7                  23213382.879    23213382.954
        42.000
 147354459.504 6                  28040570.216
        37.800
 129392767.479 7 100638865.831 6  24214091.889    24214091.526    24214098.140
        43.400          37.300
 140662390.384 6                  26767162.874
        41.300
 136480032.288 6 106348089.07544  25971286.299    25971285.4414   25971288.8954
        36.200          24.4004
 104731678.783 8  81458048.347 8  19585334.810    19585335.148    19585341.014
        52.500          48.300
 128333049.020 7  99814654.729 6  24024211.245    24024212.063    24024218.927
        44.600          39.400
 111455735.743 8  86687839.080 7  20828163.064    20828163.377    20828169.142
        50.900          46.700
 130381102.255 6 101407553.618 6  24356283.908    24356283.546    24356290.476
        38.100          37.100
 103725597.684 8  80675519.281 7  19404004.163    19404003.969    19404010.638
        49.900          42.400
 125224698.120 7  97397055.482 6  23384817.169    23384817.852    23384822.481
        43.500          41.800
 25  1  1  6  9 45.0000000  0 33G25E03E08S31S35G13E21E13S48S33R02G16
                                G20E15G23G05G11G26G18E07G29G15R23E27
                                R15E26G30R24R16R17R03R01R08
 130941745.541 6 102032610.38345  24917362.519    24917361.5764   24917366.1804
        37.800          30.4004
 134041495.434 7                  25507232.642
        44.100
 128906735.925 7                  24530127.872
        46.700
 198977265.296 7                  37864112.609
        45.500
 200949782.291 7                  38239482.808
        44.400
 110798518.584 7  86336532.78945  21084247.229    21084246.6214   21084246.4774
        47.100          34.9004
 139538084.091 6                  26553200.809
        41.800
 124527606.478 8                  23696793.361
        48.300
 412841206.334 5                  78561226.303
        32.500
 202116751.068 7                  38461514.841
        45.300
 107680536.204 8  83751571.044 7  20179281.381    20179281.862    20179287.578
        51.800          47.700
 132531007.202 5 103270925.63942  25219811.658    25219810.6394   25219811.7594
        35.200          14.0004
 122355173.635 7  95341747.45044  23283389.824    23283388.5194   23283388.9524
        42.700          27.0004
 131198197.799 7                  24966148.582
        45.200
 122919942.892 7  95781777.73645  23390886.150    23390885.7394   23390887.5484
        43.200          30.0004
 110164564.476 8  85842569.53348  20963598.767    20963598.2894   20963598.0604
        48.900          49.3004
 128360097.900 6 100020950.36443  24426083.259    24426082.9154   24426085.5304
        38.900          22.9004
 130418546.333 6 101624867.11545  24817821.913    24817821.2794   24817826.5484
        39.300          31.4004
 117768040.163 7  91767307.43045  22410507.880    22410507.5364   22410508.1024
        46.300          34.8004
 142160936.094 6                  27052328.225
        40.000
 107204897.323 8  83536322.67948  20400397.292    20400396.6224   20400396.8104
        49.300          51.4004
 110449790.311 8  86064789.49847  21017888.605    21017888.1764   21017889.1514
        48.300          47.8004
 124223304.119 6                  23222211.148    23222211.202
        41.600
 147396492.703 6                  28048569.040
        36.600
 129435391.436 7 100672017.846 6  24222068.341    24222068.172    24222074.737
        43.100          37.700
 140632218.524 6                  26761421.298
        41.400
 136465337.886 5 106336638.81044  25968490.004    25968489.1414   25968492.7854
        35.300          25.6004
 104737994.357 8  81462960.477 8  19586515.954    19586516.189    19586522.094
        52.500          48.300
 128342490.850 7  99821998.391 6  24025978.570    24025979.400    24025986.251
        44.400          39.400
 111413244.432 8  86654790.288 7  20820222.817    20820223.166    20820228.591
        50.800          46.700
 130315030.457 6 101356164.458 6  24343940.064    24343940.853    24343947.908
        38.300          36.500
 103744030.109 8  80689855.623 7  19407451.888    19407451.993    19407458.742
        49.900          42.400
 125286432.740 7  97445071.250 6  23396344.563    23396345.262    23396350.659
        42.000          41.200
 25  1  1  6 10  0.0000000  0 33G25E03E08S31S35G13E21E13S48S33R02G16
                                G20E15G23G05G11G26G18E07G29G15R23E27
                                R15E26G30R24R16R17R03R01R08
 130987306.207 6 102068112.18844  24926033.321    24926032.3744   24926036.2724
        36.400          29.9004
 134056519.917 7                  25510091.496
        44.500
 128881364.798 7                  24525299.790
        47.000
 198977256.186 7                  37864106.076
        45.500
 200949792.345 7                  38239482.084
        44.300
 110782998.958 7  86324439.58645  21081293.744    21081293.1324   21081293.1724
        47.000          34.9004
 139567543.788 7                  26558806.646
        42.100
 124518095.147 8                  23694983.362
        48.300
 412840959.409 5                  78561199.818
        32.700
 202116727.183 7                  38461508.093
        45.200
 107638265.558 8  83718693.884 8  20171360.053    20171360.270    20171365.987
        51.600          48.000
 132510389.204 5 103254859.74542  25215887.891    25215886.9124   25215888.1884
        35.500          13.8004
 122397143.932 7  95374451.52344  23291376.720    23291375.4194   23291375.8024
        42.400          27.2004
 131217827.885 7                  24969884.221
        45.200
 122878745.915 7  95749676.21145  23383046.762    23383046.3474   23383048.0564
        42.600          30.3004
 110193924.563 8  85865447.50548  20969185.947    20969185.4654   20969185.1114
        48.900          49.4004
 128400124.214 6 100052139.63043  24433699.622    24433699.2694   24433702.2244
        38.600          23.2004
 130425875.017 6 101630577.76545  24819217.020    24819216.3864   24819220.9434
        38.500          31.1004
 117732683.600 7  91739756.87645  22403779.944    22403779.5964   22403779.9864
        45.800          34.8004
 142114040.386 6                  27043404.516
        40.900
 107208958.858 8  83539487.51048  20401170.143    20401169.4684   20401169.6854
        49.300          51.5004
 110409822.400 8  86033645.67147  21010283.277    21010282.8444   21010283.5294
        48.600          47.8004
 124270591.501 6                  23231049.513    23231050.518
        40.800
 147438503.440 6                  28056563.103
        37.500
 129478082.930 7 100705222.309 6  24230057.750    24230057.400    24230064.346
        42.800          37.900
 140602043.789 6                  26755679.180
        41.400
 136450733.333 5 106325258.62144  25965710.827    25965709.9694   25965713.9584
        34.600          24.1004
 104744430.213 8  81467966.127 8  19587719.458    19587719.748    19587725.591
        52.600          48.400
 128352099.158 7  99829471.587 6  24027778.680    24027778.008    24027784.558
        44.900          39.200
 111370798.946 8  86621777.136 7  20812290.777    20812291.048    20812296.859
        50.800          46.600
 130248971.746 6 101304785.456 6  24331601.406    24331601.352    24331608.712
        40.300          38.900
 103762642.476 8  80704331.917 7  19410933.680    19410933.835    19410940.652
        49.700          42.600
 125348205.920 6  97493117.109 6  23407880.093    23407880.411    23407886.734
        41.800          41.100
 25  1  1  6 10 15.0000000  0 33G25E03E08S31S35G13E21E13S48S33R02G16
                                G20E15G23G05G11G26G18E07G29G15R23E27
                                R15E26G30R24R16R17R03R01R08
 131032844.677 6 102103596.70545  24934698.651    24934697.7124   24934702.2324
        38.100          30.1004
 134071643.828 7                  25512969.824
        44.400
 128856082.042 7                  24520488.671
        47.200
 198977246.001 7                  37864104.520
        45.600
 200949801.215 7                  38239486.676
        44.200
 110767632.332 7  86312465.60145  21078369.540    21078368.9324   21078369.0174
        46.700          34.9004
 139597065.339 7                  26564424.715
        42.100
 124508609.146 8                  23693178.204
        48.500
 412840710.621 5                  78561166.003
        33.100
 202116701.240 7                  38461499.740
        45.200
 107596142.566 8  83685931.570 7  20163466.135    20163466.555    20163472.107
        51.600          47.800
 132489897.914 6 103238892.58442  25211987.957    25211986.9654   25211988.8254
        36.200          14.0004
 122439124.515 7  95407163.63044  23299365.545    23299364.2354   23299364.6064
        42.900          27.0004
 131237485.476 7                  24973625.036
        45.600
 122837597.304 7  95717612.37445  23375216.736    23375216.3304   23375217.8834
        42.900          30.4004
 110223351.810 8  85888377.83048  20974785.675    20974785.1794   20974784.9374
        48.800          49.4004
 128440177.967 6 100083350.30043  24441321.628    24441321.2754   24441324.4494
        38.900          23.3004
 130433319.727 6 101636378.82745  24820633.675    24820633.0364   24820637.5754
        38.900          31.7004
 117697350.547 7  91712224.64745  22397056.183    22397055.8444   22397056.3074
        46.200          35.0004
 142067151.451 6                  27034481.456
        40.100
 107213167.288 8  83542766.80248  20401970.984    20401970.3094   20401970.5224
        49.400          51.5004
 110369967.638 8  86002590.02447  21002698.877    21002698.4484   21002699.3664
        48.200          47.9004
 124317940.406 6                  23239901.853    23239902.095
        40.600
 147480491.160 6                  28064553.084
        37.300
 129520841.015 7 100738478.602 6  24238058.053    24238059.119    24238066.368
        43.500          38.300
 140571865.884 6                  26749936.288
        41.500
 136436218.120 5 106313947.90644  25962948.605    25962947.7514   25962952.0074
        34.700          24.2004
 104750986.459 8  81473065.432 8  19588945.345    19588945.590    19588951.697
        52.300          48.300
 128361873.806 7  99837074.164 6  24029607.117    24029607.000    24029614.431
        44.800          39.200
 111328399.036 8  86588799.429 7  20804367.498    20804367.731    20804373.644
        50.800          47.000
 130182926.332 6 101253416.826 6  24319262.094    24319263.278    24319270.490
        39.900          37.400
 103781434.436 8  80718947.889 7  19414449.637    19414449.313    19414455.991
        49.800          42.500
 125410016.695 6  97541192.204 6  23419423.587    23419424.245    23419429.531
        41.500          41.500
 25  1  1  6 10 30.0000000  0 33G25E03E08S31S35G13E21E13S48S33R02G16
                                G20E15G23G05G11G26G18E07G29G15R23E27
                                R15E26G30R24R16R17R03R01R08
 131078359.778 6 102139063.01345  24943358.862    24943357.9154   24943363.2734
        38.200          30.1004
 134086866.266 7                  25515866.165
        44.500
 128830887.077 7                  24515694.382
        47.100
 198977233.881 7                  37864104.055
        46.000
 200949807.525 7                  38239487.235
        44.500
 110752418.189 7  86300610.43645  21075474.523    21075473.9204   21075473.7934
        47.200          35.0004
 139626647.708 7                  26570053.761
        42.300
 124499147.683 8                  23691377.819
        48.500
 412840459.887 5                  78561138.342
        33.200
 202116673.651 7                  38461496.870
        45.300
 107554166.817 8  83653283.805 7  20155600.259    20155600.126    20155606.013
        51.300          47.900
 132469532.730 5 103223023.65242  25208113.042    25208112.0274   25208113.5434
        35.400          14.1004
 122481114.388 7  95439882.96844  23307355.559    23307354.2544   23307355.0204
        42.600          27.2004
 131257169.821 7                  24977370.748
        45.700
 122796496.343 7  95685585.67345  23367395.508    23367395.1024   23367396.6444
        42.600          30.5004
 110252845.120 8  85911359.63848  20980397.968    20980397.4724   20980397.3164
        49.000          49.5004
 128480258.378 6 100114581.73043  24448949.160    24448948.8074   24448951.5124
        39.300          23.5004
 130440879.595 6 101642269.61645  24822072.315    24822071.6814   24822076.2444
        38.100          31.8004
 117662040.359 7  91684710.23545  22390336.773    22390336.4294   22390336.9974
        45.400          35.1004
 142020268.803 6                  27025560.528
        40.200
 107217521.995 8  83546160.07948  20402799.681    20402799.0114   20402799.2074
        49.400          51.6004
 110330225.426 8  85971622.04748  20995136.433    20995136.0134   20995136.6014
        48.300          48.0004
 124365349.918 6                  23248764.107    23248764.743
        41.100
 147522454.859 6                  28072538.668
        37.400
 129563664.501 7 100771785.773 6  24246071.987    24246072.526    24246079.324
        43.000          37.900
 140541684.063 6                  26744192.995
        41.600
 136421792.340 5 106302707.13744  25960203.271    25960202.4134   25960206.5384
        35.000          24.2004
 104757662.340 8  81478257.774 8  19590194.085    19590194.098    19590200.161
        52.200          48.400
 128371813.519 7  99844805.103 6  24031468.898    24031469.350    24031475.673
        45.800          39.200
 111286044.367 8  86555856.922 7  20796452.358    20796452.503    20796458.354
        50.700          46.900
 130116893.661 6 101202058.064 6  24306927.752    24306927.601    24306934.723
        39.900          38.000
 103800404.763 8  80733702.590 7  19417998.305    19417997.993    19418004.912
        49.700          42.700
 125471863.903 6  97589295.644 6  23430973.169    23430973.891    23430978.082
        41.500          40.700
 25  1  1  6 10 45.0000000  0 33G25E03E08S31S35G13E21E13S48S33R02G16
                                G20E15G23G05G11G26G18E07G29G15R23E27
                                R15E26G30R24R16R17R03R01R08
 131123854.682 6 102174513.58144  24952016.821    24952015.8474   24952020.2674
        37.400          29.3004
 134102190.566 7                  25518782.440
        43.900
 128805783.496 7                  24510917.162
        46.900
 198977222.200 7                  37864102.852
        45.400
 200949815.796 7                  38239484.762
        44.100
 110737359.942 7  86288876.74945  21072608.835    21072608.2414   21072608.3064
        46.900          34.8004
 139656294.114 7                  26575695.582
        42.200
 124489714.347 8                  23689582.593
        48.400
 412840211.228 5                  78561119.972
        32.700
 202116647.379 7                  38461495.568
        45.000
 107512342.011 8  83620753.416 8  20147761.954    20147762.459    20147768.117
        52.100          48.000
 132449297.113 6 103207255.69042  25204261.590    25204260.6114   25204262.7074
        38.000          14.7004
 122523116.703 7  95472611.96844  23315348.962    23315347.6484   23315347.9244
        42.400          27.0004
 131276884.434 7                  24981122.396
        45.400
 122755446.537 7  95653598.83545  23359583.891    23359583.4944   23359585.0194
        42.800          30.2004
 110282407.900 8  85934395.57748  20986023.588    20986023.0924   20986022.9304
        49.200          49.3004
 128520368.831 6 100145836.56843  24456581.596    24456581.2524   24456584.2454
        38.800          23.0004
 130448557.882 6 101648252.70945  24823534.128    24823533.4764   24823536.7704
        38.800          31.1004
 117626756.587 7  91657216.39745  22383622.767    22383622.4234   22383622.6594
        46.200          34.9004
 141973396.074 6                  27016640.717
        40.300
 107222026.428 8  83549670.02448  20403656.923    20403656.2574   20403656.3814
        49.300          51.3004
 110290599.616 8  85940744.71047  20987596.010    20987595.5904   20987596.0954
        48.400          47.6004
 124412823.678 6                  23257639.770    23257640.315
        41.900
 147564397.774 6                  28080520.088
        37.800
 129606556.318 7 100805146.069 6  24254099.059    24254099.057    24254106.392
        42.500          37.900
 140511501.737 6                  26738449.821
        41.000
 136407459.258 6 106291538.57144  25957475.132    25957474.2924   25957478.9114
        37.200          24.9004
 104764461.645 8  81483546.117 8  19591465.471    19591465.560    19591471.577
        52.400          48.200
 128381921.741 7  99852667.026 6  24033359.468    24033359.796    24033367.992
        44.000          38.900
 111243738.660 8  86522952.474 7  20788546.803    20788546.809    20788552.574
        50.800          46.800
 130050877.730 6 101150712.356 6  24294596.340    24294595.921    24294602.565
        40.300          38.100
 103819556.798 8  80748598.613 7  19421581.022    19421580.929    19421587.693
        49.700          42.400
 125533750.512 6  97637429.704 6  23442529.599    23442529.624    23442536.153
        41.300          41.500
 25  1  1  6 11  0.0000000  0 33G25E03E08S31S35G13E21E13S48S33R02G16
                                G20E15G23G05G11G26G18E07G29G15R23E27
                                R15E26G30R24R16R17R03R01R08
 131169334.158 6 102209952.12044  24960671.787    24960670.8224   24960675.0434
        37.600          29.6004
 134117621.720 7                  25521719.036
        44.300
 128780776.595 7                  24506158.531
        46.900
 198977218.865 7                  37864103.532
        45.800
 200949830.194 7                  38239491.975
        44.300
 110722463.093 7  86277268.82345  21069774.396    21069773.8064   21069773.5344
        47.400          34.8004
 139686009.438 6                  26581350.163
        41.700
 124480314.290 8                  23687794.084
        48.400
 412839969.632 5                  78561088.117
        32.900
 202116627.809 7                  38461489.228
        44.800
 107470673.821 8  83588344.832 8  20139952.874    20139953.485    20139959.381
        51.800          48.000
 132429196.516 6 103191592.96642  25200437.548    25200436.5564   25200437.5654
        36.700          14.0004
 122565136.717 7  95505354.81144  23323344.785    23323343.4624   23323344.0934
        42.300          26.7004
 131296634.473 7                  24984880.585
        45.200
 122714453.110 7  95621655.91745  23351783.018    23351782.6254   23351784.1574
        43.000          30.2004
 110312044.330 8  85957488.88948  20991663.177    20991662.6814   20991662.5314
        48.700          49.2004
 128560514.430 6 100177118.78943  24464221.907    24464221.5814   24464223.8964
        37.700          22.4004
 130456359.615 6 101654332.03845  24825017.728    24825017.0854   24825021.1704
        39.100          31.3004
 117591504.487 7  91629747.25445  22376913.994    22376913.6324   22376914.4204
        45.800          34.9004
 141926538.617 6                  27007723.820
        40.300
 107226685.691 8  83553300.61648  20404543.497    20404542.8364   20404542.9884
        49.200          51.2004
 110251095.815 8  85909962.49047  20980078.643    20980078.2194   20980078.8234
        48.500          47.6004
 124460366.688 6                  23266527.582    23266527.133
        40.800
 147606324.814 6                  28088498.287
        36.600
 129649521.261 7 100838563.229 6  24262139.827    24262139.938    24262146.463
        43.500          37.400
 140481324.114 6                  26732707.313
        41.400
 136393224.131 5 106280446.28444  25954766.301    25954765.4614   25954769.9174
        35.600          24.4004
 104771389.699 8  81488934.602 8  19592761.217    19592761.060    19592767.091
        52.600          48.200
 128392203.577 7  99860664.026 6  24035284.676    24035285.053    24035292.118
        45.500          38.700
 111201487.522 8  86490090.475 7  20780650.858    20780651.148    20780656.914
        50.600          46.700
 129984884.097 6 101099383.997 6  24282265.699    24282266.119    24282274.404
        37.900          38.700
 103838895.202 8  80763639.579 7  19425198.498    19425198.347    19425205.360
        49.500          42.500
 125595681.228 7  97685598.051 6  23454094.946    23454094.993    23454100.507
        42.400          40.600
 25  1  1  6 11 15.0000000  0 33G25E03E08S31S35G13E21E13S48S33R02G16
                                G20E15G23G05G11G26G18E07G29G15R23E27
                                R15E26G30R24R16R17R03R01R08
 131214786.961 6 102245369.88945  24969320.475    24969319.5014   24969324.3104
        37.600          30.0004
 134133148.748 7                  25524673.648
        43.900
 128755855.630 7                  24501416.358
        46.400
 198977209.815 7                  37864096.766
        45.400
 200949839.911 7                  38239487.369
        43.900
 110707717.052 7  86265778.41645  21066968.081    21066967.4874   21066967.4624
        47.600          35.0004
 139715782.557 6                  26587015.574
        41.500
 124470936.658 8                  23686009.485
        48.200
 412839723.589 5                  78561064.672
        33.400
 202116603.305 7                  38461486.156
        44.800
 107429151.420 8  83556049.651 7  20132171.935    20132172.290    20132178.158
        51.600          47.900
 132409220.278 6 103176027.13442  25196635.940    25196634.9614   25196636.0864
        36.100          15.0004
 122607163.383 7  95538102.83344  23331342.072    23331340.7764   23331341.5144
        42.100          26.8004
 131316409.113 7                  24988643.649
        45.100
 122673505.234 7  95589748.49045  23343990.705    23343990.3304   23343992.1084
        42.600          30.6004
 110341743.876 8  85980631.40648  20997315.005    20997314.5234   20997314.1844
        49.000          49.5004
 128600684.283 6 100208419.90443  24471865.310    24471864.9754   24471868.0234
        38.900          23.4004
 130464273.720 6 101660498.93245  24826524.602    24826523.9764   24826527.2664
        39.800          31.9004
 117556273.277 7  91602294.37545  22370210.161    22370209.7994   22370210.0764
        46.000          35.1004
 141879685.787 6                  26998808.298
        40.100
 107231488.968 8  83557043.42248  20405457.536    20405456.8754   20405457.0324
        49.400          51.4004
 110211703.349 8  85879267.01747  20972582.572    20972582.1484   20972582.7254
        48.400          47.9004
 124507967.627 6                  23275424.911    23275425.483
        40.600
 147648224.818 6                  28096471.878
        37.800
 129692547.555 7 100872028.113 6  24270191.054    24270191.555    24270198.379
        43.300          37.800
 140451140.265 6                  26726963.217
        41.100
 136379076.647 6 106269422.40944  25952074.889    25952074.0534   25952077.7724
        37.300          27.0004
 104778435.436 8  81494414.623 8  19594078.814    19594078.794    19594084.597
        52.600          48.300
 128402647.699 7  99868787.253 6  24037240.200    24037240.225    24037247.563
        43.800          38.800
 111159280.345 8  86457262.663 7  20772763.501    20772763.658    20772769.567
        51.100          46.900
 129918901.854 6 101048064.515 6  24269941.353    24269942.153    24269947.912
        40.600          37.200
 103858408.786 8  80778816.817 7  19428849.194    19428848.962    19428856.024
        49.900          42.500
 125657644.592 6  97733791.809 7  23465665.340    23465665.736    23465672.359
        41.300          42.000
 25  1  1  6 11 30.0000000  0 33G25E03E08S31S35G13E21E13S48S33R02G16
                                G20E15G23G05G11G26G18E07G29G15R23E27
                                R15E26G30R24R16R17R03R01R08
 131260215.318 6 102280768.60744  24977965.768    24977964.7854   24977968.7934
        38.000          29.9004
 134148774.113 7                  25527647.238
        44.200
 128731023.358 7                  24496690.824
        47.000
 198977198.839 7                  37864101.421
        45.400
 200949848.120 7                  38239498.186
        44.100
 110693124.470 7  86254407.58145  21064190.927    21064190.3244   21064190.5394
        46.900          35.2004
 139745615.818 6                  26592692.899
        41.800
 124461584.107 8                  23684229.616
        48.400
 412839475.256 5                  78561034.529
        33.700
 202116577.350 7                  38461472.070
        44.600
 107387777.944 8  83523870.307 7  20124418.907    20124418.979    20124424.754
        52.100          47.900
 132389370.934 6 103160560.21242  25192858.942    25192857.9274   25192858.9384
        36.700          15.0004
 122649198.894 7  95570857.73044  23339341.323    23339340.0314   23339340.5274
        42.600          27.1004
 131336210.956 7                  24992411.885
        45.500
 122632605.550 7  95557878.62345  23336207.968    23336207.5934   23336209.1914
        43.100          30.5004
 110371508.648 8  86003824.74248  21002978.940    21002978.4584   21002978.2234
        49.100          49.6004
 128640880.885 6 100239741.86443  24479515.112    24479514.7914   24479517.3914
        38.100          23.2004
 130472302.509 6 101666755.20045  24828051.974    24828051.3444   24828055.3184
        40.000          31.7004
 117521065.655 7  91574859.86745  22363510.419    22363510.0534   22363510.2624
        45.700          35.3004
 141832840.341 6                  26989893.513
        40.300
 107236438.858 8  83560900.47248  20406399.279    20406398.6184   20406398.9624
        49.400          51.5004
 110172425.099 8  85848660.48147  20965108.147    20965107.7234   20965108.3764
        48.400          47.9004
 124555628.966 6                  23284335.452    23284335.012
        40.800
 147690100.175 6                  28104440.657
        37.600
 129735637.343 7 100905542.407 6  24278255.612    24278255.469    24278262.043
        43.700          38.100
 140420952.772 6                  26721218.833
        41.300
 136365019.209 6 106258468.69544  25949400.161    25949399.3304   25949402.8564
        36.700          27.3004
 104785601.795 8  81499988.458 8  19595418.798    19595419.015    19595424.898
        52.700          48.300
 128413256.304 7  99877038.408 6  24039226.310    24039226.296    24039233.384
        45.800          39.900
 111117120.103 8  86424471.391 7  20764885.021    20764885.213    20764890.890
        50.700          46.700
 129852934.182 6 100996756.303 6  24257617.307    24257618.352    24257624.719
        39.400          37.600
 103878099.691 8  80794131.972 7  19432532.700    19432532.568    19432539.501
        49.500          42.800
 125719642.948 7  97782012.777 6  23477243.781    23477245.146    23477250.065
        42.600          41.500
 25  1  1  6 11 45.0000000  0 33G25E03E08S31S35G13E21E13S48S33R02G16
                                G20E15G23G05G11G26G18E07G29G15R23E27
                                R15E26G30R24R16R17R03R01R08
 131305622.013 6 102316150.44945  24986606.097    24986605.1184   24986609.1704
        38.000          30.3004
 134164500.748 7                  25530639.820
        44.300
 128706282.992 7                  24491982.923
        47.200
 198977189.882 7                  37864099.596
        45.700
 200949857.293 7                  38239495.311
        44.200
 110678688.491 7  86243158.77545  21061444.427    21061443.8284   21061443.3134
        47.200          35.1004
 139775512.041 7                  26598381.722
        42.400
 124452259.815 8                  23682455.386
        48.600
 412840827.340 5                  78560994.772
        33.100
 202116552.642 7                  38461465.725
        44.300
 107346556.381 8  83491809.087 7  20116693.831    20116693.907    20116699.798
        51.800          47.900
 132369651.777 6 103145194.66642  25189105.445    25189104.4444   25189106.3304
        36.100          13.4004
 122691246.453 7  95603622.01344  23347342.878    23347341.5824   23347342.2454
        42.000          26.8004
 131356043.109 7                  24996185.658
        45.700
 122591757.190 7  95526048.74345  23328434.507    23328434.1274   23328436.0274
        43.500          30.8004
 110401341.016 8  86027070.70548  21008655.853    21008655.3664   21008655.1404
        49.000          49.7004
 128681107.369 6 100271087.11543  24487170.449    24487170.1324   24487171.9734
        37.500          23.2004
 130480448.997 6 101673103.17545  24829602.018    24829601.3924   24829605.6474
        39.000          31.6004
 117485884.838 7  91547446.25845  22356815.808    22356815.4554   22356815.5814
        45.800          35.4004
 141786005.613 6                  26980981.174
        40.100
 107241538.438 8  83564874.16648  20407369.925    20407369.2594   20407369.3764
        49.900          51.7004
 110133264.777 8  85818145.87648  20957656.387    20957655.9634   20957656.4854
        48.500          48.0004
 124603353.794 6                  23293256.165    23293256.400
        40.700
 147731953.726 6                  28112405.116
        37.300
 129778793.218 7 100939108.068 6  24286330.956    24286331.080    24286338.929
        43.600          37.600
 140390764.766 6                  26715474.305
        41.900
 136351055.769 6 106247588.42544  25946742.277    25946741.4414   25946745.3444
        36.900          26.6004
 104792892.116 8  81505658.712 8  19596782.123    19596782.189    19596788.171
        52.400          48.100
 128424032.801 7  99885420.174 6  24041243.612    24041243.776    24041249.379
        44.600          39.200
 111075010.017 8  86391719.125 7  20757015.734    20757015.529    20757021.639
        50.800          46.800
 129786985.159 6 100945462.630 6  24245298.469    24245298.317    24245305.144
        39.700          37.900
 103897970.808 8  80809587.276 7  19436250.123    19436249.882    19436256.699
        49.900          42.600
 125781678.600 6  97830262.788 6  23488826.766    23488827.985    23488834.689
        41.300          41.300
 25  1  1  6 12  0.0000000  0 34G25E03E08S31S35G13E21E13S48S33R02G16
                                G20E15G23G05G11G26G18E07G29G15R23E27
                                R15E26G30R24R18R16R17R03R01R08
 131351005.427 6 102351514.14545  24995241.770    24995240.7964   24995245.6534
        37.900          30.6004
 134180327.312 7                  25533651.457
        44.200
 128681633.460 7                  24487292.192
        46.800
 198977180.772 7                  37864095.165
        46.000
 200949866.499 7                  38239498.276
        44.300
 110664408.189 7  86232031.28445  21058726.560    21058725.9574   21058725.8464
        47.100          35.3004
 139805469.748 6                  26604082.438
        41.900
 124442962.528 8                  23680686.057
        48.200
 412840579.771 5                  78560970.146
        32.900
 202116527.869 7                  38461468.260
        45.100
 107305486.190 8  83459865.619 8  20108997.525    20108997.614    20109003.206
        52.300          48.000
 132350061.725 5 103129929.73942  25185378.553    25185377.4714   25185378.3344
        35.800          13.8004
 122733304.665 7  95636394.63044  23355346.374    23355345.0824   23355345.8104
        42.000          27.0004
 131375904.399 7                  24999965.325
        45.400
 122550958.967 7  95494257.94245  23320670.526    23320670.1374   23320672.2034
        43.700          30.8004
 110431239.665 8  86050368.31048  21014345.345    21014344.8634   21014344.7034
        48.900          49.7004
 128721362.397 6 100302454.59043  24494830.044    24494829.7404   24494832.1174
        39.200          22.9004
 130488711.761 6 101679541.80545  24831173.646    24831173.0124   24831177.9464
        37.900          31.0004
 117450729.703 7  91520052.67645  22350125.791    22350125.4344   22350125.6984
        46.000          35.6004
 141739180.553 6                  26972070.606
        40.300
 107246786.556 8  83568963.59748  20408368.315    20408367.6404   20408368.0634
        49.500          51.7004
 110094221.387 8  85787722.42048  20950226.427    20950226.0124   20950226.8704
        48.100          48.0004
 124651140.833 6                  23302190.606    23302190.411
        41.300
 147773784.023 6                  28120365.335
        36.700
 129822013.313 7 100972723.742 6  24294418.360    24294419.217    24294425.863
        43.700          37.100
 140360574.974 6                  26709729.217
        41.000
 136337184.485 6 106236779.90744  25944102.415    25944101.5794   25944105.1424
        36.100          26.8004
 104800305.101 8  81511424.365 8  19598168.416    19598168.540    19598174.477
        52.500          48.100
 131456542.893 6 102244010.368 6  24626239.396    24626240.509    24626248.475
        40.900          39.500
 128434975.339 7  99893931.046 6  24043292.055    24043292.486    24043298.795
        46.400          38.700
 111032949.280 8  86359005.248 7  20749156.007    20749155.847    20749161.617
        51.100          46.900
 129721052.971 6 100894182.063 6  24232980.286    24232980.857    24232987.948
        39.000          38.100
 103918020.574 8  80825181.523 7  19440000.861    19440000.755    19440007.437
        50.000          42.800
 125843750.104 6  97878540.661 6  23500419.648    23500419.786    23500425.635
        40.800          41.700
 25  1  1  6 12 15.0000000  0 34G25E03E08S31S35G13E21E13S48S33R02G16
                                G20E15G23G05G11G26G18E07G29G15R23E27
                                R15E26G30R24R18R16R17R03R01R08
 131396362.542 6 102386857.34145  25003873.247    25003872.2864   25003877.0214
        39.000          30.2004
 134196250.984 7                  25536681.583
        43.900
 128657072.202 7                  24482618.180
        46.600
 198977168.674 7                  37864094.329
        45.500
 200949873.524 7                  38239501.576
        44.100
 110650281.056 7  86221023.13845  21056038.463    21056037.8644   21056037.5554
        47.100          35.0004
 139835485.977 6                  26609794.377
        41.800
 124433689.646 8                  23678921.325
        48.200
 412840330.161 5                  78560945.311
        32.900
 202116500.026 7                  38461466.592
        44.800
 107264564.759 8  83428037.835 8  20101328.167    20101328.835    20101334.583
        52.000          48.100
 132330598.112 5 103114763.40042  25181674.437    25181673.3154   25181674.3334
        35.700          13.1004
 122775370.595 7  95669173.27844  23363351.204    23363349.9034   23363350.4264
        42.700          26.5004
 131395792.139 7                  25003749.618
        45.600
 122510208.281 7  95462504.16945  23312916.019    23312915.6224   23312917.7574
        43.100          30.6004
 110461202.706 8  86073716.16448  21020047.145    21020046.6494   21020046.5224
        49.000          49.6004
 128761643.313 6 100333842.24743  24502495.397    24502495.0844   24502497.5964
        38.800          22.8004
 130497087.837 6 101686068.71145  24832768.264    24832767.6344   24832771.6634
        38.200          31.5004
 117415597.594 7  91492677.01445  22343440.570    22343440.2134   22343440.3414
        45.100          35.4004
 141692362.715 6                  26963161.507
        40.500
 107252180.567 8  83573166.71848  20409394.909    20409394.2304   20409394.5154
        49.200          51.6004
 110055292.359 8  85757388.13147  20942818.624    20942818.2044   20942818.9264
        48.200          47.8004
 124698987.342 6                  23311135.389    23311135.445
        40.500
 147815588.055 6                  28128319.716
        37.700
 129865294.531 7 101006386.924 6  24302518.803    24302519.056    24302525.353
        43.200          37.500
 140330380.711 6                  26703983.659
        41.300
 136323402.756 6 106226041.01144  25941479.479    25941478.6484   25941482.2674
        36.400          27.1004
 104807838.351 8  81517283.552 8  19599577.144    19599577.226    19599583.181
        52.300          48.000
 131403028.255 6 102202387.849 6  24616214.889    24616215.144    24616223.415
        38.400          38.600
 128446081.057 7  99902568.874 6  24045370.488    24045370.865    24045378.104
        45.100          38.900
 110990935.398 8  86326327.793 7  20741304.035    20741304.421    20741309.846
        50.700          46.700
 129655135.372 6 100842912.793 6  24220667.238    24220667.971    24220674.499
        40.200          38.300
 103938245.920 8  80840912.344 7  19443784.244    19443784.275    19443790.994
        49.800          42.600
 125905854.054 6  97926843.789 6  23512016.982    23512017.914    23512023.312
        41.100          41.100
 25  1  1  6 12 30.0000000  0 34G25E03E08S31S35G13E21E13S48S33R02G16
                                G20E15G23G05G11G26G18E07G29G15R23E27
                                R15E26G30R24R18R16R17R03R01R08
 131441695.502 6 102422181.72844  25012499.047    25012498.0914   25012503.2814
        37.600          29.2004
 134212274.126 7                  25539730.854
        43.900
 128632601.847 7                  24477961.754
        46.700
 198977156.462 7                  37864089.030
        45.600
 200949879.825 7                  38239502.640
        44.200
 110636309.625 7  86210136.32245  21053379.567    21053378.9594   21053378.9884
        47.500          35.0004
 139865562.982 6                  26615517.945
        41.500
 124424443.677 8                  23677162.058
        48.200
 412840080.341 5                  78560910.383
        32.400
 202116472.946 7                  38461456.348
        45.000
 107223795.001 8  83396328.038 8  20093688.626    20093688.733    20093694.624
        52.300          48.200
 132311263.614 5 103099697.60342  25177994.954    25177993.8504   25177995.1264
        35.400          12.6004
 122817446.606 7  95701959.77444  23371357.611    23371356.2834   23371357.0094
        42.800          26.6004
 131415708.886 7                  25007539.769
        45.500
 122469507.659 7  95430789.41845  23305171.245    23305170.8434   23305172.4604
        42.800          30.4004
 110491232.004 8  86097115.59748  21025761.467    21025760.9624   21025760.9294
        49.200          49.6004
 128801952.500 6 100365251.94843  24510165.271    24510164.9274   24510168.2494
        38.800          23.0004
 130505579.611 6 101692685.78445  24834383.708    24834383.0914   24834387.5784
        38.800          31.8004
 117380491.204 7  91465321.40645  22336759.722    22336759.3834   22336759.8714
        46.100          35.5004
 141645554.751 6                  26954254.480
        40.000
 107257722.869 8  83577485.38248  20410449.697    20410449.0184   20410449.2064
        49.500          51.6004
 110016480.562 8  85727145.20847  20935433.136    20935432.7214   20935433.2324
        48.200          47.9004
 124746895.338 7                  23320091.042    23320091.461
        42.000
 147857368.164 6                  28136270.365
        37.300
 129908638.831 7 101040099.151 6  24310630.159    24310630.061    24310637.552
        43.700          37.900
 140300184.503 6                  26698237.432
        41.500
 136309713.441 6 106215374.00644  25938875.286    25938874.4554   25938877.5294
        37.800          27.7004
 104815494.344 8  81523238.215 7  19601009.064    19601009.058    19601014.843
        52.400          47.900
 131349480.983 6 102160740.294 6  24606184.781    24606184.441    24606192.282
        38.800          40.200
 128457352.304 7  99911335.435 6  24047480.882    24047481.073    24047488.719
        45.300          39.400
 110948971.292 8  86293689.035 7  20733462.454    20733462.737    20733468.194
        51.100          46.900
 129589235.327 6 100791657.236 6  24208357.066    24208356.450    24208363.935
        39.000          38.600
 103958648.874 8  80856781.315 7  19447601.341    19447601.118    19447607.828
        50.100          42.600
 125967992.719 6  97975173.888 6  23523622.734    23523622.083    23523627.110
        41.800          41.900
 25  1  1  6 12 45.0000000  0 34G25E03E08S31S35G13E21E13S48S33R02G16
                                G20E15G23G05G11G26G18E07G29G15R23E27
                                R15E26G30R24R18R16R17R03R01R08
 131487008.151 6 102457490.28745  25021123.247    25021122.3174   25021125.8354
        37.100          30.0004
 134228400.809 7                  25542799.846
        44.100
 128608226.737 7                  24473323.170
        46.800
 198977148.507 7                  37864088.239
        45.600
 200949890.071 7                  38239503.074
        43.800
 110622498.264 7  86199374.23745  21050751.370    21050750.7624   21050750.7294
        47.400          35.0004
 139895704.703 6                  26621253.899
        41.900
 124415228.860 8                  23675408.532
        48.400
 412839834.499 5                  78560877.365
        32.400
 202116449.000 7                  38461459.786
        44.700
 107183181.396 8  83364739.697 8  20086077.156    20086077.700    20086083.225
        52.000          48.000
 132292062.659 6 103084735.86142  25174341.667    25174340.5184   25174341.0644
        36.500          14.9004
 122859536.809 7  95734757.32144  23379367.108    23379365.7674   23379366.6244
        42.100          26.5004
 131435658.840 7                  25011335.897
        45.400
 122428861.336 7  95399116.96445  23297436.469    23297436.0494   23297437.5274
        43.500          30.4004
 110521331.516 8  86120569.79648  21031489.242    21031488.7374   21031488.6804
        48.900          49.5004
 128842294.137 6 100396686.92643  24517842.938    24517842.6124   24517844.7414
        38.600          23.1004
 130514191.013 6 101699396.06645  24836021.926    24836021.3094   24836026.5304
        39.000          32.0004
 117345414.788 7  91437989.14645  22330084.896    22330084.5524   22330085.0674
        46.000          35.5004
 141598761.102 6                  26945350.358
        41.000
 107263417.686 8  83581922.88948  20411533.435    20411532.7564   20411532.9124
        49.700          51.4004
 109977790.444 8  85696997.14447  20928070.539    20928070.1284   20928070.6924
        48.500          47.8004
 124794869.233 6                  23329059.888    23329059.635
        40.600
 147899128.271 6                  28144216.863
        37.400
 129952049.679 7 101073863.139 6  24318754.352    24318754.789    24318761.202
        43.800          36.900
 140269990.523 6                  26692491.743
        41.800
 136296121.642 6 106204783.17044  25936288.542    25936287.6974   25936290.7364
        36.900          26.2004
 104823277.473 8  81529291.739 8  19602464.256    19602464.531    19602470.329
        52.400          48.100
 131295904.308 7 102119069.584 6  24596147.045    24596147.142    24596154.836
        43.100          38.200
 128468793.050 7  99920233.775 6  24049622.532    24049622.797    24049629.052
        45.500          38.000
 110907061.547 8  86261092.533 7  20725630.288    20725630.816    20725636.402
        51.600          47.000
 129523357.865 6 100740419.187 6  24196050.219    24196050.415    24196057.376
        39.700          38.400
 103979233.484 8  80872791.552 7  19451451.702    19451451.753    19451458.731
        49.700          42.700
 126030169.569 7  98023533.589 6  23535232.515    23535232.910    23535237.812
        42.000          40.900
 25  1  1  6 13  0.0000000  0 34G25E03E08S31S35G13E21E13S48S33R02G16
                                G20E15G23G05G11G26G18E07G29G15R23E27
                                R15E26G30R24R18R16R17R03R01R08
 131532293.959 6 102492777.91445  25029740.568    25029739.6614   25029743.8104
        39.100          30.6004
 134244624.698 7                  25545886.637
        44.100
 128583940.856 7                  24468701.881
        46.900
 198977138.307 7                  37864089.526
        45.800
 200949898.289 7                  38239499.756
        44.100
 110608840.979 7  86188732.20945  21048152.669    21048152.0754   21048151.8364
        47.600          35.0004
 139925904.728 7                  26627000.554
        42.000
 124406039.104 8                  23673659.833
        48.400
 412839586.203 5                  78560858.481
        32.800
 202116422.923 7                  38461448.339
        44.800
 107142718.173 8  83333268.327 8  20078494.395    20078494.879    20078500.618
        52.200          48.100
 132272989.232 6 103069873.50242  25170712.052    25170710.8814   25170711.4434
        36.600          13.3004
 122901634.939 7  95767561.06544  23387378.224    23387376.8744   23387377.6974
        42.500          26.4004
 131455635.892 7                  25015137.722
        45.500
 122388263.200 7  95367482.06645  23289710.792    23289710.3724   23289712.0624
        43.400          30.6004
 110551494.123 8  86144073.12048  21037229.216    21037228.7254   21037228.4104
        49.400          49.6004
 128882662.058 6 100428142.39043  24525524.204    24525523.8914   24525526.8554
        38.400          22.7004
 130522915.737 6 101706194.63645  24837683.007    24837682.3814   24837686.9694
        38.800          32.1004
 117310362.298 7  91410675.53745  22323414.862    22323414.5184   22323414.7654
        46.000          35.6004
 141551975.791 6                  26936446.541
        40.500
 107269258.862 8  83586474.44148  20412644.929    20412644.2454   20412644.4684
        49.600          51.6004
 109939216.198 8  85666939.35347  20920729.798    20920729.3874   20920730.1834
        48.400          47.9004
 124842902.387 6                  23338038.392    23338038.295
        39.600
 147940861.940 6                  28152159.060
        37.700
 129995520.625 7 101107673.884 6  24326888.890    24326889.895    24326895.661
        44.300          37.200
 140239792.629 6                  26686745.209
        41.600
 136282620.781 6 106194263.17544  25933718.759    25933717.9194   25933721.1004
        36.500          25.4004
 104831181.770 8  81535439.515 8  19603942.870    19603942.666    19603948.469
        52.300          48.000
 131242292.709 7 102077371.866 6  24586103.334    24586104.025    24586112.376
        42.000          39.600
 128480396.775 7  99929258.946 6  24051794.926    24051795.326    24051802.431
        45.000          38.800
 110865200.188 8  86228533.727 7  20717807.546    20717807.886    20717813.781
        51.300          47.000
 129457496.718 6 100689193.895 6  24183745.553    24183745.194    24183754.056
        37.900          38.800
 103999993.079 8  80888937.910 7  19455335.446    19455335.357    19455342.000
        50.000          42.600
 126092378.363 6  98071918.254 7  23546849.864    23546850.432    23546855.941
        41.500          42.200
 25  1  1  6 13 15.0000000  0 34G25E03E08S31S35G13E21E13S48S33R02G16
                                G20E15G23G05G11G26G18E07G29G15R23E27
                                R15E26G30R24R18R16R17R03R01R08
 131577555.856 6 102528046.91945  25038353.409    25038352.4884   25038357.2774
        38.100          30.6004
 134260948.983 7                  25548993.283
        44.000
 128559747.641 7                  24464097.835
        46.800
 198977129.121 7                  37864085.359
        45.600
 200949907.130 7                  38239503.914
        43.900
 110595341.194 7  86178212.90545  21045583.481    21045582.8784   21045582.8754
        47.400          35.0004
 139956166.048 6                  26632759.097
        41.800
 124396877.744 8                  23671916.584
        48.200
 412839338.716 5                  78560828.423
        33.000
 202116397.807 7                  38461445.187
        45.000
 107102408.738 8  83301916.559 8  20070940.562    20070941.007    20070946.536
        52.100          48.200
 132254046.430 6 103055112.89742  25167107.177    25167105.9934   25167106.7574
        36.400          14.1004
 122943744.073 7  95800373.38844  23395391.312    23395389.9804   23395390.7334
        42.100          26.4004
 131475643.342 7                  25018945.063
        45.600
 122347716.610 7  95335887.34145  23281995.054    23281994.6344   23281996.2814
        43.100          30.5004
 110581723.531 8  86167628.49048  21042981.699    21042981.2084   21042980.8934
        48.900          49.5004
 128923059.453 6 100459620.81943  24533212.376    24533212.0594   24533214.3074
        38.100          22.2004
 130531756.881 6 101713083.91345  24839365.734    24839365.1134   24839369.1184
        38.500          32.0004
 117275337.157 7  91383383.23845  22316749.468    22316749.0934   22316749.6824
        46.200          35.5004
 141505202.327 6                  26927545.736
        40.500
 107275249.632 8  83591142.55248  20413784.929    20413784.2504   20413784.5004
        49.600          51.5004
 109900761.353 8  85636974.57647  20913412.240    20913411.8254   20913412.3824
        48.500          47.8004
 124890998.402 6                  23347030.064    23347030.111
        41.000
 147982572.265 6                  28160095.765
        36.700
 130039054.235 7 101141533.387 6  24335035.635    24335035.260    24335042.344
        42.900          38.300
 140209594.063 6                  26680998.644
        41.000
 136269214.532 5 106183816.89144  25931167.660    25931166.8244   25931170.5534
        34.700          26.0004
 104839210.641 8  81541684.202 8  19605444.262    19605444.268    19605449.847
        52.300          48.000
 131188649.318 6 102035649.402 6  24576054.998    24576054.344    24576062.512
        37.800          36.700
 128492166.646 7  99938413.322 6  24053997.898    24053998.454    24054005.349
        44.800          39.600
 110823390.868 8  86196015.383 7  20709994.542    20709994.973    20710000.484
        51.200          46.900
 129391655.907 6 100637984.354 6  24171446.685    24171448.012    24171453.959
        40.400          37.800
 104020930.739 8  80905222.776 7  19459252.074    19459252.105    19459259.034
        50.100          43.000
 126154621.686 6  98120329.709 6  23558471.457    23558472.250    23558478.685
        40.400          41.500
 25  1  1  6 13 30.0000000  0 34G25E03E08S31S35G13E21E13S48S33R02G16
                                G20E15G23G05G11G26G18E07G29G15R23E27
                                R15E26G30R24R18R16R17R03R01R08
 131622792.668 6 102563296.36944  25046961.599    25046960.7104   25046965.3924
        37.300          29.9004
 134277372.669 7                  25552118.848
        43.900
 128535646.330 7                  24459511.537
        46.900
 198977119.948 7                  37864085.046
        45.700
 200949917.090 7                  38239507.304
        44.100
 110581998.233 7  86167815.80345  21043044.542    21043043.9394   21043043.7724
        47.400          35.3004
 139986487.592 7                  26638529.083
        42.300
 124387744.011 8                  23670178.531
        48.500
 412839090.870 5                  78560800.189
        33.100
 202116373.664 7                  38461438.099
        44.900
 107062252.502 8  83270683.934 8  20063415.402    20063415.888    20063421.332
        52.100          48.100
 132235233.843 6 103040453.77042  25163527.202    25163526.0264   25163526.6824
        36.700          14.1004
 122985863.199 7  95833193.46844  23403406.236    23403404.9084   23403405.6334
        42.300          26.4004
 131495680.354 7                  25022757.767
        45.500
 122307220.759 7  95304332.14045  23274289.066    23274288.6554   23274290.0264
        43.500          30.9004
 110612018.453 8  86191234.96448  21048746.569    21048746.0784   21048745.8124
        49.100          49.8004
 128963485.461 6 100491121.54243  24540905.349    24540905.0594   24540907.1704
        39.100          22.9004
 130540713.397 6 101720063.10145  24841069.394    24841068.7824   24841073.3834
        39.300          32.3004
 117240338.621 7  91356111.67845  22310089.489    22310089.1184   22310089.6474
        46.500          35.8004
 141458440.023 6                  26918647.397
        40.500
 107281389.161 8  83595926.58948  20414953.351    20414952.6674   20414952.8364
        49.800          51.8004
 109862425.390 8  85607102.44948  20906117.092    20906116.6864   20906117.2384
        48.500          48.1004
 124939155.881 6                  23356032.218    23356031.734
        40.200
 148024258.102 6                  28168028.681
        37.000
 130082648.988 7 101175440.415 6  24343194.565    24343193.963    24343200.627
        43.200          36.900
 140179394.033 6                  26675251.881
        41.900
 136255902.064 5 106173443.74644  25928634.382    25928633.5424   25928637.1604
        35.500          24.9004
 104847363.250 8  81548025.101 7  19606968.667    19606968.658    19606974.384
        52.400          47.900
 131134973.551 7 101993901.656 6  24565998.516    24565999.288    24566007.053
        43.200          40.000
 128504101.470 7  99947695.931 6  24056231.802    24056232.539    24056240.534
        45.000          39.400
 110781633.038 8  86163537.048 7  20702191.348    20702191.424    20702196.962
        51.200          46.900
 129325834.472 6 100586789.887 6  24159150.283    24159151.185    24159158.383
        40.500          38.400
 104042045.129 8  80921645.065 7  19463202.244    19463202.153    19463208.626
        50.400          42.800
 126216898.457 6  98168767.249 6  23570101.414    23570102.775    23570108.137
        41.000          41.100
 25  1  1  6 13 45.0000000  0 34G25E03E08S31S35G13E21E13S48S33R02G16
                                G20E15G23G05G11G26G18E07G29G15R23E27
                                R15E26G30R24R18R16R17R03R01R08
 131668001.938 6 102598524.36044  25055564.557    25055563.6234   25055568.1904
        37.800          28.9004
 134293893.421 7                  25555262.293
        44.000
 128511634.921 7                  24454942.355
        47.000
 198977109.434 7                  37864079.818
        45.300
 200949924.269 7                  38239510.286
        43.700
 110568809.973 7  86157539.24645  21040534.904    21040534.3054   21040534.1234
        47.500          35.1004
 140016866.907 6                  26644310.314
        41.900
 124378635.750 8                  23668445.167
        48.500
 412838841.787 5                  78560764.966
        32.200
 202116346.797 7                  38461434.812
        44.800
 107022247.673 8  83239569.075 8  20055918.626    20055918.806    20055924.451
        52.400          48.200
 132216549.351 6 103025894.44342  25159970.948    25159969.7324   25159971.2104
        36.400          13.1004
 123027990.004 7  95866019.55444  23411422.736    23411421.3954   23411422.1664
        42.100          26.5004
 131515744.802 7                  25026576.274
        45.500
 122266773.514 7  95272814.82145  23266592.234    23266591.8284   23266593.3214
        43.300          30.6004
 110642376.375 8  86214890.48748  21054523.348    21054522.8574   21054522.6834
        49.200          49.6004
 129003937.839 6 100522642.80843  24548602.421    24548602.1134   24548604.9754
        39.000          22.7004
 130549782.940 6 101727130.34745  24842794.543    24842793.9224   24842798.8164
        39.500          31.9004
 117205364.571 7  91328859.19045  22303433.887    22303433.4984   22303434.2994
        46.200          35.8004
 141411686.984 6                  26909750.848
        40.800
 107287675.360 8  83600824.90948  20416149.524    20416148.8404   20416149.0764
        49.800          51.7004
 109824206.348 8  85577321.38448  20898844.195    20898843.7934   20898844.3594
        48.500          48.1004
 124987372.833 6                  23365046.741    23365046.310
        40.800
 148065917.069 6                  28175955.934
        37.500
 130126302.398 7 101209393.078 6  24351363.169    24351363.367    24351369.714
        43.700          37.600
 140149190.387 6                  26669503.805
        41.700
 136242681.333 5 106163141.99144  25926117.620    25926116.7754   25926121.1534
        34.900          25.5004
 104855637.493 8  81554460.596 7  19608516.085    19608515.937    19608521.798
        52.600          47.900
 131081262.833 6 101952126.555 6  24555936.785    24555937.408    24555945.388
        40.600          39.500
 128516198.781 7  99957104.941 6  24058497.417    24058497.528    24058504.499
        45.100          38.800
 110739925.113 8  86131097.596 7  20694397.370    20694397.408    20694402.950
        51.500          46.900
 129260030.779 6 100535609.210 6  24146857.981    24146858.252    24146865.531
        38.500          38.900
 104063333.738 8  80938202.882 7  19467184.488    19467184.509    19467191.241
        49.900          42.600
 126279205.614 6  98217228.395 7  23581737.698    23581738.250    23581744.457
        40.900          42.200
 25  1  1  6 14  0.0000000  0 34G25E03E08S31S35G13E21E13S48S33R02G16
                                G20E15G23G05G11G26G18E07G29G15R23E27
                                R15E26G30R24R18R16R17R03R01R08
 131713189.686 6 102633735.58644  25064164.055    25064163.1214   25064166.8174
        38.100          29.6004
 134310517.591 7                  25558425.603
        44.100
 128487720.046 7                  24450391.442
        47.100
 198977102.590 7                  37864083.432
        45.700
 200949935.844 7                  38239514.011
        44.300
 110555783.181 7  86147388.50945  21038056.114    21038055.5204   21038055.2344
        47.600          34.8004
 140047310.265 6                  26650103.134
        41.700
 124369559.474 8                  23666717.964
        48.300
 412838596.698 5                  78560732.001
        32.300
 202116324.061 7                  38461431.942
        44.800
 106982401.162 8  83208577.362 8  20048451.361    20048451.711    20048457.352
        52.500          48.300
 132197999.303 6 103011439.88242  25156441.162    25156439.9554   25156441.1234
        36.400          12.9004
 123070130.962 7  95898856.67244  23419442.189    23419440.8264   23419441.4894
        42.000          26.1004
 131535843.195 7                  25030400.517
        45.600
 122226381.387 7  95241340.44445  23258905.603    23258905.1834   23258906.9694
        43.500          30.3004
 110672803.373 8  86238599.83948  21060313.472    21060312.9764   21060312.7504
        49.200          49.3004
 129044423.077 6 100554189.67643  24556306.787    24556306.4574   24556309.1734
        37.800          21.9004
 130558971.758 6 101734290.55145  24844543.658    24844543.0504   24844547.2484
        40.300          32.0004
 117170421.611 7  91301630.92345  22296785.008    22296784.6334   22296784.9344
        46.000          35.5004
 141364949.839 6                  26900856.764
        40.100
 107294114.662 8  83605842.53748  20417374.987    20417374.2944   20417374.4534
        49.900          51.4004
 109786111.087 8  85547636.74647  20891594.973    20891594.5714   20891595.0904
        48.700          47.9004
 125035655.457 6                  23374071.315    23374072.853
        40.500
 148107555.430 6                  28183879.613
        37.400
 130170020.433 7 101243395.994 6  24359543.846    24359544.143    24359550.695
        43.100          37.400
 140118989.544 6                  26663756.966
        41.300
 136229558.949 5 106152916.73644  25923621.641    25923620.8194   25923623.6714
        35.900          25.2004
 104864040.446 8  81560996.240 7  19610087.445    19610087.525    19610093.194
        52.300          47.600
 131027524.076 6 101910329.547 6  24545869.756    24545870.583    24545878.966
        39.700          37.900
 128528464.939 7  99966645.292 6  24060794.018    24060793.585    24060801.147
        45.900          39.000
 110698273.381 8  86098701.828 7  20686613.128    20686613.745    20686619.175
        51.200          46.900
 129194251.844 6 100484447.809 6  24134569.542    24134569.830    24134577.749
        38.900          38.500
 104084802.893 8  80954901.123 7  19471200.253    19471200.572    19471207.371
        50.000          42.800
 126341549.614 6  98265718.208 6  23593381.435    23593380.625    23593386.063
        41.000          41.200
 25  1  1  6 14 15.0000000  0 34G25E03E08S31S35G13E21E13S48S33R02G16
                                G20E15G23G05G11G26G18E07G29G15R23E27
                                R15E26G30R24R18R16R17R03R01R08
 131758349.145 6 102668924.76244  25072757.291    25072756.3524   25072760.7564
        37.700          29.6004
 134327238.587 7                  25561607.988
        44.400
 128463895.338 7                  24445857.474
        46.900
 198977094.546 7                  37864079.112
        45.700
 200949945.577 7                  38239512.057
        44.200
 110542911.551 7  86137358.68045  21035606.693    21035606.0994   21035605.8054
        47.200          34.8004
 140077810.847 6                  26655907.310
        41.800
 124360508.767 8                  23664995.604
        48.300
 412838348.857 5                  78560705.207
        33.100
 202116300.127 7                  38461427.063
        45.100
 106942706.547 8  83177703.790 8  20041012.306    20041013.001    20041018.378
        52.400          48.200
 132179577.397 6 102997085.15342  25152936.236    25152935.0604   25152935.5594
        36.000          14.1004
 123112279.314 6  95931699.52344  23427462.692    23427461.3384   23427462.0154
        41.500          26.0004
 131555969.073 7                  25034230.357
        45.400
 122186037.989 7  95209904.04845  23251228.903    23251228.4834   23251229.7124
        43.800          30.4004
 110703292.978 8  86262357.98048  21066115.562    21066115.0754   21066114.7394
        49.100          49.3004
 129084934.580 6 100585757.03543  24564015.901    24564015.6154   24564018.2064
        39.500          22.3004
 130568273.154 6 101741538.45545  24846313.601    24846312.9894   24846317.0224
        39.600          32.2004
 117135503.383 7  91274421.92645  22290139.822    22290139.4424   22290140.2904
        46.900          35.6004
 141318222.310 6                  26891965.154
        41.000
 107300700.600 8  83610974.43248  20418628.073    20418627.3804   20418627.7194
        50.300          51.5004
 109748133.416 8  85518043.74348  20884367.893    20884367.4914   20884368.2194
        48.800          48.0004
 125083996.938 6                  23383109.515    23383109.890
        41.300
 148149166.411 6                  28191797.939
        37.500
 130213795.827 7 101277443.527 6  24367736.701    24367736.679    24367743.459
        44.500          38.000
 140088785.001 6                  26658009.636
        41.600
 136216528.765 5 106142763.33644  25921141.900    25921141.0644   25921144.1074
        35.500          24.7004
 104872565.464 8  81567626.800 7  19611681.607    19611681.533    19611687.488
        52.200          47.600
 130973752.471 6 101868507.857 6  24535796.887    24535796.849    24535804.597
        41.800          40.800
 128540893.167 7  99976311.669 6  24063119.933    24063120.068    24063125.671
        44.900          37.700
 110656672.056 8  86066345.246 7  20678839.437    20678839.417    20678844.982
        51.600          46.800
 129128491.186 6 100433300.645 6  24122285.885    24122285.143    24122293.133
        40.300          38.600
 104106445.549 8  80971734.298 7  19475249.384    19475249.286    19475256.273
        50.100          42.800
 126403923.062 6  98314230.886 6  23605028.355    23605029.135    23605034.018
        41.700          41.100
 25  1  1  6 14 30.0000000  0 34G25E03E08S31S35G13E21E13S48S33R02G16
                                G20E15G23G05G11G26G18E07G29G15R23E27
                                R15E26G30R24R18R16R17R03R01R08
 131803479.644 6 102704091.37644  25081344.918    25081343.9664   25081348.9324
        38.100          29.7004
 134344056.003 7                  25564808.045
        44.500
 128440160.690 7                  24441341.288
        47.000
 198977083.577 7                  37864079.152
        45.800
 200949952.987 7                  38239517.258
        44.200
 110530194.964 7  86127449.65845  21033186.889    21033186.2954   21033185.7854
        47.000          34.9004
 140108368.180 6                  26661722.543
        41.500
 124351483.402 8                  23663278.223
        48.400
 412838099.460 5                  78560675.203
        32.400
 202116272.834 7                  38461423.137
        45.000
 106903163.869 8  83146948.352 8  20033602.053    20033602.217    20033608.157
        52.100          48.500
 132161283.648 5 102982830.33142  25149454.079    25149452.9264   25149454.4014
        35.300          13.9004
 123154434.699 6  95964547.86044  23435484.294    23435482.9574   23435483.8684
        41.700          26.0004
 131576122.239 7                  25038065.685
        46.000
 122145743.076 7  95178505.43045  23243560.831    23243560.4204   23243561.9434
        43.500          30.5004
 110733844.493 8  86286164.35348  21071929.281    21071928.7944   21071928.5054
        48.800          49.3004
 129125472.133 6 100617344.65943  24571729.646    24571729.3334   24571732.5914
        39.100          22.4004
 130577686.752 6 101748873.78245  24848104.797    24848104.1894   24848108.8684
        38.900          32.4004
 117100609.725 7  91247232.06345  22283499.577    22283499.1844   22283500.2484
        46.000          35.6004
 141271504.376 6                  26883074.488
        40.700
 107307432.838 8  83616220.32448  20419909.286    20419908.5894   20419908.8484
        49.800          51.5004
 109710273.428 8  85488542.49247  20877163.502    20877163.1004   20877163.7204
        48.400          47.9004
 125132397.017 6                  23392155.614    23392156.832
        40.700
 148190749.550 6                  28199710.807
        38.000
 130257627.767 7 101311535.066 6  24375938.606    24375939.754    24375945.036
        43.100          36.500
 140058576.501 6                  26652261.095
        41.900
 136203590.628 5 106132681.55444  25918679.637    25918678.8014   25918682.3364
        35.600          25.7004
 104881212.197 8  81574352.014 7  19613298.800    19613298.799    19613304.440
        52.900          47.700
 130919945.048 6 101826657.460 6  24525717.064    24525716.761    24525724.965
        40.200          38.000
 128553483.204 7  99986103.900 6  24065477.363    24065477.015    24065484.434
        44.400          39.000
 110615121.134 8  86034027.893 7  20671074.194    20671074.561    20671080.295
        51.400          47.100
 129062749.127 6 100382167.913 6  24110005.087    24110004.802    24110011.222
        40.100          38.500
 104128261.017 8  80988701.884 7  19479330.017    19479330.344    19479337.111
        49.900          42.700
 126466325.456 6  98362766.045 7  23616681.231    23616682.000    23616687.674
        40.700          42.200
 25  1  1  6 14 45.0000000  0 34G25E03E08S31S35G13E21E13S48S33R02G16
                                G20E15G23G05G11G26G18E07G29G15R23E27
                                R15E26G30R24R18R16R17R03R01R08
 131848584.433 6 102739237.95244  25089928.116    25089927.1604   25089932.0874
        37.700          29.3004
 134360973.149 7                  25568026.867
        44.200
 128416519.709 7                  24436842.523
        47.200
 198977073.963 7                  37864073.505
        45.700
 200949961.570 7                  38239518.228
        44.500
 110517636.914 7  86117664.17545  21030796.730    21030796.1364   21030796.0514
        47.400          34.7004
 140138985.487 7                  26667548.694
        42.000
 124342486.932 8                  23661566.190
        48.500
 412837851.377 5                  78560648.744
        32.800
 202116248.056 7                  38461414.077
        45.200
 106863776.962 8  83116314.076 8  20026221.372    20026221.580    20026227.020
        52.500          48.000
 132143121.644 6 102968678.14142  25145998.245    25145997.1324   25145998.3514
        36.700          14.4004
 123196600.556 6  95997404.37844  23443508.314    23443506.9734   23443507.7524
        41.600          25.8004
 131596306.191 7                  25041906.150
        45.900
 122105500.202 7  95147147.36745  23235902.910    23235902.5134   23235903.7444
        43.900          30.3004
 110764461.312 8  86310021.60048  21077755.510    21077755.0284   21077754.7124
        49.200          49.2004
 129166039.104 6 100648955.22143  24579449.506    24579449.1714   24579452.1284
        39.200          21.8004
 130587215.774 6 101756299.03745  24849918.146    24849917.5344   24849922.2594
        39.000          32.1004
 117065744.260 7  91220064.17745  22276865.404    22276865.0114   22276865.4964
        46.500          35.5004
 141224799.745 6                  26874187.121
        40.500
 107314314.953 8  83621583.01048  20421219.054    20421218.3574   20421218.5014
        49.600          51.5004
 109672534.650 8  85459135.63747  20869982.144    20869981.7474   20869982.2674
        48.400          47.9004
 125180859.344 6                  23401217.093    23401217.113
        41.100
 148232308.106 6                  28207618.900
        37.100
 130301519.368 7 101345672.959 6  24384153.196    24384152.707    24384158.776
        43.200          36.800
 140028367.524 6                  26646512.652
        41.800
 136190748.270 6 106122674.35144  25916236.245    25916235.4004   25916238.4824
        36.200          25.6004
 104889984.592 8  81581175.002 7  19614938.886    19614939.236    19614944.868
        52.500          47.600
 130866107.772 7 101784784.379 6  24515630.876    24515631.875    24515639.131
        42.900          38.300
 128566237.998 7  99996024.344 6  24067864.293    24067864.884    24067871.448
        45.500          38.200
 110573624.166 8  86001752.466 7  20663319.837    20663320.074    20663325.218
        51.500          46.700
 128997029.597 6 100331052.734 6  24097726.862    24097726.594    24097735.183
        40.100          39.000
 104150252.664 8  81005806.489 7  19483444.288    19483444.344    19483451.134
        50.200          42.800
 126528759.946 6  98411326.199 7  23628340.832    23628340.494    23628347.077
        40.800          42.100
 25  1  1  6 15  0.0000000  0 34G25E03E08S31S35G13E21E13S48S33R02G16
                                G20E15G23G05G11G26G18E07G29G15R23E27
                                R15E26G30R24R18R16R17R03R01R08
 131893663.702 6 102774364.64344  25098506.125    25098505.1694   25098510.3224
        38.300          28.6004
 134377990.507 7                  25571265.522
        44.300
 128392973.129 7                  24432361.593
        47.200
 198977066.121 7                  37864070.531
        45.800
 200949971.858 7                  38239518.031
        44.300
 110505238.176 7  86108002.82845  21028437.464    21028436.8704   21028436.6534
        47.100          34.6004
 140169663.116 7                  26673386.237
        42.100
 124333519.994 8                  23659859.959
        48.500
 412837605.821 5                  78560621.051
        32.700
 202116223.802 7                  38461410.599
        45.000
 106824546.906 8  83085801.838 8  20018869.237    20018869.701    20018875.498
        52.000          48.300
 132125092.085 6 102954629.13842  25142567.208    25142566.1044   25142567.6604
        37.300          14.9004
 123238777.253 6  96030269.33044  23451534.335    23451533.0074   23451533.6764
        41.800          25.6004
 131616521.549 7                  25045753.275
        45.800
 122065310.003 7  95115830.34045  23228254.990    23228254.5884   23228255.7674
        43.800          30.1004
 110795143.732 8  86333929.92448  21083594.051    21083593.5694   21083593.4124
        49.100          48.9004
 129206636.085 6 100680589.17643  24587175.621    24587175.2734   24587177.5754
        37.800          21.7004
 130596860.638 6 101763814.53045  24851753.793    24851753.1724   24851757.4894
        39.900          31.9004
 117030907.685 7  91192918.79545  22270235.858    22270235.4474   22270236.3704
        46.400          35.5004
 141178109.195 6                  26865302.315
        40.700
 107321347.567 8  83627062.96548  20422557.449    20422556.7704   20422556.7644
        50.100          51.4004
 109634918.158 8  85429824.02847  20862823.825    20862823.4284   20862824.1114
        48.600          47.7004
 125229384.095 6                  23410287.812    23410287.464
        41.200
 148273842.389 6                  28215522.889
        37.200
 130345470.559 7 101379857.221 6  24392377.653    24392377.582    24392384.107
        43.500          37.300
 139998158.703 6                  26640763.849
        41.900
 136178002.597 5 106112742.51144  25913810.870    25913810.0214   25913813.3924
        35.500          25.3004
 104898883.229 8  81588096.157 7  19616603.269    19616603.390    19616609.099
        52.400          47.700
 130812240.172 7 101742887.588 6  24505539.218    24505539.825    24505547.819
        42.400          38.700
 128579158.071 7 100006073.318 6  24070283.756    24070283.648    24070290.364
        45.400          38.200
 110532182.541 8  85969520.123 7  20655575.435    20655575.519    20655581.115
        51.300          46.800
 128931333.630 6 100279955.839 6  24085454.167    24085456.171    24085462.345
        41.400          38.600
 104172420.427 8  81023048.083 7  19487591.290    19487591.273    19487598.179
        50.000          42.800
 126591226.442 6  98459911.177 6  23640005.021    23640005.209    23640011.264
        40.300          40.900
 25  1  1  6 15 15.0000000  0 34G25E03E08S31S35G13E21E13S48S33R02G16
                                G20E15G23G05G11G26G18E07G29G15R23E27
                                R15E26G30R24R18R16R17R03R01R08
 131938711.104 6 102809466.50144  25107078.425    25107077.4464   25107082.8654
        37.000          29.1004
 134395101.924 7                  25574521.488
        44.200
 128369515.052 7                  24427897.754
        47.200
 198977054.025 7                  37864070.589
        45.700
 200949978.050 7                  38239520.222
        44.300
 110492992.878 7  86098461.04345  21026107.472    21026106.8874   21026106.4514
        46.700          34.7004
 140200394.748 6                  26679234.041
        41.700
 124324576.567 8                  23658158.161
        48.700
 412837355.240 5                  78560602.534
        33.000
 202116195.775 7                  38461405.219
        45.100
 106785467.482 8  83055406.750 8  20011546.162    20011546.167    20011551.964
        52.500          48.300
 132107188.916 6 102940678.60242  25139161.007    25139159.8944   25139160.7354
        36.300          14.2004
 123280958.732 7  96063138.05044  23459561.187    23459559.8684   23459560.7214
        42.200          26.0004
 131636762.311 7                  25049605.039
        45.800
 122025166.496 7  95084549.69845  23220615.850    23220615.4444   23220616.8364
        43.200          30.4004
 110825885.232 8  86357884.32448  21089444.117    21089443.6354   21089443.3904
        48.900          49.1004
 129247257.018 6 100712241.79043  24594905.765    24594905.4214   24594907.4954
        38.500          21.1004
 130606615.180 6 101771415.49245  24853609.463    24853608.8294   24853613.3024
        39.100          31.8004
 116996094.099 7  91165791.34045  22263611.217    22263610.8204   22263611.5674
        45.600          35.6004
 141131426.902 6                  26856418.819
        40.200
 107328524.463 8  83632655.34548  20423922.941    20423922.2574   20423922.4874
        49.700          51.6004
 109597418.231 8  85400603.24347  20855688.001    20855687.5994   20855688.1844
        48.600          47.9004
 125277965.167 6                  23419370.252    23419369.155
        41.000
 148315346.141 6                  28223420.946
        38.000
 130389474.947 7 101414082.869 6  24400612.077    24400612.410    24400618.899
        42.700          36.100
 139967944.058 6                  26635014.224
        41.700
 136165347.715 5 106102881.39844  25911402.578    25911401.7424   25911405.7364
        35.500          25.7004
 104907901.970 8  81595110.725 7  19618289.596    19618289.903    19618295.558
        52.300          47.700
 130758336.492 6 101700962.782 6  24495440.762    24495441.395    24495449.442
        41.200          38.700
 128592236.910 7 100016245.727 6  24072732.047    24072732.353    24072738.778
        45.000          37.600
 110490790.375 8  85937326.233 7  20647839.563    20647840.413    20647846.075
        51.600          47.100
 128865655.046 6 100228872.511 6  24073185.159    24073185.006    24073192.929
        38.400          38.500
 104194757.765 8  81040421.572 7  19491769.892    19491769.951    19491776.683
        50.100          42.800
 126653718.711 6  98508516.286 6  23651675.525    23651676.028    23651681.797
        40.200          41.500
 25  1  1  6 15 30.0000000  0 34G25E03E08S31S35G13E21E13S48S33R02G16
                                G20E15G23G05G11G26G18E07G29G15R23E27
                                R15E26G30R24R18R16R17R03R01R08
 131983733.956 6 102844549.24444  25115646.157    25115645.1744   25115650.9504
        37.500          29.1004
 134412314.920 7                  25577797.113
        43.900
 128346153.340 7                  24423451.923
        46.500
 198977045.545 7                  37864069.283
        45.700
 200949987.047 7                  38239523.066
        44.400
 110480908.892 7  86089044.96745  21023807.742    21023807.1614   21023807.0664
        47.000          34.8004
 140231187.819 6                  26685093.848
        41.200
 124315664.453 8                  23656461.975
        48.200
 412837108.313 5                  78560569.797
        33.000
 202116170.878 7                  38461402.031
        45.100
 106746547.073 8  83025135.325 8  20004252.279    20004252.562    20004258.144
        52.100          48.200
 132089420.044 5 102926832.78242  25135779.152    25135778.0574   25135779.3564
        35.000          13.6004
 123323152.503 6  96096016.31544  23467590.307    23467588.9754   23467589.8014
        41.800          26.1004
 131657036.205 7                  25053462.986
        45.400
 121985077.421 7  95053311.46745  23212987.342    23212986.9404   23212988.0424
        43.600          30.5004
 110856693.400 8  86381890.68348  21095306.689    21095306.2024   21095305.9924
        48.900          49.2004
 129287909.552 6 100743919.04343  24602641.091    24602640.7384   24602643.4514
        38.400          21.5004
 130616486.876 6 101779107.76345  24855488.193    24855487.5634   24855492.0724
        39.200          32.1004
 116961311.277 7  91138687.84745  22256992.563    22256992.1884   22256992.5864
        46.000          35.7004
 141084760.728 6                  26847538.263
        40.500
 107335853.412 8  83638366.21048  20425317.772    20425317.0974   20425317.1464
        49.800          51.8004
 109560042.989 8  85371479.61848  20848575.641    20848575.2354   20848576.0374
        48.600          48.0004
 125326610.074 6                  23428463.451    23428462.736
        40.200
 148356826.866 6                  28231314.267
        36.800
 130433539.559 7 101448355.376 6  24408858.326    24408858.815    24408864.947
        44.100          36.900
 139937731.181 6                  26629264.733
        41.800
 136152791.526 5 106093097.16444  25909013.597    25909012.7664   25909016.4324
        35.100          25.2004
 104917048.950 8  81602225.031 7  19620000.350    19620000.500    19620006.137
        52.200          47.500
 130704404.396 7 101659015.720 6  24485338.107    24485338.488    24485346.030
        43.100          40.600
 128605482.169 7 100026547.611 6  24075210.254    24075210.701    24075218.508
        45.600          38.100
 110449455.434 8  85905176.824 7  20640115.711    20640116.132    20640121.544
        51.900          46.800
 128800002.407 6 100177809.294 6  24060921.709    24060922.292    24060928.404
        40.300          38.600
 104217272.461 8  81057933.003 7  19495981.758    19495981.794    19495988.629
        49.900          42.600
 126716243.874 6  98557146.923 6  23663351.576    23663352.181    23663358.294
        40.000          41.600
 25  1  1  6 15 45.0000000  0 34G25E03E08S31S35G13E21E13S48S33R02G16
                                G20E15G23G05G11G26G18E07G29G15R23E27
                                R15E26G30R24R18R16R17R03R01R08
 132028723.916 6 102879606.32044  25124207.498    25124206.5154   25124212.2164
        37.000          29.1004
 134429621.294 7                  25581090.361
        44.000
 128322879.999 7                  24419023.426
        46.800
 198977031.931 7                  37864066.363
        45.700
 200949991.946 7                  38239518.599
        44.300
 110468978.222 7  86079748.34745  21021537.415    21021536.8304   21021536.7304
        47.400          34.8004
 140262034.045 7                  26690963.987
        42.000
 124306775.662 8                  23654770.658
        48.500
 412836857.314 5                  78560527.572
        32.300
 202116141.183 7                  38461393.334
        44.800
 106707777.631 8  82994981.314 8  19996987.005    19996987.114    19996992.813
        51.900          48.300
 132071777.607 5 102913085.45742  25132421.656    25132420.6014   25132422.1164
        34.900          13.5004
 123365350.480 6  96128897.89544  23475620.066    23475618.7524   23475619.8654
        40.900          25.7004
 131677335.186 7                  25057325.722
        45.500
 121945034.748 7  95022109.40745  23205367.565    23205367.1764   23205368.2994
        43.200          30.4004
 110887560.454 8  86405942.93648  21101180.385    21101179.8984   21101179.8174
        48.900          49.1004
 129328585.501 6 100775614.52143  24610381.536    24610381.1834   24610384.2324
        38.600          21.5004
 130626467.414 6 101786884.83945  24857388.095    24857387.4694   24857391.3004
        38.600          31.7004
 116926551.339 7  91111602.20745  22250377.503    22250377.1234   22250377.9974
        45.800          35.6004
 141038102.893 6                  26838659.536
        40.400
 107343326.360 8  83644189.28748  20426739.758    20426739.0884   20426739.2204
        50.100          51.7004
 109522784.697 8  85342447.18147  20841485.628    20841485.2174   20841486.0834
        48.300          47.9004
 125375310.434 6                  23437567.336    23437567.273
        40.900
 148398276.204 6                  28239201.854
        36.600
 130477655.551 7 101482667.812 6  24417113.962    24417113.967    24417120.300
        43.000          37.100
 139907512.108 6                  26623514.325
        41.200
 136140326.407 5 106083384.06044  25906641.971    25906641.1624   25906643.9724
        35.000          24.4004
 104926316.171 8  81609432.863 7  19621733.525    19621733.491    19621739.088
        52.500          47.600
 130650435.979 6 101617040.342 6  24475227.241    24475228.216    24475235.843
        41.500          40.000
 128618885.263 7 100036972.271 6  24077719.849    24077720.305    24077727.119
        45.700          38.800
 110408170.286 8  85873066.149 7  20632400.521    20632400.991    20632406.631
        52.500          46.800
 128734367.831 6 100126760.163 6  24048660.190    24048659.725    24048667.143
        40.100          38.400
 104239955.877 8  81075575.653 7  19500224.969    19500225.038    19500232.096
        49.700          42.600
 126778793.290 6  98605796.462 6  23675031.851    23675031.603    23675038.347
        39.200          41.600
 25  1  1  6 16  0.0000000  0 34G25E03E08S31S35G13E21E13S48S33R02G16
                                G20E15G23G05G11G26G18E07G29G15R23E27
                                R15E26G30R24R18R16R17R03R01R08
 132073690.779 6 102914645.43344  25132764.587    25132763.6134   25132768.7374
        37.100          28.6004
 134447031.174 7                  25584403.444
        44.300
 128299705.466 7                  24414613.325
        47.000
 198977024.245 7                  37864063.184
        45.300
 200950002.018 7                  38239524.448
        44.000
 110457211.349 7  86070579.36045  21019297.915    21019297.3214   21019297.5384
        47.400          34.7004
 140292943.367 6                  26696845.852
        41.800
 124297920.415 8                  23653085.421
        48.400
 412838212.616 5                  78560502.982
        32.500
 202116117.486 7                  38461391.058
        44.800
 106669169.954 8  82964953.151 8  19989751.822    19989752.091    19989757.589
        52.200          48.200
 132054271.804 6 102899444.57242  25129090.587    25129089.5014   25129090.8654
        36.600          14.5004
 123407562.469 6  96161790.34344  23483653.364    23483652.0544   23483652.3924
        41.100          25.6004
 131697669.561 7                  25061195.485
        46.000
 121905048.764 7  94990951.50345  23197758.491    23197758.1024   23197759.1724
        43.400          30.5004
 110918496.096 8  86430048.62448  21107067.505    21107067.0144   21107066.6814
        48.600          49.0004
 129369295.237 6 100807336.33643  24618128.276    24618127.8964   24618131.1804
        37.800          21.4004
 130636566.920 6 101794754.62545  24859309.366    24859308.7274   24859313.3014
        38.800          31.9004
 116891824.581 7  91084542.41845  22243769.497    22243769.1174   22243769.6994
        45.400          35.7004
 140991463.787 6                  26829784.766
        40.600
 107350953.532 8  83650132.53148  20428191.119    20428190.4444   20428190.6374
        49.900          51.7004
 109485653.823 8  85313514.03948  20834420.023    20834419.6124   20834420.3524
        48.300          48.0004
 125424076.679 6                  23446684.286    23446684.370
        40.800
 148439704.201 6                  28247085.692
        37.200
 130521832.970 7 101517028.073 6  24425380.564    24425381.322    24425388.040
        42.800          36.300
 139877297.012 6                  26617764.950
        41.700
 136127962.335 5 106073749.58144  25904289.119    25904288.3064   25904291.1744
        35.700          25.7004
 104935713.919 8  81616742.234 7  19623490.421    19623490.892    19623496.583
        52.300          47.500
 130596441.904 6 101575045.066 6  24465112.896    24465113.182    24465120.679
        40.400          39.400
 128632456.529 7 100047527.644 6  24080260.398    24080260.978    24080267.770
        45.900          38.000
 110366945.527 8  85841002.466 7  20624696.726    20624696.971    20624702.616
        52.000          46.900
 128668761.780 6 100075733.230 6  24036404.735    24036404.586    24036412.049
        40.300          38.800
 104262818.006 8  81093357.304 7  19504501.813    19504502.069    19504508.904
        49.900          42.800
 126841377.063 6  98654472.687 6  23686719.419    23686720.125    23686725.295
        40.600          40.900
 25  1  1  6 16 15.0000000  0 34G25E03E08S31S35G13E21E13S48S33R02G16
                                G20E15G23G05G11G26G18E07G29G15R23E27
                                R15E26G30R24R18R16R17R03R01R08
 132118629.218 6 102949662.39444  25141316.238    25141315.2554   25141319.9284
        36.700          28.3004
 134464539.276 7                  25587735.105
        44.200
 128276624.715 7                  24410221.055
        46.900
 198977016.913 7                  37864066.605
        45.400
 200950012.252 7                  38239525.177
        44.100
 110445603.102 7  86061533.98345  21017088.870    21017088.2674   21017088.5344
        47.100          34.8004
 140323910.422 6                  26702738.640
        41.800
 124289093.691 8                  23651405.866
        48.500
 412837968.588 5                  78560470.715
        33.100
 202116093.617 7                  38461393.199
        45.000
 106630719.203 8  82935047.051 8  19982546.139    19982546.313    19982552.034
        52.300          48.300
 132036897.567 6 102885906.23942  25125784.646    25125783.5694   25125784.6274
        36.600          15.0004
 123449783.382 6  96194689.75544  23491687.453    23491686.1484   23491686.6644
        41.300          26.1004
 131718034.220 7                  25065070.381
        45.600
 121865114.438 7  94959833.86145  23190159.036    23190158.6344   23190159.9044
        43.400          30.7004
 110949494.813 8  86454203.49748  21112966.324    21112965.8424   21112965.5294
        49.000          49.2004
 129410033.446 6 100839080.35743  24625879.804    24625879.4334   24625883.0684
        38.800          21.6004
 130646780.000 6 101802712.89745  24861252.575    24861251.9454   24861256.2534
        39.500          32.2004
 116857125.980 7  91057504.55745  22237166.376    22237165.9924   22237166.9144
        46.300          35.9004
 140944838.585 6                  26820912.305
        40.900
 107358729.804 8  83656191.96048  20429670.951    20429670.2764   20429670.4094
        49.800          51.9004
 109448645.346 8  85284676.28448  20827377.611    20827377.2094   20827377.8594
        48.000          48.1004
 125472903.390 6                  23455811.350    23455811.381
        41.500
 148481105.499 6                  28254963.537
        36.600
 130566066.233 7 101551431.692 6  24433658.446    24433658.644    24433665.187
        44.100          37.300
 139847080.829 6                  26612014.689
        41.300
 136115694.834 5 106064190.44544  25901954.071    25901953.2584   25901957.1534
        35.900          26.5004
 104945237.344 8  81624149.325 7  19625271.385    19625271.801    19625277.478
        52.400          47.300
 130542416.998 7 101533025.842 6  24454991.402    24454991.911    24454999.497
        43.000          38.700
 128646190.211 7 100058209.354 6  24082831.566    24082831.651    24082838.305
        44.800          38.000
 110325776.101 8  85808981.788 7  20617003.554    20617003.782    20617008.742
        51.900          46.800
 128603180.005 6 100024725.139 6  24024153.175    24024152.944    24024160.438
        40.300          39.800
 104285853.332 8  81111273.637 7  19508811.225    19508811.117    19508818.135
        49.700          42.900
 126903989.413 6  98703171.162 6  23698411.946    23698412.018    23698417.622
        39.900          41.600
 25  1  1  6 16 30.0000000  0 34G25E03E08S31S35G13E21E13S48S33R02G16
                                G20E15G23G05G11G26G18E07G29G15R23E27
                                R15E26G30R24R18R16R17R03R01R08
 132163539.208 6 102984657.18744  25149861.990    25149861.0114   25149866.2774
        36.600          28.9004
 134482145.879 7                  25591085.434
        44.200
 128253638.264 7                  24405847.041
        46.500
 198977009.890 7                  37864061.923
        45.600
 200950024.026 7                  38239531.942
        44.400
 110434154.148 7  86052612.72645  21014910.441    21014909.8334   21014909.9024
        47.000          35.0004
 140354935.405 6                  26708642.605
        41.200
 124280295.916 8                  23649731.639
        48.200
 412837725.076 5                  78560449.296
        33.400
 202116070.921 7                  38461382.392
        44.900
 106592425.853 8  82905263.388 8  19975370.412    19975370.365    19975375.769
        52.500          48.100
 132019655.449 6 102872470.85142  25122503.145    25122502.0234   25122503.7764
        36.700          14.5004
 123492013.394 6  96227596.21844  23499724.064    23499722.7814   23499722.9254
        41.000          26.1004
 131738429.580 7                  25068951.663
        45.200
 121825232.199 7  94928756.80645  23182570.078    23182569.6674   23182570.6624
        44.200          31.0004
 110980557.001 8  86478407.81948  21118877.083    21118876.5964   21118876.4464
        48.800          49.4004
 129450800.553 6 100870846.88043  24633637.925    24633637.5594   24633640.5824
        38.000          21.3004
 130657106.972 6 101810759.94145  24863218.382    24863217.7614   24863221.4154
        39.100          32.2004
 116822456.148 7  91030489.12946  22230568.848    22230568.4464   22230569.3974
        45.900          36.0004
 140898227.794 6                  26812042.348
        39.900
 107366655.522 8  83662367.84448  20431179.212    20431178.5374   20431178.6344
        49.900          52.0004
 109411760.112 8  85255934.57548  20820358.632    20820358.2264   20820358.7804
        48.500          48.4004
 125521790.834 6                  23464950.430    23464951.011
        41.600
 148522480.265 6                  28262836.983
        36.700
 130610355.027 7 101585878.536 6  24441945.974    24441946.439    24441952.803
        42.300          36.500
 139816864.054 6                  26606265.056
        41.400
 136103524.319 5 106054706.96844  25899638.328    25899637.5014   25899641.5954
        35.500          26.7004
 104954886.804 8  81631654.453 7  19627076.237    19627076.248    19627081.957
        52.500          47.400
 130488362.606 6 101490983.979 6  24444864.909    24444865.470    24444873.664
        41.000          38.100
 128660086.994 7 100069017.977 6  24085433.116    24085433.291    24085440.686
        44.900          39.100
 110284662.889 8  85777004.847 7  20609320.399    20609320.591    20609326.177
        51.400          47.000
 128537622.730 6  99973736.147 6  24011905.434    24011906.404    24011914.104
        41.300          39.500
 104309061.724 8  81129324.610 7  19513152.400    19513152.561    19513159.624
        49.900          43.100
 126966630.181 6  98751891.728 6  23710109.179    23710109.913    23710115.373
        40.100          41.100
 25  1  1  6 16 45.0000000  0 34G25E03E08S31S35G13E21E13S48S33R02G16
                                G20E15G23G05G11G26G18E07G29G15R23E27
                                R15E26G30R24R18R16R17R03R01R08
 132208415.904 6 103019626.01444  25158402.076    25158401.1244   25158406.0964
        36.800          28.9004
 134499846.276 7                  25594453.812
        43.900
 128230741.772 7                  24401489.856
        46.500
 198976999.544 7                  37864058.435
        45.700
 200950030.979 7                  38239531.495
        44.300
 110422860.103 7  86043812.17845  21012761.331    21012760.7284   21012760.6524
        47.100          34.9004
 140386013.462 6                  26714556.417
        40.600
 124271522.647 8                  23648062.129
        48.200
 412837477.546 5                  78560417.588
        32.800
 202116044.236 7                  38461372.938
        44.800
 106554285.581 8  82875598.825 8  19968222.654    19968222.821    19968228.359
        52.400          48.500
 132002541.021 6 102859134.99242  25119246.860    25119245.7834   25119247.1474
        36.200          15.7004
 123534247.885 6  96260506.19044  23507760.754    23507759.4894   23507759.8174
        41.700          25.9004
 131758851.177 7                  25072837.831
        45.300
 121785397.566 7  94897716.84545  23174989.314    23174988.8944   23174990.2644
        44.400          30.8004
 111011677.776 8  86502657.77448  21124799.521    21124799.0434   21124798.5164
        48.900          49.3004
 129491591.933 6 100902632.32643  24641400.867    24641400.5014   24641402.5864
        38.400          20.6004
 130667542.916 6 101818891.86645  24865203.963    24865203.3464   24865207.2854
        39.400          31.8004
 116787810.609 7  91003492.63046  22223976.203    22223975.8014   22223976.5314
        46.200          36.0004
 140851627.153 6                  26803174.330
        40.200
 107374726.152 8  83668656.64948  20432714.926    20432714.2514   20432714.4304
        50.200          52.1004
 109374993.956 8  85227285.69248  20813361.943    20813361.5374   20813362.3194
        48.600          48.4004
 125570734.340 7                  23474099.624    23474100.809
        42.100
 148563823.702 6                  28270704.552
        36.100
 130654694.200 7 101620364.584 6  24450243.702    24450243.991    24450250.422
        42.900          36.500
 139786642.096 6                  26600513.702
        41.000
 136091446.512 6 106045295.78544  25897340.312    25897339.4814   25897343.1764
        36.100          26.1004
 104964657.899 8  81639254.209 7  19628903.303    19628903.559    19628909.250
        52.600          47.400
 130434273.321 7 101448914.945 6  24434731.652    24434732.210    24434740.038
        42.800          40.700
 128674141.531 7 100079949.202 6  24088063.819    24088064.349    24088070.452
        44.300          36.700
 110243601.691 8  85745068.369 7  20601647.296    20601647.358    20601652.730
        51.300          46.800
 128472086.049 6  99922763.147 6  23999664.150    23999663.638    23999670.479
        40.400          39.100
 104332438.544 8  81147506.599 7  19517525.725    19517525.831    19517532.746
        49.500          42.600
 127029294.605 6  98800630.666 7  23721810.283    23721811.268    23721818.410
        38.800          42.300
 25  1  1  6 17  0.0000000  0 34G25E03E08S31S35G13E21E13S48S33R02G16
                                G20E15G23G05G11G26G18E07G29G15R23E27
                                R15E26G30R24R18R16R17R03R01R08
 132253266.009 6 103054574.15444  25166936.567    25166935.6064   25166940.6264
        37.200          28.2004
 134517647.408 7                  25597841.392
        43.600
 128207942.382 7                  24397151.367
        46.500
 198976992.492 7                  37864063.251
        45.700
 200950041.226 7                  38239531.102
        44.300
 110411728.135 7  86035137.92645  21010642.940    21010642.3324   21010642.3104
        47.100          34.6004
 140417151.328 6                  26720481.679
        41.100
 124262780.962 8                  23646398.690
        48.300
 412837233.191 5                  78560391.018
        32.500
 202116020.527 7                  38461374.745
        45.100
 106516305.882 8  82846059.111 8  19961105.488    19961105.241    19961110.814
        52.500          48.400
 131985561.505 5 102845904.21642  25116015.817    25116014.7004   25116016.0194
        35.200          13.2004
 123576493.945 6  96293425.21144  23515799.568    23515798.3084   23515799.0084
        41.400          25.6004
 131779306.078 7                  25076730.152
        45.400
 121745617.583 7  94866719.45945  23167419.404    23167418.9804   23167420.2324
        44.000          30.7004
 111042863.337 8  86526958.21648  21130733.732    21130733.2594   21130732.9004
        48.700          49.1004
 129532414.637 6 100934442.15743  24649169.059    24649168.7334   24649170.6044
        38.000          20.8004
 130678094.670 6 101827114.00345  24867211.617    24867210.9964   24867215.1554
        38.800          31.5004
 116753196.458 7  90976520.59645  22217389.403    22217389.0014   22217389.5854
        45.500          35.8004
 140805043.887 6                  26794310.017
        39.900
 107382948.652 8  83675063.78948  20434279.685    20434279.0104   20434279.1234
        50.000          51.9004
 109338354.108 8  85198735.22848  20806389.679    20806389.2684   20806389.9414
        48.400          48.1004
 125619740.859 6                  23483261.790    23483261.411
        41.100
 148605142.628 5                  28278567.119
        35.700
 130699090.308 7 101654894.871 6  24458551.890    24458552.614    24458559.180
        43.100          36.200
 139756421.880 6                  26594762.996
        41.500
 136079468.112 6 106035961.92644  25895060.852    25895060.0164   25895063.5614
        36.000          26.1004
 104974557.862 8  81646954.168 7  19630754.706    19630754.989    19630760.461
        52.800          47.300
 130380155.811 6 101406823.629 6  24424594.355    24424594.022    24424601.671
        41.600          38.400
 128688360.878 7 100091008.678 6  24090726.265    24090726.252    24090733.728
        45.100          38.300
 110202599.965 8  85713178.133 7  20593985.120    20593985.403    20593990.752
        51.500          46.900
 128406577.342 6  99871811.877 6  23987426.414    23987426.149    23987434.269
        40.900          39.900
 104355990.293 8  81165824.632 7  19521931.860    19521931.685    19521938.756
        50.000          42.500
 127091989.255 6  98849393.157 6  23733520.003    23733519.747    23733526.164
        40.700          41.700
 25  1  1  6 17 15.0000000  0 34G25E03E08S31S35G13E21E13S48S33R02G16
                                G20E15G23G05G11G26G18E07G29G15R23E27
                                R15E26G30R24R18R16R17R03R01R08
 132298083.732 6 103089497.04144  25175465.180    25175464.2104   25175468.9184
        37.000          27.8004
 134535543.701 7                  25601247.074
        43.600
 128185234.788 7                  24392830.190
        46.400
 198976983.306 7                  37864056.718
        45.900
 200950050.192 7                  38239532.068
        44.200
 110400752.859 7  86026585.77045  21008554.565    21008553.9624   21008553.8124
        47.200          34.7004
 140448343.408 6                  26726417.357
        41.200
 124254065.506 8                  23644740.126
        48.300
 412836986.039 5                  78560369.236
        32.500
 202115995.805 7                  38461361.415
        44.500
 106478481.368 8  82816640.064 8  19954016.563    19954016.950    19954022.604
        52.700          48.600
 131968711.648 6 102832774.47642  25112808.444    25112807.3184   25112809.4724
        36.600          14.8004
 123618745.838 7  96326348.77244  23523839.990    23523838.7384   23523839.4734
        42.800          26.1004
 131799788.869 7                  25080628.063
        45.500
 121705886.899 7  94835760.50345  23159858.732    23159858.3084   23159859.7744
        44.400          30.7004
 111074108.597 8  86551305.17448  21136679.389    21136678.9164   21136678.6734
        49.200          49.0004
 129573263.201 6 100966272.14043  24656942.314    24656942.0064   24656944.6714
        38.100          21.2004
 130688756.730 6 101835422.10145  24869239.907    24869239.2814   24869244.2124
        40.300          31.9004
 116718608.428 7  90949568.88645  22210807.365    22210806.9634   22210807.7054
        46.000          35.7004
 140758472.807 6                  26785447.798
        40.400
 107391317.562 8  83681585.02248  20435872.206    20435871.5364   20435871.6824
        50.200          51.8004
 109301835.392 8  85170279.16648  20799440.447    20799440.0454   20799440.6064
        48.700          48.2004
 125668804.664 6                  23492433.254    23492433.925
        40.800
 148646431.425 5                  28286424.524
        35.100
 130743537.203 6 101689464.702 6  24466869.798    24466869.466    24466876.223
        41.800          36.100
 139726198.117 7                  26589011.554
        42.100
 136067584.612 6 106026702.15844  25892799.450    25892798.6054   25892802.1814
        36.700          25.6004
 104984581.521 8  81654750.335 7  19632628.853    19632629.292    19632634.876
        52.400          47.100
 130326005.512 6 101364706.728 6  24414450.200    24414450.352    24414457.710
        41.900          40.000
 128702739.312 7 100102191.919 6  24093418.346    24093418.817    24093424.795
        45.400          36.600
 110161652.516 8  85681330.138 7  20586332.619    20586333.200    20586338.733
        51.900          46.800
 128341091.280 6  99820878.292 6  23975193.344    23975193.829    23975200.316
        41.900          39.500
 104379710.978 8  81184274.062 7  19526369.263    19526369.046    19526376.001
        49.700          42.500
 127154708.044 6  98898174.394 6  23745231.139    23745231.722    23745238.551
        40.300          41.900
 25  1  1  6 17 30.0000000  0 34G25E03E08S31S35G13E21E13S48S33R02G16
                                G20E15G23G05G11G26G18E07G29G15R23E27
                                R15E26G30R24R18R16R17R03R01R08
 132342870.847 6 103124396.08844  25183987.448    25183986.4654   25183991.6124
        37.000          28.0004
 134553537.007 7                  25604671.196
        43.800
 128162621.185 7                  24388526.896
        46.600
 198976973.807 7                  37864056.441
        45.700
 200950058.266 7                  38239537.389
        44.300
 110389936.513 7  86018157.45945  21006496.291    21006495.6884   21006495.4894
        47.000          34.8004
 140479591.471 6                  26732363.798
        41.100
 124245378.382 8                  23643087.110
        48.500
 412836739.149 5                  78560343.498
        32.700
 202115968.789 7                  38461359.618
        44.900
 106440814.607 8  82787343.748 8  19946958.010    19946958.418    19946963.831
        52.700          48.500
 131951993.471 6 102819747.37842  25109626.989    25109625.8584   25109628.0524
        36.600          15.5004
 123661005.480 7  96359278.34244  23531881.663    23531880.4204   23531880.9754
        42.100          26.0004
 131820301.673 7                  25084531.407
        45.400
 121666207.646 7  94804841.61945  23152308.197    23152307.7684   23152309.1174
        43.900          31.0004
 111105415.821 8  86575700.41948  21142636.829    21142636.3564   21142636.1894
        49.100          49.1004
 129614139.639 6 100998123.84143  24664721.315    24664721.0114   24664723.6134
        38.400          21.0004
 130699530.893 6 101843817.52345  24871290.355    24871289.7254   24871294.3354
        38.600          31.4004
 116684048.723 7  90922639.25145  22204231.007    22204230.6014   22204231.1254
        45.800          35.9004
 140711916.165 6                  26776588.445
        40.500
 107399835.122 8  83688222.08148  20437492.957    20437492.2874   20437492.5294
        49.900          52.0004
 109265440.263 8  85141919.42248  20792514.453    20792514.0514   20792514.7154
        48.600          48.3004
 125717928.013 6                  23501615.733    23501616.263
        40.600
 148687691.892 6                  28294275.611
        36.200
 130788036.455 6 101724075.270 5  24475197.261    24475197.353    24475204.070
        41.300          35.700
 139695972.880 7                  26583259.849
        42.100
 136055797.761 6 106017517.67444  25890556.262    25890555.4174   25890558.5944
        36.100          26.1004
 104994730.715 8  81662644.165 7  19634527.036    19634527.340    19634532.865
        52.500          47.200
 130271824.744 6 101322566.280 6  24404298.878    24404299.455    24404307.686
        40.600          39.200
 128717278.476 7 100113500.135 6  24096140.188    24096140.282    24096147.115
        44.900          38.000
 110120761.776 8  85649526.268 7  20578691.273    20578691.841    20578697.070
        52.000          46.700
 128275630.739 6  99769964.543 6  23962963.655    23962963.614    23962971.913
        39.400          39.600
 104403602.479 8  81202856.354 7  19530838.786    19530838.526    19530845.303
        49.700          42.500
 127217452.678 6  98946975.736 6  23756948.483    23756948.576    23756955.069
        38.400          41.200
 25  1  1  6 17 45.0000000  0 34G25E03E08S31S35G13E21E13S48S33R02G16
                                G20E15G23G05G11G26G18E07G29G15R23E27
                                R15E26G30R24R18R16R17R03R01R08
 132387626.914 6 103159270.94044  25192504.568    25192503.5894   25192508.7114
        37.100          28.3004
 134571627.198 7                  25608113.583
        44.200
 128140101.594 7                  24384241.539
        46.700
 198976964.525 7                  37864051.231
        45.300
 200950066.249 7                  38239533.798
        44.200
 110379279.153 7  86009853.03045  21004468.324    21004467.7254   21004467.4514
        47.300          34.7004
 140510895.194 6                  26738320.617
        41.100
 124236719.534 8                  23641439.456
        48.500
 412836491.832 5                  78560309.714
        33.100
 202115943.416 7                  38461355.933
        44.600
 106403305.816 8  82758170.290 8  19939928.797    19939928.929    19939934.637
        52.300          48.400
 131935407.003 6 102806822.88942  25106471.018    25106469.8874   25106471.7034
        36.700          15.3004
 123703272.799 6  96392213.92644  23539925.094    23539923.8654   23539924.3824
        41.800          26.1004
 131840844.388 7                  25088440.740
        45.400
 121626579.769 7  94773962.77445  23144767.350    23144766.9444   23144768.2134
        43.600          30.8004
 111136784.007 8  86600143.15748  21148606.012    21148605.5344   21148605.3584
        48.900          49.1004
 129655043.752 6 101029997.12243  24672504.764    24672504.4474   24672507.1614
        38.300          20.5004
 130710416.906 6 101852300.10145  24873362.812    24873362.1734   24873366.0114
        39.100          31.9004
 116649517.407 7  90895731.74845  22197659.738    22197659.3364   22197660.1114
        46.200          35.9004
 140665374.080 6                  26767731.181
        40.400
 107408501.118 8  83694974.81148  20439142.114    20439141.4444   20439141.6324
        50.400          52.0004
 109229168.859 8  85113656.07748  20785612.084    20785611.6784   20785612.3504
        48.400          48.3004
 125767110.305 6                  23510810.447    23510810.264
        40.400
 148728923.696 6                  28302122.107
        36.100
 130832587.610 7 101758726.142 6  24483534.006    24483534.143    24483540.713
        42.400          36.900
 139665746.019 7                  26577507.460
        42.200
 136044107.853 5 106008408.76744  25888331.824    25888330.9794   25888334.4004
        33.100          25.5004
 105005005.605 8  81670635.730 7  19636448.192    19636448.671    19636454.272
        52.200          47.200
 130217613.542 6 101280402.087 6  24394143.886    24394144.298    24394151.594
        41.000          39.300
 128731978.130 7 100124933.184 6  24098891.175    24098891.359    24098898.638
        43.700          37.000
 110079927.817 8  85617766.478 7  20571060.298    20571061.030    20571066.174
        52.300          46.900
 128210195.536 6  99719070.434 6  23950741.858    23950741.414    23950747.758
        40.100          39.000
 104427664.237 8  81221570.999 7  19535339.610    19535339.617    19535346.747
        49.800          42.600
 127280222.888 6  98995797.006 6  23768670.414    23768670.420    23768677.741
        38.500          41.600
 25  1  1  6 18  0.0000000  0 34G25E03E08S31S35G13E21E13S48S33R02G16
                                G20E15G23G05G11G26G18E07G29G15R23E27
                                R15E26G30R24R18R16R17R03R01R08
 132432351.962 6 103194121.61844  25201015.020    25201014.0504   25201019.2554
        36.600          27.8004
 134589814.518 7                  25611574.420
        43.800
 128117676.622 7                  24379974.222
        46.700
 198976955.022 7                  37864053.521
        45.700
 200950074.280 7                  38239539.499
        44.500
 110368781.411 7  86001672.97945  21002470.535    21002469.9274   21002469.6964
        46.800          34.4004
 140542254.690 6                  26744287.944
        40.800
 124228089.437 8                  23639797.224
        48.200
 412836245.444 5                  78560277.501
        32.700
 202115917.584 7                  38461348.711
        44.600
 106365955.374 8  82729120.000 8  19932929.642    19932929.681    19932935.300
        52.900          48.400
 131918952.804 6 102794001.44042  25103340.201    25103339.1284   25103340.5754
        36.100          13.9004
 123745547.940 7  96425155.59244  23547969.897    23547968.6594   23547969.1214
        42.000          25.7004
 131861417.518 7                  25092355.537
        45.300
 121587003.743 7  94743124.31545  23137236.481    23137236.0704   23137236.9684
        43.300          30.5004
 111168213.270 8  86624633.47548  21154586.901    21154586.4234   21154586.1404
        48.900          48.8004
 129695976.004 6 101061892.32343  24680294.217    24680293.9094   24680295.8784
        38.500          20.0004
 130721414.914 6 101860869.92345  24875454.921    24875454.2824   24875459.1154
        39.100          31.8004
 116615014.966 7  90868846.73645  22191093.985    22191093.5744   22191094.4994
        45.900          35.8004
 140618847.174 6                  26758877.876
        39.600
 107417315.858 8  83701843.44148  20440819.267    20440818.5924   20440819.0184
        49.800          51.8004
 109193021.872 8  85085489.66648  20778733.662    20778733.2514   20778733.6674
        48.600          48.2004
 125816352.153 6                  23520015.946    23520015.152
        40.800
 148770127.001 5                  28309962.678
        34.700
 130877190.632 6 101793417.428 5  24491881.164    24491881.334    24491888.387
        41.100          35.100
 139635517.984 6                  26571756.021
        41.900
 136032515.223 6 105999375.55844  25886125.493    25886124.6484   25886128.2894
        36.100          26.3004
 105015406.937 8  81678725.645 7  19638393.612    19638393.862    19638399.500
        52.200          47.400
 130163372.445 6 101238214.733 6  24383982.308    24383982.674    24383990.667
        41.800          39.300
 128746838.888 7 100136491.527 6  24101672.993    24101673.508    24101681.173
        44.800          39.000
 110039151.647 8  85586051.684 7  20563440.690    20563441.073    20563446.346
        51.700          46.700
 128144786.686 6  99668196.898 6  23938521.058    23938520.894    23938529.193
        39.700          40.100
 104451896.451 8  81240418.299 7  19539873.111    19539872.863    19539879.988
        49.900          42.400
 127343018.351 6  99044637.866 6  23780398.069    23780398.534    23780404.222
        40.100          41.700
 25  1  1  6 18 15.0000000  0 34G25E03E08S31S35G13E21E13S48S33R02G16
                                G20E15G23G05G11G26G18E07G29G15R23E27
                                R15E26G30R24R18R16R17R03R01R08
 132477046.660 6 103228948.66044  25209521.279    25209520.2874   25209524.3044
        36.500          28.0004
 134608099.675 7                  25615054.012
        43.700
 128095347.224 7                  24375725.005
        46.400
 198976946.840 7                  37864053.253
        45.700
 200950083.769 7                  38239539.423
        44.200
 110358444.133 7  85993617.96245  21000503.356    21000502.7484   21000502.6524
        46.700          34.5004
 140573670.628 6                  26750266.193
        40.900
 124219489.051 8                  23638160.535
        48.100
 412836000.107 5                  78560244.961
        32.700
 202115892.839 7                  38461350.697
        44.900
 106328764.838 8  82700194.088 8  19925959.803    19925960.081    19925965.628
        52.700          48.100
 131902631.809 6 102781283.78542  25100234.634    25100233.6104   25100234.9754
        36.900          15.9004
 123787831.859 6  96458104.11944  23556016.074    23556014.8274   23556015.4494
        41.900          26.0004
 131882021.970 7                  25096276.329
        45.100
 121547480.489 7  94712326.98345  23129715.709    23129715.3034   23129715.8954
        43.900          30.7004
 111199704.583 8  86649172.18448  21160579.446    21160578.9684   21160578.7544
        49.100          48.9004
 129736937.223 6 101093810.10143  24688088.673    24688088.3744   24688090.4844
        37.800          20.5004
 130732525.659 6 101869527.59245  24877569.523    24877568.8894   24877573.5124
        38.300          31.4004
 116580542.432 7  90841985.02145  22184534.331    22184533.9294   22184534.6244
        46.000          35.8004
 140572336.560 6                  26750027.094
        40.200
 107426280.262 8  83708828.68548  20442525.492    20442524.8224   20442524.8894
        49.800          51.9004
 109157000.402 8  85057421.01148  20771878.779    20771878.3644   20771878.9064
        48.600          48.3004
 125865654.152 6                  23529231.917    23529232.450
        41.200
 148811302.554 5                  28317797.970
        34.300
 130921845.766 7 101828149.168 6  24500238.676    24500238.596    24500244.566
        43.300          36.900
 139605289.619 6                  26566003.353
        41.900
 136021021.259 5 105990419.27144  25883938.495    25883937.6374   25883941.1964
        35.300          26.0004
 105025935.468 8  81686914.497 7  19640362.387    19640362.843    19640368.284
        52.200          47.400
 130109102.249 6 101196004.632 6  24373816.539    24373817.013    24373823.825
        41.300          38.200
 128761860.576 7 100148175.038 6  24104485.648    24104485.676    24104492.142
        44.800          37.400
 109998434.499 8  85554382.791 7  20555831.726    20555832.097    20555837.402
        52.100          46.700
 128079405.494 6  99617344.852 6  23926308.278    23926307.712    23926314.468
        39.600          38.900
 104476299.683 8  81259398.622 7  19544438.176    19544437.974    19544445.140
        49.800          42.500
 127405839.611 6  99093498.836 6  23792128.626    23792129.581    23792135.475
        39.700          41.200
 25  1  1  6 18 30.0000000  0 34G25E03E08S31S35G13E21E13S48S33R02G16
                                G20E15G23G05G11G26G18E07G29G15R23E27
                                R15E26G30R24R18R16R17R03R01R08
 132521710.864 6 103263751.92944  25218020.185    25218019.2154   25218023.8974
        36.500          28.5004
 134626482.796 7                  25618551.762
        43.600
 128073113.836 7                  24371494.079
        46.400
 198976939.674 7                  37864051.732
        45.500
 200950094.338 7                  38239542.706
        43.900
 110348267.509 7  85985688.13445  20998566.760    20998566.1484   20998566.1314
        46.600          34.7004
 140605143.002 6                  26756255.464
        41.000
 124210918.739 8                  23636529.555
        48.100
 412835755.916 5                  78560217.389
        32.300
 202115868.923 7                  38461344.691
        44.800
 106291734.379 8  82671392.653 8  19919019.897    19919020.400    19919025.992
        52.700          48.300
 131886444.821 5 102768670.54042  25097154.116    25097153.0974   25097154.6264
        35.900          14.8004
 123830124.620 7  96491059.55344  23564063.545    23564062.3024   23564063.4574
        42.900          26.2004
 131902658.055 7                  25100203.462
        44.800
 121508010.338 7  94681571.03045  23122204.201    23122203.8044   23122204.8574
        43.700          31.0004
 111231258.045 8  86673759.32148  21166583.906    21166583.4244   21166583.1734
        48.800          49.1004
 129777927.662 6 101125750.64343  24695888.768    24695888.4694   24695891.0284
        38.400          20.7004
 130743749.194 6 101878273.14845  24879705.094    24879704.4734   24879708.8644
        39.200          31.6004
 116546100.238 7  90815146.97246  22177980.330    22177979.9284   22177980.5324
        45.500          36.0004
 140525842.713 6                  26741179.504
        40.500
 107435394.602 8  83715930.75648  20444259.809    20444259.1434   20444259.2844
        49.800          52.1004
 109121104.964 8  85029450.52548  20765048.158    20765047.7344   20765048.1994
        48.400          48.5004
 125915016.356 6                  23538459.489    23538460.059
        41.200
 148852450.334 5                  28325628.456
        35.400
 130966552.796 6 101862921.357 5  24508604.040    24508604.076    24508610.333
        41.700          34.300
 139575061.273 7                  26560250.873
        42.000
 136009626.298 5 105981540.19244  25881769.762    25881768.9044   25881772.5264
        35.400          26.5004
 105036591.879 8  81695202.802 7  19642355.075    19642355.443    19642361.102
        52.000          47.200
 130054803.734 7 101153772.523 6  24363644.835    24363644.885    24363652.042
        42.400          39.200
 128777043.554 7 100159984.012 6  24107328.702    24107328.931    24107335.946
        46.100          38.100
 109957777.007 8  85522760.322 7  20548233.811    20548234.028    20548239.664
        51.800          46.900
 128014052.568 6  99566514.744 6  23914099.574    23914099.266    23914107.390
        40.200          40.200
 104500873.641 8  81278511.694 7  19549035.181    19549035.039    19549042.075
        49.800          42.500
 127468686.528 6  99142379.702 6  23803865.889    23803866.521    23803871.083
        41.200          41.300
 25  1  1  6 18 45.0000000  0 34G25E03E08S31S35G13E21E13S48S33R02G16
                                G20E15G23G05G11G26G18E07G29G15R23E27
                                R15E26G30R24R18R16R17R03R01R08
 132566341.122 6 103298528.74044  25226512.924    25226511.9544   25226517.1894
        36.400          28.6004
 134644960.600 7                  25622068.461
        43.700
 128050973.413 7                  24367280.922
        47.000
 198976930.470 7                  37864049.903
        45.500
 200950102.522 7                  38239542.795
        44.000
 110338248.723 7  85977881.30045  20996660.341    20996659.7384   20996659.6054
        46.900          34.7004
 140636668.373 6                  26762254.331
        40.900
 124202375.335 8                  23634903.924
        48.500
 412835509.210 5                  78560192.263
        32.800
 202115843.607 7                  38461336.553
        44.800
 106254861.102 8  82642713.475 8  19912110.416    19912110.446    19912116.065
        53.000          48.400
 131870388.080 6 102756158.83542  25094098.707    25094097.7154   25094099.0814
        36.800          15.6004
 123872422.768 7  96524019.12344  23572112.796    23572111.5134   23572112.1494
        42.100          26.1004
 131923322.594 7                  25104135.734
        45.600
 121468590.113 7  94650853.98845  23114703.385    23114703.0144   23114703.3624
        43.700          31.1004
 111262870.331 8  86698392.27248  21172599.624    21172599.1464   21172598.7484
        49.100          49.2004
 129818944.089 6 101157711.45443  24703693.863    24703693.5954   24703696.2194
        39.000          20.5004
 130755082.147 6 101887103.95245  24881861.481    24881860.8474   24881865.6894
        38.100          31.9004
 116511685.307 7  90788330.17046  22171431.119    22171430.7224   22171431.5004
        46.100          36.1004
 140479362.684 6                  26732334.786
        40.300
 107444655.663 8  83723147.15248  20446022.218    20446021.5524   20446021.6444
        49.800          52.1004
 109085332.741 8  85001576.01048  20758240.995    20758240.5754   20758241.0214
        48.500          48.4004
 125964435.642 6                  23547698.731    23547698.342
        40.800
 148893566.917 5                  28333452.436
        35.500
 131011307.753 6 101897730.787 5  24516978.539    24516979.353    24516986.397
        41.400          34.700
 139544829.748 7                  26554498.037
        42.000
 135998327.053 6 105972735.53744  25879619.543    25879618.6854   25879622.5084
        36.200          26.6004
 105047372.746 8  81703587.916 7  19644371.254    19644371.702    19644377.169
        52.200          47.200
 130000473.370 6 101111515.568 6  24353466.940    24353467.253    24353473.896
        41.900          38.300
 128792384.396 7 100171915.848 6  24110199.840    24110199.927    24110206.469
        45.300          38.300
 109917176.164 8  85491181.941 7  20540646.367    20540646.811    20540652.460
        51.900          47.000
 127948725.050 6  99515704.446 6  23901894.160    23901894.835    23901903.568
        39.200          40.000
 104525614.789 8  81297754.830 7  19553663.604    19553663.414    19553670.370
        49.900          42.400
 127531555.255 6  99191277.574 6  23815605.419    23815605.653    23815612.414
        40.400          41.900
 25  1  1  6 19  0.0000000  0 34G25E03E08S31S35G13E21E13S48S33R02G16
                                G20E15G23G05G11G26G18E07G29G15R23E27
                                R15E26G30R24R18R16R17R03R01R08
 132610938.428 6 103333279.89444  25234999.633    25234998.6684   25235003.2294
        36.400          27.9004
 134663534.251 7                  25625602.557
        43.800
 128028927.444 7                  24363085.798
        46.800
 198976921.870 7                  37864044.524
        45.600
 200950110.772 7                  38239541.503
        44.100
 110328389.498 7  85970198.79845  20994784.103    20994783.5004   20994783.4114
        47.000          34.8004
 140668247.867 6                  26768264.154
        41.100
 124193860.308 8                  23633283.651
        48.800
 412835262.240 5                  78560157.939
        32.300
 202115817.842 7                  38461325.580
        44.200
 106218146.833 8  82614157.953 8  19905229.727    19905230.251    19905235.754
        52.700          48.200
 131854463.069 6 102743749.76442  25091067.874    25091066.8644   25091068.4754
        37.100          16.3004
 123914727.717 6  96556984.05244  23580163.377    23580162.1034   23580162.7074
        41.900          26.5004
 131944017.017 7                  25108073.729
        45.400
 121429221.276 7  94620176.97845  23107211.088    23107210.7224   23107211.8384
        43.900          31.1004
 111294542.047 8  86723071.52948  21178626.501    21178626.0194   21178625.6374
        48.800          49.1004
 129859987.842 6 101189693.56143  24711504.280    24711504.0034   24711507.3214
        38.100          20.8004
 130766525.709 6 101896020.96845  24884039.617    24884038.9744   24884043.4674
        39.200          32.0004
 116477299.107 7  90761535.76646  22164887.616    22164887.2054   22164887.9924
        46.300          36.1004
 140432898.061 6                  26723492.903
        40.400
 107454064.863 8  83730478.98848  20447812.623    20447811.9624   20447812.1714
        49.600          52.1004
 109049685.476 8  84973798.88648  20751457.617    20751457.2024   20751457.6684
        48.600          48.5004
 126013913.235 6                  23556948.288    23556947.920
        39.900
 148934653.506 5                  28341270.940
        35.600
 131056111.675 6 101932578.278 5  24525364.142    24525363.467    24525370.497
        39.700          35.900
 139514596.460 7                  26548745.400
        42.500
 135987125.387 6 105964006.92344  25877487.963    25877487.0964   25877490.8674
        36.300          27.3004
 105058279.701 8  81712071.095 7  19646410.980    19646411.240    19646416.887
        51.800          47.200
 129946113.093 7 101069235.401 6  24343282.801    24343282.708    24343290.665
        42.400          39.900
 128807884.061 7 100183971.153 6  24113100.973    24113101.169    24113107.819
        44.700          37.800
 109876633.783 8  85459648.986 7  20533070.079    20533070.443    20533075.962
        52.200          47.100
 127883424.491 6  99464915.130 6  23889697.914    23889697.429    23889704.905
        40.400          40.100
 104550524.153 8  81317128.787 7  19558323.196    19558323.145    19558330.105
        49.700          42.400
 127594447.008 6  99240193.336 7  23827350.687    23827351.358    23827356.805
        40.800          42.000
 25  1  1  6 19 15.0000000  0 34G25E03E08S31S35G13E21E13S48S33R02G16
                                G20E15G23G05G11G26G18E07G29G15R23E27
                                R15E26G30R24R18R16R17R03R01R08
 132655502.470 6 103368005.10044  25243480.352    25243479.4004   25243483.7284
        36.000          28.2004
 134682203.665 7                  25629155.602
        43.800
 128006976.052 7                  24358908.459
        46.800
 198976911.268 7                  37864039.444
        45.600
 200950118.207 7                  38239548.121
        44.200
 110318689.788 7  85962640.59245  20992938.398    20992937.7994   20992937.6064
        46.800          34.7004
 140699881.229 6                  26774283.511
        40.900
 124185373.695 8                  23631668.683
        48.400
 412835015.267 5                  78560127.554
        32.300
 202115790.706 7                  38461332.144
        45.000
 106181591.724 8  82585726.248 8  19898379.490    19898379.672    19898385.407
        52.400          48.200
 131838670.101 5 102731443.57642  25088062.341    25088061.2734   25088062.9954
        35.500          15.0004
 123957039.200 6  96589953.99444  23588215.548    23588214.2834   23588214.2344
        40.900          26.0004
 131964741.390 7                  25112017.474
        45.300
 121389903.889 7  94589540.06745  23099729.512    23099729.1464   23099730.2144
        44.100          31.1004
 111326272.929 8  86747796.89448  21184664.793    21184664.3244   21184663.8164
        48.800          49.1004
 129901058.860 6 101221696.91243  24719320.419    24719320.1474   24719323.3414
        37.600          20.3004
 130778079.687 6 101905024.02645  24886238.325    24886237.6734   24886242.7904
        38.100          31.9004
 116442941.742 7  90734763.81246  22158349.533    22158349.1184   22158349.9074
        45.100          36.1004
 140386449.062 6                  26714654.166
        40.300
 107463622.313 8  83737926.33848  20449631.489    20449630.8324   20449630.9104
        49.900          52.0004
 109014163.539 8  84946119.44348  20744698.234    20744697.8144   20744698.1134
        48.900          48.6004
 126063448.594 6                  23566207.972    23566207.188
        41.000
 148975709.856 5                  28349083.892
        35.500
 131100963.993 6 101967463.434 5  24533756.277    24533756.609    24533763.970
        40.200          34.100
 139484361.409 7                  26542991.170
        42.400
 135976021.736 5 105955354.78144  25875374.797    25875373.9214   25875377.7084
        35.600          27.0004
 105069312.939 8  81720652.499 7  19648474.045    19648474.474    19648480.120
        52.100          47.200
 129891723.134 7 101026932.292 6  24333093.647    24333094.308    24333101.179
        42.300          38.800
 128823542.393 7 100196149.852 6  24116032.887    24116033.364    24116040.286
        45.400          38.900
 109836150.071 8  85428161.645 7  20525505.238    20525505.320    20525510.911
        51.700          47.100
 127818151.644 6  99414147.349 6  23877504.384    23877503.315    23877510.849
        41.100          40.000
 104575601.174 8  81336633.124 7  19563014.547    19563014.404    19563021.235
        49.700          42.500
 127657361.222 6  99289126.574 6  23839098.153    23839098.216    23839105.850
        39.500          41.900
 25  1  1  6 19 30.0000000  0 34G25E03E08S31S35G13E21E13S48S33R02G16
                                G20E15G23G05G11G26G18E07G29G15R23E27
                                R15E26G30R24R18R16R17R03R01R08
 132700035.665 6 103402706.29244  25251954.681    25251953.7384   25251957.9454
        36.100          27.2004
 134700971.442 7                  25632726.778
        44.400
 127985122.121 7                  24354749.751
        46.900
 198976903.701 7                  37864040.571
        45.400
 200950127.834 7                  38239550.164
        44.100
 110309152.449 7  85955208.90645  20991123.675    20991123.0764   20991122.7224
        46.900          34.6004
 140731570.937 6                  26780313.751
        40.800
 124176918.323 8                  23630059.551
        48.600
 412834770.165 5                  78560105.589
        32.400
 202115767.638 7                  38461321.032
        44.600
 106145198.856 8  82557420.698 8  19891559.370    19891559.540    19891565.284
        52.500          48.400
 131823011.954 6 102719242.45442  25085083.385    25085082.3354   25085083.2804
        36.600          15.2004
 123999360.092 7  96622931.30244  23596268.826    23596267.5834   23596267.6894
        42.100          26.0004
 131985498.471 7                  25115967.086
        45.300
 121350640.715 7  94558945.39645  23092258.054    23092257.6924   23092258.3654
        44.000          30.9004
 111358065.549 8  86772570.37448  21190714.462    21190713.9934   21190713.7474
        49.100          48.9004
 129942159.825 6 101253723.59443  24727141.565    24727141.2754   24727144.1604
        38.000          20.1004
 130789746.573 6 101914115.06245  24888458.575    24888457.9234   24888463.1304
        37.200          31.2004
 116408616.147 7  90708016.60646  22151817.894    22151817.4884   22151817.9404
        45.800          36.1004
 140340018.606 6                  26705818.645
        40.800
 107473330.361 8  83745491.03848  20451478.710    20451478.0534   20451478.3034
        49.800          52.0004
 108978769.840 8  84918539.93048  20737962.745    20737962.3304   20737962.9104
        48.500          48.4004
 126113044.532 6                  23575477.568    23575478.588
        40.700
 149016738.439 5                  28356891.279
        34.800
 131145867.022 6 102002388.003 5  24542160.230    24542160.589    24542166.627
        41.800          35.500
 139454127.376 7                  26537238.072
        42.500
 135965018.510 5 105946780.85644  25873281.353    25873280.4774   25873283.7644
        34.600          24.9004
 105080475.298 8  81729334.329 7  19650561.671    19650562.024    19650567.429
        52.200          47.200
 129837305.840 6 100984607.731 6  24322899.251    24322899.348    24322906.872
        41.300          38.400
 128839361.798 7 100208453.842 6  24118994.201    24118994.321    24119001.006
        44.900          38.200
 109795728.231 8  85396722.442 7  20517951.108    20517951.426    20517956.789
        52.000          47.000
 127752909.272 6  99363403.273 6  23865315.694    23865315.697    23865323.321
        40.100          39.500
 104600848.416 8  81356269.827 7  19567737.727    19567737.341    19567744.180
        49.600          42.300
 127720300.355 6  99338079.159 6  23850853.494    23850853.464    23850859.013
        41.000          41.600
 25  1  1  6 19 45.0000000  0 34G25E03E08S31S35G13E21E13S48S33R02G16
                                G20E15G23G05G11G26G18E07G29G15R23E27
                                R15E26G30R24R18R16R17R03R01R08
 132744533.275 6 103437379.75644  25260422.034    25260421.0784   25260425.5524
        36.600          27.8004
 134719833.023 7                  25636315.768
        43.800
 127963361.403 7                  24350608.844
        46.800
 198976894.386 7                  37864034.771
        45.100
 200950135.605 7                  38239549.587
        44.200
 110299773.250 7  85947900.45145  20989338.553    20989337.9544   20989337.8024
        47.100          34.5004
 140763312.352 6                  26786353.772
        41.400
 124168489.832 8                  23628455.756
        48.700
 412834523.423 5                  78560081.228
        32.200
 202115740.393 7                  38461326.568
        44.600
 106108964.103 8  82529238.112 8  19884769.340    19884769.408    19884775.017
        53.000          48.200
 131807484.452 6 102707143.12342  25082127.962    25082126.8894   25082128.5444
        36.300          15.4004
 124041685.642 7  96655912.26944  23604322.673    23604321.4534   23604322.2084
        42.100          26.1004
 132006283.912 7                  25119922.831
        45.500
 121311427.414 7  94528389.58545  23084795.862    23084795.5054   23084796.1574
        44.000          30.9004
 111389916.116 8  86797388.99048  21196775.451    21196774.9864   21196774.6964
        49.000          48.8004
 129983286.364 6 101285770.18543  24734967.200    24734966.9324   24734970.3224
        37.900          20.4004
 130801521.798 6 101923290.53845  24890699.708    24890699.0654   24890703.4134
        38.500          31.5004
 116374318.059 7  90681290.85546  22145291.036    22145290.6304   22145291.2404
        46.100          36.0004
 140293602.564 6                  26696985.972
        40.600
 107483184.599 8  83753169.65648  20453353.954    20453353.2974   20453353.5054
        49.800          51.7004
 108943500.345 8  84891057.22048  20731251.156    20731250.7364   20731251.2964
        49.000          48.4004
 126162696.473 6                  23584760.960    23584761.135
        40.800
 149057734.700 5                  28364692.524
        34.600
 131190815.675 6 102037348.122 5  24550571.498    24550571.770    24550578.429
        41.300          35.200
 139423889.928 7                  26531484.229
        42.600
 135954111.884 5 105938282.28844  25871205.541    25871204.6564   25871208.0954
        35.000          25.2004
 105091762.316 8  81738113.115 7  19652672.586    19652672.634    19652678.276
        51.700          47.100
 129782857.363 6 100942258.917 6  24312699.836    24312699.403    24312707.155
        41.900          38.600
 128855337.542 7 100220879.395 6  24121984.229    24121984.897    24121991.256
        44.200          38.100
 109755364.039 8  85365328.069 7  20510407.965    20510408.412    20510413.810
        52.100          46.900
 127687693.536 6  99312679.889 6  23853133.766    23853132.708    23853139.558
        40.700          39.300
 104626261.085 8  81376035.249 7  19572491.486    19572491.329    19572498.342
        49.600          42.400
 127783259.510 6  99387047.417 6  23862609.533    23862610.111    23862615.933
        41.000          40.900
 25  1  1  6 20  0.0000000  0 34G25E03E08S31S35G13E21E13S48S33R02G16
                                G20E15G23G05G11G26G18E07G29G15R23E27
                                R15E26G30R24R18R16R17R03R01R08
 132788993.200 6 103472023.85144  25268881.996    25268881.0314   25268886.1404
        37.000          28.1004
 134738786.488 7                  25639922.679
        44.100
 127941692.196 7                  24346485.366
        46.800
 198976880.750 7                  37864037.025
        45.400
 200950138.934 7                  38239551.059
        44.200
 110290550.337 7  85940713.77445  20987583.520    20987582.9084   20987582.7754
        47.200          34.6004
 140795103.405 6                  26792403.681
        41.400
 124160086.522 8                  23626856.651
        48.500
 412835872.542 5                  78560052.748
        32.200
 202115710.084 7                  38461308.941
        44.700
 106072885.708 8  82501177.147 8  19878007.858    19878008.337    19878013.826
        52.500          48.200
 131792086.006 6 102695144.37242  25079197.616    25079196.5084   25079198.1424
        36.600          15.0004
 124084014.099 7  96688895.49344  23612377.649    23612376.4334   23612377.3264
        42.200          26.0004
 132027095.941 7                  25123883.289
        45.300
 121272262.238 7  94497871.27945  23077342.919    23077342.5624   23077343.4254
        44.800          30.9004
 111421822.177 8  86822250.85048  21202847.044    21202846.5754   21202846.2434
        49.200          48.9004
 130024436.583 6 101317835.22343  24742798.318    24742798.0464   24742800.9254
        38.600          20.4004
 130813403.312 6 101932548.83745  24892960.614    24892959.9394   24892964.0244
        38.000          30.8004
 116340045.762 7  90654585.19046  22138769.045    22138768.6304   22138769.4194
        46.000          36.0004
 140247199.314 6                  26688155.632
        40.600
 107493183.191 8  83760960.75548  20455256.653    20455256.0054   20455256.1894
        49.900          51.9004
 108908353.402 8  84863669.99948  20724563.309    20724562.9034   20724563.0274
        48.900          48.5004
 126212402.485 6                  23594053.313    23594052.514
        40.200
 149098696.535 5                  28372486.648
        34.600
 131235807.744 6 102072341.953 5  24558991.811    24558991.450    24558997.689
        40.900          34.800
 139393647.295 7                  26525729.084
        42.400
 135943299.887 5 105929857.38144  25869148.125    25869147.2494   25869150.5364
        35.400          25.5004
 105103172.434 8  81746987.655 7  19654806.548    19654806.336    19654812.210
        51.900          47.400
 129728376.254 6 100899884.829 6  24302493.246    24302493.206    24302500.439
        41.100          39.500
 128871467.636 7 100233424.996 6  24125004.340    24125005.170    24125010.545
        46.100          37.700
 109715056.401 8  85333977.696 7  20502875.642    20502875.896    20502881.394
        51.700          46.900
 127622502.973 6  99261976.151 6  23840955.073    23840953.900    23840961.322
        39.600          38.900
 104651836.837 8  81395927.497 7  19577276.183    19577275.835    19577282.871
        49.600          42.600
 127846236.118 6  99436029.146 6  23874370.056    23874370.778    23874376.927
        40.200          41.600
 25  1  1  6 20 15.0000000  0 34G25E03E08S31S35G13E21E13S48S33R02G16
                                G20E15G23G05G11G26G18E07G29G15R23E27
                                R15E26G30R24R18R16R17R03R01R08
 132833424.285 6 103506645.47444  25277337.193    25277336.2324   25277340.7934
        36.600          27.1004
 134757840.767 7                  25643548.695
        43.000
 127920123.768 7                  24342381.218
        46.800
 198976872.015 7                  37864033.622
        45.700
 200950147.649 7                  38239552.235
        44.100
 110281492.946 7  85933656.07845  20985860.097    20985859.4894   20985859.2644
        47.700          34.4004
 140826952.984 6                  26798464.289
        40.800
 124151717.567 8                  23625264.005
        48.400
 412835626.037 5                  78560026.030
        32.700
 202115684.660 7                  38461305.708
        44.800
 106036973.300 8  82473245.253 8  19871278.111    19871278.219    19871284.003
        52.500          48.200
 131776825.497 6 102683253.09142  25076294.185    25076293.0994   25076294.0874
        38.000          15.9004
 124126354.279 7  96721887.79544  23620434.895    23620433.6794   23620434.6634
        42.000          26.1004
 132047943.737 7                  25127850.259
        45.400
 121233154.382 7  94467397.63845  23069900.982    23069900.6294   23069901.4384
        44.800          30.8004
 111453792.541 8  86847162.83348  21208930.782    21208930.3264   21208930.0204
        49.400          48.7004
 130065619.618 6 101349925.83943  24750634.956    24750634.6754   24750637.9574
        39.100          20.1004
 130825400.069 6 101941896.92845  24895243.846    24895243.1764   24895247.2704
        38.100          31.4004
 116305808.546 7  90627906.84746  22132253.990    22132253.5884   22132254.3684
        46.400          36.0004
 140200818.207 6                  26679329.386
        40.300
 107503335.465 8  83768871.60948  20457188.485    20457187.8464   20457188.1094
        50.000          51.6004
 108873338.472 8  84836385.64048  20717900.048    20717899.6424   20717899.8714
        49.300          48.4004
 126262171.734 6                  23603357.679    23603357.044
        41.100
 149139632.908 5                  28380276.918
        34.700
 131280851.812 6 102107376.248 6  24567420.013    24567420.284    24567427.324
        40.300          36.200
 139363408.727 7                  26519974.600
        42.200
 135932591.974 5 105921513.50544  25867110.480    25867109.6044   25867113.0104
        35.400          25.1004
 105114715.028 8  81755965.211 7  19656964.909    19656964.936    19656970.672
        52.400          47.300
 129673871.455 7 100857492.265 6  24292282.328    24292282.730    24292290.173
        42.900          40.100
 128887760.928 7 100246097.530 6  24128055.113    24128055.398    24128061.349
        46.200          39.300
 109674814.419 8  85302678.366 7  20495355.369    20495355.745    20495361.055
        52.300          47.100
 127557347.395 6  99211299.556 6  23828783.236    23828782.483    23828790.406
        40.700          40.300
 104677584.673 8  81415953.568 7  19582092.532    19582092.632    19582099.605
        49.400          42.600
 127909239.456 6  99485031.630 6  23886137.325    23886136.860    23886142.468
        41.700          41.500
 25  1  1  6 20 30.0000000  0 34G25E03E08S31S35G13E21E13S48S33R02G16
                                G20E15G23G05G11G26G18E07G29G15R23E27
                                R15E26G30R24R18R16R17R03R01R08
 132877819.549 5 103541239.17244  25285785.008    25285784.0564   25285788.7214
        35.900          27.4004
 134776989.133 7                  25647192.515
        43.700
 127898649.661 7                  24338294.577
        46.600
 198976861.918 7                  37864031.789
        45.000
 200950154.724 7                  38239555.624
        44.400
 110272594.452 7  85926722.19445  20984166.715    20984166.0984   20984165.9414
        47.100          34.5004
 140858854.238 6                  26804534.728
        41.200
 124143376.405 8                  23623676.870
        48.400
 412835377.731 5                  78559988.290
        32.300
 202115657.578 7                  38461301.004
        44.600
 106001220.387 8  82445437.420 8  19864578.084    19864578.279    19864583.996
        52.400          48.300
 131761696.549 6 102671464.32242  25073415.374    25073414.3104   25073415.2254
        37.700          16.4004
 124168699.616 7  96754884.13544  23628492.668    23628491.4524   23628492.3834
        42.000          25.9004
 132068820.716 7                  25131823.226
        45.200
 121194097.273 7  94436963.54145  23062468.531    23062468.1784   23062469.0964
        45.000          31.0004
 111485820.137 8  86872119.38948  21215025.453    21215024.9884   21215024.6534
        49.300          48.8004
 130106828.868 6 101382036.89443  24758476.769    24758476.5064   24758479.2254
        38.400          20.3004
 130837505.210 6 101951329.48845  24897546.943    24897546.2734   24897550.9344
        38.100          31.2004
 116271599.902 7  90601250.77946  22125744.179    22125743.7734   22125744.6564
        46.300          36.1004
 140154452.863 6                  26670506.353
        40.400
 107513634.775 8  83776897.03948  20459148.407    20459147.7734   20459147.9994
        50.000          51.7004
 108838449.393 8  84809199.33648  20711260.840    20711260.4294   20711260.6884
        49.200          48.5004
 126311997.193 6                  23612669.935    23612670.150
        39.900
 149180537.008 5                  28388060.901
        35.300
 131325940.619 6 102142445.306 5  24575858.251    24575858.169    24575864.985
        38.300          33.200
 139333167.479 7                  26514220.224
        42.200
 135921981.773 6 105913245.81644  25865091.890    25865091.0104   25865094.4924
        36.200          26.4004
 105126383.618 8  81765040.795 7  19659146.912    19659147.088    19659152.524
        51.900          47.300
 129619336.648 6 100815076.412 6  24282065.667    24282065.895    24282073.504
        41.900          39.000
 128904210.478 7 100258891.553 6  24131134.433    24131134.557    24131141.108
        45.800          39.300
 109634632.060 8  85271425.411 7  20487845.951    20487846.558    20487852.275
        52.100          47.000
 127492220.029 6  99160644.951 6  23816616.271    23816616.141    23816623.563
        40.100          39.100
 104703497.449 8  81436107.953 7  19586940.108    19586940.054    19586947.049
        49.200          42.600
 127972261.978 6  99534049.078 6  23897904.447    23897904.891    23897910.727
        39.900          41.000
 25  1  1  6 20 45.0000000  0 34G25E03E08S31S35G13E21E13S48S33R02G16
                                G20E15G23G05G11G26G18E07G29G15R23E27
                                R15E26G30R24R18R16R17R03R01R08
 132922182.837 5 103575807.97544  25294226.942    25294225.9684   25294230.9524
        35.000          27.0004
 134796235.616 7                  25650854.828
        43.700
 127877274.146 7                  24334227.094
        46.900
 198976854.874 7                  37864033.528
        45.500
 200950164.467 7                  38239560.641
        44.400
 110263859.435 7  85919915.70045  20982504.274    20982503.6664   20982503.7234
        47.100          34.5004
 140890811.050 6                  26810616.357
        40.500
 124135067.304 8                  23622095.563
        48.500
 412835132.791 5                  78559965.283
        33.400
 202115633.934 7                  38461299.743
        44.600
 105965631.590 8  82417757.230 8  19857908.500    19857908.823    19857914.540
        52.700          48.800
 131746703.367 6 102659781.32342  25070562.499    25070561.4494   25070562.0264
        36.400          15.8004
 124211053.996 7  96787887.53144  23636552.407    23636551.1734   23636551.7594
        42.300          25.8004
 132089731.111 7                  25135802.445
        45.200
 121155095.145 7  94406572.28145  23055046.634    23055046.2774   23055047.2714
        44.700          31.1004
 111517909.241 8  86897123.88548  21221131.851    21221131.3864   21221131.0214
        49.200          48.8004
 130148068.351 6 101414171.48143  24766324.638    24766324.3754   24766326.9404
        38.100          19.6004
 130849722.749 6 101960849.62745  24899871.910    24899871.2404   24899875.6144
        37.600          30.8004
 116237424.191 7  90574620.37146  22119240.970    22119240.5684   22119241.2404
        46.000          36.2004
 140108107.707 6                  26661687.249
        40.400
 107524085.152 8  83785040.18548  20461136.972    20461136.3424   20461136.6684
        49.700          51.5004
 108803690.576 8  84782114.54048  20704646.509    20704646.0984   20704646.3094
        48.900          48.5004
 126361883.249 6                  23621996.598    23621997.038
        41.000
 149221412.741 5                  28395839.227
        35.600
 131371077.988 6 102177552.190 5  24584305.794    24584305.771    24584311.254
        40.900          34.100
 139302927.895 7                  26508465.617
        42.000
 135911473.582 5 105905057.61144  25863091.477    25863090.5974   25863094.6754
        35.500          25.3004
 105138182.144 8  81774217.434 7  19661353.403    19661353.373    19661358.890
        51.700          47.400
 129564776.091 6 100772640.400 6  24271845.248    24271845.532    24271852.766
        40.500          38.500
 128920820.349 7 100271810.353 6  24134243.185    24134243.663    24134250.393
        45.900          39.300
 109594513.871 8  85240222.409 7  20480349.464    20480349.736    20480355.219
        52.200          47.000
 127427125.789 6  99110016.109 6  23804456.467    23804455.904    23804463.858
        40.500          39.800
 104729578.920 8  81456393.539 7  19591819.279    19591819.099    19591825.997
        49.200          42.400
 128035307.735 6  99583084.624 6  23909678.704    23909680.020    23909685.270
        41.100          41.300
 25  1  1  6 21  0.0000000  0 34G25E03E08S31S35G13E21E13S48S33R02G16
                                G20E15G23G05G11G26G18E07G29G15R23E27
                                R15E26G30R24R18R16R17R03R01R08
 132966512.894 5 103610350.85644  25302662.913    25302661.9614   25302666.9454
        35.100          26.8004
 134815579.100 7                  25654535.982
        43.600
 127855996.347 7                  24330177.880
        46.800
 198976849.108 7                  37864027.402
        45.600
 200950175.660 7                  38239560.145
        44.200
 110255286.924 7  85913235.82945  20980873.056    20980872.4484   20980872.4214
        47.200          34.6004
 140922822.173 6                  26816707.636
        40.200
 124126789.312 8                  23620520.401
        48.500
 412834889.531 5                  78559930.642
        32.800
 202115611.003 7                  38461293.013
        44.700
 105930206.063 8  82390204.009 8  19851269.914    19851270.364    19851275.871
        52.400          48.300
 131731845.169 6 102648203.52542  25067734.536    25067733.4904   25067734.5924
        36.500          16.1004
 124253416.502 7  96820897.26744  23644614.167    23644612.9424   23644613.2094
        42.100          26.1004
 132110673.949 7                  25139787.759
        45.200
 121116146.991 7  94376223.07745  23047635.190    23047634.8374   23047635.6104
        44.300          31.1004
 111550058.346 8  86922175.13148  21227249.514    21227249.0494   21227248.7864
        49.300          48.9004
 130189337.115 6 101446328.90043  24774177.847    24774177.5884   24774180.0934
        39.500          19.6004
 130862051.496 6 101970456.46745  24902217.917    24902217.2564   24902221.3964
        37.900          31.0004
 116203280.467 7  90548014.87146  22112743.608    22112743.2114   22112743.8424
        46.300          36.3004
 140061781.907 6                  26652871.498
        40.400
 107534685.525 8  83793300.21048  20463154.094    20463153.4604   20463153.8574
        50.000          51.7004
 108769061.138 8  84755130.56848  20698056.711    20698056.2964   20698056.5324
        49.000          48.6004
 126411828.388 6                  23631333.199    23631332.847
        40.600
 149262258.887 5                  28403611.690
        34.600
 131416262.573 6 102212695.796 5  24592760.670    24592760.943    24592767.253
        40.300          35.300
 139272688.864 7                  26502711.513
        42.500
 135901066.598 6 105896948.23144  25861111.414    25861110.5474   25861114.1404
        37.100          26.2004
 105150110.003 8  81783494.641 7  19663584.011    19663584.082    19663589.478
        52.000          47.200
 129510188.786 6 100730183.484 6  24261619.689    24261619.204    24261627.220
        41.900          40.100
 128937588.952 7 100284852.505 6  24137382.317    24137382.304    24137389.217
        44.500          38.300
 109554459.038 8  85209068.594 7  20472864.173    20472864.557    20472869.647
        51.800          46.600
 127362063.943 6  99059412.445 6  23792302.467    23792302.078    23792309.183
        40.100          39.300
 104755827.876 8  81476809.384 7  19596729.729    19596729.549    19596736.549
        49.700          42.400
 128098375.467 6  99632137.275 6  23921456.952    23921457.240    23921462.956
        41.300          41.600
 25  1  1  6 21 15.0000000  0 34G25E03E08S31S35G13E21E13S48S33R02G16
                                G20E15G23G05G11G26G18E07G29G15R23E27
                                R15E26G30R24R18R16R17R03R01R08
 133010801.435 6 103644861.41144  25311090.673    25311089.7124   25311094.7694
        36.300          27.3004
 134835011.558 7                  25658233.815
        43.500
 127834808.570 7                  24326146.009
        46.700
 198976837.217 7                  37864027.335
        45.400
 200950181.048 7                  38239558.504
        44.300
 110246869.248 7  85906676.61045  20979271.116    20979270.5044   20979270.5164
        47.300          34.5004
 140954879.491 6                  26822807.961
        40.700
 124118534.661 8                  23618949.514
        48.300
 412834640.132 5                  78559900.682
        32.600
 202115581.582 7                  38461286.788
        44.500
 105894936.156 8  82362771.826 8  19844660.357    19844660.528    19844666.236
        52.600          48.600
 131717114.191 6 102636724.85742  25064931.287    25064930.2464   25064931.5154
        37.100          15.7004
 124295779.164 7  96853907.12944  23652675.413    23652674.1754   23652674.6544
        42.300          25.9004
 132131641.431 7                  25143777.576
        44.900
 121077245.067 7  94345909.89345  23040232.679    23040232.3314   23040232.7414
        44.500          31.1004
 111582259.399 8  86947266.86448  21233377.337    21233376.8724   21233376.4204
        49.200          48.7004
 130230627.273 6 101478502.99343  24782035.214    24782034.9514   24782037.4634
        38.900          20.1004
 130874483.370 6 101980143.67545  24904583.262    24904582.6054   24904587.1664
        38.200          30.6004
 116169161.080 7  90521428.33846  22106250.506    22106250.1044   22106251.1584
        46.900          36.3004
 140015467.828 6                  26644058.355
        40.400
 107545428.076 8  83801671.02748  20465198.419    20465197.7804   20465198.1044
        49.900          51.6004
 108734553.530 8  84728241.53148  20691490.077    20691489.6664   20691489.9374
        49.100          48.7004
 126461824.772 6                  23640679.289    23640679.070
        40.400
 149303067.426 5                  28411377.070
        34.100
 131461485.424 6 102247869.086 5  24601224.129    24601223.676    24601230.425
        41.100          35.300
 139242442.665 7                  26496955.847
        42.400
 135890753.111 6 105888911.73044  25859148.410    25859147.5434   25859151.6124
        36.100          26.2004
 105162159.235 8  81792866.254 7  19665837.155    19665837.382    19665842.764
        52.500          47.100
 129455567.269 7 100687700.017 6  24251386.776    24251386.701    24251394.247
        42.100          39.600
 128954508.420 7 100298012.034 6  24140550.253    24140550.569    24140556.516
        45.000          38.200
 109514460.184 8  85177958.389 7  20465389.527    20465389.708    20465395.241
        52.400          46.700
 127297026.877 6  99008828.045 6  23780152.876    23780152.510    23780160.871
        40.300          40.100
 104782235.784 8  81497348.873 7  19601669.884    19601669.704    19601676.829
        49.300          42.500
 128161456.388 6  99681200.197 6  23933235.753    23933236.567    23933242.032
        40.200          40.900
 25  1  1  6 21 30.0000000  0 34G25E03E08S31S35G13E21E13S48S33R02G16
                                G20E15G23G05G11G26G18E07G29G15R23E27
                                R15E26G30R24R18R16R17R03R01R08
 133055058.664 5 103679347.55944  25319513.225    25319512.2554   25319516.5554
        35.800          26.9004
 134854543.233 7                  25661950.536
        43.400
 127813721.339 7                  24322133.249
        46.500
 198976829.831 7                  37864027.903
        45.500
 200950190.196 7                  38239554.801
        44.100
 110238617.031 7  85900246.31845  20977700.901    20977700.2844   20977700.1594
        47.100          34.6004
 140986993.237 6                  26828918.980
        40.700
 124110313.869 8                  23617385.190
        48.200
 412834395.321 5                  78559867.373
        32.200
 202115557.986 7                  38461286.766
        44.800
 105859832.535 8  82335468.990 8  19838082.117    19838082.387    19838087.960
        52.800          48.500
 131702520.925 6 102625353.52142  25062154.101    25062153.0554   25062154.5124
        37.100          15.1004
 124338152.123 7  96886924.97244  23660739.156    23660737.9224   23660738.2114
        42.000          25.9004
 132152644.009 7                  25147774.116
        44.800
 121038399.833 7  94315640.89645  23032840.075    23032839.7134   23032840.8184
        45.000          31.1004
 111614522.798 8  86972407.14848  21239516.748    21239516.2834   21239515.9404
        49.100          48.8004
 130271949.172 6 101510701.81143  24789898.547    24789898.2794   24789901.3484
        39.000          20.2004
 130887028.500 6 101989919.14545  24906970.595    24906969.9164   24906974.5304
        38.000          31.0004
 116135076.551 7  90494868.96646  22099764.392    22099763.9814   22099765.1144
        46.200          36.3004
 139969176.136 6                  26635249.205
        39.700
 107556323.109 8  83810160.65848  20467271.722    20467271.0834   20467271.3544
        49.900          51.5004
 108700178.533 8  84701455.82048  20684948.600    20684948.1944   20684948.5794
        49.300          48.7004
 126511882.652 6                  23650037.314    23650036.951
        39.600
 149343848.534 5                  28419137.730
        33.900
 131506756.884 6 102283080.173 5  24609696.433    24609695.630    24609702.697
        39.400          34.500
 139212199.623 7                  26491200.624
        42.600
 135880543.582 5 105880956.12044  25857206.238    25857205.3754   25857209.1174
        35.300          26.2004
 105174340.624 8  81802340.647 7  19668115.059    19668115.285    19668120.851
        52.100          47.100
 129400922.073 7 100645198.020 6  24241149.895    24241150.258    24241157.858
        43.200          39.500
 128971588.761 7 100311296.690 6  24143747.560    24143747.413    24143753.964
        44.400          38.300
 109474528.164 8  85146900.162 7  20457927.036    20457927.594    20457932.993
        52.200          46.900
 127232025.371 6  98958271.323 6  23768009.177    23768009.577    23768017.688
        40.600          40.300
 104808812.808 8  81518019.894 7  19606641.571    19606641.495    19606648.451
        49.400          42.300
 128224560.958 6  99730281.520 6  23945020.332    23945021.220    23945026.573
        41.500          41.900
 25  1  1  6 21 45.0000000  0 34G25E03E08S31S35G13E21E13S48S33R02G16
                                G20E15G23G05G11G26G18E07G29G15R23E27
                                R15E26G30R24R18R16R17R03R01R08
 133099276.976 5 103713803.38044  25327927.137    25327926.1404   25327931.0534
        35.400          27.2004
 134874166.735 7                  25665684.882
        43.500
 127792727.521 7                  24318138.262
        46.700
 198976819.054 7                  37864027.979
        45.700
 200950196.653 7                  38239565.202
        44.100
 110230522.937 7  85893939.24045  20976160.954    20976160.3424   20976159.8864
        46.800          34.6004
 141019155.775 6                  26835039.369
        40.600
 124102119.655 8                  23615825.912
        48.500
 412834146.882 5                  78559847.031
        33.100
 202115530.050 7                  38461279.638
        45.000
 105824888.159 8  82308290.005 8  19831533.609    19831533.906    19831539.296
        52.700          48.400
 131688058.100 6 102614083.78842  25059402.249    25059401.1994   25059402.0104
        37.100          16.2004
 124380528.251 7  96919945.31444  23668802.474    23668801.2454   23668801.8164
        42.500          25.9004
 132173674.463 7                  25151776.215
        45.100
 120999604.033 7  94285410.41745  23025457.840    23025457.4834   23025458.2584
        44.500          31.3004
 111646841.116 8  86997590.24748  21245666.731    21245666.2624   21245665.9374
        49.300          48.8004
 130313295.548 6 101542919.72143  24797766.850    24797766.5734   24797768.8594
        38.700          19.9004
 130899679.439 6 101999777.03645  24909378.316    24909377.6234   24909382.3334
        37.000          31.2004
 116101019.816 7  90468331.27546  22093283.782    22093283.3674   22093284.2934
        46.000          36.4004
 139922899.764 6                  26626443.016
        40.200
 107567363.339 8  83818763.43648  20469372.592    20469371.9494   20469372.2394
        49.500          51.5004
 108665929.157 8  84674768.00148  20678431.432    20678431.0214   20678431.1404
        49.000          48.7004
 126561994.514 6                  23659407.217    23659406.123
        41.800
 149384594.671 5                  28426891.462
        34.700
 131552068.923 6 102318322.970 5  24618175.731    24618175.919    24618181.823
        41.800          35.400
 139181952.548 7                  26485444.810
        42.600
 135870430.980 5 105873076.03044  25855282.455    25855281.5924   25855285.0184
        35.100          26.6004
 105186646.815 8  81811912.126 7  19670416.502    19670416.597    19670422.189
        51.700          47.000
 129346246.492 7 100602672.649 6  24230907.485    24230907.564    24230915.249
        42.000          38.700
 128988822.552 7 100324700.752 6  24146973.683    24146973.930    24146980.852
        43.700          38.300
 109434655.952 8  85115888.481 7  20450475.940    20450476.238    20450481.736
        52.100          46.900
 127167052.859 6  98907737.108 6  23755873.310    23755873.245    23755879.947
        41.000          39.800
 104835551.220 8  81538816.461 7  19611643.578    19611643.578    19611650.278
        49.700          42.400
 128287681.097 6  99779375.049 6  23956806.575    23956807.389    23956813.278
        40.400          40.700
 25  1  1  6 22  0.0000000  0 34G25E03E08S31S35G13E21E13S48S33R02G16
                                G20E15G23G05G11G26G18E07G29G15R23E27
                                R15E26G30R24R18R16R17R03R01R08
 133143459.051 6 103748230.95844  25336335.707    25336334.7064   25336338.6434
        36.000          27.1004
 134893884.965 7                  25669436.894
        43.600
 127771830.258 7                  24314161.475
        46.700
 198976808.342 7                  37864019.961
        45.700
 200950202.725 7                  38239564.630
        44.100
 110222590.012 7  85887757.75245  20974651.169    20974650.5484   20974650.3024
        47.700          34.5004
 141051369.945 6                  26841169.431
        40.700
 124093955.118 8                  23614272.242
        48.400
 412833898.652 5                  78559811.670
        32.100
 202115502.443 7                  38461275.694
        45.100
 105790106.228 8  82281237.373 8  19825015.574    19825015.747    19825021.137
        52.500          48.300
 131673728.872 6 102602918.15242  25056675.397    25056674.3474   25056675.4834
        36.800          15.8004
 124422910.417 7  96952970.36044  23676867.054    23676865.8294   23676866.7674
        42.200          25.4004
 132194735.822 7                  25155784.056
        44.900
 120960860.776 7  94255220.87145  23018085.337    23018084.9894   23018085.5904
        44.400          31.1004
 111679216.665 8  87022817.94648  21251827.654    21251827.1814   21251826.8144
        49.300          48.6004
 130354669.376 6 101575158.99943  24805639.550    24805639.2694   24805641.7194
        38.700          19.4004
 130912439.005 6 102009719.57745  24911806.270    24911805.5954   24911810.1964
        39.100          31.3004
 116066993.958 7  90441817.63646  22086809.216    22086808.8144   22086809.3444
        46.000          36.4004
 139876641.961 6                  26617640.841
        40.900
 107578551.897 8  83827481.80048  20471501.758    20471501.1104   20471501.3354
        49.600          51.4004
 108631808.684 8  84648180.63448  20671938.422    20671938.0164   20671938.2054
        49.500          48.7004
 126612163.420 6                  23668782.816    23668783.902
        40.000
 149425308.709 5                  28434639.188
        34.300
 131597424.138 6 102353599.305 5  24626662.662    24626662.665    24626668.551
        39.200          31.300
 139151704.479 7                  26479688.467
        42.400
 135860418.719 5 105865274.11044  25853377.149    25853376.2914   25853379.7674
        35.900          26.3004
 105199081.065 8  81821583.196 7  19672741.766    19672741.791    19672747.549
        52.100          47.000
 129291543.985 6 100560126.606 6  24220660.095    24220659.781    24220667.081
        41.700          39.900
 129006212.478 7 100338226.323 6  24150229.663    24150229.616    24150236.377
        45.800          39.500
 109394846.892 8  85084925.868 7  20443036.931    20443037.269    20443042.476
        52.300          47.000
 127102112.395 7  98857227.871 6  23743741.544    23743741.764    23743748.453
        42.000          39.600
 104862453.905 8  81559740.790 7  19616676.474    19616676.156    19616683.072
        49.700          42.400
 128350819.770 6  99828482.890 6  23968598.604    23968598.731    23968604.330
        40.300          41.300
 25  1  1  6 22 15.0000000  0 33G25E03E08S31S35G13E21E13S48S33R02G16
                                G20E15G23G05G11G26G18E07G29G15R23E27
                                E26G30R24R18R16R17R03R01R08
 133187605.924 5 103782631.11744  25344735.455    25344734.4674   25344739.4854
        35.700          27.1004
 134913699.130 7                  25673207.384
        43.600
 127751031.028 7                  24310203.595
        46.700
 198976799.406 7                  37864020.641
        45.500
 200950210.689 7                  38239562.224
        44.200
 110214819.800 7  85881703.05145  20973172.553    20973171.9324   20973171.6804
        47.100          34.6004
 141083636.832 6                  26847309.785
        40.500
 124085821.743 8                  23612724.630
        48.600
 412833652.551 5                  78559788.851
        32.400
 202115476.085 7                  38461269.076
        45.100
 105755488.356 8  82254312.342 8  19818527.953    19818528.281    19818533.814
        52.700          48.600
 131659534.615 6 102591857.75942  25053974.709    25053973.6364   25053974.3904
        36.200          14.7004
 124465299.798 6  96986001.05644  23684934.202    23684932.9554   23684933.2214
        41.900          25.6004
 132215829.512 7                  25159798.045
        45.300
 120922171.441 7  94225073.34845  23010722.877    23010722.5244   23010723.2254
        44.500          31.3004
 111711651.012 8  87048091.49248  21257999.529    21257999.0644   21257998.8564
        49.200          48.6004
 130396071.966 6 101607420.69643  24813518.234    24813517.9214   24813520.6514
        38.200          19.8004
 130925308.315 6 102019747.63145  24914254.350    24914253.6574   24914258.9644
        37.100          30.7004
 116033000.481 7  90415329.22546  22080340.370    22080339.9644   22080340.5514
        46.100          36.4004
 139830404.267 6                  26608841.869
        40.400
 107589889.952 8  83836316.65048  20473659.446    20473658.8034   20473658.8974
        49.500          51.4004
 108597818.744 8  84621694.98248  20665470.269    20665469.8584   20665470.1204
        49.300          48.6004
 126662390.655 6                  23678174.219    23678174.176
        40.300
 149465991.734 5                  28442380.736
        33.500
 139121456.776 7                  26473932.904
        42.500
 135850508.197 5 105857551.47744  25851491.299    25851490.4324   25851493.9544
        34.500          25.6004
 105211644.882 8  81831355.049 7  19675091.320    19675091.441    19675097.118
        51.800          47.100
 129236814.824 7 100517559.481 6  24210406.959    24210406.932    24210413.995
        42.300          38.900
 129023759.560 7 100351874.107 6  24153513.086    24153514.125    24153520.515
        44.200          38.400
 109355102.725 8  85054013.737 7  20435609.563    20435610.007    20435615.540
        52.500          47.000
 127037206.024 6  98806745.121 6  23731616.071    23731616.307    23731623.564
        41.400          39.900
 104889521.542 8  81580793.395 7  19621739.793    19621739.661    19621746.683
        49.800          42.500
 128413977.436 6  99877605.449 6  23980391.334    23980392.416    23980399.106
        39.600          41.700
 25  1  1  6 22 30.0000000  0 33G25E03E08S31S35G13E21E13S48S33R02G16
                                G20E15G23G05G11G26G18E07G29G15R23E27
                                E26G30R24R18R16R17R03R01R08
 133231715.302 6 103817002.07244  25353129.692    25353128.7224   25353133.3424
        36.700          27.5004
 134933607.060 7                  25676995.873
        44.100
 127730327.931 7                  24306263.875
        47.100
 198976789.013 7                  37864019.340
        45.400
 200950217.453 7                  38239567.402
        44.200
 110207210.310 7  85875773.59045  20971724.431    20971723.8104   20971723.6394
        47.000          34.5004
 141115954.157 6                  26853459.488
        40.900
 124077717.564 8                  23611182.285
        48.900
 412833404.224 5                  78559747.506
        32.600
 202115448.898 7                  38461262.190
        44.700
 105721032.917 8  82227513.666 8  19812070.908    19812071.280    19812076.756
        52.600          48.300
 131645473.593 6 102580901.14042  25051298.561    25051297.4934   25051298.5264
        37.500          15.3004
 124507694.089 6  97019035.53544  23693001.666    23693000.4194   23693000.5964
        41.600          25.4004
 132236953.565 7                  25163817.883
        45.300
 120883534.068 7  94194966.31645  23003370.254    23003369.9104   23003370.7684
        44.600          31.3004
 111744141.838 8  87073409.00748  21264182.543    21264182.0784   21264181.6214
        48.800          48.6004
 130437501.233 6 101639703.19043  24821402.285    24821401.9684   24821404.5914
        38.500          19.3004
 130938285.155 6 102029859.46845  24916724.321    24916723.6554   24916728.4804
        38.500          31.2004
 115999037.518 7  90388864.57846  22073877.431    22073877.0204   22073877.5814
        46.200          36.3004
 139784184.913 6                  26600046.781
        40.900
 107601375.457 8  83845266.39648  20475844.969    20475844.3304   20475844.5064
        49.100          51.4004
 108563957.637 8  84595309.73448  20659026.699    20659026.2844   20659026.5564
        49.000          48.7004
 126712673.717 6                  23687573.264    23687572.730
        38.700
 149506641.522 5                  28450116.510
        34.000
 139091207.468 7                  26468176.652
        42.700
 135840697.921 5 105849907.14444  25849623.965    25849623.1074   25849627.4454
        35.000          25.1004
 105224336.099 8  81841225.971 7  19677464.926    19677464.768    19677470.294
        52.200          46.900
 129182057.394 6 100474970.194 6  24200149.270    24200148.828    24200156.884
        41.200          38.500
 129041461.327 7 100365642.126 6  24156827.242    24156827.405    24156834.797
        44.100          38.400
 109315421.913 8  85023150.910 7  20428194.252    20428194.649    20428200.003
        51.800          46.900
 126972331.526 6  98756287.199 6  23719496.507    23719496.591    23719504.635
        40.800          40.200
 104916751.659 8  81601972.351 7  19626834.013    19626833.800    19626840.733
        49.600          42.500
 128477152.101 6  99926741.226 6  23992190.056    23992189.831    23992196.132
        40.600          41.300
