     2.11           OBSERVATION DATA    M (MIXED)           RINEX VERSION / TYPE
teqc  2019Feb25                         20260317 16:20:09UTCPGM / RUN BY / DATE
Linux 2.4.21-27.ELsmp|Opteron|gcc -static|Linux 64|=+       COMMENT
BIT 2 OF LLI FLAGS DATA COLLECTED UNDER A/S CONDITION       COMMENT
-Unknown-                                                   MARKER NAME
-Unknown-           -Unknown-                               OBSERVER / AGENCY
-Unknown-           -Unknown-           -Unknown-           REC # / TYPE / VERS
-Unknown-           -Unknown-                               ANT # / TYPE
        0.0000        0.0000        0.0000                  APPROX POSITION XYZ
        0.0000        0.0000        0.0000                  ANTENNA: DELTA H/E/N
     1     1                                                WAVELENGTH FACT L1/2
     7    L1    L2    C1    P1    P2    S1    S2            # / TYPES OF OBSERV
 SNR is mapped to RINEX snr flag value [0-9]                COMMENT
  L1 & L2: min(max(int(snr_dBHz/6), 0), 9)                  COMMENT
  2025     1     1    16     0    0.0000000     GPS         TIME OF FIRST OBS
    18                                                      LEAP SECONDS
                                                            END OF HEADER
 25  1  1 16  0  0.0000000  0 29G09G26E19E36S31S35G07G03R06S48S33E27
                                E11E29E04E31G16G27E21G04R15E06R07R10
                                R05R16G29G28G31
 119678272.473 7  93255808.16946  22774016.982    22774016.4064   22774019.1874
        43.400          41.5004
 108684598.895 8  84689327.34648  20681986.796    20681986.1534   20681989.9194
        49.100          49.3004
 121784407.082 7                  23174802.864
        43.900
 152277662.795 5                  28977476.642
        34.600
 198981260.924 7                  37864877.865
        45.700
 200927462.510 7                  38235235.947
        44.100
 133325465.843 6 103890000.80444  25370988.261    25370987.6044   25370992.8054
        38.200          27.5004
 112533889.074 7  87688754.13047  21414487.613    21414487.3634   21414491.3994
        47.700          46.2004
 102255938.965 7                  19162720.066    19162719.620
        42.200
 412764658.901 5                  78546439.712
        33.400
 202111098.164 7                  38460443.319
        45.300
 145428768.361 6                  27674175.909
        39.700
 150562500.625 5                  28651097.473
        33.200
 139105400.308 6                  26470895.996
        40.700
 129673889.727 7                  24676121.361
        46.800
 147787374.941 6                  28122990.782
        37.300
 105180456.867 8  81958866.81046  20015151.874    20015150.8684   20015152.2604
        48.100          39.9004
 126949933.018 6  98922141.15645  24157743.537    24157742.7424   24157760.0684
        40.300          34.2004
 125984651.294 7                  23974072.761
        47.300
 109541680.198 7  85357158.41046  20845088.367    20845087.9704   20845089.2704
        47.800          36.6004
 127202075.634 7  98934985.868 7  23804135.796    23804136.761    23804145.795
        43.800          42.400
 140300702.882 6                  26698336.263
        41.800
 111089092.145 8  86402650.927 7  20752371.022    20752371.283    20752377.453
        51.700          47.100
 124692464.115 6                  23391965.537    23391965.085
        39.900
 121631052.219 7  94601891.612 7  22753633.829    22753633.670    22753652.069
        43.800          43.000
 105929265.384 8  82389474.071 8  19830174.452    19830174.598    19830180.787
        52.600          48.300
 132967514.987 6 103611184.14944  25302827.421    25302826.7874   25302831.1614
        38.400          29.6004
 126598695.691 7  98648322.81344  24090940.977    24090940.6154   24090945.5224
        42.100          25.7004
 114972020.030 7  89588584.61547  21878450.584    21878450.0844   21878450.8184
        47.300          45.6004
 25  1  1 16  0 15.0000000  0 29G09G26E19E36S31S35G07G03R06S48S33E27
                                E11E29E04E31G16G27E21G04R15E06R07R10
                                R05R16G29G28G31
 119631493.760 7  93219357.24046  22765115.300    22765114.7334   22765117.5954
        43.500          41.8004
 108710853.433 8  84709785.44548  20686982.583    20686981.9444   20686985.9654
        49.000          49.2004
 121794740.603 7                  23176769.291
        43.800
 152286399.425 5                  28979139.291
        34.700
 198981260.616 7                  37864877.346
        45.700
 200927428.343 7                  38235228.511
        43.800
 133289843.131 6 103862243.01544  25364208.907    25364208.2234   25364214.0004
        38.600          27.3004
 112566494.050 7  87714160.56247  21420692.274    21420692.0154   21420695.9674
        47.600          46.2004
 102263029.775 7                  19164048.707    19164048.837
        42.100
 412765204.165 5                  78546475.100
        32.900
 202111124.115 7                  38460453.130
        45.500
 145469780.026 6                  27681980.799
        39.100
 150593604.972 5                  28657016.703
        32.400
 139139466.142 6                  26477378.403
        41.100
 129645893.009 7                  24670793.802
        46.800
 147741631.906 6                  28114285.425
        36.900
 105167139.877 8  81948489.94146  20012617.750    20012616.7444   20012618.0804
        48.000          39.9004
 126898096.294 6  98881749.10945  24147878.939    24147878.1214   24147895.5704
        40.100          34.4004
 125996913.916 7                  23976406.230
        47.300
 109511538.474 7  85333671.33946  20839352.245    20839351.8434   20839353.4844
        47.400          36.6004
 127260289.603 7  98980263.025 6  23815029.507    23815030.148    23815039.700
        42.800          41.900
 140263877.999 6                  26691328.761
        41.800
 111041774.843 8  86365848.566 7  20743531.675    20743531.896    20743537.972
        51.500          47.300
 124638077.287 6                  23381761.238    23381761.196
        39.000
 121691374.976 7  94648808.957 7  22764919.408    22764919.657    22764936.964
        45.300          43.000
 105961350.357 8  82414429.024 8  19836181.066    19836180.900    19836187.146
        53.100          48.200
 132986176.052 6 103625725.24444  25306378.476    25306377.8194   25306382.3724
        38.400          28.7004
 126639225.994 6  98679904.74644  24098653.651    24098653.3074   24098657.9894
        41.200          25.5004
 115007230.749 7  89616021.52247  21885151.241    21885150.7684   21885151.1334
        47.300          45.5004
 25  1  1 16  0 30.0000000  0 29G09G26E19E36S31S35G07G03R06S48S33E27
                                E11E29E04E31G16G27E21G04R15E06R07R10
                                R05R16G29G28G31
 119584747.684 7  93182931.76446  22756219.562    22756218.9994   22756221.9774
        43.500          41.4004
 108737227.906 8  84730336.99348  20692001.254    20692000.6064   20692004.8564
        49.300          49.0004
 121805139.570 7                  23178748.023
        43.600
 152295233.644 5                  28980820.694
        32.700
 198981260.643 7                  37864875.119
        45.600
 200927394.007 7                  38235223.583
        43.700
 133254230.938 6 103834493.41744  25357432.621    25357431.9424   25357436.9884
        38.200          26.7004
 112599219.091 7  87739660.55947  21426919.676    21426919.4044   21426923.3644
        47.600          46.1004
 102270305.322 6                  19165412.453    19165412.061
        41.700
 412765750.105 5                  78546505.968
        33.300
 202111149.620 7                  38460461.179
        45.600
 145510818.127 6                  27689789.479
        40.400
 150624752.110 5                  28662944.286
        32.100
 139173571.550 6                  26483868.536
        40.800
 129617927.387 7                  24665472.383
        46.600
 147695900.413 6                  28105583.096
        36.300
 105153983.526 7  81938238.25946  20010114.229    20010113.2284   20010114.5574
        47.900          39.9004
 126846262.544 6  98841359.37245  24138015.613    24138014.7864   24138031.6674
        39.700          34.3004
 126009268.341 7                  23978757.274
        47.300
 109481471.487 7  85310242.52846  20833630.889    20833630.4834   20833631.9674
        47.500          36.5004
 127318490.371 7  99025529.855 6  23825922.700    23825923.235    23825931.701
        43.800          41.300
 140227057.322 6                  26684321.692
        41.300
 110994556.850 8  86329123.438 7  20734711.162    20734711.240    20734717.437
        50.900          47.300
 124583751.076 6                  23371570.947    23371570.529
        39.200
 121751763.880 7  94695777.745 7  22776216.208    22776216.818    22776233.789
        44.900          42.400
 105993538.448 8  82439464.219 8  19842206.850    19842206.984    19842212.998
        53.400          48.300
 133004961.921 6 103640363.49344  25309953.838    25309953.1774   25309956.5714
        37.400          28.6004
 126679764.020 6  98711492.71244  24106368.066    24106367.7224   24106372.1824
        41.300          25.1004
 115042475.674 7  89643485.08247  21891858.002    21891857.5374   21891857.9644
        47.500          45.2004
 25  1  1 16  0 45.0000000  0 29G09G26E19E36S31S35G07G03R06S48S33E27
                                E11E29E04E31G16G27E21G04R15E06R07R10
                                R05R16G29G28G31
 119538031.323 7  93146529.44146  22747330.051    22747329.4974   22747332.1104
        43.900          41.5004
 108763718.983 8  84750979.41548  20697042.532    20697041.8844   20697045.9174
        49.100          48.9004
 121815601.017 7                  23180738.922
        43.800
 152304162.126 5                  28982519.707
        32.800
 198981257.429 7                  37864879.944
        46.200
 200927356.990 7                  38235207.959
        43.700
 133218626.233 6 103806749.67944  25350657.260    25350656.5814   25350662.0104
        38.300          27.4004
 112632060.807 7  87765251.48047  21433169.049    21433168.7814   21433172.9534
        47.900          46.1004
 102277762.632 6                  19166809.781    19166809.671
        41.600
 412766293.346 5                  78546533.263
        33.400
 202111173.013 7                  38460459.945
        45.600
 145551879.349 6                  27697603.123
        40.000
 150655938.860 5                  28668879.235
        32.900
 139207713.410 6                  26490365.670
        40.700
 129589989.911 7                  24660155.782
        46.900
 147650177.484 6                  28096882.150
        37.200
 105140984.816 8  81928109.41246  20007640.690    20007639.6804   20007640.9684
        48.100          39.9004
 126794429.151 6  98800969.90745  24128151.890    24128151.0684   24128167.9524
        40.700          34.7004
 126021711.408 7                  23981125.011
        47.500
 109451476.362 7  85286869.70746  20827923.103    20827922.6974   20827924.0664
        47.700          36.5004
 127376674.420 7  99070783.475 6  23836810.470    23836810.366    23836820.500
        42.100          41.200
 140190237.888 6                  26677315.771
        41.200
 110947435.696 8  86292473.626 7  20725909.022    20725908.650    20725914.874
        51.600          47.100
 124529482.787 6                  23361390.425    23361389.525
        38.600
 121812215.651 7  94742795.448 7  22787525.209    22787525.104    22787543.502
        44.400          42.600
 106025826.183 8  82464576.920 8  19848250.731    19848251.016    19848257.236
        53.000          48.300
 133023869.373 6 103655096.39544  25313550.993    25313550.3414   25313554.3984
        39.000          28.9004
 126720306.609 6  98743084.23944  24114083.371    24114083.0234   24114087.2204
        41.500          25.1004
 115077751.772 8  89670972.92847  21898570.732    21898570.2724   21898570.8224
        48.000          45.2004
 25  1  1 16  1  0.0000000  0 29G09G26E19E36S31S35G07G03R06S48S33E27
                                E11E29E04E31G16G27E21G04R15E06R07R10
                                R05R16G29G28G31
 119491350.532 7  93110154.80846  22738446.586    22738446.0284   22738449.1344
        44.700          41.6004
 108790331.967 8  84771716.81848  20702106.857    20702106.2094   20702110.1684
        49.000          48.7004
 121826130.565 7                  23182742.463
        43.700
 152313190.686 4                  28984238.424
        29.700
 198981257.064 7                  37864878.325
        46.000
 200927322.381 7                  38235205.920
        44.000
 133183034.572 6 103779016.08444  25343884.532    25343883.8844   25343888.8704
        38.800          27.2004
 112665024.522 7  87790937.46047  21439441.937    21439441.6694   21439445.7724
        47.800          46.0004
 102285407.569 7                  19168241.988    19168242.455
        42.100
 412765239.231 5                  78546564.841
        33.400
 202111198.518 7                  38460466.290
        45.500
 145592968.889 6                  27705421.851
        39.700
 150687170.587 5                  28674822.042
        31.600
 139241897.355 6                  26496870.826
        40.800
 129562086.347 7                  24654846.047
        47.000
 147604468.902 6                  28088183.646
        37.400
 105128149.336 8  81918107.76146  20005198.125    20005197.1104   20005198.3844
        48.100          39.8004
 126742602.108 6  98760585.36545  24118288.708    24118287.8904   24118305.0784
        40.200          34.6004
 126034248.566 7                  23983510.770
        47.400
 109421558.985 7  85263557.45546  20822229.994    20822229.5834   20822230.9704
        47.500          36.5004
 127434846.270 7  99116027.112 6  23847698.844    23847698.266    23847707.653
        42.400          40.500
 140153425.527 6                  26670310.220
        41.400
 110900417.416 8  86255903.832 7  20717124.986    20717124.912    20717131.297
        51.200          47.000
 124475277.857 6                  23351221.243    23351221.704
        40.000
 121872735.431 7  94789866.013 7  22798847.630    22798847.574    22798865.592
        44.900          43.300
 106058219.108 8  82489771.447 8  19854315.098    19854315.037    19854321.078
        53.300          48.300
 133042904.258 6 103669928.51644  25317173.974    25317173.3134   25317177.2004
        37.000          29.0004
 126760859.394 6  98774683.72944  24121800.395    24121800.0334   24121804.1764
        41.200          25.1004
 115113064.483 8  89698489.28547  21905290.542    21905290.0824   21905290.6114
        48.000          45.0004
 25  1  1 16  1 15.0000000  0 29G09G26E19E36S31S35G07G03R06S48S33E27
                                E11E29E04E31G16G27E21G04R15E06R07R10
                                R05R16G29G28G31
 119444702.484 7  93073805.66346  22729569.797    22729569.2394   22729572.2384
        44.500          41.6004
 108817063.610 8  84792546.68848  20707193.565    20707192.9084   20707196.9884
        49.000          48.7004
 121836725.212 7                  23184758.751
        43.700
 152322317.144 5                  28985974.479
        30.800
 198981255.879 7                  37864877.395
        46.100
 200927286.908 7                  38235197.885
        44.100
 133147452.907 6 103751290.26244  25337112.747    25337112.0594   25337118.1184
        37.200          26.7004
 112698106.801 7  87816715.82347  21445737.254    21445736.9914   21445741.2214
        47.700          46.1004
 102293237.104 6                  19169709.978    19169709.429
        41.400
 412765784.869 5                  78546593.862
        33.200
 202111223.391 7                  38460476.119
        45.700
 145634083.379 6                  27713246.162
        39.900
 150718444.029 5                  28680773.429
        32.600
 139276120.250 6                  26503383.357
        41.000
 129534213.858 7                  24649542.057
        47.300
 147558771.874 6                  28079487.941
        36.200
 105115474.121 7  81908230.98346  20002786.065    20002785.0464   20002786.3734
        47.900          39.8004
 126690778.780 6  98720203.71145  24108427.677    24108426.8864   24108443.2324
        39.800          34.4004
 126046876.636 7                  23985913.943
        47.600
 109391716.592 7  85240303.62346  20816550.942    20816550.5364   20816552.1354
        47.800          36.4004
 127493005.906 7  99161262.352 6  23858582.181    23858583.474    23858591.453
        44.600          41.300
 140116617.262 6                  26663305.503
        41.800
 110853499.675 8  86219412.236 7  20708360.431    20708360.756    20708367.149
        52.000          47.300
 124421133.746 6                  23341062.282    23341062.249
        38.300
 121933319.896 7  94836986.901 7  22810180.930    22810180.951    22810199.063
        44.800          42.700
 106090713.807 8  82515045.123 8  19860397.758    19860398.148    19860404.068
        52.800          48.200
 133062063.800 6 103684857.92044  25320820.224    25320819.5634   25320824.0184
        37.700          29.3004
 126801419.201 6  98806288.64844  24129518.282    24129517.9254   24129522.6174
        41.100          24.8004
 115148410.607 8  89726031.69147  21912016.584    21912016.1154   21912016.7494
        48.000          45.0004
 25  1  1 16  1 30.0000000  0 30G09G26E19E36S31S35G07G03R06S48S33E27
                                E11E29E04E31G16G27E21G04R15E06R07R17
                                R10R05R16G29G28G31
 119398085.956 7  93037481.02446  22720699.037    22720698.4704   22720701.4694
        43.000          41.7004
 108843911.966 8  84813467.48448  20712302.478    20712301.8214   20712306.0454
        48.800          48.7004
 121847383.578 7                  23186786.902
        43.600
 152331538.537 5                  28987729.043
        34.000
 198981252.871 7                  37864875.535
        46.000
 200927250.505 7                  38235187.520
        43.900
 133111879.653 6 103723571.02344  25330344.074    25330343.4134   25330348.7974
        38.200          27.4004
 112731305.908 7  87842585.22647  21452055.013    21452054.7414   21452058.8194
        47.900          46.2004
 102301249.664 7                  19171211.274    19171211.304
        42.000
 412766329.209 5                  78546633.619
        33.300
 202111246.822 7                  38460474.800
        45.800
 145675221.171 6                  27721074.761
        39.600
 150749757.337 5                  28686732.473
        31.500
 139310380.573 6                  26509902.840
        40.700
 129506371.006 7                  24644243.850
        47.100
 147513084.972 6                  28070793.503
        36.600
 105102957.776 8  81898478.00446  20000404.336    20000403.3174   20000404.6084
        48.000          40.0004
 126638958.079 6  98679824.10445  24098566.830    24098566.0434   24098581.5914
        39.800          34.4004
 126059593.963 7                  23988333.894
        47.600
 109361947.973 7  85217107.30646  20810886.371    20810885.9604   20810887.3674
        47.700          36.7004
 127551148.839 7  99206484.317 6  23869462.003    23869463.048    23869472.690
        43.400          41.900
 140079811.634 6                  26656301.903
        41.700
 110806681.336 8  86182997.985 7  20699613.911    20699614.401    20699620.750
        51.700          47.300
 131870728.582 6 102566172.142 6  24643197.697    24643198.229    24643209.687
        41.500          39.500
 124367049.162 6                  23330916.824    23330915.605
        38.600
 121993966.962 7  94884156.470 7  22821526.488    22821526.933    22821544.325
        46.100          42.700
 106123307.923 8  82540396.081 7  19866499.655    19866499.945    19866505.888
        52.900          47.900
 133081345.846 6 103699882.80644  25324489.206    25324488.5544   25324493.5574
        38.300          29.8004
 126841984.530 6  98837897.87544  24137238.240    24137237.8874   24137242.1094
        41.300          25.1004
 115183788.564 7  89753598.89447  21918748.746    21918748.2684   21918748.9784
        47.700          45.1004
 25  1  1 16  1 45.0000000  0 30G09G26E19E36S31S35G07G03R06S48S33E27
                                E11E29E04E31G16G27E21G04R15E06R07R17
                                R10R05R16G29G28G31
 119351505.537 7  93001184.56147  22711835.198    22711834.6444   22711837.5514
        44.700          42.0004
 108870881.006 8  84834482.29948  20717434.710    20717434.0534   20717438.0634
        48.900          48.8004
 121858109.979 7                  23188828.178
        43.500
 152340858.881 5                  28989502.377
        34.600
 198981251.778 7                  37864876.818
        46.000
 200927215.512 7                  38235183.692
        43.800
 133076318.983 6 103695861.50744  25323575.812    25323575.1464   25323581.6944
        39.200          27.8004
 112764625.615 7  87868548.60347  21458395.104    21458394.8414   21458399.3214
        47.800          46.4004
 102309449.815 7                  19172748.044    19172747.990
        42.100
 412766875.547 5                  78546662.215
        33.700
 202111272.103 7                  38460476.951
        45.300
 145716386.307 6                  27728908.770
        39.200
 150781114.594 5                  28692699.320
        33.000
 139344682.491 6                  26516430.505
        40.400
 129478562.211 7                  24638951.997
        47.000
 147467412.654 6                  28062102.226
        37.400
 105090604.596 7  81888852.16346  19998053.639    19998052.6294   19998053.8314
        47.900          40.1004
 126587144.565 6  98639450.08645  24088706.303    24088705.5254   24088721.7934
        40.800          35.0004
 126072404.570 7                  23990771.455
        47.500
 109332257.546 7  85193971.91246  20805236.335    20805235.9204   20805237.4684
        47.600          36.7004
 127609280.300 7  99251697.629 7  23880341.620    23880341.580    23880351.084
        43.500          42.200
 140043012.998 6                  26649299.347
        41.700
 110759966.911 8  86146664.505 7  20690887.669    20690887.832    20690894.181
        51.900          47.300
 131838749.012 6 102541299.017 6  24637220.798    24637221.136    24637233.162
        41.100          38.900
 124313028.700 6                  23320782.198    23320782.072
        38.600
 122054680.757 7  94931377.973 7  22832884.378    22832884.809    22832902.457
        45.000          42.700
 106156005.334 8  82565827.343 8  19872620.692    19872620.827    19872626.864
        52.900          48.100
 133100754.337 6 103715006.17544  25328183.160    25328182.5124   25328186.7014
        38.400          29.7004
 126882559.554 6  98869514.67744  24144959.368    24144959.0024   24144963.3894
        41.400          25.2004
 115219202.406 7  89781194.07147  21925488.006    21925487.5284   21925488.0534
        47.900          45.2004
 25  1  1 16  2  0.0000000  0 29G09G26E19S31S35G07G03R06S48S33E27E11
                                E29E04E31G16G27E21G04R15E06R07R17R10
                                R05R16G29G28G31
 119304960.979 7  92964916.07847  22702977.836    22702977.2784   22702980.2774
        44.000          42.0004
 108897970.021 8  84855590.62348  20722589.627    20722588.9704   20722592.9324
        49.200          48.8004
 121868903.845 7                  23190882.041
        43.600
 198981252.687 7                  37864877.395
        46.200
 200927182.026 7                  38235179.775
        43.900
 133040770.426 6 103668161.50144  25316811.143    25316810.4414   25316816.6164
        38.500          27.3004
 112798065.098 8  87894605.30247  21464758.800    21464758.5374   21464762.7174
        48.200          46.4004
 102317836.719 7                  19174319.721    19174319.542
        42.000
 412765823.707 5                  78546691.285
        33.600
 202111299.619 7                  38460485.809
        45.600
 145757578.689 6                  27736747.033
        39.500
 150812514.833 5                  28698674.208
        32.600
 139379025.425 6                  26522965.699
        41.300
 129450787.050 7                  24633666.494
        46.800
 147421754.596 6                  28053413.991
        36.900
 105078413.972 7  81879352.98946  19995734.081    19995733.0714   19995734.0254
        47.700          40.2004
 126535338.170 6  98599081.61345  24078848.341    24078847.5634   24078863.3724
        39.700          35.0004
 126085307.949 7                  23993227.185
        47.600
 109302645.062 7  85170897.24846  20799601.475    20799601.0604   20799602.3784
        47.400          36.8004
 127667398.576 7  99296900.584 7  23891217.839    23891217.885    23891227.925
        43.800          42.200
 140006220.975 7                  26642298.493
        42.100
 110713356.428 8  86110411.905 7  20682179.938    20682180.676    20682187.150
        51.700          47.400
 131806890.616 6 102516520.166 6  24631267.073    24631267.631    24631280.368
        40.900          39.400
 124259071.693 6                  23310660.836    23310660.340
        39.600
 122115460.471 7  94978650.724 7  22844255.745    22844255.649    22844273.404
        45.800          42.900
 106188805.459 8  82591338.549 8  19878761.048    19878761.233    19878767.198
        53.100          48.300
 133120289.062 6 103730227.97344  25331900.039    25331899.3964   25331903.9614
        38.900          29.7004
 126923143.694 6  98901138.54844  24152682.532    24152682.1704   24152686.3914
        40.800          24.9004
 115254651.449 7  89808816.66647  21932233.885    21932233.4074   21932233.8274
        47.900          45.1004
 25  1  1 16  2 15.0000000  0 29G09G26E19S31S35G07G03R06S48S33E27E11
                                E29E04E31G16G27E21G04R15E06R07R17R10
                                R05R16G29G28G31
 119258444.533 7  92928669.49347  22694126.288    22694125.7344   22694128.6064
        44.100          42.1004
 108925170.733 8  84876785.99348  20727765.412    20727764.7514   20727769.0414
        48.800          48.8004
 121879757.287 7                  23192947.534
        43.500
 198981247.476 7                  37864878.173
        46.100
 200927142.890 7                  38235173.081
        44.100
 133005225.926 6 103640464.65244  25310047.377    25310046.6624   25310052.1834
        38.000          27.3004
 112831616.139 7  87920748.93547  21471143.138    21471142.8704   21471147.3804
        47.800          46.5004
 102326402.664 7                  19175925.322    19175924.899
        42.000
 412766366.009 5                  78546716.675
        33.700
 202111320.833 7                  38460489.046
        45.600
 145798789.863 6                  27744589.836
        39.600
 150843950.058 5                  28704655.862
        32.200
 139413401.395 6                  26529507.466
        40.200
 129423037.786 7                  24628385.970
        46.800
 147376102.943 6                  28044726.282
        36.900
 105066378.115 7  81869974.42646  19993443.672    19993442.6804   19993443.6604
        47.900          40.4004
 126483531.301 6  98558712.75645  24068989.560    24068988.7874   24069004.6654
        39.900          35.2004
 126098295.881 7                  23995698.568
        47.400
 109273102.865 7  85147877.34846  20793979.789    20793979.3744   20793980.7124
        47.300          36.9004
 127725495.789 7  99342087.207 7  23902089.688    23902089.916    23902099.813
        43.600          42.400
 139969427.777 6                  26635296.696
        41.200
 110666842.481 8  86074234.387 7  20673490.882    20673491.401    20673497.772
        51.600          47.400
 131775145.862 6 102491829.800 6  24625335.126    24625335.966    24625347.500
        38.900          37.400
 124205170.554 6                  23300547.308    23300547.251
        38.600
 122176297.605 7  95025968.142 7  22855635.779    22855635.312    22855654.797
        44.500          42.900
 106221699.751 8  82616922.995 8  19884918.803    19884919.033    19884925.087
        53.000          48.000
 133139941.817 6 103745541.75344  25335639.823    25335639.1804   25335643.8924
        38.700          29.6004
 126963729.008 6  98932763.36544  24160405.936    24160405.5744   24160409.8314
        40.400          24.9004
 115290127.779 7  89836460.54147  21938984.736    21938984.2584   21938984.7344
        47.400          45.3004
 25  1  1 16  2 30.0000000  0 29G09G26E19S31S35G07G03R06S48S33E27E11
                                E29E04E31G16G27E21G04R15E06R07R17R10
                                R05R16G29G28G31
 119211966.963 7  92892453.19347  22685281.961    22685281.3984   22685284.4304
        44.800          42.2004
 108952493.389 8  84898076.34148  20732964.882    20732964.2254   20732968.3624
        48.700          48.8004
 121890681.050 7                  23195026.236
        43.300
 198981246.603 7                  37864873.174
        45.500
 200927107.843 7                  38235168.207
        44.100
 132969696.179 6 103612779.28744  25303285.689    25303284.9964   25303291.2064
        38.700          28.2004
 112865288.945 7  87946987.45047  21477551.304    21477551.0324   21477555.1304
        47.700          46.6004
 102335158.339 7                  19177565.757    19177565.806
        42.200
 412766913.319 5                  78546762.223
        33.600
 202111346.831 7                  38460493.589
        45.500
 145840030.592 6                  27752437.624
        38.800
 150875430.392 5                  28710646.965
        32.600
 139447820.937 6                  26536057.682
        40.800
 129395325.181 7                  24623112.503
        47.000
 147330468.347 6                  28036042.438
        36.900
 105054507.574 7  81860724.67446  19991184.593    19991183.6014   19991184.7714
        47.700          40.4004
 126431734.957 6  98518352.08945  24059132.481    24059131.6944   24059148.1404
        39.900          35.5004
 126111378.853 7                  23998188.089
        47.500
 109243641.759 7  85124920.64746  20788373.410    20788372.9904   20788374.4964
        47.600          37.0004
 127783581.911 7  99387265.095 7  23912960.358    23912959.737    23912970.551
        43.600          42.100
 139932644.064 7                  26628296.800
        42.200
 110620436.092 8  86038140.549 7  20664822.200    20664822.204    20664828.499
        51.200          47.500
 131743525.863 6 102467236.372 6  24619426.758    24619428.049    24619438.787
        41.600          39.300
 124151335.912 6                  23290451.399    23290449.715
        39.600
 122237202.591 7  95073338.329 7  22867029.262    22867029.399    22867048.290
        44.600          42.900
 106254698.516 8  82642588.685 8  19891096.157    19891096.445    19891102.584
        52.900          48.100
 133159722.058 6 103760954.66044  25339404.242    25339403.6164   25339407.9034
        38.100          29.8004
 127004325.923 6  98964397.21344  24168130.839    24168130.4684   24168135.3374
        41.600          25.5004
 115325641.770 7  89864133.75247  21945742.756    21945742.2964   21945742.8584
        47.400          45.3004
 25  1  1 16  2 45.0000000  0 30G09G26E19S31S35G07G03R06S48S33E27E11
                                E29E04E31G16G27E21G04R15E06R07R17R10
                                R05R16G29G28G31E09
 119165520.752 7  92856261.34847  22676443.259    22676442.6874   22676445.9104
        43.900          42.0004
 108979929.902 8  84919455.45648  20738186.069    20738185.4084   20738189.3754
        48.900          48.6004
 121901667.300 7                  23197116.687
        43.300
 198981241.765 7                  37864870.889
        45.600
 200927069.011 7                  38235149.886
        43.300
 132934173.060 6 103585099.09544  25296525.713    25296525.0254   25296531.1094
        38.200          28.2004
 112899075.281 7  87973314.42947  21483980.450    21483980.1874   21483984.4744
        47.700          46.3004
 102344095.730 7                  19179241.177    19179240.661
        42.100
 412767457.912 5                  78546784.997
        34.000
 202111368.481 7                  38460498.088
        45.000
 145881292.384 6                  27760289.416
        38.800
 150906947.820 5                  28716644.741
        33.300
 139482276.129 6                  26542614.300
        40.500
 129367641.344 7                  24617844.503
        46.600
 147284843.210 6                  28027359.609
        36.300
 105042794.570 8  81851597.69146  19988955.640    19988954.6524   19988955.8334
        48.000          40.3004
 126379941.651 6  98477993.78045  24049276.420    24049275.6514   24049292.3364
        40.200          35.4004
 126124548.746 7                  24000694.396
        47.500
 109214254.094 7  85102021.16046  20782781.109    20782780.6854   20782782.2364
        47.600          36.8004
 127841649.030 7  99432428.187 6  23923826.264    23923826.947    23923836.406
        44.400          41.200
 139895862.051 6                  26621297.537
        41.800
 110574129.893 8  86002124.639 7  20656171.715    20656171.832    20656178.525
        51.600          47.500
 131712023.051 7 102442734.158 6  24613540.114    24613540.586    24613551.342
        42.500          39.100
 124097560.235 6                  23280361.021    23280360.268
        38.500
 122298166.972 7  95120754.715 7  22878435.029    22878434.823    22878453.387
        44.900          42.700
 106287793.221 8  82668328.994 8  19897291.716    19897291.968    19897297.879
        52.800          48.100
 133179622.512 6 103776461.16344  25343191.691    25343191.0614   25343195.0094
        37.400          29.2004
 127044926.614 6  98996033.99844  24175856.738    24175856.3544   24175861.2954
        40.500          24.8004
 115361185.433 8  89891830.07847  21952506.626    21952506.1664   21952506.6344
        48.100          45.1004
 152798205.607 5                  29076531.101
        31.500
 25  1  1 16  3  0.0000000  0 30G09G26E19S31S35G07G03R06S48S33E27E11
                                E29E04E31G16G27E21G04R15E06R07R17R10
                                R05R16G29G28G31E09
 119119112.863 7  92820099.37747  22667612.385    22667611.8354   22667614.7244
        43.800          42.2004
 109007486.661 8  84940928.26848  20743429.732    20743429.0624   20743433.2474
        48.800          48.8004
 121912722.812 7                  23199220.681
        43.000
 198981240.488 7                  37864874.368
        45.900
 200927033.596 7                  38235150.758
        44.000
 132898663.467 6 103557429.39244  25289768.801    25289768.1044   25289773.7194
        37.300          27.5004
 112932981.575 7  87999734.88547  21490432.874    21490432.6114   21490436.6594
        47.200          46.5004
 102353221.705 6                  19180950.940    19180950.994
        41.900
 412766406.236 5                  78546809.569
        33.000
 202111393.767 7                  38460504.764
        45.800
 145922581.758 6                  27768146.101
        38.100
 150938508.786 5                  28722650.155
        32.400
 139516773.619 6                  26549179.170
        39.800
 129339993.263 7                  24612583.296
        46.500
 147239234.504 5                  28018680.796
        35.700
 105031245.823 8  81842598.69946  19986757.989    19986757.0064   19986758.1464
        48.000          40.5004
 126328158.507 6  98437643.39345  24039422.615    24039421.8464   24039438.1994
        40.700          35.7004
 126137812.284 7                  24003218.263
        47.300
 109184946.880 7  85079184.34246  20777203.992    20777203.5684   20777205.2104
        47.500          37.0004
 127899703.784 7  99477581.719 7  23934690.421    23934691.295    23934700.597
        44.500          42.300
 139859088.624 6                  26614299.764
        41.000
 110527930.987 8  85966192.177 7  20647541.421    20647541.489    20647547.891
        51.500          47.700
 131680644.676 7 102418328.707 6  24607675.700    24607676.648    24607688.173
        42.500          37.400
 124043850.659 6                  23270284.600    23270285.179
        39.700
 122359197.181 7  95168222.288 7  22889851.847    22889852.163    22889870.387
        45.500          42.700
 106320990.580 8  82694149.162 8  19903506.398    19903506.486    19903512.683
        52.900          48.000
 133199649.450 6 103792065.60444  25347003.358    25347002.7244   25347006.7374
        38.200          29.1004
 127085537.690 6  99027678.88544  24183585.713    24183585.3204   24183589.5334
        39.800          24.9004
 115396765.471 7  89919554.76847  21959276.976    21959276.5074   21959277.2924
        47.900          45.2004
 152759306.183 6                  29069129.130
        36.300
 25  1  1 16  3 15.0000000  0 30G09G26E19S31S35G07G03R06S48S33E27E11
                                E29E04E31G16G27E21G04R15E06R07R17R10
                                R05R16G29G28G31E09
 119072740.479 7  92783965.10047  22658787.828    22658787.2744   22658790.0844
        44.600          42.1004
 109035160.176 8  84962492.02848  20748695.856    20748695.1864   20748699.3474
        48.900          48.7004
 121923844.374 7                  23201337.014
        43.400
 198981239.520 7                  37864865.250
        45.400
 200926998.315 7                  38235145.996
        44.000
 132863164.352 6 103529767.92544  25283014.096    25283013.3994   25283018.1974
        38.200          27.6004
 112967004.309 7  88026246.05747  21496906.988    21496906.7294   21496910.9784
        47.800          46.5004
 102362533.216 6                  19182695.593    19182695.897
        41.900
 412766953.608 5                  78546844.184
        34.400
 202111419.261 7                  38460509.075
        45.700
 145963895.340 6                  27776008.286
        39.200
 150970109.833 5                  28728663.842
        32.300
 139551310.260 6                  26555751.622
        40.400
 129312377.965 7                  24607328.237
        46.800
 147193639.146 6                  28010004.951
        37.000
 105019858.187 8  81833725.24346  19984590.884    19984589.8924   19984591.1314
        48.300          40.5004
 126276382.801 6  98397298.79945  24029570.088    24029569.3284   24029585.4614
        40.500          35.7004
 126151166.174 7                  24005759.423
        47.700
 109155717.302 7  85056408.04446  20771641.934    20771641.5014   20771643.0714
        47.500          37.0004
 127957742.137 7  99522722.235 7  23945553.344    23945553.295    23945562.517
        45.300          42.100
 139822320.700 6                  26607303.239
        41.900
 110481837.012 8  85930341.332 7  20638930.301    20638930.802    20638937.500
        52.000          47.700
 131649388.005 6 102394017.882 6  24601835.964    24601835.112    24601847.648
        40.400          38.500
 123990203.791 6                  23260220.445    23260220.219
        38.300
 122420289.965 7  95215738.568 7  22901280.422    22901279.967    22901299.774
        44.600          43.200
 106354286.848 8  82720046.262 8  19909739.513    19909739.758    19909745.615
        52.700          48.100
 133219800.055 6 103807766.97544  25350837.658    25350837.0284   25350841.9224
        37.800          29.1004
 127126155.983 6  99059329.37244  24191314.705    24191314.3124   24191318.8934
        40.800          24.7004
 115432378.506 8  89947305.17047  21966053.976    21966053.4944   21966054.2464
        48.200          45.2004
 152720390.493 5                  29061723.641
        31.600
 25  1  1 16  3 30.0000000  0 30G09G26E19S31S35G07G03R06S48S33E27E11
                                E29E04E31G16G27E21G04R15E06R07R17R10
                                R05R16G29G28G31E09
 119026403.315 7  92747858.26247  22649970.164    22649969.6064   22649972.3624
        43.800          42.2004
 109062949.927 8  84984146.39448  20753984.098    20753983.4284   20753987.5734
        48.700          48.8004
 121935031.833 7                  23203465.777
        43.400
 198981238.041 7                  37864873.183
        45.800
 200926962.433 7                  38235140.366
        44.500
 132827675.034 6 103502114.04444  25276259.825    25276259.1194   25276264.9744
        37.400          27.8004
 113001142.793 7  88052847.42447  21503403.357    21503403.1034   21503407.3564
        47.600          46.4004
 102372029.832 6                  19184475.173    19184475.599
        41.900
 412767502.314 5                  78546867.543
        33.300
 202111443.858 7                  38460511.552
        45.400
 146005231.950 6                  27783874.702
        38.600
 151001750.305 5                  28734685.363
        32.900
 139585885.652 6                  26562331.233
        40.900
 129284795.013 7                  24602079.288
        46.900
 147148056.752 6                  28001329.729
        36.900
 105008631.459 8  81824977.16746  19982454.505    19982453.4994   19982454.7554
        48.300          40.6004
 126224614.579 6  98356960.02245  24019718.907    24019718.1384   24019734.0214
        41.200          35.4004
 126164609.800 7                  24008317.560
        47.800
 109126565.140 7  85033692.05146  20766094.559    20766094.1394   20766095.6434
        47.600          37.0004
 128015764.123 7  99567850.146 7  23956410.353    23956410.592    23956421.280
        44.400          42.400
 139785558.024 7                  26600307.711
        42.100
 110435847.783 8  85894571.922 7  20630339.214    20630339.568    20630346.065
        51.500          47.400
 131618253.126 6 102369801.742 6  24596015.893    24596016.588    24596028.556
        40.800          38.300
 123936619.561 6                  23250168.661    23250168.038
        39.100
 122481444.467 7  95263302.806 7  22912721.982    22912721.785    22912739.687
        45.800          42.200
 106387681.291 8  82746019.716 8  19915990.885    19915991.292    19915997.391
        52.700          48.300
 133240075.900 6 103823566.57044  25354695.720    25354695.0814   25354700.5704
        38.900          29.9004
 127166781.067 6  99090985.13944  24199045.846    24199045.4624   24199049.7574
        40.000          24.5004
 115468024.058 7  89975080.91647  21972836.923    21972836.4454   21972837.4164
        47.900          45.2004
 152681458.287 5                  29054315.006
        35.500
 25  1  1 16  3 45.0000000  0 30G09G26E19S31S35G07G03R06S48S33E27E11
                                E29E04E31G16G27E21G04R15E06R07R17R10
                                R05R16G29G28G31E09
 118980101.994 7  92711779.35647  22641159.611    22641159.0534   22641161.5224
        44.100          42.3004
 109090855.734 8  85005891.15648  20759294.514    20759293.8444   20759297.8574
        49.300          48.7004
 121946285.426 7                  23205607.071
        43.600
 198981235.971 7                  37864870.661
        45.900
 200926926.843 7                  38235132.183
        44.100
 132792195.923 6 103474468.15144  25269509.013    25269508.2714   25269513.1994
        37.800          27.7004
 113035397.000 8  88079538.97447  21509921.881    21509921.6314   21509925.8054
        48.200          46.5004
 102381711.905 6                  19186290.477    19186290.063
        41.800
 412768051.164 5                  78546909.814
        33.200
 202111468.942 7                  38460517.826
        45.300
 146046592.596 6                  27791745.296
        38.600
 151033430.339 5                  28740713.615
        31.600
 139620499.990 6                  26568918.053
        40.500
 129257245.070 7                  24596836.855
        47.000
 147102487.969 6                  27992658.675
        36.700
 104997565.897 8  81816354.67146  19980348.875    19980347.8694   19980349.0424
        48.200          40.6004
 126172854.476 6  98316627.57846  24009868.808    24009868.0354   24009884.6554
        41.400          36.0004
 126178143.405 7                  24010892.954
        47.900
 109097491.025 7  85011036.89046  20760561.947    20760561.5234   20760563.0304
        47.600          37.0004
 128073769.438 7  99612964.871 6  23967265.766    23967266.234    23967275.697
        44.400          41.800
 139748801.072 7                  26593312.955
        42.200
 110389964.257 8  85858884.713 7  20621768.122    20621768.188    20621774.541
        52.000          47.400
 131587240.752 7 102345680.995 6  24590222.220    24590222.098    24590232.765
        42.500          38.500
 123883098.721 6                  23240128.105    23240127.193
        39.200
 122542660.408 7  95310914.852 7  22924174.075    22924173.847    22924192.210
        44.800          42.900
 106421173.755 8  82772069.415 8  19922261.062    19922261.065    19922266.945
        53.000          48.100
 133260475.049 6 103839462.20044  25358577.672    25358577.0244   25358582.3194
        38.900          29.1004
 127207413.220 6  99122646.42344  24206777.817    24206777.4464   24206781.9664
        40.100          24.5004
 115503702.360 7  90002882.16947  21979626.575    21979626.1024   21979626.8154
        47.800          45.2004
 152642510.128 5                  29046903.239
        35.100
 25  1  1 16  4  0.0000000  0 30G09G26E19S31S35G07G03R06S48S33E27E11
                                E29E04E31G16G27E21G04R15E06R07R17R10
                                R05R16G29G28G31E09
 118933839.601 7  92675730.75547  22632355.923    22632355.3564   22632358.0774
        44.600          42.4004
 109118880.321 8  85027728.49348  20764627.547    20764626.8684   20764630.7594
        49.000          48.8004
 121957608.164 7                  23207762.087
        43.100
 198981237.515 7                  37864872.892
        46.100
 200926893.793 7                  38235128.351
        44.500
 132756729.901 6 103446832.44744  25262760.407    25262759.6564   25262763.4194
        36.600          27.1004
 113069769.426 7  88106322.64347  21516462.509    21516462.2464   21516466.6944
        47.900          46.5004
 102391582.530 6                  19188140.118    19188139.772
        41.500
 412767002.445 5                  78546936.621
        32.600
 202111496.722 7                  38460524.998
        45.600
 146087979.911 6                  27799620.744
        38.000
 151065152.518 5                  28746750.478
        32.000
 139655156.125 6                  26575512.948
        40.200
 129229731.068 7                  24591600.988
        47.000
 147056935.787 6                  27983990.285
        36.700
 104986664.397 8  81807860.01346  19978274.394    19978273.3844   19978274.5354
        48.100          40.7004
 126121105.819 6  98276304.04746  24000021.410    24000020.6374   24000037.2574
        40.200          36.0004
 126191769.705 7                  24013486.062
        47.500
 109068498.051 7  84988444.94346  20755044.502    20755044.0694   20755045.8344
        47.700          37.1004
 128131760.770 7  99658068.718 6  23978118.634    23978119.040    23978128.566
        44.400          41.200
 139712052.762 6                  26586319.839
        41.800
 110344189.631 8  85823282.228 7  20613217.182    20613217.068    20613223.806
        51.900          47.800
 131556354.283 7 102321658.175 6  24584449.967    24584450.150    24584462.149
        43.800          40.200
 123829644.478 6                  23230100.379    23230100.456
        40.100
 122603940.551 7  95358576.812 7  22935637.407    22935637.335    22935655.661
        45.000          42.400
 106454766.737 8  82798197.272 8  19928549.508    19928549.790    19928555.885
        52.800          48.100
 133280999.172 6 103855455.06844  25362483.272    25362482.6114   25362487.2354
        37.200          29.4004
 127248055.310 6  99154315.45644  24214511.506    24214511.1314   24214516.1334
        40.300          24.3004
 115539416.138 7  90030711.06147  21986422.825    21986422.3524   21986422.9484
        47.700          45.4004
 152603548.485 5                  29039488.958
        33.900
 25  1  1 16  4 15.0000000  0 30G09G26E19S31S35G07G03R06S48S33E27E11
                                E29E04E31G16G27E21G04R15E06R07R17R10
                                R05R16G29G28G31E09
 118887609.508 7  92639707.31947  22623558.291    22623557.7154   22623560.7684
        44.600          42.3004
 109147016.420 8  85049652.72248  20769981.467    20769980.7974   20769984.9104
        48.700          48.8004
 121968993.230 7                  23209928.484
        42.900
 198981234.753 7                  37864872.512
        45.800
 200926856.585 7                  38235123.790
        44.200
 132721269.989 6 103419201.52644  25256012.273    25256011.5314   25256015.8484
        38.300          28.0004
 113104252.851 7  88133192.79947  21523024.802    21523024.5344   21523028.7024
        47.600          46.5004
 102401634.506 6                  19190023.332    19190023.434
        41.800
 412767548.951 5                  78546969.783
        33.500
 202111520.446 7                  38460524.931
        45.400
 146129386.263 6                  27807500.095
        37.800
 151096909.627 5                  28752794.150
        32.100
 139689847.091 6                  26582114.458
        40.200
 129202246.286 7                  24586370.749
        46.800
 147011393.441 6                  27975323.572
        36.700
 104975920.157 8  81799487.90446  19976229.663    19976228.6574   19976229.9444
        48.100          40.7004
 126069362.058 6  98235984.33545  23990175.095    23990174.3174   23990190.4354
        40.200          35.8004
 126205481.592 7                  24016095.423
        47.500
 109039579.570 7  84965911.05446  20749541.901    20749541.4724   20749542.8724
        47.500          37.1004
 128189730.445 7  99703155.455 6  23988968.067    23988968.051    23988978.104
        44.700          41.500
 139675306.361 6                  26579327.415
        41.400
 110298517.310 8  85787759.300 7  20604685.527    20604685.181    20604691.727
        51.900          47.600
 131525587.090 7 102297728.096 6  24578700.315    24578700.784    24578711.714
        44.000          39.000
 123776249.750 6                  23220083.886    23220082.859
        40.100
 122665277.597 7  95406283.064 7  22947111.443    22947111.625    22947131.084
        44.400          42.700
 106488452.947 8  82824397.695 8  19934855.627    19934855.721    19934861.995
        52.900          48.200
 133301642.938 6 103871541.25044  25366410.628    25366409.9804   25366415.9584
        38.300          29.1004
 127288700.271 6  99185986.72344  24222246.709    24222246.3384   24222250.7934
        40.400          24.3004
 115575158.253 8  90058562.03347  21993224.209    21993223.7404   21993224.4874
        48.100          45.3004
 152564566.900 6                  29032071.526
        37.900
 25  1  1 16  4 30.0000000  0 30G09G26E19S31S35G07G03R06S48S33E27E11
                                E29E04E31G16G27E21G04R15E06R07R17R10
                                R05R16G29G28G31E09
 118841414.569 7  92603711.27147  22614767.961    22614767.3804   22614769.9834
        44.500          42.5004
 109175266.309 8  85071665.62248  20775357.431    20775356.7564   20775360.7124
        49.000          48.8004
 121980443.018 7                  23212107.412
        43.100
 198981229.924 7                  37864871.868
        45.500
 200926818.139 7                  38235107.961
        43.800
 132685818.859 6 103391577.42544  25249265.047    25249264.2964   25249270.2444
        38.200          29.0004
 113138849.466 7  88160151.15147  21529608.056    21529607.7934   21529612.2894
        47.700          46.4004
 102411870.536 7                  19191941.527    19191941.845
        42.000
 412768094.353 5                  78547002.434
        34.000
 202111542.846 7                  38460532.238
        45.400
 146170813.890 6                  27815383.870
        38.200
 151128704.012 5                  28758843.451
        31.900
 139724575.423 6                  26588723.615
        39.700
 129174793.473 7                  24581146.752
        46.700
 146965863.720 6                  27966659.292
        36.600
 104965335.812 7  81791240.37446  19974215.724    19974214.7234   19974215.8134
        47.700          40.8004
 126017626.171 6  98195670.76046  23980329.982    23980329.2004   23980345.3714
        40.700          36.1004
 126219281.546 7                  24018721.513
        47.500
 109010738.412 7  84943437.42246  20744053.652    20744053.2324   20744054.5734
        47.300          37.2004
 128247682.415 7  99748228.973 6  23999812.610    23999812.956    23999823.372
        44.900          41.800
 139638564.447 6                  26572335.333
        41.000
 110252950.736 8  85752318.609 7  20596172.350    20596172.938    20596179.434
        52.000          47.600
 131494942.150 6 102273893.149 6  24572973.199    24572973.481    24572985.855
        39.900          38.000
 123722917.059 6                  23210078.661    23210077.862
        39.600
 122726673.707 7  95454035.177 7  22958597.787    22958598.271    22958617.023
        45.400          42.700
 106522234.398 8  82850672.132 7  19941179.790    19941179.763    19941185.911
        52.900          47.900
 133322406.868 6 103887720.67944  25370363.047    25370362.4214   25370367.1864
        37.900          29.2004
 127329350.685 6  99217662.25044  24229981.656    24229981.2634   24229986.2304
        40.700          24.0004
 115610931.212 8  90086437.04547  22000031.577    22000031.0994   22000031.8794
        48.300          45.5004
 152525567.849 4                  29024649.866
        29.400
 25  1  1 16  4 45.0000000  0 30G09G26E19S31S35G07G03R06S48S33E27E11
                                E29E04E31G16G27E21G04R15E06R07R17R10
                                R05R16G29G28G31E09
 118795258.503 7  92567745.54847  22605984.517    22605983.9184   22605986.7154
        44.500          42.4004
 109203633.089 8  85093769.59148  20780755.190    20780754.5154   20780758.7394
        49.000          48.8004
 121991961.153 7                  23214299.038
        43.100
 198981227.101 7                  37864871.086
        46.000
 200926781.330 7                  38235099.853
        43.800
 132650379.755 6 103363962.71044  25242520.966    25242520.2154   25242525.9644
        38.800          28.5004
 113173562.391 7  88187200.13947  21536213.720    21536213.4434   21536217.9674
        47.000          46.4004
 102422294.225 6                  19193895.551    19193895.054
        41.700
 412768642.962 5                  78547024.354
        33.300
 202111566.568 7                  38460533.499
        45.400
 146212266.533 6                  27823271.576
        38.400
 151160538.745 5                  28764902.258
        32.200
 139759344.436 6                  26595340.261
        39.800
 129147376.139 7                  24575929.409
        47.000
 146920350.117 6                  27957998.928
        36.500
 104954914.688 8  81783120.03746  19972232.563    19972231.5664   19972232.7254
        48.000          40.7004
 125965902.011 6  98155366.32346  23970486.930    23970486.1434   23970502.7084
        40.900          36.4004
 126233172.780 7                  24021364.855
        47.600
 108981978.266 7  84921026.90946  20738580.482    20738580.0584   20738581.7234
        47.500          37.1004
 128305619.542 7  99793291.283 7  24010654.031    24010654.173    24010665.581
        43.700          42.000
 139601830.678 6                  26565345.392
        41.600
 110207493.816 8  85716963.234 7  20587680.815    20587681.353    20587687.814
        51.800          47.800
 131464423.247 6 102250156.224 6  24567269.494    24567270.718    24567281.219
        41.600          38.100
 123669650.772 6                  23200085.014    23200085.025
        40.000
 122788131.895 7  95501835.644 7  22970095.442    22970095.524    22970114.356
        45.800          42.900
 106556114.295 8  82877023.161 8  19947521.778    19947522.299    19947528.255
        52.900          48.200
 133343295.115 6 103903996.83944  25374338.888    25374338.2624   25374342.0884
        36.400          29.3004
 127370009.931 6  99249344.63143  24237718.888    24237718.4774   24237723.1214
        39.700          23.5004
 115646738.362 7  90114338.68647  22006845.489    22006845.0024   22006845.7384
        47.900          45.3004
 152486554.727 6                  29017226.058
        37.000
 25  1  1 16  5  0.0000000  0 30G09G26E19S31S35G07G03R06S48S33E27E11
                                E29E04E31G16G27E21G04R15E06R07R17R10
                                R05R16G29G28G31E09
 118749141.322 7  92531810.10147  22597209.163    22597208.5604   22597210.8784
        44.100          42.5004
 109232116.293 8  85115964.25348  20786175.477    20786174.7984   20786178.9224
        49.000          48.9004
 122003547.459 7                  23216504.064
        43.300
 198981226.400 7                  37864868.568
        45.400
 200926746.368 7                  38235098.145
        43.700
 132614952.613 6 103336357.29744  25235779.135    25235778.4074   25235783.9434
        38.800          29.1004
 113208391.087 7  88214339.34847  21542841.737    21542841.4604   21542845.6544
        47.400          46.4004
 102432905.246 7                  19195884.501    19195883.621
        42.300
 412769194.195 5                  78547063.485
        32.700
 202111592.134 7                  38460542.017
        45.500
 146253743.798 6                  27831165.087
        38.300
 151192413.489 5                  28770968.088
        32.300
 139794154.000 6                  26601963.974
        40.300
 129119994.293 7                  24570718.623
        47.000
 146874852.764 6                  27949340.976
        36.500
 104944656.613 8  81775126.74246  19970280.656    19970279.6644   19970280.6744
        48.200          40.9004
 125914189.778 6  98115071.17746  23960646.601    23960645.8144   23960661.8564
        40.500          36.2004
 126247155.027 7                  24024025.593
        47.800
 108953299.189 7  84898679.56246  20733123.272    20733122.8484   20733124.2774
        47.100          37.3004
 128363540.969 7  99838341.455 6  24021493.995    24021493.797    24021504.217
        44.100          41.000
 139565104.929 6                  26558356.587
        41.800
 110162146.762 8  85681693.309 7  20579209.564    20579209.990    20579216.419
        52.000          47.900
 131434030.780 7 102226517.648 6  24561589.762    24561590.331    24561602.021
        42.100          38.800
 123616450.565 6                  23190105.516    23190105.195
        39.400
 122849651.779 7  95549684.081 7  22981603.562    22981603.683    22981622.895
        44.800          42.700
 106590092.080 8  82903450.327 8  19953882.823    19953882.820    19953889.125
        52.900          48.100
 133364307.405 6 103920369.62944  25378337.015    25378336.4034   25378340.7914
        38.400          29.8004
 127410677.810 6  99281033.77544  24245457.727    24245457.2944   24245462.1004
        40.000          24.0004
 115682579.350 7  90142266.69747  22013665.744    22013665.2624   22013666.1294
        47.900          45.5004
 152447527.549 5                  29009799.614
        34.800
 25  1  1 16  5 15.0000000  0 30G09G26E19S31S35G07G03R06S48S33E27E11
                                E29E04E31G16G27E21G04R15E06R07R17R10
                                R05R16G29G28G31E09
 118703060.148 7  92495902.73047  22588440.287    22588439.6844   22588441.9914
        44.600          42.6004
 109260712.478 8  85138246.97448  20791617.155    20791616.4764   20791620.6504
        48.900          48.8004
 122015198.914 7                  23218721.273
        43.500
 198981224.148 7                  37864866.618
        45.300
 200926709.505 7                  38235087.279
        43.500
 132579533.929 6 103308758.46744  25229039.811    25229039.0784   25229043.8794
        37.800          28.8004
 113243331.984 7  88241565.95947  21549490.899    21549490.6274   21549494.7384
        47.100          46.3004
 102443700.516 7                  19197907.051    19197906.860
        42.000
 412768144.109 5                  78547099.866
        33.100
 202111616.221 7                  38460546.042
        45.300
 146295241.722 6                  27839062.198
        38.100
 151224324.688 5                  28777039.865
        31.200
 139829000.767 6                  26608595.374
        40.300
 129092644.856 7                  24565514.294
        47.100
 146829368.424 6                  27940685.740
        36.900
 104934558.555 7  81767258.14446  19968358.804    19968357.8074   19968359.0664
        47.700          40.8004
 125862486.676 6  98074783.14746  23950807.457    23950806.6704   23950822.9544
        40.200          36.1004
 126261224.899 8                  24026703.004
        48.100
 108924698.241 7  84876393.08446  20727680.653    20727680.2384   20727681.7004
        47.100          37.2004
 128421442.861 7  99883376.410 7  24032329.817    24032329.643    24032340.001
        44.300          42.400
 139528384.124 7                  26551368.921
        42.100
 110116906.716 8  85646506.602 7  20570758.722    20570758.838    20570765.500
        52.000          47.900
 131403761.806 6 102202975.056 6  24555933.881    24555934.350    24555946.027
        41.600          39.000
 123563313.410 6                  23180135.179    23180136.057
        39.600
 122911229.716 7  95597577.646 7  22993124.179    22993124.130    22993142.385
        45.700          42.000
 106624164.108 8  82929950.766 8  19960261.104    19960261.276    19960267.416
        52.900          48.000
 133385440.876 6 103936836.76744  25382358.661    25382358.0534   25382362.7344
        37.000          29.7004
 127451351.002 6  99312727.03743  24253198.103    24253197.6744   24253202.4114
        38.800          23.3004
 115718450.892 7  90170218.51247  22020492.050    22020491.5634   22020492.3484
        47.800          45.4004
 152408483.004 5                  29002369.323
        32.900
 25  1  1 16  5 30.0000000  0 30G09G26E19S31S35G07G03R06S48S33E27E11
                                E29E04E31G16G27E21G04R15E06R07R17R10
                                R05R16G29G28G31E09
 118657015.364 7  92460023.70047  22579677.802    22579677.1994   22579679.9494
        44.000          42.3004
 109289421.438 8  85160617.54148  20797080.284    20797079.6054   20797083.8374
        49.100          48.7004
 122026915.522 7                  23220950.664
        43.500
 198981220.182 7                  37864868.492
        45.400
 200926671.609 7                  38235084.565
        44.100
 132544124.118 6 103281166.57044  25222300.852    25222300.1464   25222305.9544
        38.900          28.8004
 113278384.946 7  88268879.91247  21556161.118    21556160.8464   21556165.1784
        47.100          46.1004
 102454680.110 6                  19199964.216    19199964.186
        41.700
 412768693.385 5                  78547131.839
        33.000
 202111638.705 7                  38460550.147
        45.500
 146336760.692 6                  27846963.545
        38.400
 151256272.466 5                  28783119.920
        33.800
 139863884.916 6                  26615233.484
        40.500
 129065328.141 7                  24560316.122
        47.400
 146783897.619 6                  27932032.863
        37.300
 104924620.507 8  81759514.22746  19966467.770    19966466.7784   19966467.9054
        48.100          40.7004
 125810793.266 6  98034502.68446  23940970.923    23940970.1414   23940985.9754
        40.800          36.2004
 126275382.463 8                  24029396.941
        48.000
 108896175.935 7  84854167.91146  20722253.146    20722252.7314   20722254.1254
        47.200          37.0004
 128479326.312 7  99928397.559 6  24043161.095    24043161.630    24043171.290
        44.800          41.200
 139491668.655 6                  26544382.085
        41.900
 110071774.266 8  85611403.593 8  20562327.533    20562327.517    20562334.215
        51.700          48.000
 131373617.005 7 102179529.081 6  24550300.418    24550301.143    24550312.543
        43.300          38.000
 123510239.485 6                  23170179.639    23170179.408
        39.400
 122972865.495 7  95645516.260 7  23004653.452    23004654.311    23004673.568
        44.800          42.700
 106658329.908 8  82956524.155 8  19966657.152    19966657.105    19966663.222
        52.600          48.000
 133406694.964 6 103953397.72444  25386404.069    25386403.4524   25386408.0864
        36.900          28.2004
 127492029.721 6  99344424.62643  24260939.317    24260938.8974   24260943.1884
        39.300          23.3004
 115754353.073 7  90198194.20647  22027323.700    22027323.2184   22027324.3834
        47.800          45.2004
 152369421.655 6                  28994936.420
        37.500
 25  1  1 16  5 45.0000000  0 30G09G26E19S31S35G07G03R06S48S33E27E11
                                E29E04E31G16G27E21G04R15E06R07R17R10
                                R05R16G29G28G31E09
 118611012.399 7  92424177.25747  22570923.960    22570923.3704   22570925.7914
        44.800          42.2004
 109318248.173 8  85183079.89048  20802565.982    20802565.2984   20802569.4404
        48.900          48.6004
 122038702.681 7                  23223193.862
        43.100
 198981220.431 7                  37864868.362
        45.500
 200926638.131 7                  38235069.920
        43.600
 132508728.241 6 103253585.51144  25215564.756    25215564.0724   25215570.0444
        36.900          28.6004
 113313554.832 7  88296284.97847  21562853.709    21562853.4414   21562857.8824
        47.100          46.1004
 102465849.405 7                  19202057.459    19202057.568
        42.000
 412769246.705 5                  78547157.904
        32.800
 202111665.275 7                  38460554.886
        45.500
 146378305.466 6                  27854869.612
        38.500
 151288261.517 5                  28789206.241
        32.500
 139898811.637 6                  26621880.009
        39.700
 129038049.429 7                  24555125.007
        47.100
 146738445.630 6                  27923383.414
        36.700
 104914847.943 8  81751899.26346  19964607.932    19964606.9224   19964608.2244
        48.200          40.7004
 125759115.226 6  97994234.20646  23931136.113    23931135.3264   23931151.7814
        41.000          36.2004
 126289632.666 7                  24032109.064
        47.700
 108867737.634 7  84832008.19346  20716841.361    20716840.9414   20716842.5504
        47.400          37.0004
 128537196.250 7  99973408.668 6  24053989.381    24053990.719    24053998.989
        44.900          41.100
 139454963.649 6                  26537397.399
        41.600
 110026755.309 8  85576388.848 8  20553917.591    20553917.495    20553924.350
        52.000          48.200
 131343602.047 7 102156184.056 6  24544691.702    24544692.785    24544703.438
        43.400          38.400
 123457234.335 6                  23160236.246    23160235.713
        40.300
 123034564.144 7  95693503.728 7  23016195.958    23016196.352    23016215.823
        45.000          42.800
 106692594.826 8  82983174.615 8  19973072.096    19973071.934    19973077.680
        52.900          48.100
 133428075.897 6 103970057.84344  25390472.858    25390472.2554   25390477.7324
        37.200          28.7004
 127532719.120 6  99376130.50543  24268682.129    24268681.6824   24268686.5144
        38.700          23.0004
 115790291.059 7  90226197.79647  22034162.786    22034162.3084   22034163.2334
        47.400          45.2004
 152330348.449 6                  28987501.077
        37.600
 25  1  1 16  6  0.0000000  0 30G09G26E19S31S35G07G03R06S48S33E27E11
                                E29E04E31G16G27E21G04R15E06R07R17R10
                                R05R16G29G28G31E09
 118565046.730 7  92388359.84647  22562176.500    22562175.8884   22562178.9134
        43.900          42.3004
 109347187.640 8  85205630.13048  20808073.014    20808072.3354   20808076.4984
        49.000          48.5004
 122050555.818 7                  23225449.464
        43.300
 198981219.495 7                  37864869.261
        45.600
 200926602.909 7                  38235068.709
        43.900
 132473341.384 6 103226011.46944  25208831.895    25208831.2294   25208835.9194
        37.800          28.6004
 113348836.417 7  88323777.06547  21569567.636    21569567.3644   21569571.8534
        46.700          46.0004
 102477203.424 6                  19204184.925    19204185.018
        41.900
 412769799.671 5                  78547196.735
        33.200
 202111691.394 7                  38460561.294
        45.400
 146419871.576 6                  27862779.677
        37.400
 151320286.829 5                  28795301.182
        31.400
 139933775.977 6                  26628533.846
        40.000
 129010804.167 7                  24549940.626
        47.200
 146693007.773 6                  27914736.282
        36.800
 104905235.851 7  81744409.32446  19962778.778    19962777.7684   19962779.0804
        47.800          40.5004
 125707448.057 6  97953974.20646  23921304.527    23921303.7324   23921319.8504
        40.700          36.2004
 126303970.683 8                  24034837.381
        48.200
 108839378.798 7  84809910.39146  20711444.696    20711444.2764   20711446.0524
        47.300          36.9004
 128595046.668 7 100018404.765 6  24064813.787    24064815.011    24064824.076
        44.900          41.500
 139418264.565 7                  26530413.720
        42.500
 109981845.727 8  85541459.188 8  20545528.015    20545528.315    20545535.040
        51.600          48.100
 131313712.654 7 102132936.736 6  24539106.125    24539107.124    24539118.725
        42.500          38.200
 123404293.562 6                  23150303.154    23150303.215
        39.400
 123096320.371 7  95741536.014 7  23027749.054    23027749.200    23027768.269
        43.900          42.600
 106726953.225 8  83009897.830 7  19979503.160    19979503.558    19979509.926
        52.500          47.700
 133449577.984 6 103986812.50944  25394564.963    25394564.3644   25394569.3924
        38.100          28.8004
 127573414.283 6  99407840.90043  24276425.596    24276425.1584   24276430.8364
        38.300          22.7004
 115826259.753 7  90254225.32747  22041007.495    22041007.0264   22041007.9194
        47.600          45.1004
 152291258.642 5                  28980063.156
        34.900
 25  1  1 16  6 15.0000000  0 30G09G26E19S31S35G07G03R06S48S33E27E11
                                E29E04E31G16G27E21G04R15E06R07R17R10
                                R05R16G29G28G31E09
 118519117.208 7  92352570.61247  22553436.475    22553435.8764   22553438.8314
        44.500          42.4004
 109376237.967 8  85228266.75348  20813600.843    20813600.1554   20813604.5874
        49.000          48.5004
 122062473.271 7                  23227717.271
        43.100
 198981215.914 7                  37864870.594
        45.700
 200926565.444 7                  38235060.557
        43.600
 132437962.166 6 103198443.37844  25202099.682    25202099.0434   25202103.3064
        37.600          28.7004
 113384228.001 7  88351354.87347  21576302.366    21576302.0894   21576306.7434
        46.700          46.0004
 102488740.990 6                  19206348.240    19206347.329
        41.700
 412768749.878 5                  78547227.496
        33.800
 202111714.062 7                  38460568.646
        45.300
 146461457.481 6                  27870692.679
        38.100
 151352346.772 5                  28801402.145
        32.200
 139968776.493 6                  26635194.270
        40.100
 128983591.020 7                  24544761.986
        47.300
 146647582.803 6                  27906092.436
        37.500
 104895782.868 7  81737043.38846  19960980.245    19960979.2444   19960980.2134
        47.900          40.6004
 125655790.794 6  97913721.91946  23911474.688    23911473.8934   23911489.6014
        40.500          36.0004
 126318394.933 8                  24037582.305
        48.100
 108811098.321 7  84787873.66446  20706063.195    20706062.7754   20706064.4594
        47.200          37.0004
 128652873.676 7 100063381.507 6  24075635.339    24075635.979    24075645.559
        44.400          41.100
 139381569.959 7                  26523430.825
        42.100
 109937044.421 8  85506613.741 8  20537158.799    20537158.623    20537165.620
        51.700          48.000
 131283947.571 6 102109786.087 6  24533544.413    24533544.556    24533555.473
        41.700          38.000
 123351415.771 6                  23140383.982    23140383.721
        39.400
 123158132.529 7  95789611.786 7  23039312.653    23039313.053    23039332.493
        45.000          42.700
 106761403.235 8  83036692.217 7  19985952.774    19985952.962    19985959.083
        52.500          47.700
 133471199.464 6 104003660.33844  25398679.449    25398678.8554   25398684.0364
        37.400          29.4004
 127614113.738 6  99439554.61743  24284171.509    24284171.1074   24284175.8974
        38.900          23.0004
 115862257.567 7  90282275.52947  22047857.560    22047857.0874   22047858.0614
        47.500          45.2004
 152252151.107 5                  28972620.481
        34.600
 25  1  1 16  6 30.0000000  0 31G09G26E19G08S31S35G07G03R06S48S33E27
                                E11E29E04E31G16G27E21G04R15E06R07R17
                                R10R05R16G29G28G31E09
 118473228.083 7  92316812.82947  22544704.372    22544703.7784   22544706.3834
        44.300          42.3004
 109405402.844 8  85250992.61848  20819150.649    20819149.9654   20819154.4654
        48.600          48.6004
 122074459.137 7                  23229998.130
        43.300
 133878279.721 5                  25476189.823
        32.000
 198981214.812 7                  37864871.636
        45.500
 200926530.135 7                  38235048.224
        43.300
 132402594.483 6 103170884.25344  25195368.485    25195367.8594   25195373.1654
        37.700          28.8004
 113419733.175 7  88379021.18747  21583058.855    21583058.5834   21583063.1734
        46.600          46.0004
 102500465.938 6                  19208544.643    19208544.493
        41.900
 412769302.899 5                  78547253.574
        33.200
 202111739.223 7                  38460570.470
        45.400
 146503066.913 6                  27878611.117
        38.100
 151384445.000 5                  28807510.563
        33.200
 140003817.123 6                  26641862.647
        40.200
 128956414.196 7                  24539590.517
        47.200
 146602174.829 6                  27897451.682
        37.100
 104886492.907 7  81729804.46746  19959212.459    19959211.4584   19959212.3664
        47.600          40.7004
 125604147.811 6  97873480.77746  23901646.488    23901645.6844   23901662.0394
        40.900          36.0004
 126332909.124 8                  24040344.175
        48.200
 108782900.353 7  84765901.21546  20700697.247    20700696.8234   20700698.5394
        46.900          37.1004
 128710682.086 7 100108343.172 6  24086453.472    24086454.212    24086463.831
        44.900          41.400
 139344884.064 6                  26516449.589
        41.900
 109892355.686 8  85471855.829 8  20528810.436    20528810.475    20528817.186
        52.000          48.000
 131254311.208 7 102086735.595 6  24528006.079    24528006.992    24528017.010
        43.500          38.200
 123298605.026 6                  23130477.370    23130476.596
        39.300
 123220004.119 7  95837733.806 7  23050887.084    23050887.271    23050906.832
        44.700          42.500
 106795948.827 8  83063561.005 7  19992419.608    19992419.768    19992425.876
        52.300          47.800
 133492943.584 6 104020603.39344  25402817.493    25402816.9034   25402821.9644
        37.700          29.4004
 127654821.467 6  99471274.77843  24291917.897    24291917.4864   24291922.3434
        38.400          22.4004
 115898288.573 7  90310351.61247  22054714.101    22054713.6324   22054714.5964
        47.600          45.2004
 152213029.824 6                  28965176.530
        37.100
 25  1  1 16  6 45.0000000  0 31G09G26E19G08S31S35G07G03R06S48S33E27
                                E11E29E04E31G16G27E21G04R15E06R07R17
                                R10R05R16G29G28G31E09
 118427378.007 7  92281085.51447  22535979.088    22535978.4854   22535981.3894
        44.100          42.4004
 109434680.345 8  85273806.24648  20824722.358    20824721.6744   20824725.7854
        48.900          48.5004
 122086511.867 7                  23232291.547
        43.100
 133826858.079 5                  25466404.071
        35.100
 198981212.945 7                  37864866.368
        45.700
 200926493.967 7                  38235044.602
        43.800
 132367236.895 6 103143333.05144  25188640.081    25188639.4474   25188644.9524
        37.400          28.9004
 113455349.967 7  88406774.47147  21589836.569    21589836.3014   21589840.8874
        46.800          45.9004
 102512376.609 6                  19210776.650    19210776.633
        41.700
 412769854.755 5                  78547293.483
        33.800
 202111764.234 7                  38460570.394
        45.400
 146544697.353 6                  27886533.117
        37.900
 151416579.661 5                  28813625.328
        32.900
 140038896.132 6                  26648538.075
        40.100
 128929272.055 7                  24534425.278
        46.900
 146556782.489 6                  27888813.541
        37.400
 104877364.451 7  81722691.38146  19957475.165    19957474.1594   19957475.3294
        47.900          40.6004
 125552517.836 6  97833249.77146  23891822.109    23891821.3054   23891836.7624
        41.100          36.3004
 126347511.552 8                  24043122.788
        48.200
 108754783.570 7  84743992.04146  20695346.935    20695346.5204   20695348.1714
        47.000          37.1004
 128768470.943 7 100153289.683 6  24097268.369    24097268.209    24097278.088
        43.900          41.100
 139308205.298 7                  26509470.299
        42.000
 109847778.124 8  85437184.397 8  20520483.283    20520483.147    20520489.970
        51.800          48.300
 131224802.404 7 102063784.272 6  24522491.117    24522491.197    24522503.764
        42.600          38.300
 123245860.167 6                  23120581.862    23120580.792
        39.700
 123281933.236 7  95885900.573 7  23062472.496    23062472.458    23062492.270
        43.800          42.700
 106830587.664 8  83090502.286 7  19998904.287    19998904.439    19998910.521
        52.300          47.600
 133514809.147 6 104037641.03444  25406978.166    25406977.5634   25406983.3864
        38.200          29.9004
 127695535.722 6  99503000.03543  24299664.803    24299664.3834   24299669.9884
        39.300          22.5004
 115934351.012 7  90338452.19447  22061576.561    22061576.0924   22061577.0884
        47.700          45.2004
 152173893.171 6                  28957728.578
        36.300
 25  1  1 16  7  0.0000000  0 31G09G26E19G08S31S35G07G03R06S48S33E27
                                E11E29E04E31G16G27E21G04R15E06R07R17
                                R10R05R16G29G28G31E09
 118381563.767 7  92245386.12047  22527260.978    22527260.3844   22527263.2454
        44.300          42.3004
 109464066.692 8  85296704.64848  20830314.366    20830313.6784   20830317.8754
        49.100          48.4004
 122098628.135 7                  23234597.297
        43.100
 133775383.995 5 104240631.22043  25456609.097    25456608.6104   25456628.4464
        33.900          22.0004
 198981207.603 7                  37864868.608
        45.700
 200926454.554 7                  38235032.381
        43.400
 132331885.765 6 103115786.82444  25181913.440    25181912.7794   25181917.7184
        37.500          28.7004
 113491074.586 7  88434611.79847  21596634.694    21596634.4264   21596639.1354
        46.900          45.8004
 102524469.577 6                  19213043.089    19213042.932
        41.900
 412770402.982 5                  78547302.672
        32.900
 202111785.488 7                  38460574.217
        45.400
 146586346.420 6                  27894458.377
        37.100
 151448747.142 5                  28819746.985
        30.900
 140074010.095 6                  26655220.348
        39.900
 128902161.367 7                  24529266.382
        47.000
 146511402.391 5                  27880177.937
        35.300
 104868394.114 7  81715701.51646  19955768.064    19955767.0584   19955768.3234
        47.900          40.6004
 125500897.875 6  97793026.59046  23881998.909    23881998.1224   23882013.7564
        41.300          36.2004
 126362198.682 8                  24045918.011
        48.000
 108726744.803 7  84722143.67546  20690011.357    20690010.9334   20690012.5194
        47.100          37.0004
 128826237.075 7 100198218.684 6  24108078.919    24108079.019    24108088.911
        43.800          41.100
 139271530.321 7                  26502490.924
        42.400
 109803308.860 8  85402597.176 8  20512175.314    20512176.066    20512182.795
        52.000          48.100
 131195418.118 7 102040929.782 6  24517000.623    24517000.992    24517012.142
        42.400          38.300
 123193177.634 6                  23110699.295    23110698.041
        39.700
 123343915.827 7  95934108.921 7  23074068.408    23074068.637    23074088.488
        45.200          42.500
 106865316.189 8  83117513.360 7  20005405.488    20005405.714    20005411.620
        52.400          47.900
 133536791.681 6 104054769.34644  25411162.729    25411162.1354   25411167.0544
        37.900          29.9004
 127736253.106 6  99534727.71343  24307413.640    24307413.2204   24307418.5504
        39.300          22.3004
 115970441.162 7  90366574.36247  22068444.235    22068443.7664   22068444.8524
        47.600          45.1004
 152134737.786 6                  28950278.001
        36.600
 25  1  1 16  7 15.0000000  0 31G09G26E19G08S31S35G07G03R06S48S33E27
                                E11E29E04E31G16G27E21G04R15E06R07R17
                                R10R05R16G29G28G31E09
 118335791.554 7  92209719.47047  22518550.864    22518550.2744   22518553.0304
        43.900          42.3004
 109493567.658 8  85319692.40248  20835928.313    20835927.6164   20835931.7694
        48.400          48.4004
 122110813.764 7                  23236916.216
        43.300
 133723863.511 5 104200485.25143  25446804.736    25446804.1374   25446825.3524
        33.800          23.0004
 198981205.148 7                  37864864.020
        45.500
 200926417.131 7                  38235028.442
        43.500
 132296547.114 6 103088250.32244  25175188.494    25175187.8284   25175192.6614
        37.000          28.5004
 113526912.597 7  88462537.47647  21603454.498    21603454.2304   21603458.9544
        46.600          45.8004
 102536750.922 6                  19215344.054    19215344.328
        41.800
 412769354.237 5                  78547342.810
        33.200
 202111809.709 7                  38460582.678
        45.500
 146628020.109 6                  27902387.445
        38.100
 151480952.906 5                  28825875.876
        32.700
 140109164.873 6                  26661910.277
        40.700
 128875088.273 7                  24524114.522
        47.100
 146466040.626 6                  27871546.535
        37.000
 104859587.858 7  81708839.51446  19954092.104    19954091.0944   19954092.5294
        47.300          40.6004
 125449294.262 6  97752816.14846  23872178.700    23872177.9094   23872193.4924
        41.100          36.1004
 126376976.218 8                  24048729.981
        48.300
 108698790.255 7  84700360.96246  20684691.504    20684691.0754   20684692.8984
        47.000          37.0004
 128883984.402 7 100243132.246 6  24118887.576    24118887.995    24118896.224
        46.100          40.800
 139234865.202 7                  26495513.662
        42.100
 109758954.802 8  85368099.640 8  20503890.153    20503889.854    20503896.807
        51.600          48.300
 131166164.835 7 102018177.185 6  24511533.538    24511533.571    24511545.543
        42.400          38.400
 123140563.538 6                  23100828.592    23100827.695
        39.500
 123405957.595 7  95982363.299 7  23085674.676    23085674.693    23085695.103
        44.800          43.000
 106900139.794 8  83144598.386 8  20011924.329    20011924.606    20011930.795
        51.800          48.100
 133558898.386 6 104071994.59644  25415369.624    25415369.0254   25415374.6804
        38.200          29.8004
 127776979.498 6  99566462.42443  24315163.432    24315162.9904   24315168.6994
        39.300          22.9004
 116006564.788 7  90394722.61347  22075318.492    22075318.0194   22075318.9484
        47.400          45.0004
 152095569.738 6                  28942824.443
        36.800
 25  1  1 16  7 30.0000000  0 31G09G26E19G08S31S35G07G03R06S48S33E27
                                E11E29E04E31G16G27E21G04R15E06R07R17
                                R10R05R16G29G28G31E09
 118290061.580 7  92174085.71147  22509848.736    22509848.1464   22509850.9574
        43.900          42.4004
 109523182.904 8  85342769.23748  20841563.721    20841563.0244   20841567.3554
        48.500          48.4004
 122123068.927 7                  23239248.360
        43.200
 133672296.958 5 104160303.42343  25436992.947    25436992.3484   25437013.0704
        32.700          22.2004
 198981204.804 7                  37864862.428
        45.100
 200926383.178 7                  38235026.045
        43.400
 132261220.878 6 103060723.50944  25168465.870    25168465.2004   25168470.1224
        38.900          29.1004
 113562863.688 7  88490551.26447  21610295.895    21610295.6324   21610300.2774
        46.400          45.9004
 102549220.421 7                  19217680.793    19217681.203
        42.000
 412769908.618 5                  78547385.120
        33.400
 202111836.050 7                  38460589.081
        45.100
 146669716.102 6                  27910322.022
        38.300
 151513196.820 5                  28832011.832
        34.300
 140144360.401 6                  26668607.595
        40.600
 128848052.932 7                  24518970.042
        47.400
 146420697.454 6                  27862917.376
        36.800
 104850945.608 7  81702105.30246  19952448.042    19952447.0414   19952447.9784
        47.500          40.6004
 125397707.395 6  97712618.77946  23862361.453    23862360.6534   23862377.0284
        40.400          36.4004
 126391843.981 8                  24051559.130
        48.200
 108670920.081 7  84678643.95746  20679388.102    20679387.6784   20679389.3534
        46.900          37.1004
 128941715.183 7 100288033.592 6  24129690.571    24129691.113    24129699.767
        44.400          40.600
 139198210.023 6                  26488538.364
        41.700
 109714716.205 8  85333691.880 8  20495625.858    20495626.188    20495632.569
        52.200          48.200
 131137042.778 7 101995526.657 6  24506092.262    24506092.773    24506103.726
        43.600          38.800
 123088018.350 6                  23090970.096    23090969.730
        39.200
 123468058.455 7  96030663.641 7  23097292.097    23097292.715    23097312.043
        45.100          42.600
 106935058.063 8  83171757.051 8  20018461.155    20018461.322    20018467.725
        52.300          48.100
 133581129.185 6 104089316.95844  25419600.956    25419600.3754   25419605.7924
        37.200          29.1004
 127817714.774 6  99598204.03343  24322914.960    24322914.5134   24322920.5304
        39.500          22.7004
 116042721.842 7  90422896.91447  22082198.900    22082198.4274   22082199.4294
        47.500          45.0004
 152056389.006 6                  28935368.712
        36.300
 25  1  1 16  7 45.0000000  0 31G09G26E19G08S31S35G07G03R06S48S33E27
                                E11E29E04E31G16G27E21G04R15E06R07R17
                                R10R05R16G29G28G31E09
 118244371.315 7  92138482.93247  22501154.387    22501153.8024   22501156.5944
        44.500          42.5004
 109552909.095 8  85365932.51848  20847220.853    20847220.1604   20847224.0474
        48.800          48.4004
 122135390.609 7                  23241592.929
        43.000
 133620681.817 5 104120083.73343  25427170.286    25427169.6834   25427191.4324
        32.600          21.3004
 198981203.620 7                  37864863.757
        45.500
 200926348.292 7                  38235021.224
        43.500
 132225904.140 6 103033204.14344  25161744.937    25161744.2584   25161749.0904
        38.300          29.3004
 113598924.473 7  88518650.52547  21617158.253    21617157.9854   21617162.4794
        47.000          46.0004
 102561875.300 7                  19220052.746    19220052.714
        42.000
 412770463.537 5                  78547419.203
        32.900
 202111861.603 7                  38460597.389
        45.100
 146711431.830 6                  27918260.284
        37.500
 151545475.535 5                  28838153.975
        31.700
 140179593.671 6                  26675312.717
        40.100
 128821052.414 7                  24513831.658
        47.200
 146375369.993 6                  27854291.971
        36.800
 104842464.420 7  81695496.58946  19950833.977    19950832.9804   19950834.0484
        47.700          40.7004
 125346134.756 6  97672432.50946  23852548.192    23852547.3924   23852563.0424
        41.200          36.4004
 126406798.954 8                  24054405.134
        48.100
 108643131.578 7  84656990.56446  20674100.198    20674099.7744   20674101.3914
        46.900          37.2004
 128999424.401 7 100332917.818 6  24140490.632    24140491.002    24140500.761
        44.700          40.500
 139161562.023 7                  26481564.737
        42.100
 109670590.238 8  85299371.720 8  20487382.865    20487382.967    20487389.540
        52.000          48.400
 131108049.555 7 101972976.354 6  24500672.680    24500673.341    24500685.720
        43.200          39.200
 123035539.190 6                  23081125.255    23081125.256
        40.000
 123530214.921 7  96079007.268 7  23108919.834    23108920.074    23108939.814
        44.800          42.400
 106970067.499 8  83198986.611 7  20025015.051    20025015.241    20025021.376
        52.200          47.900
 133603480.160 6 104106732.88544  25423854.051    25423853.4664   25423859.6474
        38.300          29.5004
 127858456.011 6  99629950.30643  24330667.936    24330667.4764   24330673.5544
        37.800          22.3004
 116078909.475 7  90451095.04347  22089085.411    22089084.9424   22089085.7454
        47.200          45.0004
 152017192.668 6                  28927909.840
        36.600
 25  1  1 16  8  0.0000000  0 32G09G26E19G08S31S35G07G03R06S48S33E27
                                E11E29E04E31G16G27E21G04R15E06R07R17
                                R08R10R05R16G29G28G31E09
 118198720.121 7  92102910.59147  22492466.903    22492466.3094   22492469.4124
        44.500          42.6004
 109582745.173 8  85389181.42848  20852898.047    20852897.3544   20852901.6264
        48.700          48.4004
 122147778.223 7                  23243950.153
        43.000
 133569017.428 5 104079825.68943  25417339.087    25417338.4664   25417359.9534
        34.500          23.0004
 198981201.634 7                  37864867.848
        45.400
 200926311.916 7                  38235011.208
        43.600
 132190595.911 6 103005691.38944  25155026.569    25155025.8854   25155029.9764
        37.900          28.9004
 113635093.894 7  88546834.44447  21624041.010    21624040.7424   21624045.3484
        46.600          46.0004
 102574714.598 7                  19222458.920    19222458.658
        42.000
 412771016.945 5                  78547435.113
        32.700
 202111886.102 7                  38460589.559
        45.400
 146753166.231 6                  27926202.102
        37.800
 151577788.258 5                  28844303.082
        33.200
 140214863.816 6                  26682024.510
        40.200
 128794086.129 7                  24508700.360
        47.000
 146330057.582 6                  27845668.798
        37.400
 104834143.556 7  81689012.80646  19949250.538    19949249.5374   19949250.6564
        47.800          40.8004
 125294575.875 6  97632256.96246  23842736.182    23842735.3784   23842751.2424
        41.500          36.6004
 126421840.161 8                  24057267.351
        48.300
 108615424.327 7  84635400.50846  20668827.784    20668827.3554   20668828.8964
        47.000          37.2004
 129057112.531 7 100377785.984 6  24151286.070    24151285.678    24151296.563
        43.800          41.000
 139124920.430 6                  26474591.964
        41.900
 109626576.978 8  85265139.205 8  20479160.480    20479160.507    20479167.791
        51.600          48.400
 131079184.494 7 101950525.678 6  24495279.987    24495279.303    24495291.535
        43.000          38.500
 132667217.512 6                  24774666.060    24774666.093
        39.100
 122983125.277 6                  23071292.770    23071292.476
        40.600
 123592425.473 7  96127392.951 7  23120557.551    23120558.384    23120577.860
        45.100          42.800
 107005166.895 8  83226286.119 7  20031585.939    20031586.138    20031592.014
        52.600          47.800
 133625949.909 6 104124241.08244  25428129.847    25428129.2664   25428135.8334
        36.900          28.3004
 127899202.354 6  99661700.54843  24338422.399    24338421.9574   24338427.3074
        39.500          22.6004
 116115126.612 8  90479316.16247  22095977.308    22095976.8434   22095977.6384
        48.000          45.0004
 151977980.071 6                  28920447.779
        36.400
 25  1  1 16  8 15.0000000  0 32G09G26E19G08S31S35G07G03R06S48S33E27
                                E11E29E04E31G16G27E21G04R15E06R07R17
                                R08R10R05R16G29G28G31E09
 118153109.536 7  92067369.89647  22483787.493    22483786.8994   22483789.8984
        44.300          42.5004
 109612692.042 8  85412516.64448  20858596.875    20858596.1874   20858600.2894
        48.600          48.4004
 122160233.003 7                  23246320.421
        43.000
 133517305.403 5 104039530.50043  25407498.519    25407497.8984   25407519.7724
        34.200          22.4004
 198981199.290 7                  37864863.797
        45.400
 200926275.540 7                  38235007.577
        43.900
 132155297.512 6 102978186.28644  25148309.240    25148308.5704   25148312.8084
        38.100          28.8004
 113671372.815 7  88575103.69347  21630944.672    21630944.4134   21630949.0634
        47.200          46.2004
 102587739.599 6                  19224899.770    19224899.582
        41.700
 412769970.894 5                  78547472.746
        33.500
 202111909.736 7                  38460602.626
        45.500
 146794921.461 6                  27934147.795
        37.100
 151610135.822 5                  28850458.525
        31.800
 140250172.063 6                  26688743.414
        40.300
 128767155.480 7                  24503575.624
        47.100
 146284761.655 6                  27837048.659
        36.300
 104825984.246 7  81682654.89846  19947697.988    19947696.9914   19947698.0244
        47.800          40.7004
 125243032.486 6  97592093.48146  23832927.654    23832926.8724   23832942.7924
        40.800          36.6004
 126436968.683 8                  24060146.184
        48.200
 108587799.707 7  84613874.80246  20663570.721    20663570.2924   20663572.0924
        47.700          37.3004
 129114780.358 7 100422638.662 6  24162077.071    24162077.456    24162088.587
        43.600          41.100
 139088286.786 7                  26467621.309
        42.400
 109582678.071 8  85230995.632 8  20470959.988    20470960.406    20470966.616
        52.300          48.300
 131050449.530 7 101928176.154 6  24489909.196    24489910.432    24489921.769
        43.800          38.800
 132603723.900 7 103136248.354 6  24762808.794    24762809.322    24762814.617
        43.000          36.900
 122930777.980 6                  23061471.882    23061471.303
        40.600
 123654691.368 7  96175821.695 7  23132205.274    23132205.597    23132227.036
        44.200          43.000
 107040357.550 8  83253656.638 8  20038173.688    20038173.898    20038179.859
        52.700          48.000
 133648540.315 6 104141843.39344  25432429.990    25432429.3874   25432435.3294
        37.500          29.2004
 127939955.051 6  99693455.75343  24346176.938    24346176.4694   24346182.4334
        38.800          22.9004
 116151374.504 7  90507561.24647  22102874.822    22102874.3494   22102875.3804
        47.800          45.0004
 151938752.589 6                  28912983.336
        37.100
 25  1  1 16  8 30.0000000  0 32G09G26E19G08S31S35G07G03R06S48S33E27
                                E11E29E04E31G16G27E21G04R15E06R07R17
                                R08R10R05R16G29G28G31E09
 118107542.409 7  92031863.07347  22475116.336    22475115.7424   22475118.7334
        44.100          42.6004
 109642752.052 8  85435940.02848  20864317.109    20864316.4214   20864320.5144
        48.900          48.4004
 122172757.534 7                  23248703.714
        43.100
 133465548.605 5 103999200.43844  25397649.838    25397649.2084   25397670.6744
        35.500          24.3004
 198981199.559 7                  37864868.765
        45.800
 200926241.858 7                  38235000.883
        44.000
 132120011.563 6 102950690.88244  25141594.402    25141593.7364   25141597.9424
        38.600          29.2004
 113707763.415 7  88603459.93447  21637869.412    21637869.1494   21637874.0064
        47.300          46.0004
 102600953.066 7                  19227376.498    19227375.985
        42.200
 412770527.565 5                  78547511.618
        33.900
 202111936.733 7                  38460604.794
        45.500
 146836698.989 6                  27942096.798
        38.000
 151642520.617 4                  28856621.788
        29.600
 140285520.989 6                  26695470.385
        40.200
 128740263.302 7                  24498458.237
        47.200
 146239484.911 6                  27828433.283
        37.400
 104817989.229 7  81676425.03146  19946176.360    19946175.3634   19946176.6084
        47.800          40.8004
 125191507.544 6  97551944.38446  23823122.885    23823122.1034   23823137.1904
        41.700          36.2004
 126452186.995 8                  24063042.144
        48.300
 108560260.670 7  84592415.79146  20658330.353    20658329.9154   20658331.6334
        47.500          37.4004
 129172428.925 7 100467476.008 6  24172866.091    24172866.958    24172877.061
        44.400          40.800
 139051663.611 6                  26460651.728
        41.900
 109538896.337 8  85196943.128 8  20462780.981    20462781.280    20462788.278
        52.400          48.300
 131021847.614 7 101905930.140 6  24484563.774    24484565.247    24484576.467
        43.700          38.400
 132540221.864 7 103086857.732 6  24750950.156    24750950.847    24750955.999
        43.500          38.200
 122878500.621 6                  23051665.431    23051664.042
        39.100
 123717015.060 7  96224295.367 7  23143865.585    23143865.733    23143885.973
        45.000          42.900
 107075641.346 8  83281099.598 7  20044778.743    20044779.218    20044785.080
        52.900          47.700
 133671253.641 6 104159541.36544  25436751.881    25436751.2824   25436758.4814
        38.500          29.3004
 127980716.631 6  99725217.87043  24353934.261    24353933.8144   24353939.5634
        38.600          22.4004
 116187655.583 7  90535832.18347  22109778.872    22109778.3994   22109779.4534
        47.900          44.9004
 151899512.853 6                  28905516.194
        36.800
 25  1  1 16  8 45.0000000  0 32G09G26E19G08S31S35G07G03R06S48S33E27
                                E11E29E04E31G16G27E21G04R15E06R07R17
                                R08R10R05R16G29G28G31E09
 118062012.591 7  91996385.27747  22466452.433    22466451.8434   22466454.7774
        44.500          42.6004
 109672918.490 8  85459446.34348  20870057.712    20870057.0284   20870061.0084
        48.900          48.3004
 122185345.486 7                  23251099.149
        42.900
 133413740.790 5 103958830.69043  25387790.634    25387789.9554   25387811.6634
        34.200          22.2004
 198981195.981 7                  37864859.441
        45.700
 200926204.261 7                  38234992.467
        44.100
 132084731.435 6 102923199.99845  25134880.619    25134879.9714   25134884.6774
        39.300          30.1004
 113744259.014 7  88631898.00347  21644814.616    21644814.3574   21644818.9554
        47.100          46.0004
 102614348.500 7                  19229886.221    19229886.228
        42.200
 412771080.426 5                  78547532.813
        33.300
 202111959.487 7                  38460613.787
        45.500
 146878491.726 6                  27950050.525
        36.800
 151674936.145 4                  28862790.094
        28.700
 140320904.053 6                  26702203.827
        40.000
 128713403.263 7                  24493346.818
        46.900
 146194221.112 6                  27819819.575
        36.600
 104810151.824 8  81670317.95846  19944684.926    19944683.9384   19944685.2284
        48.000          40.7004
 125139995.046 6  97511804.97546  23813320.459    23813319.6684   23813334.5574
        41.100          36.3004
 126467488.435 8                  24065954.043
        48.100
 108532801.088 7  84571018.69946  20653105.071    20653104.6334   20653106.3004
        47.300          37.3004
 129230052.719 7 100512294.257 6  24183650.089    24183650.348    24183660.897
        44.300          40.600
 139015044.676 7                  26453683.176
        42.100
 109495226.173 8  85162977.406 8  20454623.339    20454623.418    20454630.151
        51.500          48.400
 130993372.578 7 101883782.825 6  24479244.734    24479244.695    24479254.754
        42.900          37.800
 132476705.425 6 103037455.863 5  24739090.335    24739090.155    24739095.190
        38.200          34.400
 122826286.665 6                  23041868.692    23041868.072
        38.800
 123779389.306 7  96272808.379 7  23155533.651    23155533.609    23155554.476
        43.700          43.000
 107111011.506 8  83308609.747 7  20051399.905    20051400.220    20051406.051
        52.400          47.700
 133694083.544 6 104177330.42844  25441097.081    25441096.4784   25441103.1674
        38.600          29.0004
 128021480.651 6  99756981.89843  24361691.746    24361691.2904   24361696.8664
        38.800          22.4004
 116223963.306 7  90564123.88847  22116688.282    22116687.8044   22116688.5534
        47.800          44.7004
 151860254.652 6                  28898045.723
        38.200
 25  1  1 16  9  0.0000000  0 32G09G26E19G08S31S35G07G03R06S48S33E27
                                E11E29E04E31G16G27E21G04R15E06R07R17
                                R08R10R05R16G29G28G31E09
 118016526.876 7  91960941.85147  22457797.022    22457796.4284   22457799.2274
        44.500          42.5004
 109703197.490 8  85483040.33248  20875819.591    20875818.9034   20875822.9184
        48.800          48.2004
 122198003.516 7                  23253507.951
        43.400
 133361888.882 5 103918426.57643  25377924.321    25377923.6334   25377944.4074
        33.500          22.2004
 198981195.198 7                  37864864.593
        45.600
 200926169.067 7                  38234981.981
        43.700
 132049463.648 6 102895718.71744  25128168.701    25128168.0354   25128173.5364
        39.100          29.8004
 113780865.759 7  88660422.67547  21651780.672    21651780.4274   21651785.0274
        47.300          45.7004
 102627932.377 7                  19232432.011    19232431.995
        42.400
 412771636.477 5                  78547571.158
        33.500
 202111984.933 7                  38460620.624
        45.900
 146920305.762 6                  27958008.248
        37.800
 151707388.351 5                  28868965.703
        33.600
 140356327.804 6                  26708944.751
        40.700
 128686582.040 7                  24488242.967
        47.300
 146148976.952 6                  27811210.078
        36.900
 104802478.837 8  81664339.02246  19943224.744    19943223.7564   19943225.0464
        48.000          40.7004
 125088501.974 6  97471680.70646  23803521.300    23803520.5004   23803535.5154
        41.600          36.2004
 126482879.466 8                  24068882.777
        48.600
 108505427.794 7  84549688.88146  20647896.189    20647895.7514   20647897.2984
        47.300          37.2004
 129287657.528 7 100557097.628 6  24194429.905    24194430.204    24194440.978
        43.600          41.300
 138978436.733 7                  26446717.082
        42.600
 109451674.702 8  85129104.039 8  20446488.020    20446487.891    20446493.958
        52.600          48.200
 130965031.631 7 101861739.762 6  24473947.672    24473948.054    24473960.232
        44.000          39.200
 132413181.739 6 102988048.455 4  24727226.812    24727227.638    24727232.508
        41.300          29.800
 122774142.609 6                  23032087.629    23032087.552
        39.700
 123841820.674 7  96321365.828 7  23167213.629    23167213.281    23167233.723
        44.400          42.400
 107146474.275 8  83336191.906 7  20058038.800    20058039.023    20058045.087
        52.400          47.800
 133717036.054 6 104195214.84544  25445465.502    25445464.9174   25445471.2814
        37.300          29.2004
 128062253.581 6  99788752.85843  24369450.691    24369450.2444   24369455.9504
        38.600          23.3004
 116260304.123 7  90592441.39047  22123603.772    22123603.2994   22123603.9894
        47.600          44.5004
 151820984.354 6                  28890572.593
        38.500
 25  1  1 16  9 15.0000000  0 32G09G26E19G08S31S35G07G03R06S48S33E27
                                E11E29E04E31G16G27E21G04R15E06R07R17
                                R08R10R05R16G29G28G31E09
 117971082.101 7  91925530.37747  22449148.598    22449148.0084   22449151.3244
        44.700          42.5004
 109733585.284 8  85506719.11248  20881602.190    20881601.5064   20881605.5404
        48.400          48.1004
 122210728.012 7                  23255929.314
        42.900
 133309989.582 5 103877985.54943  25368048.379    25368047.6694   25368068.0284
        33.000          21.2004
 198981192.971 7                  37864865.527
        46.200
 200926132.856 7                  38234981.270
        44.300
 132014204.927 6 102868244.49644  25121459.395    25121458.7254   25121463.4604
        38.900          29.4004
 113817579.737 7  88689030.91647  21658766.768    21658766.5094   21658771.5754
        47.000          45.8004
 102641701.087 6                  19235011.280    19235012.170
        41.800
 412770592.530 5                  78547602.133
        33.900
 202112009.984 7                  38460621.867
        45.500
 146962139.594 6                  27965968.769
        37.800
 151739873.459 5                  28875147.156
        32.300
 140391788.585 6                  26715693.136
        40.200
 128659796.218 7                  24483145.673
        47.200
 146103748.925 6                  27802603.442
        37.500
 104794966.535 7  81658485.28446  19941795.290    19941794.3024   19941795.5004
        47.900          40.6004
 125037025.106 7  97431569.07546  23793725.306    23793724.5154   23793739.9294
        42.000          36.6004
 126498356.329 8                  24071827.950
        48.500
 108478137.407 7  84528423.67246  20642702.923    20642702.4904   20642704.0944
        47.400          37.3004
 129345240.883 7 100601884.966 6  24205206.227    24205206.113    24205216.533
        44.400          40.500
 138941836.349 7                  26439752.245
        42.300
 109408238.576 8  85095320.460 8  20438372.852    20438373.300    20438380.409
        51.900          48.400
 130936821.484 7 101839798.440 6  24468675.817    24468676.154    24468687.813
        43.500          38.900
 132349647.551 6 102938632.844 6  24715361.834    24715362.049    24715368.412
        41.600          37.900
 122722065.282 6                  23022317.214    23022316.788
        40.400
 123904305.131 7  96369964.581 7  23178901.930    23178902.036    23178923.282
        43.900          42.800
 107182025.362 8  83363842.743 7  20064694.028    20064694.157    20064700.278
        52.300          47.900
 133740107.072 6 104213191.47944  25449856.552    25449855.9714   25449862.2804
        38.000          29.3004
 128103031.807 6  99820527.92543  24377210.713    24377210.2934   24377215.6914
        39.400          22.1004
 116296674.272 7  90620781.74147  22130524.714    22130524.2454   22130525.0544
        47.600          44.5004
 151781698.555 6                  28883096.925
        36.200
 25  1  1 16  9 30.0000000  0 32G09G26E19G08S31S35G07G03R06S48S33E27
                                E11E29E04E31G16G27E21G04R15E06R07R17
                                R08R10R05R16G29G28G31E09
 117925676.838 7  91890149.70047  22440508.646    22440508.0564   22440510.9824
        44.300          42.6004
 109764079.990 8  85530481.20248  20887405.057    20887404.3694   20887408.5074
        48.600          48.1004
 122223517.526 7                  23258362.921
        43.300
 133258041.571 5 103837506.61143  25358162.938    25358162.2104   25358182.9924
        34.100          23.6004
 198981188.470 7                  37864868.885
        46.000
 200926094.291 7                  38234970.668
        43.900
 131978953.473 6 102840775.94744  25114751.524    25114750.8724   25114754.8954
        38.600          29.7004
 113854398.997 7  88717721.19447  21665773.565    21665773.3064   21665778.0984
        47.100          45.6004
 102655653.046 7                  19237626.601    19237626.853
        42.000
 412771146.454 5                  78547632.862
        33.400
 202112031.604 7                  38460624.460
        45.600
 147003990.413 6                  27973932.545
        37.200
 151772389.662 5                  28881335.135
        31.800
 140427284.779 6                  26722447.813
        40.700
 128633044.411 7                  24478055.173
        47.700
 146058535.759 6                  27793999.359
        36.700
 104787613.159 8  81652755.38646  19940395.868    19940394.8804   19940396.1824
        48.100          40.7004
 124985563.373 6  97391469.23646  23783932.055    23783931.2604   23783947.1034
        41.900          36.5004
 126513917.309 8                  24074789.233
        48.700
 108450928.603 7  84507222.03946  20637525.039    20637524.6064   20637526.4124
        47.400          37.3004
 129402800.372 7 100646653.925 6  24215977.379    24215977.518    24215987.509
        44.300          40.800
 138905242.031 7                  26432788.917
        42.300
 109364916.886 8  85061625.871 8  20430280.373    20430280.633    20430287.018
        52.300          48.300
 130908740.907 7 101817957.865 6  24463428.780    24463428.768    24463440.145
        43.000          38.200
 132286101.431 6 102889208.160 6  24703494.991    24703495.659    24703501.508
        40.500          36.600
 122670053.125 6                  23012560.360    23012559.748
        39.300
 123966840.541 7  96418602.952 7  23190600.708    23190601.410    23190621.722
        43.700          42.300
 107217663.108 8  83391561.006 7  20071365.022    20071365.746    20071371.631
        52.600          47.800
 133763296.236 6 104231260.72144  25454268.930    25454268.3544   25454276.0584
        37.700          29.5004
 128143813.790 6  99852305.93543  24384971.523    24384971.1034   24384976.4964
        39.300          22.8004
 116333072.109 7  90649143.68047  22137450.782    22137450.3094   22137451.3074
        47.700          44.4004
 151742395.773 6                  28875617.767
        36.700
 25  1  1 16  9 45.0000000  0 32G09G26E19G08S31S35G07G03R06S48S33E27
                                E11E29E04E31G16G27E21G04R15E06R07R17
                                R08R10R05R16G29G28G31E09
 117880317.601 7  91854804.85247  22431877.068    22431876.4834   22431879.4184
        44.300          42.8004
 109794687.557 8  85554331.22848  20893229.512    20893228.8244   20893232.9484
        48.300          48.1004
 122236378.344 7                  23260810.455
        43.400
 133206051.242 5 103796994.70343  25348269.538    25348268.8104   25348289.7864
        33.500          21.2004
 198981187.668 7                  37864864.186
        45.900
 200926059.189 7                  38234962.816
        44.000
 131943715.630 6 102813318.02145  25108046.076    25108045.4194   25108049.4554
        39.900          30.4004
 113891329.480 7  88746498.13747  21672801.293    21672801.0304   21672805.7454
        46.800          45.7004
 102669794.603 7                  19240276.670    19240276.831
        42.200
 412771704.727 5                  78547671.818
        33.000
 202112057.654 7                  38460628.445
        45.500
 147045864.035 6                  27981901.189
        38.200
 151804943.101 5                  28887529.440
        32.300
 140462822.625 6                  26729210.787
        40.300
 128606333.094 7                  24472972.103
        47.400
 146013343.792 6                  27785399.657
        36.500
 104780425.232 7  81647154.40846  19939028.104    19939027.1164   19939028.3534
        47.900          40.8004
 124934123.376 6  97351386.34046  23774143.234    23774142.4434   23774158.2474
        41.000          36.6004
 126529568.591 8                  24077767.333
        48.600
 108423807.899 7  84486089.03546  20632364.137    20632363.7084   20632365.4574
        47.300          37.4004
 129460340.976 7 100691407.928 6  24226745.734    24226745.382    24226755.516
        44.600          41.000
 138868660.161 7                  26425827.359
        42.300
 109321716.375 8  85028025.528 8  20422210.154    20422210.526    20422216.728
        52.300          48.200
 130880796.584 7 101796223.278 6  24458207.064    24458206.941    24458218.806
        43.800          39.000
 132222550.012 6 102839779.271 5  24691627.468    24691628.371    24691633.540
        40.900          35.000
 122618112.572 6                  23002815.834    23002814.991
        39.200
 124029432.978 7  96467285.683 7  23202310.354    23202310.403    23202332.450
        43.600          43.300
 107253393.295 8  83419351.129 7  20078054.064    20078054.319    20078060.503
        52.500          47.900
 133786609.160 6 104249426.44544  25458705.207    25458704.6404   25458712.7484
        38.600          28.9004
 128184605.727 6  99884091.72243  24392733.587    24392733.1494   24392738.7994
        40.000          22.6004
 116369503.897 7  90677532.05947  22144383.795    22144383.3224   22144384.0394
        47.400          44.4004
 151703082.427 6                  28868136.934
        37.900
 25  1  1 16 10  0.0000000  0 32G09G26E19G08S31S35G07G03R06S48S33E27
                                E11E29E04E31G16G27E21G04R15E06R07R17
                                R08R10R05R16G29G28G31E09
 117834997.537 7  91819490.52447  22423252.845    22423252.2644   22423255.1834
        44.400          42.6004
 109825400.586 7  85578263.46247  20899074.043    20899073.3644   20899077.4934
        47.900          47.9004
 122249303.195 7                  23263270.039
        42.900
 133154012.008 5 103756444.71643  25338366.637    25338365.9134   25338386.5244
        33.900          22.2004
 198981183.546 7                  37864857.393
        45.700
 200926020.965 7                  38234958.729
        43.900
 131908484.107 6 102785864.99145  25101341.058    25101340.3884   25101345.3974
        39.400          30.0004
 113928363.658 7  88775355.87447  21679848.538    21679848.2754   21679853.1474
        46.400          45.4004
 102684118.496 7                  19242962.387    19242961.132
        42.300
 412772260.103 5                  78547696.493
        33.800
 202112079.933 7                  38460638.519
        45.800
 147087753.808 6                  27989871.992
        36.900
 151837526.290 5                  28893730.258
        31.800
 140498394.900 6                  26735980.140
        40.100
 128579655.167 7                  24467895.402
        47.100
 145968166.076 6                  27776802.998
        36.900
 104773395.669 7  81641676.82046  19937690.442    19937689.4544   19937690.7034
        47.500          40.7004
 124882698.393 6  97311315.15646  23764357.927    23764357.1494   23764372.0614
        41.200          36.5004
 126545302.848 8                  24080761.528
        48.400
 108396768.439 7  84465019.35546  20627218.753    20627218.3154   20627220.0014
        47.200          37.3004
 129517854.950 7 100736140.883 6  24237508.302    24237508.506    24237518.085
        44.300          39.600
 138832083.737 7                  26418867.069
        42.600
 109278630.154 8  84994514.037 8  20414161.515    20414161.454    20414168.294
        51.900          48.300
 130852981.824 7 101774589.412 6  24453009.053    24453009.149    24453020.196
        43.800          39.000
 132158985.820 7 102790340.115 6  24679757.655    24679758.511    24679764.235
        44.000          38.500
 122566236.904 6                  22993083.052    22993083.171
        39.000
 124092075.054 7  96516007.003 7  23214029.599    23214030.173    23214050.225
        45.300          42.800
 107289208.432 8  83447207.333 7  20084758.680    20084759.047    20084765.156
        52.400          47.900
 133810039.128 6 104267683.87544  25463163.953    25463163.3594   25463171.3944
        36.700          29.7004
 128225400.428 6  99915879.66543  24400496.488    24400496.0414   24400501.5404
        39.400          22.3004
 116405962.312 7  90705941.20047  22151321.468    22151320.9904   22151321.8644
        47.300          44.2004
 151663751.447 6                  28860652.180
        38.700
 25  1  1 16 10 15.0000000  0 31G09G26E19G08S31S35G07G03R06S48S33E27
                                E29E04E31G16G27E21G04R15E06R07R17R08
                                R10R05R16G29G28G31E09
 117789720.524 7  91784209.76147  22414636.723    22414636.1064   22414639.2024
        44.600          42.6004
 109856222.268 8  85602280.35947  20904939.252    20904938.5864   20904942.6564
        48.500          47.7004
 122262296.058 7                  23265742.374
        43.100
 133101927.572 5 103715859.55043  25328455.000    25328454.2944   25328475.2984
        33.100          22.6004
 198981179.699 7                  37864864.029
        46.000
 200925982.966 7                  38234946.025
        43.600
 131873262.427 6 102758419.66045  25094638.863    25094638.1884   25094642.5164
        39.200          30.1004
 113965504.764 7  88804296.95947  21686916.264    21686916.0014   21686920.8864
        47.100          45.2004
 102698628.285 7                  19245680.158    19245680.425
        42.300
 412771215.285 5                  78547727.544
        33.600
 202112103.276 7                  38460642.790
        45.600
 147129661.274 6                  27997847.179
        37.200
 140534005.088 6                  26742756.641
        40.100
 128553014.346 7                  24462825.937
        47.300
 145923006.414 6                  27768209.002
        37.900
 104766527.948 7  81636325.35746  19936383.551    19936382.5724   19936383.8224
        47.900          40.6004
 124831292.390 6  97271258.75546  23754574.942    23754574.1694   23754589.2414
        41.500          36.3004
 126561123.424 8                  24083772.214
        48.400
 108369813.998 7  84444015.91446  20622089.524    20622089.0914   20622090.7334
        47.200          37.3004
 129575347.182 7 100780857.274 6  24248266.910    24248267.181    24248277.261
        44.500          40.600
 138795516.453 7                  26411908.672
        42.600
 109235662.360 8  84961094.717 8  20406134.636    20406134.676    20406141.200
        52.300          48.400
 130825300.532 7 101753059.406 6  24447835.798    24447836.466    24447848.375
        44.700          38.900
 132095413.731 6 102740895.135 5  24667886.503    24667886.962    24667891.765
        38.500          33.900
 122514429.975 6                  22983365.682    22983364.882
        41.000
 124154769.671 7  96564769.256 7  23225757.443    23225757.812    23225778.263
        44.700          42.000
 107325111.681 8  83475132.081 7  20091480.183    20091480.236    20091486.246
        52.700          47.800
 133833588.706 6 104286034.72945  25467645.382    25467644.7974   25467652.4164
        37.900          30.2004
 128266201.347 6  99947672.40643  24408261.206    24408260.7864   24408265.9584
        39.700          22.3004
 116442450.713 7  90734373.68747  22158264.985    22158264.5074   22158265.3604
        47.500          44.0004
 151624406.230 6                  28853165.323
        38.400
 25  1  1 16 10 30.0000000  0 31G09G26E19G08S31S35G07G03R06S48S33E27
                                E29E04E31G16G27E21G04R15E06R07R17R08
                                R10R05R16G29G28G31E09
 117744491.090 7  91748966.06247  22406029.790    22406029.1604   22406032.3984
        44.700          42.8004
 109887156.538 8  85626384.97647  20910825.763    20910825.0934   20910829.2574
        48.600          47.8004
 122275360.969 7                  23268228.550
        43.000
 133049802.583 5 103675242.80243  25318535.938    25318535.2194   25318556.2464
        34.900          23.4004
 198981180.037 7                  37864861.342
        45.800
 200925949.030 7                  38234946.146
        44.100
 131838054.816 6 102730985.25845  25087938.330    25087937.6604   25087942.6704
        39.700          30.6004
 114002756.645 7  88833324.33747  21694004.994    21694004.7264   21694009.7054
        46.600          45.3004
 102713328.138 7                  19248434.858    19248435.025
        42.300
 412771774.537 5                  78547755.178
        33.300
 202112129.404 7                  38460642.723
        45.500
 147171592.309 6                  28005826.182
        36.500
 140569657.473 6                  26749541.176
        39.900
 128526415.166 7                  24457764.123
        47.200
 145877869.281 6                  27759618.921
        37.600
 104759826.150 8  81631103.18046  19935108.130    19935107.1474   19935108.5294
        48.100          40.7004
 124779910.144 6  97231220.86346  23744797.614    23744796.8594   23744811.4494
        41.100          36.6004
 126577034.501 8                  24086800.186
        48.200
 108342949.153 7  84423082.26946  20616977.239    20616976.8064   20616978.5414
        47.500          37.5004
 129632822.558 7 100825561.272 7  24259021.353    24259021.562    24259031.951
        45.400          42.500
 138758962.696 7                  26404952.326
        42.200
 109192817.802 8  84927771.156 8  20398130.564    20398130.794    20398137.318
        52.200          48.200
 130797757.687 7 101731637.018 6  24442688.287    24442689.333    24442701.256
        44.500          38.600
 132031838.111 7 102691447.402 6  24656014.797    24656015.349    24656020.134
        43.400          36.100
 122462695.997 6                  22973658.813    22973658.733
        39.300
 124217521.133 7  96613575.655 7  23237496.438    23237497.140    23237518.356
        44.400          42.800
 107361106.967 8  83503128.386 8  20098218.302    20098218.649    20098224.860
        51.900          48.100
 133857260.137 6 104304479.97744  25472149.764    25472149.1884   25472156.0154
        36.500          29.9004
 128307012.851 6  99979473.43343  24416027.467    24416027.0344   24416032.4384
        39.500          22.7004
 116478973.337 7  90762832.85147  22165214.766    22165214.3014   22165215.3614
        46.900          44.0004
 151585051.398 6                  28845676.017
        37.000
 25  1  1 16 10 45.0000000  0 31G09G26E19G08S31S35G07G03R06S48S33E27
                                E29E04E31G16G27E21G04R15E06R07R17R08
                                R10R05R16G29G28G31E09
 117699301.863 7  91713753.70847  22397430.939    22397430.3004   22397433.1954
        44.600          43.1004
 109918195.559 8  85650571.21848  20916732.454    20916731.7884   20916735.7694
        48.200          48.0004
 122288490.394 7                  23270727.087
        42.800
 132997629.615 5 103634588.65243  25308607.293    25308606.5964   25308627.9564
        33.400          23.8004
 198981177.308 7                  37864861.543
        45.800
 200925912.261 7                  38234936.532
        44.100
 131802853.431 6 102703555.67845  25081240.219    25081239.5674   25081243.6834
        39.100          30.2004
 114040111.371 7  88862431.84947  21701113.703    21701113.4404   21701118.1094
        46.600          45.5004
 102728210.575 7                  19251224.098    19251224.168
        42.100
 412772331.764 5                  78547785.138
        33.500
 202112154.179 7                  38460646.988
        45.800
 147213538.454 6                  28013808.301
        36.400
 140605344.303 6                  26756332.512
        39.900
 128499850.009 7                  24452708.798
        46.800
 145832747.084 6                  27751032.288
        36.000
 104753282.834 8  81626004.50646  19933862.969    19933861.9814   19933863.3654
        48.000          41.0004
 124728544.303 6  97191195.75646  23735022.035    23735021.2754   23735036.4774
        41.100          36.7004
 126593028.232 8                  24089843.421
        48.000
 108316166.551 7  84402212.72646  20611880.849    20611880.4114   20611881.9744
        47.500          37.8004
 129690271.078 7 100870244.151 6  24269771.881    24269772.595    24269781.343
        44.300          40.800
 138722414.904 6                  26397997.724
        41.900
 109150089.472 8  84894538.060 8  20390148.893    20390148.912    20390155.301
        52.200          48.300
 130770345.705 7 101710316.422 6  24437567.117    24437566.938    24437578.145
        44.400          38.300
 131968251.645 7 102641991.319 6  24644140.762    24644141.027    24644146.201
        42.700          36.800
 122411027.733 6                  22963966.332    22963966.827
        41.100
 124280321.184 7  96662419.899 7  23249245.050    23249244.978    23249266.136
        44.200          42.300
 107397186.061 8  83531189.874 8  20104972.441    20104972.731    20104978.866
        52.300          48.100
 133881047.061 6 104323014.87745  25476676.317    25476675.7454   25476682.1694
        40.200          30.5004
 128347827.140 6 100011276.60043  24423793.909    24423793.4804   24423799.0964
        39.600          22.7004
 116515522.448 7  90791312.65547  22172170.228    22172169.7724   22172170.4564
        47.100          44.2004
 151545679.309 6                  28838183.858
        38.200
 25  1  1 16 11  0.0000000  0 31G09G26E19G08S31S35G07G03R06S48S33E27
                                E29E04E31G16G27E21G04R15E06R07R17R08
                                R10R05R16G29G28G31E09
 117654157.826 7  91678576.54147  22388840.453    22388839.8234   22388842.5194
        44.600          43.2004
 109949343.683 8  85674842.46048  20922659.717    20922659.0474   20922663.0394
        48.200          48.0004
 122301689.066 7                  23273238.594
        43.000
 132945413.622 5 103593901.00744  25298671.080    25298670.3964   25298691.3224
        34.000          24.4004
 198981176.010 7                  37864860.649
        45.700
 200925876.892 7                  38234929.221
        43.900
 131767663.458 6 102676134.98045  25074543.369    25074542.6994   25074547.1964
        39.200          30.6004
 114077573.293 7  88891622.90647  21708242.513    21708242.2504   21708246.9854
        46.300          45.5004
 102743280.025 7                  19254048.119    19254047.989
        42.100
 412772891.037 5                  78547828.526
        33.100
 202112179.177 7                  38460654.680
        45.800
 147255503.931 6                  28021794.115
        37.400
 140641070.278 6                  26763130.848
        40.000
 128473323.817 7                  24447661.245
        47.100
 145787644.595 6                  27742450.210
        37.600
 104746902.662 7  81621032.93846  19932649.114    19932648.1314   19932649.2614
        47.900          41.1004
 124677200.097 6  97151187.51846  23725251.961    23725251.2064   23725265.6114
        41.500          36.8004
 126609109.298 8                  24092903.663
        48.200
 108289471.107 7  84381411.08346  20606800.876    20606800.4434   20606802.0144
        47.400          37.9004
 129747694.917 7 100914906.298 6  24280518.530    24280518.579    24280529.290
        44.700          40.600
 138685877.950 7                  26391045.122
        42.300
 109107482.097 8  84861399.014 8  20382189.217    20382189.138    20382195.907
        51.700          48.400
 130743069.782 7 101689101.632 6  24432469.204    24432470.075    24432481.850
        45.200          39.600
 131904658.769 7 102592530.221 5  24632264.281    24632264.335    24632270.019
        43.000          35.600
 122359429.874 6                  22954286.442    22954285.965
        39.500
 124343174.226 7  96711305.360 7  23261003.104    23261002.877    23261024.482
        43.400          42.400
 107433353.546 8  83559320.130 8  20111742.993    20111743.340    20111749.515
        52.300          48.100
 133904948.387 6 104341638.44144  25481227.121    25481226.6074   25481231.2544
        36.300          28.0004
 128388648.982 6 100043085.64743  24431562.195    24431561.7534   24431567.6914
        39.500          22.7004
 116552102.719 7  90819816.72747  22179131.190    22179130.7434   22179131.4714
        46.700          44.1004
 151506294.791 6                  28830689.435
        38.700
 25  1  1 16 11 15.0000000  0 31G09G26E19G08S31S35G07G03R06S48S33E27
                                E29E04E31G16G27E21G04R15E06R07R17R08
                                R10R05R16G29G28G31E09
 117609054.982 7  91643431.47647  22380257.493    22380256.8724   22380259.6874
        44.500          43.0004
 109980596.320 8  85699195.15247  20928606.863    20928606.1934   20928610.2124
        48.400          47.9004
 122314952.919 7                  23275762.535
        43.400
 132893150.599 5 103553176.70143  25288726.203    25288725.5154   25288745.9244
        33.900          22.6004
 198981171.893 7                  37864859.589
        45.700
 200925838.801 7                  38234926.918
        44.200
 131732480.249 6 102648719.50145  25067849.149    25067848.4654   25067852.3724
        38.000          30.4004
 114115137.707 7  88920893.80647  21715390.814    21715390.5644   21715395.2804
        46.600          45.2004
 102758532.416 7                  19256906.048    19256906.245
        42.200
 412771848.610 5                  78547852.163
        33.300
 202112201.368 7                  38460660.408
        45.500
 147297485.113 6                  28029782.681
        37.300
 140676831.031 6                  26769936.363
        40.200
 128446832.469 7                  24442619.923
        47.300
 145742557.881 6                  27733869.614
        37.300
 104740681.323 8  81616185.15246  19931465.043    19931464.0514   19931465.3824
        48.200          41.0004
 124625873.592 7  97111193.08546  23715484.119    23715483.3504   23715498.4964
        42.200          37.0004
 126625273.055 8                  24095979.534
        48.500
 108262858.853 7  84360674.27946  20601736.561    20601736.1324   20601737.8794
        47.400          37.8004
 129805093.872 7 100959549.806 6  24291260.485    24291260.472    24291270.481
        44.100          40.500
 138649347.683 7                  26384093.635
        42.200
 109064992.293 8  84828351.400 8  20374251.829    20374251.914    20374258.562
        52.100          48.400
 130715926.050 7 101667989.751 6  24427397.155    24427397.569    24427410.002
        44.500          39.900
 131841055.856 6 102543061.259 6  24620387.272    24620387.066    24620392.768
        41.600          36.300
 122307898.301 6                  22944620.509    22944619.511
        40.600
 124406075.760 7  96760228.495 7  23272770.437    23272770.887    23272792.241
        43.400          42.700
 107469604.726 8  83587515.510 8  20118529.460    20118529.671    20118535.833
        52.500          48.200
 133928970.072 6 104360356.57544  25485798.558    25485798.0174   25485804.8434
        37.500          29.3004
 128429474.006 6 100074897.16343  24439331.464    24439330.9994   24439336.2454
        39.200          22.7004
 116588709.670 7  90848341.59647  22186097.095    22186096.6574   22186097.5524
        47.300          44.1004
 151466893.491 6                  28823191.532
        37.900
 25  1  1 16 11 30.0000000  0 31G09G26E19G08S31S35G07G03R06S48S33E27
                                E29E04E31G16G27E21G04R15E06R07R17R08
                                R10R05R16G29G28G31E09
 117563999.852 7  91608323.61247  22371683.613    22371682.9834   22371685.9994
        44.600          43.5004
 110011959.425 8  85723633.92248  20934574.962    20934574.2924   20934578.4384
        48.400          48.1004
 122328288.040 7                  23278300.541
        43.200
 132840847.093 5 103512420.89343  25278772.152    25278771.4774   25278792.7324
        34.200          21.3004
 198981171.589 7                  37864858.806
        46.100
 200925804.026 7                  38234916.182
        44.000
 131697310.111 6 102621314.16445  25061156.583    25061155.9084   25061159.4674
        39.400          30.8004
 114152810.574 7  88950249.23247  21722559.624    21722559.3654   21722564.2214
        46.600          45.4004
 102773973.842 7                  19259800.504    19259800.235
        42.100
 412772409.412 5                  78547895.122
        34.300
 202112227.104 7                  38460664.177
        45.700
 147339487.256 6                  28037775.287
        36.500
 140712632.765 6                  26776748.933
        39.500
 128420382.362 7                  24437586.621
        47.000
 145697493.154 6                  27725294.545
        38.100
 104734624.971 8  81611465.92046  19930312.480    19930311.4924   19930312.8884
        48.300          41.3004
 124574571.457 6  97071217.62046  23705721.285    23705720.5214   23705735.8534
        41.100          37.2004
 126641525.776 8                  24099072.330
        48.200
 108236336.242 7  84340007.31246  20596689.693    20596689.2644   20596690.8124
        47.800          38.2004
 129862472.144 7 101004176.984 6  24301997.766    24301997.996    24302008.255
        43.600          41.200
 138612830.440 7                  26377144.488
        42.400
 109022626.757 8  84795400.444 8  20366337.686    20366337.755    20366344.265
        52.400          48.300
 130688921.234 7 101646985.867 6  24422350.863    24422351.410    24422362.904
        44.400          38.200
 131777449.725 7 102493589.846 6  24608508.696    24608509.305    24608515.069
        42.700          38.900
 122256439.575 6                  22934966.329    22934966.070
        40.600
 124469031.387 7  96809193.714 7  23284547.452    23284547.947    23284570.114
        43.600          42.700
 107505945.500 8  83615780.565 8  20125331.915    20125332.315    20125338.915
        51.800          48.100
 133953114.788 6 104379169.99345  25490393.615    25490393.0704   25490400.8434
        39.600          30.5004
 128470308.514 6 100106716.09843  24447101.905    24447101.4234   24447106.8204
        39.000          22.9004
 116625349.415 7  90876892.01047  22193069.462    22193069.0154   22193069.9344
        47.500          44.2004
 151427481.935 6                  28815691.944
        37.700
 25  1  1 16 11 45.0000000  0 31G09G26E19G08S31S35G07G03R06S48S33E27
                                E29E04E31G16G27E21G04R15E06R07R17R08
                                R10R05R16G29G28G31E09
 117518988.163 7  91573249.57947  22363118.565    22363117.9314   22363120.5574
        44.900          43.3004
 110043428.126 8  85748154.95647  20940563.319    20940562.6444   20940566.7634
        48.100          47.7004
 122341690.180 7                  23280850.425
        43.000
 132788498.888 5 103471630.25043  25268810.538    25268809.8284   25268830.8734
        34.000          22.8004
 198981169.684 7                  37864855.721
        46.100
 200925768.202 7                  38234910.860
        44.400
 131662148.618 6 102593915.58945  25054465.042    25054464.3724   25054468.6274
        39.500          30.9004
 114190586.991 7  88979685.36447  21729748.371    21729748.1124   21729752.9004
        46.900          45.1004
 102789599.735 7                  19262728.982    19262728.338
        42.000
 412772969.396 5                  78547918.545
        33.700
 202112252.808 7                  38460670.460
        46.100
 147381506.949 6                  28045771.350
        36.000
 140748470.916 6                  26783569.050
        39.900
 128393969.107 7                  24432560.272
        47.100
 145652446.145 6                  27716722.172
        38.100
 104728729.177 8  81606871.82046  19929190.747    19929189.7644   19929190.9274
        48.100          41.0004
 124523289.564 7  97031257.92546  23695963.562    23695962.8024   23695976.7874
        42.400          36.7004
 126657862.678 8                  24102181.180
        48.200
 108209899.031 7  84319406.89046  20591658.547    20591658.1094   20591659.9864
        47.600          38.0004
 129919824.973 7 101048784.078 6  24312730.891    24312731.585    24312741.482
        44.000          40.300
 138576321.911 7                  26370197.236
        42.200
 108980381.169 8  84762542.787 8  20358445.644    20358445.886    20358452.222
        52.100          48.400
 130662051.109 7 101626086.809 6  24417328.966    24417329.488    24417340.789
        44.100          37.600
 131713835.764 7 102444112.245 6  24596629.326    24596630.051    24596635.243
        42.800          36.900
 122205049.266 6                  22925325.502    22925324.639
        40.500
 124532036.195 7  96858197.208 6  23296334.928    23296334.884    23296355.474
        43.800          41.500
 107542370.615 8  83644111.208 7  20132151.572    20132151.691    20132157.723
        52.300          47.900
 133977377.800 6 104398076.36645  25495010.947    25495010.3934   25495018.8184
        37.900          30.1004
 128511147.861 6 100138538.80843  24454873.831    24454873.3664   24454878.9034
        39.500          22.9004
 116662017.343 7  90905464.38847  22200047.191    22200046.7534   22200047.6734
        47.300          43.7004
 151388055.631 6                  28808189.291
        36.700
 25  1  1 16 12  0.0000000  0 31G09G26E19G08S31S35G07G03R06S48S33E27
                                E29E04E31G16G27E21G04R15E06R07R17R08
                                R10R05R16G29G28G31E09
 117474020.847 7  91538210.10547  22354561.177    22354560.5384   22354563.4944
        44.900          43.3004
 110075002.824 8  85772758.59547  20946571.743    20946571.0734   20946575.2604
        48.000          47.7004
 122355159.794 7                  23283413.733
        43.000
 132736107.018 5 103430805.56843  25258841.327    25258840.6084   25258860.4564
        34.000          23.1004
 198981167.498 7                  37864860.358
        46.100
 200925732.131 7                  38234905.915
        44.100
 131626996.437 6 102566524.28945  25047775.755    25047775.1074   25047779.5274
        39.300          30.9004
 114228467.226 7  89009202.38247  21736956.523    21736956.2554   21736961.2414
        46.600          45.0004
 102805410.729 7                  19265691.357    19265691.732
        42.000
 412773529.793 5                  78547960.560
        33.300
 202112276.858 7                  38460677.758
        45.300
 147423543.046 6                  28053770.661
        36.700
 140784346.079 6                  26790396.321
        39.400
 128367593.514 7                  24427541.184
        47.200
 145607417.641 6                  27708153.295
        36.900
 104722994.600 8  81602403.33346  19928099.390    19928098.4074   19928099.6594
        48.000          41.2004
 124472028.964 6  96991314.81846  23686208.607    23686207.8384   23686222.2784
        41.500          37.1004
 126674284.269 8                  24105306.050
        48.300
 108183548.193 7  84298873.79246  20586644.191    20586643.7674   20586645.5674
        47.500          38.0004
 129977153.448 7 101093372.266 6  24323460.614    24323460.613    24323470.809
        44.200          41.000
 138539822.856 7                  26363251.640
        42.300
 108938257.076 8  84729779.643 8  20350576.114    20350576.493    20350583.476
        52.200          48.400
 130635316.944 7 101605293.465 6  24412333.679    24412333.836    24412346.081
        44.400          38.900
 131650215.291 7 102394629.730 5  24584749.017    24584749.106    24584754.066
        42.300          35.600
 122153728.385 6                  22915697.208    22915696.663
        40.100
 124595090.743 7  96907239.373 6  23308130.667    23308131.150    23308151.189
        44.600          41.900
 107578880.654 8  83672507.914 8  20138986.052    20138986.298    20138992.518
        52.500          48.100
 134001760.258 6 104417076.94644  25499649.055    25499648.5014   25499658.4484
        38.700          29.8004
 128551992.682 6 100170365.73943  24462646.016    24462645.5294   24462652.0054
        39.600          22.8004
 116698714.075 7  90934059.20547  22207030.366    22207029.9284   22207030.8504
        47.200          43.7004
 151348615.343 6                  28800683.607
        37.900
 25  1  1 16 12 15.0000000  0 31G09G26E19G08S31S35G07G03R06S48S33E27
                                E29E04E31G16G27E21G04R15E06R07R17R08
                                R10R05R16G29G28G31E09
 117429097.134 7  91503204.63947  22346012.613    22346011.9614   22346014.8164
        44.400          43.2004
 110106682.068 7  85797443.69547  20952600.096    20952599.4264   20952603.6654
        47.900          47.6004
 122368695.988 7                  23285989.694
        43.100
 132683670.592 5 103389946.20243  25248862.495    25248861.7804   25248882.2004
        33.800          22.2004
 198981164.503 7                  37864855.556
        45.800
 200925694.508 7                  38234898.818
        44.300
 131591852.280 6 102539139.21645  25041088.417    25041087.7564   25041091.6924
        38.300          30.6004
 114266449.725 7  89038799.07647  21744184.475    21744184.2034   21744189.0874
        46.200          44.8004
 102821405.752 7                  19268689.030    19268688.797
        42.100
 412772489.200 5                  78547991.951
        33.400
 202112300.136 7                  38460676.067
        45.600
 147465594.469 6                  28061772.829
        37.000
 140820257.056 6                  26797230.308
        39.400
 128341254.683 7                  24422528.991
        47.300
 145562406.703 6                  27699588.061
        37.600
 104717419.981 7  81598059.48646  19927038.655    19927037.6724   19927038.8734
        47.800          41.1004
 124420789.019 6  96951387.80046  23676457.627    23676456.8544   23676471.5344
        40.800          36.9004
 126690789.284 8                  24108446.900
        48.200
 108157282.811 7  84278407.28246  20581646.107    20581645.6834   20581647.4074
        47.600          38.0004
 130034457.118 7 101137941.714 6  24334183.737    24334183.760    24334194.453
        44.500          40.700
 138503332.269 7                  26356307.905
        42.400
 108896253.438 8  84697110.157 8  20342729.926    20342729.984    20342736.181
        52.000          48.400
 130608717.417 7 101584604.843 6  24407362.268    24407363.032    24407375.640
        43.600          38.900
 131586587.587 7 102345141.657 6  24572866.719    24572867.191    24572873.076
        42.700          37.100
 122102475.915 6                  22906083.226    22906081.950
        40.600
 124658193.510 7  96956319.089 6  23319935.065    23319935.317    23319956.318
        43.700          41.900
 107615473.998 8  83700969.392 7  20145836.530    20145836.757    20145842.838
        52.600          47.900
 134026257.649 6 104436166.54544  25504310.479    25504309.9294   25504318.7734
        39.500          29.7004
 128592841.812 6 100202196.05643  24470419.847    24470419.3824   24470425.2414
        38.800          23.0004
 116735438.251 7  90962675.40447  22214018.716    22214018.2654   22214019.2714
        47.000          43.6004
 151309159.990 6                  28793176.089
        37.600
 25  1  1 16 12 30.0000000  0 31G09G26E19G08S31S35G07G03R06S48S33E27
                                E29E04E31G16G27E21G04R15E06R07R17R08
                                R10R05R16G29G28G31E09
 117384217.672 7  91468233.65347  22337472.521    22337471.8914   22337474.5584
        44.400          43.2004
 110138465.941 7  85822210.29047  20958648.407    20958647.7374   20958651.9684
        47.600          47.6004
 122382299.189 7                  23288578.230
        43.500
 132631190.256 5 103349052.60843  25238875.271    25238874.5434   25238895.6724
        33.400          22.9004
 198981159.509 7                  37864858.037
        45.700
 200925655.962 7                  38234887.563
        43.800
 131556716.658 6 102511760.84445  25034402.342    25034401.6854   25034405.7714
        39.000          31.2004
 114304534.688 7  89068475.60847  21751431.877    21751431.6054   21751436.4424
        46.100          44.8004
 102837585.017 7                  19271721.746    19271720.825
        42.400
 412773048.103 5                  78548023.337
        33.700
 202112321.401 7                  38460679.515
        45.400
 147507661.762 6                  28069777.857
        36.800
 140856204.245 6                  26804070.753
        40.100
 128314953.111 7                  24417524.150
        47.300
 145517413.986 6                  27691026.310
        38.800
 104712005.959 7  81593840.77546  19926008.377    19926007.3944   19926008.5984
        47.900          41.2004
 124369570.566 7  96911477.52946  23666711.291    23666710.5184   23666724.6044
        42.000          37.1004
 126707377.995 8                  24111603.499
        48.500
 108131103.568 7  84258007.88746  20576664.334    20576663.9054   20576665.6754
        47.400          38.1004
 130091733.259 7 101182488.908 6  24344902.667    24344902.906    24344913.702
        43.200          40.400
 138466850.768 7                  26349365.728
        42.300
 108854371.371 8  84664535.184 8  20334905.721    20334906.054    20334912.711
        52.000          48.500
 130582253.706 7 101564021.822 6  24402417.669    24402418.093    24402430.159
        44.200          38.400
 131522952.937 7 102295648.003 6  24560983.260    24560983.680    24560988.680
        43.300          36.500
 122051292.466 6                  22896480.857    22896480.277
        41.600
 124721344.528 7  97005436.288 6  23331749.242    23331749.353    23331770.273
        43.800          41.500
 107652150.611 8  83729495.662 8  20152702.533    20152702.620    20152708.791
        52.700          48.000
 134050869.913 6 104455344.69845  25508994.314    25508993.7644   25509001.2784
        38.400          30.8004
 128633695.737 6 100234030.10243  24478194.079    24478193.6064   24478199.9444
        38.900          23.0004
 116772190.439 7  90991313.44047  22221012.595    22221012.1444   22221012.9834
        47.000          43.7004
 151269690.216 6                  28785665.105
        38.600
 25  1  1 16 12 45.0000000  0 31G09G26E19G08S31S35G07G03R06S48S33E27
                                E29E04E31G16G27E21G04R15E06R07R17R08
                                R10R05R16G29G28G31E09
 117339385.961 7  91433299.89347  22328940.930    22328940.2824   22328943.3464
        44.300          43.4004
 110170357.368 7  85847060.70347  20964717.204    20964716.5344   20964720.7384
        47.500          47.6004
 122395972.470 7                  23291180.218
        43.500
 132578669.617 5 103308127.60843  25228882.141    25228881.4174   25228901.0774
        33.200          23.0004
 198981156.945 7                  37864858.444
        46.100
 200925619.074 7                  38234878.700
        43.900
 131521592.726 6 102484391.62845  25027717.482    25027716.8254   25027721.8944
        38.700          31.0004
 114342724.839 7  89098234.10447  21758699.127    21758698.8504   21758703.7864
        45.900          44.6004
 102853951.804 7                  19274787.910    19274788.094
        42.100
 412773609.749 5                  78548046.822
        33.300
 202112345.778 7                  38460684.966
        45.800
 147549749.190 6                  28077786.122
        36.700
 140892190.773 6                  26810919.099
        39.500
 128288692.138 7                  24412526.825
        47.600
 145472442.646 6                  27682467.983
        38.200
 104706755.335 7  81589749.38046  19925009.206    19925008.2184   19925009.3964
        47.700          41.3004
 124318377.186 6  96871586.79746  23656968.389    23656967.6294   23656982.7004
        41.900          37.2004
 126724053.500 8                  24114776.791
        48.500
 108105013.878 7  84237678.25346  20571699.574    20571699.1414   20571700.9084
        47.500          38.3004
 130148985.606 7 101227016.981 6  24355617.831    24355618.291    24355629.462
        43.600          40.200
 138430381.527 7                  26342425.787
        42.800
 108812614.603 8  84632057.725 8  20327105.401    20327105.639    20327112.279
        52.200          48.400
 130555929.620 7 101543547.441 6  24397499.115    24397499.957    24397510.704
        46.400          39.600
 131459315.187 7 102246151.934 6  24549099.828    24549099.940    24549105.352
        43.400          37.400
 122000181.402 6                  22886891.863    22886891.656
        40.100
 124784546.662 7  97054593.255 7  23343572.594    23343572.689    23343594.562
        43.400          42.200
 107688913.544 8  83758089.059 8  20159584.886    20159584.787    20159591.021
        52.800          48.100
 134075603.156 6 104474617.78345  25513700.284    25513699.7174   25513707.9464
        39.200          30.2004
 128674557.512 6 100265870.26543  24485969.882    24485969.4044   24485975.5414
        39.300          22.9004
 116808973.662 7  91019975.65947  22228012.055    22228011.6044   22228012.6024
        46.700          43.7004
 151230209.114 6                  28778151.619
        39.000
 25  1  1 16 13  0.0000000  0 31G09G26E19G08S31S35G07G03R06S48S33E27
                                E29E04E31G16G27E21G04R15E06R07R17R08
                                R10R05R16G29G28G31E09
 117294600.075 7  91398401.83847  22320418.769    22320418.1264   22320420.7694
        44.500          43.5004
 110202353.948 7  85871993.08047  20970806.094    20970805.4244   20970809.5364
        47.600          47.6004
 122409713.907 7                  23293795.379
        43.400
 132526106.700 5 103267169.67643  25218878.427    25218877.6724   25218898.8754
        34.900          23.9004
 198981154.351 7                  37864852.202
        45.800
 200925582.544 7                  38234872.149
        43.600
 131486478.217 6 102457029.73945  25021035.852    25021035.2184   25021039.7434
        39.500          31.4004
 114381017.706 7  89128072.64747  21765986.176    21765985.9044   21765990.7424
        46.100          44.7004
 102870503.944 7                  19277889.896    19277890.135
        42.200
 412774171.196 5                  78548083.762
        33.600
 202112369.668 7                  38460687.591
        45.400
 147591852.346 6                  28085798.420
        37.200
 140928214.376 6                  26817774.124
        39.600
 128262469.767 7                  24407536.655
        47.300
 145427490.819 6                  27673913.782
        37.900
 104701666.109 7  81585783.75946  19924040.830    19924039.8424   19924040.9464
        47.800          41.3004
 124267207.111 6  96831714.22746  23647231.391    23647230.6224   23647244.8924
        41.100          36.9004
 126740813.464 8                  24117966.292
        48.500
 108079011.933 7  84217417.00346  20566751.601    20566751.1684   20566752.9284
        47.500          38.3004
 130206214.161 6 101271527.126 6  24366327.764    24366327.563    24366339.687
        41.700          39.700
 138393922.627 7                  26335487.519
        42.700
 108770981.327 8  84599676.258 8  20319327.888    20319328.043    20319334.401
        51.900          48.400
 130529743.087 7 101523179.989 6  24392604.800    24392605.493    24392616.938
        44.600          39.200
 131395672.280 7 102196651.884 6  24537214.892    24537215.383    24537221.205
        42.400          36.700
 121949140.558 6                  22877317.489    22877316.186
        40.400
 124847797.111 7  97103787.805 6  23355404.723    23355404.661    23355426.051
        42.900          41.900
 107725760.051 8  83786747.478 8  20166481.761    20166482.288    20166488.472
        52.200          48.100
 134100453.542 6 104493982.20044  25518428.971    25518428.4044   25518436.1784
        38.500          29.9004
 128715424.943 6 100297714.83143  24493746.685    24493746.2074   24493752.6054
        40.200          22.7004
 116845785.530 7  91048660.21547  22235017.253    22235016.8024   22235017.6584
        46.800          43.8004
 151190714.534 6                  28770636.453
        38.300
 25  1  1 16 13 15.0000000  0 31G09G26E19G08S31S35G07G03R06S48S33E27
                                E29E04E31G16G27E21G04R15E06R07R17R08
                                R10R05R16G29G28G31E09
 117249860.546 7  91363539.87447  22311905.088    22311904.4544   22311907.0234
        45.000          43.7004
 110234455.733 7  85897007.48347  20976914.692    20976914.0354   20976918.3404
        47.200          47.8004
 122423523.844 7                  23296423.349
        43.900
 132473502.206 5 103226179.35744  25208868.058    25208867.2984   25208888.2274
        34.600          25.0004
 198981151.566 7                  37864857.094
        45.900
 200925545.700 7                  38234866.189
        43.600
 131451373.381 6 102429675.39445  25014355.667    25014355.0414   25014359.5364
        40.200          31.4004
 114419413.225 7  89157991.17147  21773292.635    21773292.3724   21773297.2884
        45.900          44.8004
 102887241.577 7                  19281026.306    19281026.428
        42.000
 412774733.251 5                  78548114.907
        33.500
 202112393.569 7                  38460692.264
        45.400
 147633972.253 6                  28093813.626
        37.600
 140964275.378 6                  26824636.500
        40.100
 128236286.564 7                  24402554.382
        47.900
 145382558.933 6                  27665363.920
        38.200
 104696738.506 7  81581944.07446  19923103.012    19923102.0204   19923103.2474
        47.500          41.4004
 124216061.164 7  96791860.46146  23637498.358    23637497.5854   23637512.1334
        42.000          37.6004
 126757657.996 8                  24121171.608
        48.700
 108053098.254 7  84197224.52346  20561820.491    20561820.0624   20561821.6904
        47.600          38.5004
 130263416.823 7 101316016.685 6  24377033.752    24377033.875    24377046.312
        43.800          40.500
 138357474.434 7                  26328551.668
        42.900
 108729472.508 8  84567391.641 8  20311573.572    20311574.106    20311580.469
        52.000          48.400
 130503695.267 7 101502920.686 6  24387737.611    24387738.056    24387749.688
        44.700          39.900
 131332025.223 6 102147148.700 6  24525328.062    24525328.562    24525335.006
        40.700          36.600
 121898170.732 6                  22867755.195    22867754.551
        40.900
 124911096.530 7  97153020.453 7  23367247.019    23367247.829    23367268.606
        44.100          42.300
 107762689.797 8  83815470.579 8  20173395.402    20173395.649    20173402.074
        52.300          48.200
 134125420.382 6 104513436.94344  25523180.268    25523179.6924   25523186.3824
        38.300          29.9004
 128756298.389 6 100329564.07943  24501524.938    24501524.4654   24501530.4604
        39.000          23.0004
 116882626.397 7  91077367.36047  22242027.764    22242027.3174   22242028.2634
        46.900          43.9004
 151151207.113 6                  28763118.699
        38.600
 25  1  1 16 13 30.0000000  0 31G09G26E19G08S31S35G07G03R06S48S33E27
                                E29E04E31G16G27E21G04R15E06R07R17R08
                                R10R05R16G29G28G31E09
 117205167.354 7  91328714.01447  22303399.762    22303399.1364   22303402.2744
        45.200          43.6004
 110266661.882 8  85922103.19947  20983043.435    20983042.7784   20983046.9594
        48.000          47.7004
 122437401.857 7                  23299064.212
        44.000
 132420856.016 5 103185156.55343  25198850.106    25198849.3514   25198869.5754
        34.500          23.5004
 198981149.207 7                  37864856.741
        46.100
 200925509.219 7                  38234867.629
        44.200
 131416277.967 6 102402328.41245  25007676.934    25007676.2594   25007681.3434
        39.700          31.8004
 114457910.624 7  89187989.08447  21780618.446    21780618.1834   21780623.1794
        46.000          44.7004
 102904164.327 7                  19284198.732    19284197.940
        42.200
 412773694.898 5                  78548146.597
        33.300
 202112417.569 7                  38460699.879
        45.800
 147676108.470 6                  28101831.734
        37.200
 141000373.338 6                  26831506.150
        39.600
 128210142.180 7                  24397579.160
        47.700
 145337646.734 6                  27656817.064
        38.100
 104691972.143 8  81578230.04246  19922196.247    19922195.2554   19922196.2364
        48.200          41.4004
 124164939.286 6  96752025.43946  23627770.217    23627769.4714   23627783.7654
        41.600          37.3004
 126774586.569 8                  24124392.833
        48.500
 108027272.705 7  84177100.72546  20556906.049    20556905.6204   20556907.2784
        47.900          38.5004
 130320594.861 7 101360487.478 6  24387734.940    24387734.821    24387746.493
        43.800          40.800
 138321036.760 7                  26321618.128
        43.100
 108688087.988 8  84535203.700 8  20303842.753    20303842.774    20303849.525
        51.100          48.300
 130477785.846 7 101482769.030 6  24382894.689    24382894.971    24382907.923
        43.300          39.800
 131268373.766 7 102097642.049 6  24513441.432    24513441.827    24513448.821
        42.100          37.500
 121847271.380 6                  22858206.083    22858205.455
        41.400
 124974443.438 7  97202290.018 6  23379096.206    23379097.110    23379118.786
        43.600          41.800
 107799702.247 8  83844257.931 8  20180324.029    20180324.397    20180330.862
        52.100          48.000
 134150503.889 6 104532982.69845  25527953.158    25527952.5734   25527959.7374
        38.900          30.3004
 128797177.356 6 100361417.63043  24509304.151    24509303.6824   24509309.6974
        38.900          22.8004
 116919495.710 7  91106096.69047  22249043.818    22249043.3714   22249044.2614
        46.600          43.8004
 151111686.403 6                  28755597.888
        38.600
 25  1  1 16 13 45.0000000  0 31G09G26E19G08S31S35G07G03R06S48S33E27
                                E29E04E31G16G27E21G04R15E06R07R17R08
                                R10R05R16G29G28G31E09
 117160517.857 7  91293922.20747  22294903.256    22294902.6354   22294905.7444
        44.600          43.7004
 110298969.214 7  85947277.74147  20989190.965    20989190.2954   20989194.8274
        47.900          47.6004
 122451345.154 7                  23301717.301
        43.300
 132368165.473 5 103144099.18443  25188822.002    25188821.2334   25188842.5164
        34.200          22.9004
 198981143.836 7                  37864857.049
        46.100
 200925469.623 7                  38234856.146
        44.200
 131381188.899 6 102374986.37745  25000999.666    25000998.9964   25001003.9984
        40.400          31.5004
 114496506.687 7  89218063.89147  21787963.268    21787963.0054   21787967.8194
        46.100          44.5004
 102921269.168 6                  19287403.701    19287403.284
        41.700
 412774253.510 5                  78548180.886
        33.600
 202112438.443 7                  38460705.330
        45.500
 147718257.195 6                  28109851.730
        36.900
 141036505.260 6                  26838381.705
        39.500
 128184034.006 7                  24392610.913
        47.200
 145292751.545 6                  27648273.702
        38.200
 104687364.187 8  81574639.43746  19921319.180    19921318.1884   19921319.3604
        48.100          41.4004
 124113839.023 6  96712207.25646  23618045.677    23618044.9224   23618059.5154
        41.800          37.5004
 126791596.163 8                  24127629.826
        48.200
 108001532.720 7  84157043.60546  20552007.691    20552007.2674   20552009.0994
        47.400          38.5004
 130377744.497 7 101404936.305 6  24398429.711    24398430.115    24398442.909
        42.600          41.500
 138284606.850 7                  26314685.544
        42.400
 108646825.558 8  84503110.701 8  20296134.497    20296134.739    20296141.096
        52.300          48.500
 130452012.164 7 101462722.881 6  24378078.629    24378078.922    24378090.478
        43.400          38.200
 131204715.519 7 102048130.092 6  24501553.886    24501554.627    24501559.930
        42.400          36.400
 121796440.055 6                  22848670.148    22848670.118
        41.300
 125037834.777 7  97251594.194 6  23390955.572    23390955.697    23390977.409
        43.400          41.500
 107836794.161 8  83873107.135 8  20187268.262    20187268.200    20187274.595
        52.600          48.200
 134175700.100 6 104552615.59544  25532748.453    25532747.8904   25532754.1344
        37.600          29.1004
 128838058.959 6 100393273.23143  24517083.545    24517083.0984   24517089.5744
        39.400          23.4004
 116956390.485 7  91134845.85047  22256065.040    22256064.6114   22256065.1784
        46.700          43.7004
 151072149.669 6                  28748073.375
        38.500
 25  1  1 16 14  0.0000000  0 31G09G26E19G08S31S35G07G03R06S48S33E27
                                E29E04E31G16G27E21G04R15E06R07R17R08
                                R10R05R16G29G28G31E09
 117115919.657 7  91259170.35747  22286416.778    22286416.1704   22286419.0034
        45.000          43.5004
 110331384.839 7  85972536.69347  20995359.679    20995359.0044   20995363.3014
        47.500          47.4004
 122465361.064 7                  23304384.542
        43.400
 132315438.274 5 103103013.26844  25178788.339    25178787.5704   25178808.6424
        35.700          24.2004
 198981142.259 7                  37864854.429
        46.000
 200925434.094 7                  38234845.910
        44.100
 131346113.686 6 102347655.14445  24994324.862    24994324.1964   24994329.0644
        39.700          31.6004
 114535208.326 7  89248220.96247  21795328.058    21795327.7954   21795332.4744
        46.400          44.4004
 102938563.612 7                  19290644.798    19290644.236
        42.100
 412774817.226 5                  78548215.013
        34.100
 202112463.128 7                  38460709.064
        45.600
 147760426.785 6                  28117876.683
        37.300
 141072678.450 6                  26845265.264
        39.800
 128157969.406 7                  24387651.070
        47.000
 145247880.753 6                  27639734.493
        38.300
 104682921.806 8  81571177.85246  19920473.801    19920472.8044   19920473.9864
        48.100          41.2004
 124062768.160 6  96672411.98146  23608327.841    23608327.1044   23608340.9314
        41.700          37.2004
 126808693.840 8                  24130883.341
        48.100
 107975885.843 8  84137059.04546  20547127.332    20547126.9124   20547128.6674
        48.000          38.3004
 130434872.564 7 101449368.282 6  24409122.352    24409121.684    24409134.027
        43.900          39.900
 138248192.200 7                  26307756.065
        42.300
 108605692.717 8  84471118.521 8  20288450.439    20288450.939    20288457.494
        51.800          48.300
 130426382.052 7 101442788.383 6  24373288.815    24373289.242    24373301.053
        43.900          39.300
 131141057.874 7 101998618.609 6  24489665.875    24489666.666    24489672.891
        42.800          36.900
 121745684.258 6                  22839148.637    22839148.651
        41.500
 125101277.547 7  97300938.350 7  23402823.557    23402823.759    23402846.477
        43.300          42.000
 107873972.828 8  83902023.854 8  20194227.768    20194228.375    20194234.778
        52.500          48.200
 134201018.056 6 104572343.88444  25537565.965    25537565.3664   25537572.6074
        38.600          29.6004
 128878950.479 6 100425136.56243  24524865.522    24524865.0574   24524871.2304
        39.500          22.8004
 116993317.879 7  91163620.43347  22263091.819    22263091.3954   22263092.2484
        47.600          43.5004
 151032604.230 6                  28740548.750
        38.300
 25  1  1 16 14 15.0000000  0 31G09G26E19G08S31S35G07G03R06S48S33E27
                                E29E04E31G16G27E21G04R15E06R07R17R08
                                R10R05R16G29G28G31E09
 117071368.516 7  91224455.18447  22277938.616    22277937.9954   22277941.1824
        45.200          43.3004
 110363903.773 7  85997876.16747  21001548.031    21001547.3704   21001551.4144
        47.400          47.2004
 122479445.046 7                  23307064.573
        43.400
 132262670.126 6 103061895.41144  25168747.331    25168746.5764   25168766.7414
        36.000          24.4004
 198981140.859 7                  37864853.669
        45.900
 200925398.579 7                  38234841.939
        44.000
 131311047.405 6 102320330.79745  24987652.510    24987651.8314   24987655.7224
        39.500          30.9004
 114574010.609 7  89278456.44047  21802711.815    21802711.5704   21802716.2594
        45.800          44.0004
 102956042.808 6                  19293920.017    19293919.811
        41.800
 412775381.738 5                  78548245.809
        32.900
 202112487.417 7                  38460713.245
        45.500
 147802609.873 5                  28125903.783
        35.800
 141108888.270 6                  26852156.146
        39.200
 128131944.098 7                  24382698.739
        47.300
 145203030.079 6                  27631199.887
        37.700
 104678640.491 8  81567841.76746  19919659.112    19919658.1154   19919659.2974
        48.300          41.0004
 124011722.479 6  96632636.32246  23598613.274    23598612.5324   23598626.9974
        41.700          37.0004
 126825874.932 8                  24134152.873
        48.200
 107950327.716 8  84117143.63046  20542263.540    20542263.1204   20542265.1434
        48.000          38.3004
 130491974.421 7 101493779.944 6  24419809.035    24419808.898    24419820.932
        44.000          40.200
 138211788.260 7                  26300828.547
        43.000
 108564685.848 8  84439224.300 8  20280790.237    20280790.147    20280796.724
        52.000          48.300
 130400891.446 7 101422962.530 6  24368525.725    24368525.198    24368537.394
        44.200          39.300
 131077396.818 7 101949104.453 6  24477779.140    24477779.354    24477784.425
        42.400          36.400
 121694999.492 6                  22829640.090    22829639.670
        41.700
 125164767.059 7  97350318.850 7  23414701.775    23414701.023    23414723.558
        43.200          42.000
 107911232.884 8  83931003.856 8  20201202.950    20201203.162    20201209.727
        52.100          48.000
 134226452.120 6 104592162.74944  25542405.255    25542404.6474   25542412.8304
        39.100          29.4004
 128919847.321 6 100457004.03743  24532648.216    24532647.7344   24532654.1744
        39.400          22.9004
 117030273.343 7  91192416.88447  22270123.983    22270123.5364   22270124.5994
        47.600          43.5004
 150993045.675 6                  28733021.195
        39.000
 25  1  1 16 14 30.0000000  0 31G09G26E19G08S31S35G07G03R06S48S33E27
                                E29E04E31G16G27E21G04R15E06R07R17R08
                                R10R05R16G29G28G31E09
 117026868.594 7  91189779.94947  22269470.541    22269469.9154   22269473.2034
        45.600          43.7004
 110396529.559 7  86023298.83447  21007756.472    21007755.8154   21007759.8684
        47.400          47.6004
 122493601.084 7                  23309758.485
        43.500
 132209865.240 5 103020748.95143  25158698.614    25158697.8414   25158717.7584
        35.700          23.7004
 198981142.870 7                  37864856.995
        46.000
 200925366.593 7                  38234832.066
        44.000
 131275994.300 6 102293016.75145  24980981.731    24980981.0614   24980985.2774
        40.400          31.4004
 114612917.078 7  89308773.09747  21810115.632    21810115.3874   21810119.9874
        46.000          44.3004
 102973710.630 6                  19297230.240    19297231.043
        41.600
 412774250.142 5                  78548281.426
        33.500
 202112516.367 7                  38460715.391
        45.700
 147844812.701 6                  28133935.667
        37.000
 141145138.559 6                  26859054.956
        39.900
 128105962.074 7                  24377754.488
        47.300
 145158203.538 6                  27622670.120
        38.100
 104674523.988 8  81564634.10846  19918875.756    19918874.7644   19918875.9814
        48.100          41.4004
 123960706.322 6  96592883.67346  23588905.118    23588904.3674   23588918.7164
        41.000          37.2004
 126843143.131 8                  24137438.858
        48.000
 107924862.562 7  84097300.66046  20537417.721    20537417.3064   20537419.2504
        47.700          38.6004
 130549053.100 7 101538173.174 6  24430490.020    24430490.906    24430504.296
        42.600          40.200
 138175399.069 7                  26293904.061
        42.800
 108523809.118 8  84407431.287 8  20273153.943    20273154.145    20273160.561
        52.300          48.200
 130375544.736 7 101403248.627 6  24363789.910    24363789.973    24363800.680
        45.500          40.100
 131013736.561 7 101899590.873 6  24465889.642    24465890.168    24465896.527
        42.800          37.300
 121644390.079 7                  22820145.914    22820146.111
        42.100
 125228306.530 7  97399738.215 6  23426588.390    23426587.960    23426609.828
        43.300          41.600
 107948578.197 8  83960050.208 8  20208194.341    20208194.544    20208200.921
        52.500          48.300
 134252006.484 6 104612075.61045  25547268.104    25547267.5014   25547275.8324
        37.600          30.3004
 128960753.374 6 100488878.67043  24540432.874    24540432.4184   24540438.5444
        38.700          23.4004
 117067260.587 7  91221238.09747  22277162.535    22277162.0844   22277163.0494
        47.100          43.7004
 150953478.086 6                  28725491.767
        39.100
 25  1  1 16 14 45.0000000  0 31G09G26E19G08S31S35G07G03R06S48S33E27
                                E29E04E31G16G27E21G04R15E06R07R17R08
                                R10R05R16G29G28G31E09
 116982412.030 7  91155138.47747  22261010.796    22261010.1534   22261013.3504
        44.600          43.5004
 110429253.826 8  86048798.22647  21013983.638    21013982.9814   21013987.0944
        48.200          47.5004
 122507821.064 7                  23312464.561
        43.600
 132157015.809 5 102979567.74444  25148642.292    25148641.5104   25148660.8514
        35.700          24.5004
 198981140.346 7                  37864855.967
        45.500
 200925329.676 7                  38234825.135
        43.500
 131240946.069 6 102265706.53945  24974312.164    24974311.4854   24974315.1154
        39.300          31.1004
 114651919.291 7  89339164.38147  21817537.426    21817537.1904   21817541.9774
        45.400          44.3004
 102991558.934 7                  19300575.307    19300575.625
        42.300
 412774814.080 5                  78548306.037
        33.200
 202112539.512 7                  38460719.934
        45.200
 147887027.337 6                  28141968.969
        37.500
 141181421.147 6                  26865958.890
        40.000
 128080015.378 7                  24372816.996
        47.100
 145113393.179 6                  27614142.604
        37.800
 104670564.190 8  81561548.55446  19918122.201    19918121.2094   19918122.4414
        48.000          41.3004
 123909712.084 6  96553148.10446  23579201.318    23579200.5814   23579214.7724
        41.400          37.3004
 126860490.265 8                  24140739.850
        48.000
 107899482.531 8  84077524.03346  20532588.169    20532587.7544   20532589.5764
        48.100          38.5004
 130606101.454 7 101582543.226 6  24441166.210    24441167.156    24441180.299
        43.700          39.300
 138139016.716 7                  26286980.605
        43.000
 108483054.656 8  84375733.359 8  20265541.108    20265540.944    20265547.458
        52.400          48.200
 130350333.582 7 101383640.120 6  24359077.671    24359078.198    24359089.061
        44.800          38.500
 130950069.431 7 101850072.023 6  24454000.257    24454001.604    24454007.744
        44.100          37.900
 121593847.583 6                  22810664.015    22810663.651
        41.800
 125291887.675 7  97449190.001 6  23438482.374    23438482.436    23438504.849
        42.800          41.700
 107985999.662 8  83989155.750 8  20215199.926    20215199.851    20215206.361
        52.500          48.100
 134277672.714 6 104632075.81145  25552152.247    25552151.6444   25552159.2954
        39.800          30.6004
 129001660.424 6 100520754.08643  24548216.215    24548215.7334   24548223.5144
        40.000          23.3004
 117104271.394 7  91250077.67147  22284205.659    22284205.2084   22284206.0024
        47.400          43.7004
 150913893.282 6                  28717958.880
        38.800
 25  1  1 16 15  0.0000000  0 31G09G26E19G08S31S35G07G03R06S48S33E27
                                E29E04E31G16G27E21G04R15E06R07R17R08
                                R10R05R16G29G28G31E09
 116938002.108 7  91120533.31647  22252560.557    22252559.9234   22252562.3774
        44.800          43.6004
 110462079.363 7  86074376.54047  21020229.912    21020229.2464   21020233.6254
        47.800          47.6004
 122522108.218 7                  23315183.207
        43.800
 132104125.183 5 102938354.46244  25138576.490    25138575.7084   25138596.5834
        35.500          25.1004
 198981136.518 7                  37864853.879
        46.000
 200925291.889 7                  38234820.064
        44.100
 131205905.490 6 102238402.22245  24967644.851    24967644.1854   24967647.2284
        40.100          31.5004
 114691019.849 7  89369632.28547  21824978.004    21824977.7724   21824982.6764
        46.000          44.3004
 103009590.612 7                  19303954.952    19303954.571
        42.000
 412775376.928 5                  78548340.299
        33.300
 202112561.609 7                  38460721.727
        45.700
 147929254.802 6                  28150004.227
        36.500
 141217739.032 6                  26872870.560
        39.500
 128054107.228 7                  24367886.738
        47.300
 145068602.214 6                  27605618.853
        38.000
 104666764.101 8  81558587.44046  19917399.108    19917398.1114   19917399.3034
        48.100          41.3004
 123858743.143 6  96513432.25446  23569502.150    23569501.4084   23569515.5674
        41.400          37.2004
 126877919.189 8                  24144056.407
        48.100
 107874190.903 7  84057816.28546  20527775.358    20527774.9434   20527776.7014
        47.900          38.6004
 130663122.076 7 101626891.794 6  24451838.127    24451838.289    24451851.840
        42.500          39.100
 138102644.374 7                  26280059.161
        42.800
 108442426.218 8  84344133.473 8  20257951.016    20257951.245    20257957.549
        52.200          48.100
 130325261.907 7 101364140.092 6  24354391.420    24354392.402    24354403.060
        44.500          38.400
 130886398.540 7 101800550.130 5  24442110.724    24442111.532    24442116.152
        42.700          35.800
 121543375.547 6                  22801194.588    22801195.223
        41.500
 125355512.929 7  97498676.079 7  23450385.708    23450386.114    23450407.401
        44.300          42.100
 108023500.483 8  84018323.039 8  20222220.147    20222220.325    20222226.344
        52.200          48.100
 134303452.316 6 104652164.15245  25557057.943    25557057.3444   25557064.1514
        37.700          30.4004
 129042571.622 6 100552632.74143  24556002.395    24556001.9304   24556008.7794
        38.700          23.5004
 117141308.776 7  91278937.94947  22291253.533    22291253.0824   22291254.0714
        47.300          43.9004
 150874294.486 6                  28710423.692
        39.100
 25  1  1 16 15 15.0000000  0 31G09G26E19G08S31S35G07G03R06S48S33E27
                                E29E04E31G16G27E21G04R15E06R07R17R08
                                R10R05R16G29G28G31E09
 116893642.323 7  91085967.23247  22244118.801    22244118.1624   22244120.9594
        44.800          43.3004
 110495009.043 7  86100036.00747  21026496.048    21026495.3824   21026499.9874
        47.700          47.4004
 122536465.655 7                  23317915.499
        43.900
 132051196.816 5 102897111.76044  25128505.045    25128504.2634   25128524.5214
        35.500          24.8004
 198981134.320 7                  37864851.612
        45.900
 200925255.690 7                  38234813.661
        44.400
 131170875.985 6 102211106.54245  24960978.845    24960978.1844   24960981.2104
        40.800          31.4004
 114730221.592 7  89400179.04847  21832438.054    21832437.8224   21832442.5284
        45.700          44.1004
 103027808.834 6                  19307369.041    19307368.923
        41.600
 412775941.564 5                  78548372.012
        33.300
 202112586.224 7                  38460734.489
        45.800
 147971498.021 6                  28158043.790
        36.400
 141254095.313 6                  26879789.113
        39.300
 128028240.873 7                  24362964.732
        47.600
 145023833.902 6                  27597099.910
        38.400
 104663126.900 7  81555753.27046  19916706.888    19916705.8914   19916707.1594
        47.900          41.0004
 123807803.075 6  96473738.89546  23559808.344    23559807.6074   23559821.5054
        41.800          36.9004
 126895432.917 8                  24147389.340
        48.000
 107848991.086 8  84038180.07346  20522979.921    20522979.5104   20522981.3334
        48.000          38.5004
 130720118.343 7 101671221.800 6  24462505.382    24462504.987    24462518.716
        43.100          38.700
 138066285.345 7                  26273140.440
        42.900
 108401927.557 8  84312634.520 8  20250385.175    20250385.676    20250392.338
        51.900          48.300
 130300332.835 7 101344750.806 6  24349733.661    24349734.000    24349745.324
        44.100          38.500
 130822727.451 7 101751027.935 6  24430221.094    24430221.399    24430226.935
        42.600          37.200
 121492977.152 6                  22791741.038    22791740.952
        41.800
 125419185.313 7  97548198.849 6  23462296.541    23462296.451    23462318.082
        43.500          41.600
 108061083.233 8  84047554.032 8  20229255.689    20229255.860    20229262.165
        52.600          48.100
 134329349.748 6 104672344.30144  25561985.541    25561984.9604   25561991.7944
        39.600          29.9004
 129083489.948 6 100584516.94143  24563788.519    24563788.0634   24563795.4614
        39.500          23.4004
 117178375.767 7  91307821.30047  22298307.198    22298306.7424   22298307.7424
        47.400          43.6004
 150834684.883 6                  28702886.068
        38.100
 25  1  1 16 15 30.0000000  0 31G09G26E19G08S31S35G07G03R06S48S33E27
                                E29E04E31G16G27E21G04R15E06R07R17R08
                                R10R05R16G29G28G31E09
 116849332.762 7  91051440.29747  22235687.071    22235686.4374   22235689.2144
        44.700          43.5004
 110528042.303 8  86125776.22947  21032782.336    21032781.6794   21032786.0514
        48.100          47.7004
 122550893.074 7                  23320660.816
        43.700
 131998230.651 5 102855839.57343  25118424.972    25118424.1814   25118444.9974
        35.900          23.8004
 198981133.417 7                  37864849.890
        45.800
 200925220.371 7                  38234805.487
        44.100
 131135857.492 6 102183819.52145  24954314.575    24954313.9144   24954317.4554
        41.100          32.1004
 114769523.856 7  89430804.13447  21839916.656    21839916.4244   21839921.5404
        46.300          44.3004
 103046213.169 6                  19310818.013    19310817.783
        41.900
 412774907.584 5                  78548399.137
        33.400
 202112610.709 7                  38460737.655
        45.600
 148013757.300 6                  28166085.786
        36.600
 141290489.616 6                  26886714.720
        39.400
 128002416.249 7                  24358050.175
        47.100
 144979088.132 6                  27588584.505
        37.200
 104659652.271 7  81553045.77946  19916045.908    19916044.9164   19916045.9184
        47.600          41.2004
 123756892.072 6  96434068.18246  23550120.068    23550119.2994   23550133.2974
        41.600          37.1004
 126913030.918 8                  24150737.877
        48.100
 107823883.065 7  84018615.38546  20518202.275    20518201.8734   20518203.3874
        47.700          38.7004
 130777090.472 6 101715533.716 6  24473166.190    24473165.505    24473180.044
        41.700          39.600
 138029939.485 7                  26266224.109
        42.600
 108361558.716 8  84281236.521 8  20242844.108    20242844.266    20242850.696
        52.100          48.200
 130275546.782 7 101325472.831 6  24345101.951    24345102.352    24345113.747
        44.800          39.700
 130759056.914 6 101701506.543 6  24418331.354    24418331.470    24418336.725
        41.900          36.600
 121442652.356 6                  22782300.718    22782299.259
        41.200
 125482904.244 7  97597757.808 6  23474216.814    23474217.295    23474238.641
        43.500          41.800
 108098747.330 8  84076848.344 8  20236306.500    20236306.585    20236312.957
        52.400          48.100
 134355363.505 6 104692614.95045  25566935.860    25566935.2754   25566941.9344
        39.300          31.2004
 129124415.206 6 100616406.53743  24571576.485    24571576.0034   24571583.0604
        40.300          23.1004
 117215471.994 7  91336727.43947  22305366.483    22305366.0274   22305366.9324
        47.200          43.8004
 150795064.248 6                  28695346.207
        38.700
 25  1  1 16 15 45.0000000  0 31G09G26E19G08S31S35G07G03R06S48S33E27
                                E29E04E31G16G27E21G04R15E06R07R17R08
                                R10R05R16G29G28G31E09
 116805069.119 7  91016949.16547  22227263.567    22227262.9334   22227266.1264
        45.200          43.7004
 110561174.247 8  86151593.34847  21039087.101    21039086.4354   21039090.8374
        48.000          47.9004
 122565386.037 7                  23323418.905
        43.700
 131945222.615 5 102814534.76944  25108337.586    25108336.7824   25108357.6244
        35.300          24.0004
 198981129.471 7                  37864850.623
        45.800
 200925182.998 7                  38234805.147
        44.300
 131100844.992 6 102156537.09545  24947651.650    24947650.9754   24947655.1134
        40.600          32.0004
 114808921.749 7  89461503.73247  21847414.022    21847413.7774   21847418.8324
        46.700          44.4004
 103064799.190 6                  19314300.723    19314300.805
        41.800
 412775470.818 5                  78548439.234
        33.100
 202112632.711 7                  38460739.980
        45.300
 148056028.339 6                  28174130.486
        37.800
 141326917.438 6                  26893647.073
        39.500
 127976629.012 7                  24353143.195
        47.400
 144934360.567 6                  27580072.972
        38.100
 104656335.566 8  81550461.33846  19915414.709    19915413.7174   19915414.7804
        48.100          41.4004
 123706006.061 6  96394416.95346  23540436.714    23540435.9544   23540449.6814
        41.100          37.3004
 126930708.592 8                  24154101.822
        48.000
 107798862.629 7  83999118.95946  20513440.778    20513440.3814   20513442.1594
        47.900          38.8004
 130834031.120 7 101759820.486 6  24483821.906    24483821.686    24483836.014
        42.100          39.700
 137993602.473 7                  26259308.966
        43.200
 108321315.418 8  84249936.180 8  20235326.590    20235326.633    20235332.946
        52.100          48.200
 130250899.351 7 101306302.647 6  24340496.400    24340496.294    24340507.640
        45.600          40.300
 130695382.163 7 101651981.677 6  24406439.579    24406440.384    24406446.493
        43.500          37.300
 121392397.110 6                  22772872.041    22772872.373
        41.700
 125546664.746 7  97647349.114 6  23486144.961    23486144.575    23486166.332
        44.100          41.800
 108136487.589 8  84106201.859 8  20243371.592    20243371.739    20243378.004
        52.700          48.100
 134381488.744 6 104712972.08645  25571907.434    25571906.8354   25571913.6454
        39.400          31.8004
 129165342.778 6 100648297.94543  24579364.791    24579364.3134   24579371.3704
        39.500          23.2004
 117252592.899 7  91365652.80847  22312430.562    22312430.1114   22312430.7904
        47.200          44.0004
 150755428.259 6                  28687803.784
        37.500
 25  1  1 16 16  0.0000000  0 31G09G26E19G08S31S35G07G03R06S48S33E27
                                E29E04E31G16G27E21G04R15E06R07R17R08
                                R10R05R16G29G28G31E09
 116760856.232 7  90982497.56447  22218850.452    22218849.8134   22218852.6214
        44.700          43.5004
 110594409.134 7  86177490.66247  21045411.459    21045410.7984   21045415.2324
        47.900          47.8004
 122579949.251 7                  23326190.186
        43.800
 131892177.588 5 102773201.11844  25098244.161    25098243.3614   25098263.0174
        35.600          24.5004
 198981127.276 7                  37864850.927
        46.200
 200925146.328 7                  38234794.486
        44.300
 131065843.329 6 102129263.12345  24940991.434    24940990.7644   24940994.7074
        40.600          31.9004
 114848419.492 7  89492281.12447  21854930.121    21854929.8624   21854935.0764
        45.400          44.3004
 103083571.318 6                  19317818.747    19317818.890
        41.900
 412776035.760 5                  78548464.901
        33.200
 202112656.689 7                  38460743.464
        45.700
 148098315.451 6                  28182178.617
        37.900
 141363383.297 6                  26900586.421
        39.800
 127950883.882 7                  24348243.958
        47.600
 144889655.938 6                  27571565.810
        38.000
 104653181.329 8  81548003.49446  19914814.447    19914813.4554   19914814.5364
        48.100          41.2004
 123655149.992 6  96354789.05846  23530759.395    23530758.6444   23530771.8064
        41.500          37.3004
 126948470.414 8                  24157482.023
        48.100
 107773934.563 8  83979694.48346  20508697.099    20508696.7024   20508698.4924
        48.100          38.8004
 130890947.018 7 101804088.551 6  24494472.964    24494472.876    24494486.959
        43.100          41.500
 137957278.860 7                  26252397.163
        43.200
 108281203.220 8  84218737.833 8  20227832.943    20227833.352    20227839.978
        52.500          48.200
 130226396.189 7 101287244.958 6  24335916.119    24335917.402    24335927.599
        45.400          38.600
 130631708.318 7 101602457.667 6  24394549.457    24394549.843    24394555.840
        42.700          37.300
 121342215.716 6                  22763459.100    22763457.689
        41.000
 125610471.130 7  97696976.111 7  23498081.511    23498080.865    23498103.583
        43.100          42.200
 108174308.574 8  84135618.200 7  20250451.827    20250452.102    20250458.416
        53.000          47.900
 134407730.700 6 104733420.47845  25576901.004    25576900.4104   25576907.4014
        38.100          31.0004
 129206277.320 6 100680194.78443  24587155.191    24587154.7264   24587160.9594
        38.900          23.2004
 117289743.002 8  91394600.94847  22319499.775    22319499.3194   22319500.2334
        48.100          44.0004
 150715781.607 6                  28680259.382
        37.900
 25  1  1 16 16 15.0000000  0 31G09G26E19G08S31S35G07G03R06S48S33E27
                                E29E04E31G16G27E21G04R15E06R07R17R08
                                R10R05R16G29G28G31E09
 116716689.885 7  90948082.23747  22210445.889    22210445.2464   22210447.9204
        45.400          43.6004
 110627742.078 8  86203464.37547  21051754.464    21051753.8034   21051758.2874
        48.100          47.8004
 122594578.129 7                  23328973.911
        43.700
 131839091.214 6 102731835.26044  25088142.431    25088141.6314   25088160.9604
        36.600          25.5004
 198981121.764 7                  37864849.814
        45.400
 200925107.094 7                  38234781.935
        43.900
 131030847.906 6 102101993.98445  24934331.768    24934331.0934   24934334.8964
        41.100          31.8004
 114888012.117 7  89523132.44347  21862464.894    21862464.6444   21862469.3484
        46.500          44.2004
 103102524.852 6                  19321370.575    19321370.441
        41.200
 412776598.566 5                  78548494.606
        33.100
 202112677.200 7                  38460743.553
        45.500
 148140613.140 6                  28190227.636
        37.300
 141399882.510 6                  26907532.348
        39.200
 127925176.537 7                  24343351.920
        47.400
 144844969.840 6                  27563062.450
        36.900
 104650185.078 7  81545668.75546  19914244.145    19914243.1534   19914244.3374
        47.900          41.1004
 123604319.733 7  96315181.27146  23521085.755    23521085.0094   23521098.8424
        42.300          37.1004
 126966311.589 7                  24160877.058
        47.900
 107749094.605 8  83960338.67346  20503970.339    20503969.9424   20503971.6344
        48.300          38.7004
 130947831.605 6 101848332.007 6  24505118.599    24505118.343    24505131.853
        41.900          39.500
 137920964.420 7                  26245486.725
        42.600
 108241217.520 8  84187637.848 8  20220363.723    20220363.542    20220370.034
        51.900          48.500
 130202032.216 7 101268295.219 6  24331362.651    24331363.274    24331374.745
        43.600          38.400
 130568030.985 7 101552930.842 6  24382657.600    24382658.542    24382663.319
        42.500          36.500
 121292103.848 6                  22754057.939    22754057.104
        41.800
 125674318.162 7  97746634.747 7  23510025.350    23510025.320    23510047.604
        44.500          42.600
 108212205.291 8  84165093.502 8  20257546.033    20257546.161    20257552.489
        52.500          48.100
 134434083.185 6 104753954.33744  25581916.047    25581915.4624   25581921.6824
        38.700          29.1004
 129247214.114 6 100712093.38143  24594945.317    24594944.8664   24594951.4964
        40.000          23.0004
 117326917.591 7  91423568.18047  22326573.786    22326573.3264   22326574.3894
        47.100          44.0004
 150676119.790 6                  28672712.169
        39.000
 25  1  1 16 16 30.0000000  0 31G09G26E19G08S31S35G07G03R06S48S33E27
                                E29E04E31G16G27E21G04R15E06R07R17R08
                                R10R05R16G29G28G31E09
 116672574.499 7  90913706.60647  22202050.657    22202050.0054   22202053.1334
        45.400          43.7004
 110661176.977 8  86229517.53448  21058116.890    21058116.2294   21058120.7394
        48.000          48.0004
 122609276.993 7                  23331771.149
        43.800
 131785968.069 5 102690440.72644  25078031.768    25078030.9464   25078052.2674
        34.500          24.9004
 198981117.501 7                  37864844.886
        45.500
 200925068.877 7                  38234779.779
        44.500
 130995862.794 6 102074732.87445  24927674.647    24927673.9724   24927677.1554
        40.200          32.0004
 114927703.493 7  89554060.71547  21870017.690    21870017.4274   21870022.5094
        45.700          44.4004
 103121663.926 6                  19324958.001    19324957.219
        41.500
 412775563.107 5                  78548532.136
        33.200
 202112698.416 7                  38460754.710
        45.800
 148182927.017 6                  28198280.162
        36.200
 141436419.212 6                  26914485.231
        39.200
 127899511.216 7                  24338467.915
        47.300
 144800306.587 6                  27554563.008
        38.000
 104647350.979 7  81543460.36246  19913705.009    19913704.0124   19913705.0194
        47.900          41.2004
 123553519.861 6  96275597.16446  23511419.435    23511418.6894   23511431.7444
        41.200          37.0004
 126984236.128 8                  24164287.788
        48.000
 107724347.210 8  83941055.00346  20499261.045    20499260.6434   20499262.3274
        48.000          38.9004
 131004692.985 7 101892559.088 6  24515758.178    24515758.350    24515771.524
        43.100          40.400
 137884663.324 7                  26238579.059
        42.700
 108201363.479 8  84156640.271 8  20212918.494    20212918.559    20212924.930
        52.000          48.300
 130177811.968 7 101249457.132 6  24326836.975    24326837.714    24326849.575
        45.000          40.100
 130504354.614 7 101503404.657 6  24370766.892    24370767.268    24370772.384
        43.200          36.200
 121242066.251 6                  22744670.116    22744669.702
        41.200
 125738209.844 7  97796328.104 7  23521977.851    23521977.498    23521999.724
        43.600          42.000
 108250181.355 8  84194630.415 8  20264655.302    20264655.478    20264661.514
        52.600          48.000
 134460551.613 6 104774578.78245  25586953.342    25586952.7524   25586958.8934
        38.400          30.2004
 129288157.371 6 100743996.98243  24602735.786    24602735.3084   24602743.1644
        40.000          23.3004
 117364120.600 7  91452557.52047  22333653.485    22333653.0204   22333653.8714
        47.500          44.2004
 150636447.044 6                  28665162.259
        38.600
 25  1  1 16 16 45.0000000  0 31G09G26E19G08S31S35G07G03R06S48S33E27
                                E29E04E31G16G27E21G04R15E06R07R17R08
                                R10R05R16G29G28G31E09
 116628510.015 7  90879370.65147  22193665.337    22193664.6804   22193667.9644
        44.600          43.5004
 110694713.199 8  86255649.65548  21064498.819    21064498.1494   21064502.4744
        48.200          48.1004
 122624045.310 7                  23334581.413
        44.200
 131732808.110 5 102649017.52244  25067917.461    25067916.6434   25067935.7624
        35.500          24.6004
 198981114.034 7                  37864849.099
        45.700
 200925031.075 7                  38234763.914
        43.400
 130960887.638 6 102047479.50245  24921019.069    24921018.3764   24921021.8704
        40.500          32.1004
 114967492.834 7  89585065.31847  21877589.534    21877589.2754   21877594.2814
        46.100          44.2004
 103140988.067 6                  19328578.665    19328578.504
        41.700
 412776128.752 5                  78548564.336
        33.600
 202112721.291 7                  38460760.474
        45.600
 148225255.973 6                  28206335.116
        37.400
 141472993.005 6                  26921445.246
        39.600
 127873887.752 7                  24333592.114
        47.700
 144755666.014 6                  27546068.011
        38.600
 104644678.803 7  81541378.16246  19913196.261    19913195.2644   19913196.5334
        47.900          41.2004
 123502750.515 6  96236036.83346  23501757.557    23501756.8114   23501770.5974
        41.800          37.0004
 127002243.540 8                  24167714.399
        48.000
 107699692.239 8  83921843.34646  20494569.320    20494568.9234   20494570.6114
        48.000          39.0004
 131061526.473 6 101936763.977 6  24526392.501    24526392.485    24526405.575
        41.100          39.800
 137848375.344 7                  26231673.491
        43.200
 108161640.736 8  84125744.775 8  20205497.889    20205497.959    20205504.411
        52.300          48.300
 130153736.530 7 101230732.050 6  24322337.399    24322338.574    24322350.371
        45.100          39.900
 130440679.639 7 101453879.598 6  24358875.325    24358876.406    24358882.997
        42.600          38.800
 121192102.411 7                  22735297.369    22735296.358
        42.500
 125802145.714 7  97846055.832 7  23533937.961    23533938.659    23533960.634
        44.900          42.300
 108288236.247 8  84224228.652 8  20271778.972    20271779.493    20271785.788
        52.900          48.000
 134487134.918 6 104795292.49245  25592011.614    25592011.0294   25592018.1674
        39.300          30.1004
 129329106.744 6 100775905.35543  24610528.918    24610528.4494   24610535.8074
        39.300          23.2004
 117401351.732 7  91481568.76747  22340738.256    22340737.7964   22340738.6964
        47.000          44.0004
 150596763.176 6                  28657610.578
        39.200
 25  1  1 16 17  0.0000000  0 31G09G26E19G08S31S35G07G03R06S48S33E27
                                E29E04E31G16G27E21G04R15E06R07R17R08
                                R10R05R16G29G28G31E09
 116584497.843 7  90845075.44447  22185290.607    22185289.9644   22185292.6104
        44.500          43.4004
 110728351.557 7  86281861.35247  21070899.776    21070899.1104   21070903.6644
        47.700          47.9004
 122638884.391 7                  23337405.156
        44.000
 131679612.820 5 102607566.78544  25057793.964    25057793.1694   25057812.9744
        34.800          25.0004
 198981112.082 7                  37864849.429
        45.500
 200924994.899 7                  38234762.608
        43.700
 130925923.644 6 102020234.89145  24914365.966    24914365.2914   24914368.7884
        39.700          32.1004
 115007380.952 7  89616146.90247  21885179.860    21885179.5924   21885184.7574
        46.100          44.2004
 103160498.531 6                  19332235.179    19332234.999
        41.700
 412776696.437 5                  78548605.998
        33.100
 202112745.429 7                  38460761.431
        45.400
 148267600.424 6                  28214393.038
        38.100
 141509605.030 6                  26928412.417
        39.300
 127848307.457 7                  24328724.142
        47.600
 144711049.377 6                  27537577.643
        38.300
 104642169.199 7  81539422.61646  19912718.779    19912717.7874   19912718.9594
        47.600          41.0004
 123452013.199 7  96196501.45946  23492102.665    23492101.9104   23492115.3494
        42.000          36.8004
 127020334.792 7                  24171157.143
        47.900
 107675131.109 7  83902704.80746  20489895.526    20489895.1294   20489896.7864
        47.600          38.8004
 131118334.265 7 101980949.200 6  24537022.575    24537022.095    24537035.440
        42.300          39.400
 137812101.839 7                  26224770.735
        43.200
 108122051.287 8  84094952.976 8  20198102.045    20198102.660    20198108.826
        52.500          48.200
 130129806.520 7 101212119.959 6  24317866.319    24317865.994    24317877.434
        43.900          38.900
 130377007.250 7 101404356.450 6  24346985.788    24346986.504    24346992.099
        42.300          36.800
 121142213.827 7                  22725937.597    22725937.561
        42.400
 125866126.198 7  97895818.267 6  23545906.733    23545907.207    23545929.120
        43.900          41.500
 108326370.630 8  84253888.724 8  20278917.996    20278918.197    20278924.291
        52.700          48.000
 134513835.301 6 104816097.96945  25597092.668    25597092.0784   25597099.7424
        40.200          31.1004
 129370063.261 6 100807819.28643  24618323.435    24618322.9704   24618329.1704
        38.800          22.4004
 117438612.029 7  91510602.74047  22347828.870    22347828.4104   22347829.1694
        46.900          43.9004
 150557069.357 6                  28650057.404
        38.200
 25  1  1 16 17 15.0000000  0 31G09G26E19G08S31S35G07G03R06S48S33E27
                                E29E04E31G16G27E21G04R15E06R07R17R08
                                R10R05R16G29G28G31E09
 116540535.971 7  90810819.45347  22176924.552    22176923.9094   22176926.9424
        44.900          43.5004
 110762089.366 7  86308150.55748  21077320.017    21077319.3564   21077323.7784
        47.900          48.0004
 122653791.939 7                  23340242.080
        44.000
 131626380.072 5 102566086.87044  25047664.660    25047663.8734   25047682.8804
        34.600          24.7004
 198981109.894 7                  37864849.313
        45.600
 200924959.180 7                  38234753.951
        43.500
 130890968.216 6 101992996.92745  24907713.804    24907713.1384   24907717.2994
        41.800          32.5004
 115047365.074 7  89647303.28747  21892788.667    21892788.3954   21892793.5274
        45.700          44.2004
 103180192.764 6                  19335925.312    19335925.586
        41.400
 412777263.451 5                  78548629.814
        33.000
 202112769.172 7                  38460765.097
        45.500
 148309958.014 6                  28222454.257
        38.000
 141546252.750 6                  26935386.299
        39.400
 127822768.076 7                  24323864.366
        47.900
 144666454.479 6                  27529091.244
        37.900
 104639819.980 7  81537592.06446  19912271.888    19912270.8914   19912271.9274
        47.600          41.1004
 123401305.987 6  96156989.54046  23482452.984    23482452.2204   23482465.9724
        41.200          36.9004
 127038507.331 8                  24174615.342
        48.100
 107650661.740 7  83883637.78646  20485239.260    20485238.8674   20485240.3744
        47.500          38.9004
 131175111.248 7 102025109.330 6  24547647.250    24547647.462    24547660.274
        43.000          38.300
 137775840.551 7                  26217870.749
        43.000
 108082593.083 8  84064263.254 8  20190731.096    20190731.463    20190737.589
        52.500          48.200
 130106020.696 7 101193620.207 6  24313421.596    24313420.911    24313432.248
        44.600          39.200
 130313335.869 7 101354834.271 6  24335095.348    24335095.628    24335101.920
        42.700          37.500
 121092398.361 6                  22716592.430    22716592.084
        41.800
 125930148.827 7  97945613.516 6  23557883.821    23557884.216    23557906.097
        43.700          41.500
 108364581.696 8  84283608.438 8  20286071.510    20286071.590    20286077.658
        53.200          48.100
 134540648.956 6 104836991.52544  25602195.035    25602194.4414   25602202.5614
        37.100          28.9004
 129411024.667 6 100839737.05343  24626117.236    24626116.7674   24626124.2684
        39.000          22.8004
 117475898.976 7  91539657.48847  22354924.404    22354923.9484   22354924.6334
        46.900          44.1004
 150517363.545 6                  28642501.601
        37.900
 25  1  1 16 17 30.0000000  0 31G09G26E19G08S31S35G07G03R06S48S33E27
                                E29E04E31G16G27E21G04R15E06R07R17R08
                                R10R05R16G29G28G31E09
 116496624.997 7  90776603.11347  22168568.620    22168567.9724   22168571.0994
        44.200          43.3004
 110795926.705 7  86334517.31747  21083759.186    21083758.5254   21083762.8254
        47.800          47.9004
 122668768.316 7                  23343091.956
        44.200
 131573110.584 5 102524578.32044  25037527.465    25037526.6784   25037545.7884
        34.800          24.3004
 198981107.924 7                  37864847.735
        45.600
 200924923.100 7                  38234750.933
        44.100
 130856021.851 6 101965766.00245  24901063.388    24901062.7094   24901066.9814
        39.300          31.8004
 115087445.197 7  89678534.46947  21900415.802    21900415.5254   21900420.5644
        45.300          44.0004
 103200070.992 6                  19339650.741    19339650.899
        41.800
 412776230.137 5                  78548667.693
        33.300
 202112792.655 7                  38460770.709
        45.700
 148352328.092 6                  28230516.793
        37.900
 141582936.557 6                  26942367.623
        38.900
 127797270.219 7                  24319012.037
        47.600
 144621881.805 6                  27520609.298
        38.200
 104637631.071 7  81535886.42546  19911855.248    19911854.2564   19911855.3824
        47.400          40.9004
 123350629.693 6  96117501.70746  23472810.278    23472809.5144   23472822.6054
        40.900          36.8004
 127056761.373 7                  24178088.841
        47.900
 107626284.676 7  83864642.66346  20480600.409    20480600.0204   20480601.5894
        47.500          38.8004
 131231858.795 7 102069246.287 6  24558267.287    24558267.539    24558280.047
        42.100          38.900
 137739592.022 7                  26210972.818
        43.200
 108043267.087 8  84033676.383 8  20183384.517    20183384.891    20183391.303
        52.300          48.400
 130082379.769 7 101175233.502 6  24309002.588    24309002.585    24309014.280
        44.700          40.000
 130249665.584 7 101305312.799 6  24323204.695    24323206.152    24323212.225
        42.900          37.100
 121042656.118 7                  22707260.580    22707260.210
        42.500
 125994213.584 7  97995441.524 7  23569869.123    23569869.443    23569891.526
        44.500          42.000
 108402869.564 8  84313387.905 8  20293238.737    20293239.055    20293245.289
        53.000          48.100
 134567576.433 6 104857973.91645  25607319.715    25607319.1344   25607326.9604
        38.400          30.3004
 129451991.148 6 100871658.72643  24633913.507    24633913.0514   24633920.4974
        39.300          22.6004
 117513212.954 7  91568733.29547  22362024.687    22362024.2454   22362025.1944
        46.800          43.9004
 150477645.934 6                  28634943.380
        37.700
 25  1  1 16 17 45.0000000  0 31G09G26E19G08S31S35G07G03R06S48S33E27
                                E29E04E31G16G27E21G04R15E06R07R17R08
                                R10R05R16G29G28G31E09
 116452763.321 7  90742425.22847  22160222.352    22160221.7094   22160224.4314
        44.100          43.2004
 110829861.310 7  86360959.88348  21090216.683    21090216.0264   21090220.3764
        47.200          48.0004
 122683811.644 7                  23345954.665
        43.900
 131519802.749 5 102483039.89644  25027383.084    25027382.2894   25027401.7244
        34.700          24.5004
 198981103.655 7                  37864846.854
        45.600
 200924884.574 7                  38234744.610
        44.000
 130821082.646 6 101938540.68245  24894415.065    24894414.3954   24894417.9384
        41.000          31.6004
 115127619.024 7  89709838.67247  21908060.683    21908060.4064   21908065.5224
        44.900          44.0004
 103220131.240 7                  19343410.436    19343410.107
        42.000
 412776794.998 5                  78548686.850
        32.500
 202112814.251 7                  38460773.625
        45.500
 148394710.540 6                  28238582.080
        38.300
 141619654.394 6                  26949354.752
        39.800
 127771812.041 7                  24314167.744
        47.600
 144577329.606 6                  27512131.006
        38.300
 104635600.836 7  81534304.44046  19911468.709    19911467.7174   19911468.9984
        47.100          40.9004
 123299982.774 6  96078036.76546  23463172.163    23463171.4174   23463184.3454
        40.600          36.9004
 127075094.831 7                  24181577.576
        47.700
 107601998.284 7  83845718.19146  20475978.774    20475978.3854   20475980.0774
        47.600          38.9004
 131288574.751 7 102113358.046 6  24568881.780    24568881.892    24568894.664
        43.400          41.200
 137703354.445 7                  26204076.910
        42.900
 108004071.678 8  84003190.981 8  20176062.729    20176063.075    20176069.213
        52.500          48.300
 130058880.701 7 101156956.676 6  24304611.245    24304611.224    24304622.324
        44.500          40.000
 130185995.481 7 101255791.523 6  24311316.967    24311317.418    24311322.306
        42.800          37.500
 120992985.565 6                  22697942.373    22697942.431
        40.800
 126058317.787 7  98045300.232 7  23581859.948    23581861.047    23581883.367
        43.500          42.000
 108441231.659 8  84343225.073 8  20300419.969    20300420.365    20300426.768
        52.600          48.000
 134594615.922 6 104879043.82345  25612465.364    25612464.7794   25612472.2014
        37.600          30.1004
 129492960.790 6 100903582.88043  24641709.753    24641709.2934   24641716.9504
        39.300          22.3004
 117550551.802 7  91597828.48547  22369130.192    22369129.7504   22369130.5444
        46.600          43.8004
 150437914.628 6                  28627383.255
        38.600
 25  1  1 16 18  0.0000000  0 31G09G26E19G08S31S35G07G03R06S48S33E27
                                E29E04E31G16G27E21G04R15E06R07R17R08
                                R10R05R16G29G28G31E09
 116408953.814 7  90708287.94947  22151885.203    22151884.5604   22151887.5694
        44.800          43.2004
 110863895.492 7  86387480.01148  21096693.244    21096692.5924   21096696.8424
        47.500          48.0004
 122698924.771 7                  23348830.633
        44.000
 131466459.534 5 102441473.89644  25017232.441    25017231.6464   25017251.0514
        35.000          25.6004
 198981099.800 7                  37864845.414
        45.800
 200924847.416 7                  38234734.991
        44.100
 130786153.070 6 101911322.86645  24887767.369    24887766.6764   24887770.7594
        41.200          32.1004
 115167888.925 7  89741217.74847  21915724.050    21915723.7824   21915728.7704
        45.200          44.0004
 103240376.022 6                  19347204.121    19347204.123
        41.800
 412777361.007 5                  78548727.005
        32.600
 202112836.163 7                  38460775.606
        45.600
 148437105.759 6                  28246650.199
        37.400
 141656408.921 6                  26956349.085
        39.400
 127746396.462 7                  24309331.037
        47.800
 144532800.734 6                  27503657.464
        38.900
 104633731.798 7  81532848.05346  19911113.007    19911112.0154   19911113.3304
        47.500          40.8004
 123249368.361 6  96038597.14546  23453539.981    23453539.2304   23453552.5684
        41.700          36.8004
 127093510.165 8                  24185082.013
        48.100
 107577805.538 7  83826866.69746  20471374.941    20471374.5484   20471376.3414
        47.700          38.8004
 131345262.395 7 102157447.597 6  24579490.872    24579491.259    24579504.022
        44.400          40.600
 137667130.632 7                  26197183.793
        43.400
 107965010.125 8  83972809.748 8  20168765.841    20168766.084    20168772.236
        52.700          48.100
 130035527.557 7 101138793.398 6  24300246.334    24300246.393    24300258.007
        44.400          39.900
 130122328.760 6 101206273.152 6  24299426.664    24299426.228    24299433.272
        41.600          37.500
 120943389.503 6                  22688638.730    22688638.460
        41.800
 126122464.315 7  98095191.886 7  23593860.845    23593861.026    23593883.704
        42.800          42.000
 108479670.488 8  84373121.921 7  20307616.545    20307616.650    20307622.557
        53.200          47.800
 134621769.149 6 104900202.27145  25617632.258    25617631.6644   25617639.5774
        38.300          30.4004
 129533936.300 6 100935511.60343  24649507.928    24649507.4724   24649514.3824
        38.200          22.6004
 117587918.150 7  91626945.10047  22376240.675    22376240.2334   22376241.1794
        46.700          43.7004
 150398172.674 6                  28619820.123
        38.800
 25  1  1 16 18 15.0000000  0 31G09G26E19G08S31S35G07G03R06S48S33E27
                                E29E04E31G16G27E21G04R15E06R07R17R08
                                R10R05R16G29G28G31E09
 116365199.588 7  90674193.73747  22143558.904    22143558.2524   22143561.4484
        44.100          43.3004
 110898031.822 8  86414079.74448  21103188.943    21103188.3044   21103192.8084
        48.000          48.1004
 122714110.338 7                  23351720.305
        44.100
 131413084.063 5 102399882.77644  25007074.411    25007073.6244   25007093.6984
        35.800          25.3004
 198981099.807 7                  37864839.127
        45.400
 200924812.665 7                  38234728.235
        43.900
 130751236.151 6 101884114.93145  24881123.379    24881122.6914   24881126.0674
        40.200          32.1004
 115208257.183 7  89772673.45547  21923405.992    21923405.7294   21923410.5614
        45.500          44.1004
 103260808.152 6                  19351032.455    19351033.218
        41.700
 412777930.839 5                  78548761.718
        33.100
 202112862.195 7                  38460783.547
        45.600
 148479517.960 6                  28254721.068
        38.100
 141693202.885 6                  26963351.236
        39.100
 127721026.454 7                  24304503.459
        47.900
 144488298.110 6                  27495188.495
        38.100
 104632026.800 7  81531519.49146  19910788.571    19910787.5794   19910788.8644
        47.300          40.8004
 123198789.693 6  95999185.38446  23443914.942    23443914.1694   23443927.5754
        41.300          36.8004
 127112010.122 7                  24188602.185
        47.900
 107553709.499 7  83808090.55946  20466789.564    20466789.1754   20466791.0184
        47.100          38.9004
 131401926.970 7 102201520.545 6  24590094.121    24590094.590    24590107.366
        42.800          39.700
 137630923.515 7                  26190293.882
        43.100
 107926085.765 8  83942535.251 8  20161494.649    20161494.671    20161500.931
        52.800          48.200
 130012322.930 7 101120745.368 6  24295910.531    24295910.846    24295921.101
        44.500          39.400
 130058668.386 7 101156759.655 6  24287538.906    24287539.359    24287544.761
        42.500          37.900
 120893871.092 7                  22679348.772    22679348.942
        42.500
 126186655.400 7  98145118.155 7  23605869.517    23605869.823    23605891.584
        43.700          42.000
 108518188.636 8  84403080.489 7  20314826.461    20314827.052    20314833.267
        52.900          47.600
 134649038.353 6 104921450.72344  25622821.811    25622821.2214   25622828.4254
        37.700          29.2004
 129574920.440 6 100967447.04643  24657307.846    24657307.4134   24657313.3664
        38.200          22.2004
 117625314.816 7  91656085.34747  22383357.126    22383356.6754   22383357.5834
        47.000          43.7004
 150358422.784 6                  28612256.274
        38.400
 25  1  1 16 18 30.0000000  0 31G09G26E19G08S31S35G07G03R06S48S33E27
                                E29E04E31G16G27E21G04R15E06R07R17R08
                                R10R05R16G29G28G31E09
 116321496.699 7  90640139.54947  22135243.048    22135242.4054   22135245.1204
        44.300          43.3004
 110932265.521 8  86440755.31348  21109703.620    21109702.9774   21109707.2694
        48.100          48.1004
 122729364.080 7                  23354623.168
        44.200
 131359672.380 5 102358263.38844  24996910.157    24996909.3664   24996929.2394
        35.300          25.3004
 198981098.638 7                  37864848.316
        45.500
 200924777.774 7                  38234717.624
        43.500
 130716327.455 6 101856913.40945  24874480.887    24874480.1944   24874483.0114
        40.800          32.1004
 115248719.177 7  89804202.21047  21931105.459    21931105.1964   21931110.3424
        45.500          44.1004
 103281423.303 7                  19354896.474    19354896.347
        42.300
 412776799.900 5                  78548790.435
        32.800
 202112886.856 7                  38460785.577
        45.300
 148521942.086 6                  28262794.007
        38.700
 141730031.908 6                  26970359.615
        40.100
 127695697.792 8                  24299683.546
        48.000
 144443817.590 6                  27486724.601
        39.000
 104630481.372 7  81530315.27346  19910494.594    19910493.5974   19910494.7524
        47.400          40.8004
 123148242.829 6  95959798.40246  23434296.216    23434295.4434   23434308.7754
        41.500          37.0004
 127130590.132 8                  24192137.946
        48.100
 107529706.071 7  83789386.58946  20462222.267    20462221.8834   20462223.3504
        47.900          39.0004
 131458562.813 7 102245571.858 6  24600690.956    24600691.436    24600704.052
        44.200          39.200
 137594728.862 7                  26183406.086
        43.300
 107887294.619 8  83912364.365 8  20154247.807    20154248.143    20154254.072
        52.600          48.200
 129989263.928 7 101102810.891 6  24291600.850    24291601.338    24291612.112
        43.200          38.600
 129995010.096 7 101107247.767 6  24275651.122    24275651.175    24275656.313
        42.500          36.700
 120844426.316 6                  22670073.693    22670072.963
        41.800
 126250886.344 7  98195075.480 6  23617884.566    23617884.854    23617907.389
        43.800          41.600
 108556781.197 8  84433096.911 7  20322051.750    20322051.839    20322057.907
        52.700          47.800
 134676422.157 6 104942789.77144  25628031.127    25628030.5284   25628039.2694
        38.800          28.7004
 129615908.829 6 100999385.80043  24665106.897    24665106.4594   24665113.7854
        38.500          22.4004
 117662737.268 7  91685245.68047  22390478.325    22390477.8744   22390478.8574
        47.000          43.9004
 150318660.860 6                  28604689.792
        38.600
 25  1  1 16 18 45.0000000  0 31G09G26E19G08S31S35G07G03R06S48S33E27
                                E29E04E31G16G27E21G04R15E06R07R17R08
                                R10R05R16G29G28G31E09
 116277843.589 7  90606124.15847  22126936.044    22126935.4054   22126938.2364
        44.900          43.4004
 110966594.578 8  86467505.13948  21116236.153    21116235.5054   21116239.9254
        48.300          48.3004
 122744684.189 7                  23357538.181
        44.100
 131306222.853 5 102316614.52344  24986739.502    24986738.7114   24986757.8944
        35.500          25.0004
 198981095.322 7                  37864841.121
        45.700
 200924740.593 7                  38234712.092
        43.500
 130681425.315 6 101829717.03645  24867838.437    24867837.7494   24867841.4444
        41.400          32.5004
 115289272.729 7  89835802.29147  21938822.775    21938822.5164   21938827.6034
        45.400          44.1004
 103302219.213 7                  19358794.386    19358793.714
        42.400
 412777366.801 5                  78548829.772
        33.500
 202112908.971 7                  38460793.676
        45.600
 148564375.679 6                  28270869.029
        37.900
 141766894.075 6                  26977374.204
        39.500
 127670408.837 7                  24294871.049
        47.700
 144399357.506 6                  27478263.726
        38.300
 104629093.616 7  81529233.91146  19910230.579    19910229.5734   19910230.6674
        47.600          41.0004
 123097726.407 6  95920435.14046  23424682.910    23424682.1324   23424695.6324
        41.500          37.0004
 127149248.288 8                  24195688.661
        48.000
 107505793.675 7  83770753.52546  20457671.653    20457671.2694   20457672.9824
        47.900          39.2004
 131515163.573 6 102289594.249 6  24611283.205    24611283.556    24611296.780
        41.600          38.400
 137558545.130 7                  26176520.929
        43.200
 107848635.342 8  83882296.070 8  20147025.917    20147026.196    20147032.281
        52.600          48.400
 129966348.359 7 101084987.931 6  24287317.701    24287317.971    24287329.558
        43.400          40.100
 129931352.204 7 101057736.094 6  24263762.623    24263762.843    24263768.733
        42.300          36.500
 120795052.900 7                  22660811.103    22660810.712
        43.000
 126315154.740 7  98245061.917 6  23629907.821    23629908.081    23629930.374
        43.200          41.700
 108595445.907 8  84463169.439 7  20329289.162    20329289.594    20329295.818
        52.600          47.800
 134703914.756 6 104964213.08244  25633262.973    25633262.3704   25633270.0134
        38.500          29.1004
 129656899.663 6 101031326.44143  24672907.797    24672907.3864   24672914.2754
        38.300          22.7004
 117700183.652 7  91714424.64947  22397604.396    22397603.9314   22397604.6834
        47.200          44.0004
 150278885.026 6                  28597120.507
        39.400
 25  1  1 16 19  0.0000000  0 31G09G26E19G08S31S35G07G03R06S48S33E27
                                E29E04E31G16G27E21G04R15E06R07R17R08
                                R10R05R16G29G28G31E09
 116234245.112 7  90572151.29847  22118639.493    22118638.8504   22118641.6724
        44.500          43.5004
 111001023.480 8  86494332.83748  21122787.916    21122787.2684   21122791.6124
        48.200          48.4004
 122760075.436 7                  23360467.167
        43.800
 131252740.585 6 102274940.13044  24976562.266    24976561.4884   24976580.7634
        36.400          25.7004
 198981093.769 7                  37864846.129
        45.600
 200924704.809 7                  38234705.421
        43.300
 130646534.220 6 101802529.25045  24861199.196    24861198.5214   24861201.9924
        41.900          32.9004
 115329922.118 7  89867477.06847  21946558.196    21946557.9424   21946563.1164
        45.400          44.3004
 103323200.660 7                  19362725.700    19362725.648
        42.200
 412777935.841 5                  78548861.941
        33.900
 202112932.758 7                  38460798.737
        45.400
 148606824.102 6                  28278946.363
        37.700
 141803794.005 6                  26984396.879
        39.200
 127645164.414 7                  24290067.500
        47.400
 144354922.673 6                  27469807.900
        38.500
 104627868.248 7  81528279.09046  19909997.306    19909996.2964   19909997.4954
        47.700          41.1004
 123047245.560 6  95881099.59946  23415077.002    23415076.2204   23415089.2814
        41.400          37.2004
 127167989.073 7                  24199254.586
        47.700
 107481977.300 7  83752195.29346  20453139.675    20453139.3004   20453140.9174
        47.800          39.3004
 131571738.420 7 102333597.166 6  24621871.530    24621870.878    24621884.017
        42.400          36.700
 137522377.068 7                  26169638.089
        43.100
 107810113.107 8  83852334.326 8  20139829.325    20139829.897    20139836.251
        52.600          48.400
 129943581.692 7 101067280.992 6  24283063.028    24283063.405    24283073.924
        43.600          38.900
 129867700.287 7 101008229.033 6  24251876.649    24251876.971    24251883.021
        43.300          37.700
 120745756.257 7                  22651563.059    22651562.726
        43.000
 126379465.057 7  98295080.963 6  23641938.750    23641938.633    23641960.975
        43.100          41.400
 108634187.010 8  84493301.291 7  20336542.290    20336542.427    20336548.616
        52.800          47.900
 134731520.242 6 104985723.64244  25638516.188    25638515.6034   25638522.5194
        37.600          28.6004
 129697897.492 6 101063272.54243  24680709.526    24680709.1064   24680716.2914
        38.400          22.5004
 117737658.555 7  91743625.85147  22404735.114    22404734.6454   22404735.9144
        47.300          44.2004
 150239100.273 6                  28589549.977
        38.100
 25  1  1 16 19 15.0000000  0 31G09G26E19G08S31S35G07G03R06S48S33E27
                                E29E04E31G16G27E21G04R15E06R07R17R08
                                R10R05R16G29G28G31E09
 116190692.519 7  90538214.22647  22110351.755    22110351.1034   22110353.8284
        44.800          43.5004
 111035542.575 8  86521230.82148  21129356.495    21129355.8434   21129360.3994
        48.000          48.3004
 122775528.741 7                  23363408.031
        43.700
 131199216.706 5 102233233.31244  24966376.630    24966375.8264   24966395.1494
        35.100          25.8004
 198981084.715 7                  37864841.618
        45.400
 200924661.811 7                  38234698.020
        43.500
 130611645.001 7 101775342.90145  24854559.878    24854559.2034   24854562.8894
        42.300          32.8004
 115370657.773 7  89899219.06847  21954309.924    21954309.6614   21954314.8894
        45.500          44.2004
 103344358.344 7                  19366690.603    19366690.233
        42.000
 412778498.092 5                  78548885.958
        32.300
 202112949.232 7                  38460797.311
        45.400
 148649277.048 6                  28287024.759
        37.500
 141840722.505 6                  26991424.018
        38.300
 127619955.521 7                  24285270.306
        47.500
 144310504.078 6                  27461354.738
        38.600
 104626796.024 7  81527443.59446  19909793.228    19909792.2184   19909793.4544
        47.300          41.0004
 122996791.493 6  95841784.92246  23405475.822    23405475.0584   23405488.0904
        41.600          37.1004
 127186803.152 7                  24202835.125
        47.500
 107458248.061 7  83733704.98146  20448624.082    20448623.7164   20448625.3784
        47.900          39.2004
 131628278.754 7 102377574.417 6  24632450.824    24632450.974    24632463.076
        43.300          39.000
 137486215.578 7                  26162757.059
        42.800
 107771719.162 8  83822472.367 8  20132657.343    20132657.916    20132663.670
        53.100          48.100
 129920955.047 7 101049683.114 6  24278835.512    24278835.410    24278846.385
        44.300          40.100
 129804045.257 7 100958719.595 6  24239989.542    24239989.904    24239994.815
        43.400          37.600
 120696526.815 7                  22642326.786    22642327.283
        42.900
 126443807.850 7  98345125.311 6  23653974.786    23653975.253    23653997.890
        42.900          41.900
 108672995.018 8  84523485.224 7  20343806.929    20343807.383    20343813.683
        52.900          47.800
 134759228.002 6 105007312.36744  25643790.076    25643789.4954   25643795.5244
        37.400          29.8004
 129738893.213 6 101095216.97643  24688510.756    24688510.3504   24688517.3634
        40.000          22.4004
 117775152.645 7  91772841.99247  22411870.398    22411869.9294   22411870.7774
        46.900          43.8004
 150199297.379 6                  28581975.558
        38.000
 25  1  1 16 19 30.0000000  0 31G09G26E19G08S31S35G07G03R06S48S33E27
                                E29E04E31G16G27E21G04R15E06R07R17R08
                                R10R05R16G29G28G31E09
 116147202.361 7  90504325.77447  22102075.409    22102074.7524   22102077.8304
        45.200          43.1004
 111070168.002 8  86548211.67748  21135945.689    21135945.0504   21135949.4204
        48.400          48.0004
 122791060.483 7                  23366363.497
        44.000
 131145667.832 6 102191507.00644  24956186.243    24956185.4394   24956205.3814
        36.300          25.7004
 198981085.461 7                  37864843.800
        45.600
 200924628.650 7                  38234695.489
        44.100
 130576773.832 6 101748170.58045  24847923.993    24847923.3054   24847927.0684
        41.300          32.3004
 115411495.639 7  89931040.68347  21962080.999    21962080.7454   21962086.1044
        45.600          43.8004
 103365708.681 7                  19370692.171    19370691.736
        42.200
 412777469.812 5                  78548928.054
        33.200
 202112975.705 7                  38460804.949
        45.700
 148691751.301 6                  28295107.465
        37.700
 141877695.841 6                  26998459.863
        38.600
 127594798.681 7                  24280483.104
        47.600
 144266118.161 6                  27452908.534
        37.900
 104625893.185 7  81526740.08846  19909621.639    19909620.6334   19909621.6414
        47.700          40.6004
 122946380.988 6  95802504.20346  23395882.225    23395881.4474   23395894.9844
        41.700          36.6004
 127205706.643 7                  24206432.277
        47.800
 107434622.481 7  83715295.43346  20444128.272    20444127.9064   20444129.5554
        47.900          38.9004
 131684795.710 6 102421532.192 6  24643026.691    24643027.211    24643039.165
        41.400          40.000
 137450077.310 7                  26155879.823
        43.300
 107733470.543 8  83792723.477 8  20125512.142    20125512.459    20125518.558
        52.600          48.200
 129898484.700 7 101032206.638 6  24274635.307    24274635.904    24274645.931
        44.400          39.300
 129740403.938 7 100909220.719 6  24228105.181    24228105.275    24228110.923
        42.800          37.300
 120647381.694 7                  22633108.060    22633107.557
        42.700
 126508199.046 7  98395207.296 6  23666019.785    23666020.190    23666043.194
        42.800          41.100
 108711886.324 8  84553733.918 7  20351087.412    20351087.869    20351094.178
        52.700          47.600
 134787058.625 6 105028997.71944  25649086.760    25649086.1614   25649092.7954
        39.100          29.4004
 129779903.182 6 101127172.50443  24696314.463    24696314.0614   24696321.6594
        39.300          22.2004
 117812682.284 7  91802085.84847  22419011.753    22419011.2934   22419012.4954
        46.800          43.5004
 150159492.676 6                  28574400.854
        38.000
 25  1  1 16 19 45.0000000  0 31G09G26E19G08S31S35G07G03R06S48S33E27
                                E29E04E31G16G27E21G04R15E06R07R17R08
                                R10R05R16G29G28G31E09
 116103763.024 7  90470476.94747  22093809.403    22093808.7424   22093811.6824
        44.600          43.2004
 111104887.511 8  86575265.88148  21142552.411    21142551.7544   21142556.3144
        48.500          48.1004
 122806658.738 7                  23369331.818
        43.800
 131092082.378 5 102149752.17044  24945988.946    24945988.1284   24946008.4854
        35.200          26.3004
 198981083.136 7                  37864843.907
        45.700
 200924591.923 7                  38234686.112
        43.600
 130541909.047 6 101721003.31545  24841289.281    24841288.6204   24841292.4284
        41.400          32.4004
 115452423.440 7  89962932.37947  21969869.581    21969869.3364   21969874.5344
        45.600          43.8004
 103387239.288 7                  19374726.074    19374726.316
        42.000
 412778038.835 5                  78548958.125
        33.300
 202112998.018 7                  38460810.073
        45.600
 148734233.355 6                  28303191.926
        37.500
 141914701.979 6                  27005502.535
        38.000
 127569682.055 7                  24275703.610
        47.400
 144221753.200 6                  27444466.194
        38.200
 104625147.562 7  81526159.07746  19909479.831    19909478.8254   19909479.7614
        47.400          40.8004
 122896002.548 6  95763248.45146  23386295.996    23386295.2184   23386307.9334
        41.900          36.7004
 127224687.466 7                  24210044.141
        47.700
 107411088.897 7  83696957.58346  20439650.051    20439649.6894   20439651.2614
        47.900          39.0004
 131741278.981 7 102465463.307 6  24653597.208    24653597.403    24653608.990
        44.700          36.400
 137413950.294 7                  26149005.239
        42.900
 107695355.523 8  83763078.457 8  20118392.016    20118392.313    20118398.300
        52.600          48.200
 129876158.425 7 101014841.835 6  24270462.981    24270463.124    24270474.269
        44.600          39.700
 129676765.087 7 100859723.914 6  24216220.469    24216220.704    24216225.672
        42.400          36.900
 120598308.661 7                  22623901.453    22623901.376
        42.200
 126572626.401 7  98445317.416 6  23678072.622    23678073.019    23678095.746
        43.900          41.300
 108750848.206 8  84584037.573 7  20358381.276    20358381.689    20358387.922
        52.400          47.600
 134815000.394 6 105050770.33044  25654403.961    25654403.3094   25654411.2494
        37.200          28.4004
 129820915.300 6 101159129.72043  24704119.228    24704118.8314   24704126.5414
        39.200          22.5004
 117850235.349 7  91831347.95047  22426157.984    22426157.5194   22426158.6174
        47.100          43.7004
 150119674.510 6                  28566824.042
        38.200
 25  1  1 16 20  0.0000000  0 30G09G26E19G08S31S35G07G03R06S48S33E27
                                E29E04E31G16G27E21G04E06R07R17R08R10
                                R05R16G29G28G31E09
 116060376.895 7  90436669.55747  22085553.602    22085552.9414   22085555.5914
        44.800          43.3004
 111139702.795 7  86602394.68148  21149177.520    21149176.8634   21149181.3804
        47.600          48.2004
 122822325.637 7                  23372313.113
        43.900
 131038462.814 5 102107970.78944  24935786.429    24935785.5984   24935805.7274
        35.400          26.1004
 198981079.916 7                  37864839.851
        45.500
 200924554.776 7                  38234683.188
        43.800
 130507052.526 7 101693842.48845  24834656.189    24834655.5284   24834659.5274
        42.300          32.8004
 115493442.953 7  89994895.56147  21977675.209    21977674.9644   21977680.4314
        46.300          44.0004
 103408952.345 7                  19378795.947    19378795.578
        42.100
 412778607.375 5                  78548981.257
        32.800
 202113020.406 7                  38460812.389
        45.400
 148776726.139 6                  28311278.355
        37.300
 141951742.993 6                  27012550.767
        38.300
 127544607.993 7                  24270932.142
        47.500
 144177411.479 6                  27436028.066
        38.000
 104624561.441 7  81525702.35946  19909368.105    19909367.1044   19909368.2214
        47.600          40.8004
 122845658.730 7  95724019.67946  23376715.472    23376714.6814   23376727.6114
        42.500          37.1004
 127243747.566 7                  24213671.016
        47.700
 107387649.697 7  83678693.26446  20435189.693    20435189.3314   20435190.9434
        47.900          39.2004
 137377836.821 7                  26142133.151
        43.000
 107657376.694 8  83733539.375 8  20111297.057    20111297.476    20111303.753
        52.600          48.400
 129853979.224 7 100997591.474 6  24266317.536    24266318.167    24266329.285
        42.700          40.100
 129613130.635 7 100810230.335 6  24204338.332    24204337.747    24204343.909
        43.700          38.000
 120549310.310 7                  22614709.554    22614709.639
        42.700
 126637091.454 7  98495456.896 6  23690131.981    23690132.059    23690155.014
        42.400          41.000
 108789882.477 8  84614397.510 7  20365688.692    20365688.924    20365695.582
        52.400          47.500
 134843054.590 6 105072631.65345  25659742.084    25659741.4544   25659749.9294
        39.100          30.2004
 129861931.796 6 101191090.31743  24711925.154    24711924.7704   24711932.1384
        38.100          22.0004
 117887814.038 7  91860630.02047  22433308.965    22433308.4964   22433309.5834
        46.700          43.7004
 150079844.933 6                  28559244.447
        38.600
 25  1  1 16 20 15.0000000  0 30G09G26E19G08S31S35G07G03R06S48S33E27
                                E29E04E31G16G27E21G04E06R07R17R08R10
                                R05R16G29G28G31E09
 116017043.451 7  90402903.23147  22077307.441    22077306.7714   22077309.5394
        44.600          43.4004
 111174612.695 8  86629597.21148  21155820.793    21155820.1504   21155824.4904
        48.100          48.1004
 122838060.413 7                  23375307.318
        44.000
 130984808.524 6 102066162.33744  24925576.722    24925575.8774   24925595.4704
        36.200          26.0004
 198981075.489 7                  37864839.333
        45.600
 200924516.341 7                  38234674.495
        43.900
 130472203.385 6 101666687.41445  24828024.576    24828023.9194   24828028.1874
        41.800          32.7004
 115534552.829 7  90026929.14047  21985498.258    21985498.0174   21985503.4634
        45.900          43.9004
 103430846.804 7                  19382898.481    19382898.524
        42.000
 412779174.596 5                  78549029.229
        34.100
 202113041.471 7                  38460817.854
        45.600
 148819230.098 6                  28319366.562
        37.300
 141988817.972 6                  27019606.564
        38.700
 127519575.816 7                  24266168.650
        47.600
 144133092.269 6                  27427594.331
        38.100
 104624133.851 7  81525369.16946  19909286.818    19909285.8214   19909286.8604
        47.300          40.7004
 122795349.059 6  95684817.50846  23367141.491    23367140.6964   23367153.7194
        41.800          36.9004
 127262885.798 7                  24217313.061
        47.800
 107364304.229 8  83660501.97446  20430747.066    20430746.7044   20430748.4664
        48.000          39.1004
 137341736.197 7                  26135262.997
        43.400
 107619533.743 8  83704105.970 8  20104227.792    20104228.194    20104234.252
        52.500          48.300
 129831947.536 7 100980456.007 6  24262200.867    24262201.918    24262212.142
        44.100          39.700
 129549500.533 7 100760740.249 6  24192455.185    24192455.448    24192460.443
        43.100          37.700
 120500385.775 7                  22605531.143    22605530.842
        42.500
 126701593.284 7  98545624.950 6  23702199.335    23702199.743    23702222.028
        44.500          41.600
 108828987.574 8  84644812.509 7  20373009.445    20373009.502    20373015.878
        52.800          47.500
 134871214.149 6 105094572.59744  25665101.960    25665101.3264   25665108.6184
        36.600          28.8004
 129902951.686 6 101223053.56143  24719731.039    24719730.6644   24719738.5984
        38.300          21.9004
 117925417.218 7  91889931.16747  22440465.135    22440464.6704   22440465.2254
        46.800          43.7004
 150040003.414 6                  28551662.911
        38.900
 25  1  1 16 20 30.0000000  0 30G09G26E19G08S31S35G07G03R06S48S33E27
                                E29E04E31G16G27E21G04E06R07R17R08R10
                                R05R16G29G28G31E09
 115973765.078 7  90369179.80447  22069071.874    22069071.2084   22069073.9784
        44.700          43.5004
 111209619.060 8  86656874.88748  21162482.296    21162481.6444   21162485.9564
        48.300          48.2004
 122853865.055 7                  23378314.951
        44.100
 130931122.082 6 102024328.79044  24915359.738    24915358.8844   24915378.7254
        37.900          26.6004
 198981071.634 7                  37864842.185
        45.600
 200924478.441 7                  38234664.152
        43.800
 130437363.775 7 101639539.74745  24821395.040    24821394.3924   24821397.3924
        42.400          32.5004
 115575754.932 7  90059034.57747  21993339.186    21993338.9414   21993344.0514
        45.500          43.8004
 103452924.766 7                  19387035.971    19387035.794
        42.100
 412778142.593 5                  78549057.060
        34.200
 202113063.210 7                  38460825.500
        45.200
 148861747.826 6                  28327456.229
        37.900
 142025928.996 6                  27026668.209
        39.100
 127494587.838 7                  24261413.625
        47.600
 144088797.906 6                  27419165.218
        38.900
 104623866.775 7  81525161.05746  19909235.678    19909234.6814   19909236.0454
        47.900          40.8004
 122745076.191 6  95645644.03046  23357574.913    23357574.1264   23357587.0944
        41.800          37.1004
 127282104.454 7                  24220970.148
        47.800
 107341055.053 8  83642385.74846  20426322.810    20426322.4444   20426324.2564
        48.300          39.1004
 137305650.797 7                  26128396.519
        42.900
 107581829.425 8  83674780.372 8  20097184.682    20097184.919    20097190.847
        52.900          48.200
 129810064.371 7 100963435.647 6  24258112.110    24258112.552    24258122.150
        43.400          39.300
 129485877.079 7 100711255.252 6  24180573.888    24180573.448    24180580.419
        43.000          38.200
 120451537.483 7                  22596366.934    22596367.289
        42.600
 126766133.394 7  98595822.808 6  23714273.487    23714273.451    23714295.471
        44.200          41.400
 108868165.520 8  84675284.100 7  20380343.513    20380343.960    20380350.238
        52.200          47.700
 134899486.418 5 105116602.66444  25670482.724    25670482.1164   25670489.9924
        34.600          28.5004
 129943977.213 6 101255021.18843  24727538.801    24727538.4394   24727545.1934
        38.600          22.1004
 117963046.977 7  91919253.02947  22447625.426    22447624.9574   22447626.0504
        47.000          43.8004
 150000151.954 6                  28544079.172
        38.300
 25  1  1 16 20 45.0000000  0 30G09G26E19G08S31S35G07G03R06S48S33E27
                                E29E04E31G16G27E21G04E06R07R17R08R10
                                R05R16G29G28G31E09
 115930544.535 7  90335501.46247  22060847.488    22060846.8184   22060849.3674
        44.700          43.6004
 111244723.880 8  86684229.25048  21169162.634    21169161.9914   21169166.1934
        48.100          48.3004
 122869742.171 7                  23381336.201
        44.100
 130877406.111 6 101982472.25444  24905137.745    24905136.9094   24905157.1734
        36.800          27.5004
 198981070.619 7                  37864838.903
        45.900
 200924443.126 7                  38234656.747
        43.600
 130402535.935 6 101612401.23245  24814767.350    24814766.7114   24814769.8354
        41.100          33.1004
 115617051.144 7  90091213.34047  22001197.603    22001197.3494   22001202.5164
        45.500          44.0004
 103475188.577 6                  19391207.565    19391208.073
        41.700
 412778713.942 5                  78549083.885
        33.400
 202113087.168 7                  38460828.281
        45.800
 148904278.714 6                  28335549.068
        37.700
 142063078.317 6                  27033737.815
        38.800
 127469646.515 8                  24256667.374
        48.000
 144044530.844 6                  27410740.981
        38.400
 104623762.372 8  81525079.70346  19909216.111    19909215.1194   19909216.1594
        48.200          40.9004
 122694842.788 6  95606501.29346  23348015.673    23348014.9094   23348028.2194
        41.400          37.1004
 127301405.578 8                  24224643.172
        48.100
 107317904.652 8  83624346.48946  20421917.570    20421917.2044   20421918.9084
        48.200          39.2004
 137269583.033 7                  26121533.143
        43.600
 107544266.221 8  83645564.550 8  20090167.169    20090167.194    20090173.579
        52.100          48.300
 129788334.026 7 100946534.535 6  24254050.005    24254050.240    24254061.492
        43.100          39.500
 129422263.134 7 100661777.595 6  24168694.349    24168695.070    24168699.958
        43.000          36.800
 120402767.862 7                  22587218.683    22587218.238
        43.500
 126830714.027 7  98646052.171 6  23726353.395    23726353.088    23726376.776
        43.100          41.500
 108907418.609 8  84705814.166 7  20387692.287    20387692.294    20387698.871
        52.300          47.800
 134927876.314 6 105138725.52644  25675884.316    25675883.7044   25675892.8394
        38.900          28.6004
 129985010.521 6 101286994.88443  24735347.054    24735346.7064   24735353.9164
        38.500          22.0004
 118000705.600 7  91948597.36947  22454791.543    22454791.0784   22454792.2814
        46.800          43.8004
 149960293.266 6                  28536494.750
        39.300
 25  1  1 16 21  0.0000000  0 30G09G26E19G08S31S35G07G03R06S48S33E27
                                E29E04E31G16G27E21G04E06R07R17R08R10
                                R05R16G29G28G31E09
 115887376.572 7  90301864.07847  22052632.578    22052631.9084   22052634.8004
        44.800          43.8004
 111279921.559 8  86711655.96148  21175860.574    21175859.9264   21175864.1384
        48.400          48.3004
 122885686.418 7                  23384370.366
        44.000
 130823655.608 6 101940588.82444  24894908.446    24894907.6014   24894928.9354
        36.600          27.5004
 198981067.467 7                  37864841.443
        45.800
 200924406.460 7                  38234656.899
        44.100
 130367714.526 6 101585267.68145  24808141.106    24808140.4494   24808143.5704
        41.900          32.6004
 115658435.777 7  90123460.99247  22009072.704    22009072.4504   22009077.8844
        45.700          43.9004
 103497632.630 6                  19395414.188    19395414.202
        41.800
 412779284.091 5                  78549122.068
        33.700
 202113109.573 7                  38460831.506
        45.300
 148946817.378 6                  28343643.979
        38.100
 142100260.602 6                  27040813.427
        38.400
 127444746.666 7                  24251929.194
        47.600
 144000285.858 6                  27402321.493
        38.500
 104623815.291 8  81525120.93846  19909226.355    19909225.3674   19909226.2254
        48.000          41.0004
 122644644.012 6  95567385.54046  23338463.226    23338462.4664   23338475.4874
        41.400          37.3004
 127320783.623 7                  24228330.635
        47.700
 107294847.946 8  83606380.25346  20417529.979    20417529.6134   20417531.3344
        48.100          39.4004
 137233527.709 7                  26114671.761
        42.800
 107506839.641 8  83616454.980 8  20083175.654    20083175.938    20083181.992
        52.700          48.400
 129766750.702 7 100929747.837 6  24250017.050    24250017.341    24250027.695
        44.300          40.200
 129358653.928 7 100612303.733 6  24156815.844    24156815.972    24156822.295
        42.400          36.300
 120354071.302 7                  22578083.455    22578083.365
        43.600
 126895328.983 7  98696308.233 6  23738442.269    23738441.422    23738463.818
        43.700          41.100
 108946741.112 8  84736398.301 7  20395053.500    20395053.515    20395059.918
        52.400          47.600
 134956375.100 6 105160933.41344  25681306.498    25681305.8414   25681314.9504
        40.200          29.3004
 130026046.427 6 101318970.57843  24743156.038    24743155.6944   24743162.8764
        38.800          21.9004
 118038387.861 7  91977960.13347  22461962.501    22461962.0414   22461962.9714
        47.000          43.9004
 149920422.028 6                  28528907.406
        38.700
 25  1  1 16 21 15.0000000  0 30G09G26E19G08S31S35G07G03R06S48S33E27
                                E29E04E31G16G27E21G04E06R07R17R08R10
                                R05R16G29G28G31E09
 115844265.008 7  90268270.63347  22044428.802    22044428.1544   22044431.0274
        44.900          43.9004
 111315215.240 8  86739157.51148  21182576.614    21182575.9574   21182580.3594
        48.000          48.3004
 122901701.282 7                  23387417.902
        43.900
 130769874.211 6 101898681.30244  24884675.251    24884674.4334   24884694.6524
        36.900          27.1004
 198981065.047 7                  37864840.611
        45.600
 200924369.606 7                  38234644.343
        43.700
 130332903.065 6 101558141.92845  24801516.444    24801515.7924   24801519.0184
        41.600          32.5004
 115699911.931 7  90155779.99247  22016965.552    22016965.3024   22016970.5714
        45.800          43.9004
 103520260.154 6                  19399655.480    19399654.378
        41.900
 412779855.183 5                  78549160.457
        33.700
 202113133.060 7                  38460833.093
        45.300
 148989367.381 6                  28351740.471
        37.400
 142137479.118 6                  27047896.195
        38.600
 127419891.848 7                  24247199.480
        47.600
 143956066.485 6                  27393906.721
        38.500
 104624028.955 8  81525287.44546  19909266.474    19909265.4824   19909266.8414
        48.100          41.1004
 122594483.665 7  95528299.73146  23328918.307    23328917.5474   23328930.2144
        42.200          37.4004
 127340241.817 7                  24232033.381
        47.700
 107271888.571 8  83588489.83546  20413161.044    20413160.6734   20413162.2904
        48.100          39.4004
 137197488.365 7                  26107813.941
        42.800
 107469553.212 8  83587454.407 8  20076210.378    20076210.465    20076216.684
        52.400          48.100
 129745318.263 7 100913078.536 6  24246011.497    24246011.738    24246022.203
        43.300          40.600
 129295053.121 7 100562836.487 6  24144938.124    24144937.920    24144945.205
        42.100          38.300
 120305452.267 7                  22568962.742    22568962.552
        43.100
 126959981.843 7  98746593.798 6  23750536.955    23750536.539    23750557.965
        45.000          40.500
 108986135.940 8  84767038.700 7  20402428.105    20402428.302    20402434.594
        52.000          47.300
 134984985.029 6 105183227.51645  25686750.040    25686749.3384   25686758.3644
        40.000          30.0004
 130067088.184 6 101350950.84643  24750965.981    24750965.6334   24750973.1954
        39.200          22.2004
 118076096.802 7  92007343.68347  22469138.326    22469137.8664   22469138.7494
        46.400          44.0004
 149880541.600 6                  28521318.020
        38.700
 25  1  1 16 21 30.0000000  0 30G09G26E19G08S31S35G07G03R06S48S33E27
                                E29E04E31G16G27E21G04E06R07R17R08R10
                                R05R16G29G28G31E09
 115801206.112 7  90234718.23247  22036235.360    22036234.7264   22036237.2534
        45.100          43.7004
 111350600.410 8  86766730.29848  21189310.273    21189309.6254   21189313.9744
        48.200          48.0004
 122917782.476 7                  23390478.072
        44.000
 130716058.294 6 101856746.87344  24874434.112    24874433.2764   24874454.0644
        36.700          27.1004
 198981059.885 7                  37864838.309
        45.800
 200924330.792 7                  38234635.672
        43.700
 130298097.604 6 101531020.84545  24794893.094    24794892.4514   24794895.5124
        40.500          32.4004
 115741475.174 7  90188166.88747  22024874.571    22024874.3124   22024879.8794
        46.100          43.7004
 103543067.169 6                  19403928.644    19403928.377
        41.800
 412778823.588 5                  78549186.433
        33.700
 202113152.466 7                  38460839.009
        45.300
 149031922.741 6                  28359838.817
        37.300
 142174729.766 6                  27054984.813
        38.500
 127395078.250 7                  24242477.775
        47.700
 143911868.918 6                  27385495.958
        38.700
 104624399.313 8  81525576.03546  19909337.231    19909336.2434   19909337.3184
        48.000          40.8004
 122544358.179 7  95489241.08746  23319379.201    23319378.4324   23319391.3844
        42.100          37.2004
 127359775.969 8                  24235750.749
        48.100
 107249022.792 8  83570672.36246  20408809.731    20408809.3654   20408811.0534
        48.600          39.2004
 137161461.077 7                  26100958.248
        43.600
 107432403.461 8  83558560.184 8  20069270.188    20069270.404    20069276.569
        52.600          48.100
 129724032.256 7 100896522.943 6  24242033.708    24242033.988    24242043.416
        43.700          39.000
 129231456.941 7 100513372.717 6  24133063.089    24133063.428    24133069.555
        43.100          38.100
 120256906.236 7                  22559854.853    22559855.033
        43.300
 127024667.853 7  98796905.159 6  23762636.987    23762636.571    23762659.669
        42.700          40.700
 109025598.551 8  84797731.885 7  20409815.556    20409815.767    20409822.126
        52.200          47.400
 135013698.935 6 105205601.27744  25692215.278    25692214.5854   25692221.8014
        40.000          29.6004
 130108131.822 6 101382932.56443  24758776.731    24758776.3784   24758783.9084
        38.600          22.0004
 118113828.395 7  92036744.88847  22476318.320    22476317.8734   22476318.9504
        47.200          43.7004
 149840648.050 6                  28513726.335
        38.800
 25  1  1 16 21 45.0000000  0 30G09G26E19G08S31S35G07G03R06S48S33E27
                                E29E04E31G16G27E21G04E06R07R17R08R10
                                R05R16G29G28G31E09
 115758205.894 7  90201211.55247  22028052.243    22028051.6174   22028054.5634
        44.900          43.9004
 111386082.907 8  86794379.04948  21196062.409    21196061.7574   21196066.1244
        48.100          48.2004
 122933936.020 7                  23393551.895
        44.200
 130662213.949 6 101814790.25444  24864188.024    24864187.1794   24864207.5604
        36.100          26.9004
 198981057.761 7                  37864839.735
        46.000
 200924294.292 7                  38234630.646
        43.900
 130263303.632 6 101503908.71845  24788272.755    24788272.1164   24788274.6174
        41.400          32.6004
 115783130.831 7  90220625.77247  22032801.435    22032801.1904   22032806.6664
        45.300          43.8004
 103566059.276 6                  19408237.469    19408237.224
        41.800
 412779394.865 5                  78549218.472
        33.000
 202113175.711 7                  38460842.998
        45.300
 149074491.218 6                  28367940.104
        37.600
 142212018.313 6                  27062081.532
        38.500
 127370311.817 7                  24237764.701
        47.700
 143867699.128 6                  27377090.636
        38.400
 104624932.162 7  81525991.25346  19909438.599    19909437.6114   19909438.6944
        47.800          41.0004
 122494273.710 6  95450214.40546  23309848.495    23309847.7224   23309860.4344
        40.900          37.3004
 127379391.629 8                  24239483.499
        48.200
 107226256.593 8  83552932.46346  20404477.375    20404476.9954   20404478.7974
        48.000          39.4004
 137125451.922 7                  26094105.581
        43.400
 107395396.974 8  83529777.378 8  20062357.383    20062357.584    20062363.557
        52.900          48.200
 129702899.369 7 100880086.395 6  24238084.141    24238084.079    24238094.714
        44.200          41.300
 129167871.601 7 100463917.336 6  24121188.259    24121189.379    24121195.626
        43.700          37.500
 120208439.399 7                  22550763.062    22550762.378
        42.800
 127089392.640 7  98847246.664 6  23774745.200    23774744.616    23774767.289
        43.000          40.300
 109065134.342 8  84828481.882 7  20417216.688    20417217.215    20417223.381
        52.800          47.400
 135042523.522 6 105228060.85244  25697702.123    25697701.3864   25697708.1334
        38.000          28.4004
 130149183.093 6 101414920.24443  24766588.969    24766588.5984   24766596.3694
        38.700          22.5004
 118151588.261 7  92066168.11447  22483503.796    22483503.3454   22483504.5794
        46.900          43.7004
 149800747.362 6                  28506134.054
        38.800
 25  1  1 16 22  0.0000000  0 30G09G26E19G08S31S35G07G03R06S48S33E27
                                E29E04E31G16G27E21G04E06R07R17R08R10
                                R05R16G29G28G31E09
 115715260.877 7  90167747.91947  22019880.322    22019879.6964   22019882.3384
        45.600          43.9004
 111421658.233 8  86822100.10948  21202831.949    21202831.3014   21202835.8614
        48.200          48.1004
 122950158.104 7                  23396639.010
        44.200
 130608337.562 6 101772808.67244  24853935.729    24853934.8894   24853954.7154
        36.800          27.2004
 198981054.142 7                  37864834.946
        45.900
 200924256.588 7                  38234619.829
        44.200
 130228517.432 6 101476802.65345  24781652.830    24781652.1824   24781654.9754
        41.700          32.7004
 115824874.618 7  90253153.31947  22040745.260    22040745.0194   22040750.2984
        45.500          43.7004
 103589232.387 6                  19412580.484    19412579.769
        41.700
 412779965.059 5                  78549244.399
        33.300
 202113197.247 7                  38460851.257
        45.800
 149117069.915 6                  28376042.358
        37.900
 142249340.788 6                  27069183.716
        38.700
 127345588.784 7                  24233059.967
        47.800
 143823553.308 6                  27368690.340
        38.900
 104625623.186 7  81526529.73746  19909570.141    19909569.1534   19909570.1694
        47.800          40.9004
 122444226.868 7  95411217.03846  23300324.513    23300323.7534   23300336.7144
        42.300          37.5004
 127399084.853 8                  24243230.697
        48.200
 107203586.395 8  83535267.36946  20400163.380    20400163.0004   20400164.7684
        48.000          39.3004
 137089456.994 7                  26087256.439
        43.600
 107358529.811 8  83501102.934 8  20055469.855    20055470.212    20055476.708
        52.700          48.100
 129681915.947 7 100863765.985 6  24234163.492    24234163.602    24234173.472
        45.700          41.200
 129104293.823 7 100414467.932 6  24109315.103    24109315.696    24109320.700
        42.400          36.400
 120160047.716 7                  22541684.348    22541683.768
        42.500
 127154151.936 7  98897614.999 6  23786860.375    23786860.817    23786882.064
        45.600          40.700
 109104739.204 8  84859285.621 7  20424630.593    20424630.897    20424637.492
        52.300          47.400
 135071459.170 6 105250607.04445  25703209.153    25703208.4744   25703216.3234
        40.900          31.7004
 130190238.042 6 101446910.76543  24774401.295    24774400.9024   24774409.1484
        38.900          22.0004
 118189372.537 7  92095610.36047  22490694.038    22490693.5964   22490694.7654
        46.500          43.6004
 149760835.814 6                  28498539.037
        39.100
 25  1  1 16 22 15.0000000  0 30G09G26E19G08S31S35G07G03R06S48S33E27
                                E29E04E31G16G27E21G04E06R07R17R08R10
                                R05R16G29G28G31E09
 115672374.477 7  90134329.94647  22011719.036    22011718.4194   22011721.3364
        45.100          44.0004
 111457329.298 8  86849895.75048  21209620.003    21209619.3514   21209623.8024
        48.300          48.0004
 122966451.900 7                  23399739.493
        44.000
 130554432.757 6 101730804.93244  24843678.123    24843677.2874   24843696.9654
        37.400          27.9004
 198981052.653 7                  37864838.823
        45.900
 200924221.140 7                  38234612.299
        44.200
 130193742.165 7 101449705.12045  24775034.987    24775034.3614   24775037.5014
        42.100          32.6004
 115866709.384 7  90285751.74547  22048706.311    22048706.0754   22048711.1944
        45.800          43.6004
 103612589.565 7                  19416957.453    19416957.018
        42.200
 412780538.196 5                  78549287.970
        34.100
 202113221.184 7                  38460852.263
        45.500
 149159660.908 6                  28384147.684
        37.800
 142286700.344 6                  27076292.979
        38.200
 127320912.560 7                  24228364.415
        47.500
 143779434.825 6                  27360294.855
        39.200
 104626475.667 8  81527194.02046  19909732.449    19909731.4664   19909732.3914
        48.000          41.0004
 122394221.290 7  95372251.83746  23290808.273    23290807.5004   23290820.7614
        42.400          37.5004
 127418858.637 8                  24246993.725
        48.000
 107181015.627 8  83517679.74646  20395868.333    20395867.9584   20395869.7084
        48.200          39.3004
 137053479.718 7                  26080409.932
        43.100
 107321806.029 8  83472539.985 8  20048609.729    20048610.054    20048616.180
        52.800          48.100
 129661085.649 7 100847564.649 6  24230270.821    24230270.911    24230280.558
        45.000          41.000
 129040727.136 6 100365027.198 6  24097445.279    24097444.996    24097452.482
        41.900          38.500
 120111734.945 7                  22532621.602    22532620.021
        42.100
 127218948.692 7  98948012.490 6  23798981.821    23798981.508    23799002.920
        44.000          40.400
 109144415.965 8  84890145.321 7  20432059.021    20432059.156    20432064.830
        52.400          47.200
 135100506.250 6 105273239.87944  25708737.959    25708737.2844   25708745.1664
        38.700          28.9004
 130231299.825 6 101478906.59943  24782215.726    24782215.3464   24782223.4294
        39.500          22.2004
 118227184.332 7  92125074.04847  22497889.444    22497889.0024   22497890.1734
        47.200          43.7004
 149720916.686 6                  28490942.960
        38.700
 25  1  1 16 22 30.0000000  0 30G09G26E19G08S31S35G07G03R06S48S33E27
                                E29E04E31G16G27E21G04E06R07R17R08R10
                                R05R16G29G28G31E09
 115629543.310 7  90100955.00547  22003568.606    22003567.9944   22003570.7934
        45.400          44.1004
 111493092.162 8  86877762.94848  21216425.242    21216424.5904   21216429.2234
        48.300          48.1004
 122982813.719 7                  23402853.010
        44.100
 130500496.115 6 101688776.36244  24833414.130    24833413.2944   24833433.2324
        37.800          28.2004
 198981050.124 7                  37864835.098
        46.100
 200924184.424 7                  38234606.862
        44.100
 130158974.179 7 101422613.25645  24768419.277    24768418.6384   24768421.3294
        42.000          32.7004
 115908631.091 7  90318417.92147  22056683.743    22056683.5114   22056688.7214
        46.100          43.8004
 103636127.022 7                  19421368.244    19421367.938
        42.400
 412779510.084 5                  78549325.348
        33.500
 202113243.848 7                  38460858.058
        45.700
 149202261.698 6                  28392252.730
        38.200
 142324093.188 6                  27083409.180
        39.000
 127296279.573 7                  24223677.015
        47.900
 143735340.176 6                  27351903.459
        38.400
 104627485.749 8  81527981.10646  19909924.771    19909923.7924   19909924.5724
        48.000          41.1004
 122344253.678 6  95333316.21646  23281299.923    23281299.1414   23281311.9324
        41.300          37.5004
 127438709.087 7                  24250771.193
        47.900
 107158540.880 8  83500166.93946  20391591.590    20391591.2154   20391592.8834
        48.300          39.4004
 137017516.532 7                  26073566.252
        43.400
 107285222.257 8  83444085.971 7  20041775.477    20041775.720    20041781.953
        52.500          47.900
 129640404.718 7 100831479.322 6  24226405.865    24226406.356    24226417.438
        44.800          41.100
 128977168.222 7 100315592.505 6  24085576.398    24085576.769    24085582.873
        43.700          38.400
 120063497.514 6                  22523571.850    22523570.973
        41.900
 127283778.444 7  98998435.659 6  23811108.416    23811108.003    23811132.366
        43.000          41.000
 109184160.390 8  84921057.631 7  20439498.657    20439498.872    20439505.427
        51.900          47.300
 135129661.232 6 105295956.84644  25714286.480    25714285.7834   25714294.6424
        38.800          26.1004
 130272364.792 6 101510904.90343  24790030.039    24790029.6504   24790038.3274
        39.200          22.5004
 118265019.907 7  92154556.27847  22505089.255    22505088.8084   22505090.1214
        47.000          43.8004
 149680986.340 6                  28483344.168
        38.800
 25  1  1 16 22 45.0000000  0 30G09G26E19G08S31S35G07G03R06S48S33E27
                                E29E04E31G16G27E21G04E06R07R17R08R10
                                R05R16G29G28G31E09
 115586765.087 7  90067621.32547  21995427.902    21995427.2904   21995430.3614
        45.300          44.2004
 111528943.880 8  86905699.37948  21223247.813    21223247.1564   21223251.5464
        48.500          48.1004
 122999241.133 7                  23405979.268
        44.000
 130446525.380 6 101646721.20444  24823143.347    24823142.5254   24823163.0554
        36.500          26.9004
 198981043.214 7                  37864832.840
        45.500
 200924143.439 7                  38234601.098
        44.100
 130124210.693 7 101395524.88745  24761803.940    24761803.2834   24761806.2794
        42.400          33.1004
 115950636.725 7  90351149.48747  22064677.324    22064677.0964   22064682.1494
        45.700          43.6004
 103659842.048 6                  19425811.069    19425812.078
        41.800
 412780078.003 5                  78549348.341
        33.100
 202113261.264 7                  38460858.993
        45.300
 149244866.550 6                  28400360.257
        38.000
 142361516.736 6                  27090530.562
        38.400
 127271687.434 8                  24218997.248
        48.000
 143691266.904 6                  27343516.496
        38.900
 104628651.058 8  81528889.14246  19910146.258    19910145.2794   19910146.3154
        48.000          41.1004
 122294321.898 7  95294408.51046  23271798.649    23271797.8894   23271809.9094
        42.000          37.5004
 127458633.488 8                  24254562.712
        48.100
 107136159.836 8  83482727.15246  20387332.771    20387332.3964   20387333.9714
        48.500          39.5004
 136981565.026 7                  26066725.057
        43.200
 107248776.262 8  83415739.085 7  20034967.183    20034967.353    20034973.756
        52.700          47.900
 129619871.360 7 100815508.804 6  24222568.089    24222568.233    24222578.698
        44.500          41.200
 128913614.400 7 100266161.610 6  24073707.504    24073708.148    24073714.400
        42.600          37.300
 120015332.455 7                  22514536.126    22514535.461
        42.700
 127348638.718 7  99048882.541 6  23823242.566    23823243.078    23823265.501
        44.900          40.800
 109223969.366 8  84952020.146 7  20446951.057    20446951.591    20446957.829
        52.400          47.100
 135158921.477 6 105318755.84844  25719855.755    25719855.0584   25719864.6124
        39.700          29.6004
 130313430.366 6 101542903.67343  24797844.924    24797844.5494   24797853.1634
        40.000          22.5004
 118302876.499 7  92184054.88747  22512293.202    22512292.7514   22512294.0124
        47.300          43.9004
 149641042.240 6                  28475743.196
        39.800
 25  1  1 16 23  0.0000000  0 30G09G26E19G08S31S35G07G03R06S48S33E27
                                E29E04E31G16G27E21G04E06R07R17R08R10
                                R05R16G29G28G31E09
 115544051.864 7  90034338.30547  21987300.146    21987299.5384   21987302.3914
        45.900          44.3004
 111564895.855 8  86933713.89848  21230089.097    21230088.4314   21230092.9544
        48.600          48.1004
 123015745.795 7                  23409119.778
        44.100
 130392532.638 6 101604648.92444  24812869.671    24812868.8224   24812888.9124
        36.600          26.6004
 198981043.667 7                  37864835.693
        45.900
 200924109.978 7                  38234596.407
        44.100
 130089463.448 6 101368449.14345  24755191.057    24755190.4004   24755193.6884
        41.400          32.4004
 115992737.687 7  90383955.35147  22072688.680    22072688.4574   22072693.8214
        46.300          43.6004
 103683746.204 7                  19430292.395    19430291.794
        42.100
 412780653.889 5                  78549383.430
        33.400
 202113287.254 7                  38460863.965
        45.700
 149287488.928 6                  28408470.904
        38.100
 142398982.575 6                  27097660.372
        38.600
 127247148.067 7                  24214327.513
        47.600
 143647226.943 6                  27335135.732
        38.500
 104629982.883 7  81529926.93646  19910399.908    19910398.9434   19910399.7714
        47.900          41.0004
 122244438.100 7  95255538.19346  23262305.698    23262304.9384   23262317.1594
        42.800          37.8004
 127478643.393 7                  24258370.376
        47.900
 107113884.495 8  83465369.73746  20383093.747    20383093.3724   20383095.1684
        48.400          39.5004
 136945637.034 7                  26059888.172
        43.100
 107212480.450 8  83387509.004 8  20028187.018    20028186.978    20028193.206
        52.500          48.100
 129599497.310 7 100799661.998 6  24218761.794    24218761.970    24218772.252
        44.100          40.100
 128850078.714 6 100216744.904 6  24061842.040    24061843.475    24061848.909
        41.800          37.900
 119967252.245 7                  22505515.993    22505515.778
        42.300
 127413540.572 7  99099361.789 6  23835383.620    23835382.626    23835406.636
        43.100          40.700
 109263854.763 8  84983042.059 7  20454417.673    20454418.101    20454424.361
        52.200          47.000
 135188299.104 6 105341646.49344  25725446.331    25725445.6294   25725456.1754
        41.000          28.4004
 130354508.215 6 101574912.03043  24805661.657    24805661.2824   24805670.1584
        40.600          22.6004
 118340765.670 7  92213578.87547  22519503.407    22519502.9514   22519504.1284
        46.800          43.7004
 149601096.297 6                  28468141.547
        39.000
 25  1  1 16 23 15.0000000  0 30G09G26E19G08S31S35G07G03R06S48S33E27
                                E29E04E31G16G27E21G04E06R07R17R08R10
                                R05R16G29G28G31E09
 115501390.548 7  90001095.71747  21979181.647    21979181.0304   21979184.1744
        45.900          44.4004
 111600934.452 8  86961795.92048  21236946.941    21236946.2714   21236950.8714
        48.100          48.2004
 123032314.534 7                  23412273.082
        44.100
 130338504.970 6 101562549.42544  24802588.417    24802587.5544   24802607.9864
        37.400          27.8004
 198981038.594 7                  37864833.470
        45.600
 200924070.766 7                  38234593.554
        44.200
 130054719.111 7 101341375.68345  24748579.651    24748579.0174   24748581.5004
        42.500          32.7004
 116034920.198 7  90416824.74747  22080715.889    22080715.6664   22080721.0104
        45.400          43.6004
 103707826.041 7                  19434804.861    19434804.323
        42.200
 412781224.514 5                  78549410.072
        33.600
 202113307.556 7                  38460865.803
        45.700
 149330115.189 6                  28416581.548
        38.600
 142436477.337 6                  27104795.576
        38.400
 127222648.290 7                  24209665.192
        47.700
 143603207.051 6                  27326759.324
        38.900
 104631467.791 8  81531084.00946  19910682.457    19910681.5014   19910682.3244
        48.200          41.2004
 122194589.369 7  95216695.19446  23252819.676    23252818.9304   23252831.1404
        42.600          37.8004
 127498725.331 7                  24262191.819
        47.800
 107091701.731 8  83448084.46246  20378872.601    20378872.2304   20378873.9204
        48.400          39.6004
 136909719.413 7                  26053053.312
        43.400
 107176321.735 8  83359385.553 7  20021431.995    20021432.100    20021438.525
        52.600          47.900
 129579269.710 7 100783929.039 6  24214981.784    24214982.546    24214992.617
        44.000          40.200
 128786547.639 7 100167331.917 6  24049979.151    24049979.648    24049985.855
        42.800          38.200
 119919243.441 7                  22496509.156    22496509.545
        42.700
 127478470.271 7  99149862.693 6  23847530.753    23847530.303    23847552.793
        43.700          40.900
 109303802.587 8  85014112.597 7  20461895.939    20461896.389    20461902.725
        52.100          47.000
 135217780.752 6 105364618.84544  25731056.930    25731056.2784   25731067.0464
        40.600          29.7004
 130395584.988 6 101606919.51543  24813478.737    24813478.3534   24813487.3684
        38.600          22.5004
 118378674.140 7  92243117.89147  22526717.037    22526716.5814   22526717.9594
        46.700          43.8004
 149561135.328 6                  28460537.220
        38.700
 25  1  1 16 23 30.0000000  0 30G09G26E19G08S31S35G07G03R06S48S33E27
                                E29E04E31G16G27E21G04E06R07R17R08R10
                                R05R16G29G28G31E09
 115458790.663 7  89967900.99647  21971075.431    21971074.8144   21971077.5874
        45.600          44.4004
 111637068.555 8  86989952.35648  21243823.419    21243822.7584   21243826.9844
        48.300          48.1004
 123048956.412 7                  23415439.850
        44.100
 130284451.805 6 101520430.05444  24792301.692    24792300.8164   24792321.5504
        38.000          27.7004
 198981036.982 7                  37864830.836
        45.600
 200924034.915 7                  38234578.900
        43.700
 130019986.858 7 101314311.65245  24741970.307    24741969.6814   24741972.7994
        42.600          33.1004
 116077193.100 7  90449764.58247  22088760.167    22088759.9444   22088765.4094
        45.900          43.5004
 103732090.685 6                  19439351.271    19439351.449
        41.700
 412780199.006 5                  78549448.591
        32.900
 202113330.111 7                  38460877.027
        45.700
 149372752.590 6                  28424695.537
        37.900
 142474010.162 6                  27111938.420
        38.100
 127198197.427 7                  24205012.590
        47.400
 143559216.589 6                  27318387.935
        38.500
 104633114.895 8  81532367.47046  19910995.873    19910994.9264   19910995.7184
        48.100          41.1004
 122144785.349 7  95177887.03546  23243341.955    23243341.1914   23243353.6834
        42.000          37.7004
 127518888.333 7                  24266028.750
        47.700
 107069621.046 8  83430878.73646  20374670.730    20374670.3594   20374672.0844
        48.400          39.6004
 136873821.529 7                  26046222.168
        42.900
 107140309.879 8  83331376.302 8  20014704.636    20014705.032    20014711.457
        53.100          48.100
 129559198.296 7 100768317.712 6  24211231.186    24211230.998    24211241.718
        44.400          40.200
 128723031.089 7 100117930.141 6  24038118.095    24038118.459    24038124.179
        42.600          38.200
 119871315.370 7                  22487518.567    22487518.203
        42.400
 127543436.727 7  99200392.165 6  23859682.445    23859683.162    23859705.464
        43.800          40.300
 109343821.792 8  85045238.569 7  20469387.910    20469388.266    20469394.311
        52.300          47.000
 135247376.232 6 105387680.92544  25736688.180    25736687.5284   25736698.5894
        39.200          28.6004
 130436669.848 6 101638933.29143  24821297.782    24821297.4164   24821305.8624
        39.300          22.6004
 118416611.114 7  92272679.12747  22533936.309    22533935.8494   22533937.2374
        47.400          43.9004
 149521168.465 6                  28452932.167
        38.400
 25  1  1 16 23 45.0000000  0 30G09G26E19G08S31S35G07G03R06S48S33E27
                                E29E04E31G16G27E21G04E06R07R17R08R10
                                R05R16G29G28G31E09
 115416248.524 7  89934751.28247  21962979.889    21962979.2774   21962982.1754
        45.700          44.6004
 111673293.914 8  87018179.91648  21250716.710    21250716.0494   21250720.4734
        48.500          48.2004
 123065667.585 7                  23418619.780
        44.100
 130230369.510 6 101478287.97844  24782010.590    24782009.6924   24782030.0124
        36.900          27.9004
 198981034.529 7                  37864831.351
        45.600
 200923998.863 7                  38234578.064
        44.300
 129985262.702 6 101287253.90245  24735362.167    24735361.5414   24735365.1324
        41.400          33.0004
 116119552.026 7  90482771.45547  22096820.763    22096820.5404   22096826.1804
        45.600          43.6004
 103756535.981 6                  19443932.739    19443932.372
        41.800
 412780772.314 5                  78549479.494
        33.300
 202113353.287 7                  38460881.530
        45.400
 149415398.434 6                  28432810.717
        38.000
 142511577.001 6                  27119086.984
        38.600
 127173791.730 7                  24200368.192
        47.700
 143515251.713 6                  27310021.699
        39.400
 104634920.181 8  81533774.18946  19911339.412    19911338.4654   19911339.2514
        48.200          41.2004
 122095022.497 7  95139110.95646  23233872.849    23233872.0854   23233883.9724
        42.100          37.9004
 127539128.217 8                  24269880.161
        48.000
 107047638.661 8  83413749.59346  20370487.585    20370487.2054   20370488.9624
        48.300          39.7004
 136837939.511 7                  26039393.704
        43.200
 107104441.513 8  83303478.688 7  20008004.179    20008004.381    20008010.542
        52.800          47.900
 129539279.603 7 100752825.229 6  24207508.511    24207509.078    24207519.910
        44.100          40.300
 128659525.061 7 100068536.591 6  24026257.986    24026258.952    24026265.306
        42.100          38.200
 119823464.368 7                  22478540.884    22478541.242
        42.000
 127608435.832 7  99250947.075 6  23871843.022    23871842.984    23871865.389
        43.200          40.000
 109383907.964 8  85076416.710 7  20476891.830    20476892.301    20476898.879
        52.100          47.000
 135277079.235 6 105410826.55444  25742340.256    25742339.6044   25742350.0324
        39.300          28.4004
 130477758.814 6 101670950.27243  24829116.951    24829116.5944   24829125.1514
        39.200          22.5004
 118454572.434 7  92302259.34347  22541160.036    22541159.5764   22541161.0724
        46.800          44.2004
 149481192.094 6                  28445324.967
        38.900
 25  1  1 16 24  0.0000000  0 30G09G26E19G08S31S35G07G03R06S48S33E27
                                E29E04E31G16G27E21G04E06R07R17R08R10
                                R05R16G29G28G31E09
 115373764.994 7  89901647.24147  21954895.287    21954894.6664   21954897.8934
        45.400          44.5004
 111709610.741 7  87046478.74948  21257627.342    21257626.6854   21257631.3434
        47.800          48.1004
 123082448.532 7                  23421813.261
        43.800
 130176258.937 5 101436123.85044  24771713.818    24771712.9244   24771732.9394
        35.700          27.0004
 198981032.740 7                  37864829.723
        46.000
 200923962.371 7                  38234569.510
        44.500
 129950547.362 6 101260203.04745  24728755.793    24728755.1724   24728758.4264
        41.800          32.4004
 116161997.140 7  90515845.47947  22104897.852    22104897.6294   22104903.3394
        45.300          43.5004
 103781162.367 7                  19448548.040    19448547.592
        42.500
 412781346.642 5                  78549509.494
        33.100
 202113375.817 7                  38460888.367
        45.600
 149458055.642 6                  28440927.207
        36.700
 142549178.319 6                  27126242.613
        38.300
 127149431.887 7                  24195732.761
        47.800
 143471313.110 6                  27301660.124
        39.300
 104636884.240 8  81535304.63246  19911713.029    19911712.0824   19911713.0294
        48.000          41.2004
 122045301.821 6  95100367.74146  23224410.380    23224409.6164   23224422.3134
        41.600          38.1004
 127559445.323 7                  24273746.517
        47.800
 107025755.428 8  83396697.72546  20366323.319    20366322.9394   20366324.7594
        48.100          39.8004
 136802074.032 7                  26032568.757
        43.100
 107068717.305 8  83275693.185 7  20001330.402    20001330.771    20001337.102
        52.800          47.800
 129519513.957 7 100737451.658 6  24203814.579    24203814.780    24203826.614
        44.000          41.300
 128596030.998 6 100019152.328 6  24014401.253    24014400.960    24014407.860
        41.700          37.600
 119775691.172 7                  22469579.543    22469579.230
        43.000
 127673467.315 7  99301527.123 6  23884008.587    23884008.369    23884030.277
        43.600          40.300
 109424061.371 8  85107647.146 7  20484408.816    20484408.786    20484415.386
        50.900          47.100
 135306891.023 6 105434057.42944  25748012.440    25748011.7704   25748022.0884
        39.500          29.7004
 130518852.395 6 101702970.84843  24836937.385    24836937.0284   24836945.5764
        39.300          22.5004
 118492558.509 7  92331858.83547  22548388.761    22548388.3284   22548389.6244
        46.000          44.0004
 149441206.767 6                  28437715.813
        39.400
 25  1  1 16 24 15.0000000  0 30G09G26E19G08S31S35G07G03R06S48S33E27
                                E29E04E31G16G27E21G04E06R07R17R08R10
                                R05R16G29G28G31E09
 115331340.478 7  89868589.17147  21946822.391    21946821.7744   21946824.7584
        45.800          44.6004
 111746018.865 8  87074848.70848  21264555.689    21264555.0374   21264559.5994
        48.200          48.0004
 123099299.512 7                  23425019.926
        44.000
 130122120.569 6 101393938.03944  24761412.034    24761411.1454   24761430.6294
        36.500          26.9004
 198981030.753 7                  37864828.502
        45.400
 200923926.837 7                  38234560.857
        44.000
 129915840.853 6 101233159.06245  24722151.892    24722151.2804   24722153.7184
        41.700          32.5004
 116204528.211 7  90548986.47747  22112991.446    22112991.2274   22112996.8014
        46.100          43.5004
 103805969.777 6                  19453196.481    19453196.335
        41.800
 412781921.321 5                  78549544.516
        33.400
 202113398.720 7                  38460890.348
        45.600
 149500720.315 6                  28449045.428
        38.000
 142586814.244 6                  27133404.884
        38.700
 127125118.272 7                  24191105.961
        47.900
 143427401.161 6                  27293303.953
        38.400
 104639007.169 8  81536958.87046  19912116.748    19912115.7964   19912117.0094
        48.000          41.1004
 121995623.882 7  95061657.82446  23214957.535    23214956.7984   23214968.6914
        42.300          38.0004
 127579839.655 7                  24277627.416
        47.800
 107003971.748 8  83379723.42046  20362178.171    20362177.7914   20362179.4394
        48.200          39.6004
 136766225.472 7                  26025747.588
        43.600
 107033138.184 8  83248020.533 8  19994683.973    19994684.258    19994690.706
        52.300          48.100
 129499901.703 7 100722197.303 6  24200150.262    24200150.219    24200161.475
        43.500          40.500
 128532549.082 6  99969777.454 6  24002546.738    24002547.059    24002553.056
        41.900          37.100
 119727996.075 7                  22460632.112    22460631.661
        42.900
 127738531.502 7  99352132.644 6  23896180.018    23896180.327    23896202.012
        43.800          39.700
 109464281.698 8  85138929.593 7  20491938.275    20491938.404    20491944.404
        51.600          46.900
 135336810.548 6 105457371.85744  25753705.673    25753705.0214   25753714.6204
        38.800          28.8004
 130559950.769 6 101734995.11543  24844757.651    24844757.2714   24844766.6724
        39.000          22.3004
 118530569.516 7  92361477.75447  22555622.122    22555621.6894   22555622.9574
        46.600          43.9004
 149401212.747 6                  28430104.888
        39.000
 25  1  1 16 24 30.0000000  0 30G09G26E19G08S31S35G07G03R06S48S33E27
                                E29E04E31G16G27E21G04E06R07R17R08R10
                                R05R16G29G28G31E09
 115288973.912 7  89835576.27347  21938760.115    21938759.4984   21938762.6384
        45.500          44.7004
 111782516.509 7  87103288.42548  21271501.007    21271500.3594   21271504.8704
        47.900          48.1004
 123116219.069 7                  23428239.640
        44.200
 130067953.363 6 101351729.74344  24751104.086    24751103.1794   24751123.0564
        36.800          27.4004
 198981027.257 7                  37864829.535
        45.500
 200923889.065 7                  38234553.139
        43.900
 129881141.639 6 101206120.77545  24715549.008    24715548.4004   24715550.9074
        40.700          33.0004
 116247143.422 7  90582193.04547  22121100.601    22121100.3654   22121106.2504
        45.800          43.4004
 103830956.500 6                  19457879.297    19457878.969
        41.500
 412780895.041 5                  78549583.996
        33.000
 202113420.878 7                  38460890.307
        45.700
 149543390.394 6                  28457165.364
        39.100
 142624483.226 6                  27140573.018
        38.500
 127100849.527 7                  24186487.668
        47.600
 143383514.532 6                  27284952.605
        38.300
 104641287.271 7  81538735.58946  19912551.006    19912550.0544   19912550.8324
        47.800          41.1004
 121945987.677 7  95022980.42846  23205511.608    23205510.8664   23205523.1304
        42.200          38.2004
 127600309.638 7                  24281522.670
        47.900
 106982286.414 7  83362825.75946  20358051.662    20358051.2874   20358052.8704
        47.900          39.6004
 136730392.541 7                  26018928.210
        43.400
 106997703.152 8  83220459.933 8  19988064.353    19988064.705    19988071.081
        52.900          48.000
 129480443.309 7 100707063.081 6  24196513.846    24196513.824    24196524.924
        43.400          40.500
 128469078.243 7  99920411.211 6  23990694.590    23990694.943    23990700.140
        43.300          37.600
 119680377.633 7                  22451697.731    22451698.521
        42.900
 127803626.208 7  99402761.876 6  23908357.434    23908357.315    23908379.885
        42.900          40.800
 109504567.015 8  85170262.590 7  20499479.750    20499479.804    20499486.672
        51.800          47.100
 135366836.782 6 105480769.54444  25759418.729    25759418.0774   25759427.6414
        38.900          28.1004
 130601052.417 6 101767021.95743  24852580.206    24852579.8224   24852588.4794
        38.300          22.2004
 118568603.979 7  92391114.96247  22562859.536    22562859.0984   22562860.7034
        46.500          43.8004
 149361208.582 6                  28422492.459
        38.500
 25  1  1 16 24 45.0000000  0 30G09G26E19G08S31S35G07G03R06S48S33E27
                                E29E04E31G16G27E21G04E06R07R17R08R10
                                R05R16G29G28G31E09
 115246667.005 7  89802609.87847  21930709.671    21930709.0504   21930711.9514
        45.400          44.8004
 111819104.808 8  87131798.77948  21278463.509    21278462.8614   21278467.3784
        48.000          48.2004
 123133208.769 7                  23431472.706
        44.500
 130013759.017 6 101309500.27544  24740792.016    24740791.1134   24740810.2874
        37.100          27.9004
 198981024.729 7                  37864828.122
        45.600
 200923852.480 7                  38234543.892
        44.200
 129846451.193 7 101179089.32845  24708947.539    24708946.9404   24708949.6884
        42.000          33.2004
 116289843.798 7  90615465.97747  22129226.550    22129226.3144   22129231.9304
        45.700          43.5004
 103856123.972 6                  19462595.626    19462595.391
        41.900
 412781468.532 5                  78549619.903
        33.500
 202113442.729 7                  38460892.445
        45.500
 149586066.745 6                  28465287.810
        38.500
 142662186.679 6                  27147748.075
        39.100
 127076627.231 8                  24181878.462
        48.100
 143339654.847 6                  27276606.345
        39.300
 104643725.765 8  81540635.72346  19913014.772    19913013.8204   19913014.8624
        48.000          41.2004
 121896395.036 6  94984336.97146  23196074.188    23196073.4424   23196085.7084
        41.700          38.2004
 127620856.487 8                  24285432.714
        48.300
 106960701.106 8  83346006.02846  20353944.099    20353943.7194   20353945.3314
        48.100          39.8004
 136694576.719 7                  26012112.972
        43.400
 106962413.797 8  83193012.650 7  19981472.494    19981472.398    19981478.756
        52.400          47.900
 129461137.967 7 100692047.224 6  24192907.272    24192907.688    24192918.229
        44.200          39.800
 128405620.615 6  99871055.292 6  23978844.152    23978842.823    23978850.179
        41.200          38.300
 119632837.535 7                  22442779.989    22442779.664
        42.500
 127868752.724 7  99453415.860 6  23920540.764    23920540.769    23920562.700
        44.400          39.400
 109544918.712 8  85201647.229 7  20507033.528    20507034.074    20507040.124
        52.000          47.200
 135396970.224 6 105504250.57744  25765152.540    25765151.8884   25765161.2544
        36.400          26.5004
 130642158.823 6 101799052.47743  24860402.001    24860401.6354   24860411.5694
        39.200          22.6004
 118606663.182 7  92420771.45547  22570101.995    22570101.5624   22570103.1134
        46.900          44.0004
 149321196.023 6                  28414878.228
        38.400
 25  1  1 16 25  0.0000000  0 30G09G26E19G08S31S35G07G03R06S48S33E27
                                E29E04E31G16G27E21G04E06R07R17R08R10
                                R05R16G29G28G31E09
 115204418.001 7  89769688.58347  21922669.863    21922669.2464   21922672.2064
        45.700          44.8004
 111855781.503 8  87160378.01648  21285442.807    21285442.1594   21285446.7414
        48.200          48.1004
 123150266.633 7                  23434718.649
        44.300
 129959535.972 6 101267248.47344  24730472.567    24730471.7004   24730492.5194
        37.200          28.2004
 198981019.800 7                  37864831.275
        45.800
 200923813.522 7                  38234536.228
        43.900
 129811767.529 7 101152063.14245  24702347.157    24702346.5674   24702349.7744
        42.200          32.9004
 116332626.985 7  90648803.43547  22137368.018    22137367.7684   22137373.3554
        45.800          43.5004
 103881470.166 7                  19467345.584    19467345.180
        42.000
 412782041.180 5                  78549656.248
        33.800
 202113462.643 7                  38460900.462
        45.700
 149628749.956 6                  28473410.593
        37.700
 142699922.541 6                  27154929.214
        38.700
 127052449.649 7                  24177277.492
        47.800
 143295820.252 6                  27268264.925
        39.100
 104646320.725 7  81542657.77546  19913508.731    19913507.7924   19913508.6504
        47.900          41.1004
 121846844.468 7  94945726.28946  23186645.081    23186644.3444   23186656.2284
        42.600          38.2004
 127641478.146 8                  24289356.971
        48.000
 106939214.135 8  83329262.93546  20349855.113    20349854.7334   20349856.5334
        48.100          39.8004
 136658776.261 7                  26005300.283
        43.600
 106927268.876 8  83165677.700 7  19974906.711    19974906.911    19974913.466
        52.800          47.900
 129441986.517 7 100677151.650 6  24189328.400    24189328.011    24189339.872
        43.400          41.000
 128342174.322 7  99821708.075 6  23966996.454    23966995.961    23967002.678
        42.500          38.500
 119585373.643 7                  22433875.518    22433875.354
        42.400
 127933908.504 7  99504092.632 6  23932728.805    23932728.946    23932751.257
        43.300          40.000
 109585334.253 8  85233081.511 7  20514599.164    20514599.321    20514606.163
        51.400          47.000
 135427209.183 6 105527813.85344  25770906.996    25770906.3484   25770914.8464
        37.400          27.2004
 130683267.921 6 101831085.08543  24868225.173    24868224.8024   24868235.0084
        40.000          22.9004
 118644745.077 7  92450445.61947  22577348.868    22577348.4394   22577349.9544
        46.300          44.0004
 149281173.124 6                  28407262.397
        38.400
 25  1  1 16 25 15.0000000  0 30G09G26E19G08S31S35G07G03R06S48S33E27
                                E29E04E31G16G27E21G04E06R07R17R08R10
                                R05R16G29G28G31E09
 115162230.469 7  89736815.20247  21914642.073    21914641.4524   21914644.1364
        45.800          44.8004
 111892549.427 8  87189028.32948  21292439.664    21292439.0164   21292443.4484
        48.000          48.0004
 123167395.723 7                  23437978.464
        44.100
 129905287.659 6 101224976.95044  24720149.258    24720148.4094   24720169.9034
        37.200          28.0004
 198981016.470 7                  37864828.095
        45.700
 200923775.821 7                  38234533.111
        43.800
 129777093.817 7 101125044.74245  24695748.617    24695748.0144   24695751.3234
        42.700          32.9004
 116375495.741 7  90682207.55747  22145525.835    22145525.5814   22145531.1334
        45.500          43.3004
 103906997.827 7                  19472129.557    19472129.092
        42.000
 412782615.873 5                  78549677.243
        33.200
 202113483.419 7                  38460902.828
        45.600
 149671443.184 6                  28481535.368
        38.000
 142737693.865 6                  27162117.182
        38.600
 127028320.077 7                  24172685.863
        47.900
 143252014.059 6                  27259928.068
        39.200
 104649075.434 8  81544804.29846  19914032.924    19914031.9854   19914032.8314
        48.100          41.0004
 121797339.541 7  94907151.18446  23177224.202    23177223.4474   23177235.7624
        42.600          38.3004
 127662177.537 7                  24293295.741
        47.900
 106917828.863 8  83312599.07846  20345785.649    20345785.2604   20345787.0574
        48.300          39.7004
 136622994.425 7                  25998491.233
        43.700
 106892272.037 8  83138457.897 8  19968369.030    19968369.480    19968375.753
        52.800          48.000
 129422991.444 7 100662377.828 6  24185778.591    24185778.352    24185789.537
        44.600          41.300
 128278743.313 7  99772372.824 6  23955150.113    23955150.901    23955155.565
        42.900          37.200
 119537989.651 7                  22424987.418    22424986.609
        42.400
 127999096.372 7  99554794.349 6  23944922.898    23944924.103    23944945.787
        43.200          39.600
 109625816.221 8  85264567.361 7  20522177.882    20522177.733    20522184.320
        51.400          47.000
 135457555.837 6 105551460.75345  25776681.502    25776680.8594   25776689.4464
        40.300          30.9004
 130724382.937 6 101863122.32043  24876049.906    24876049.5264   24876059.2574
        39.000          22.0004
 118682852.418 7  92480139.61147  22584600.503    22584600.0834   22584601.6384
        46.400          43.7004
 149241143.101 6                  28399644.689
        38.700
