     2.11           OBSERVATION DATA    M (MIXED)           RINEX VERSION / TYPE
teqc  2019Feb25                         20260317 16:20:08UTCPGM / RUN BY / DATE
Linux 2.4.21-27.ELsmp|Opteron|gcc -static|Linux 64|=+       COMMENT
BIT 2 OF LLI FLAGS DATA COLLECTED UNDER A/S CONDITION       COMMENT
-Unknown-                                                   MARKER NAME
-Unknown-           -Unknown-                               OBSERVER / AGENCY
-Unknown-           -Unknown-           -Unknown-           REC # / TYPE / VERS
-Unknown-           -Unknown-                               ANT # / TYPE
        0.0000        0.0000        0.0000                  APPROX POSITION XYZ
        0.0000        0.0000        0.0000                  ANTENNA: DELTA H/E/N
     1     1                                                WAVELENGTH FACT L1/2
     7    L1    L2    C1    P1    P2    S1    S2            # / TYPES OF OBSERV
 SNR is mapped to RINEX snr flag value [0-9]                COMMENT
  L1 & L2: min(max(int(snr_dBHz/6), 0), 9)                  COMMENT
  2025     1     1     2     0    0.0000000     GPS         TIME OF FIRST OBS
    18                                                      LEAP SECONDS
                                                            END OF HEADER
 25  1  1  2  0  0.0000000  0 33E34G25R21R11S31S35R06G03E13G24S33G12
                                G20E15R22G05G11E02G06E36R07R23E27R13
                                G09R24G17R12E30R14R08G14G19
 125233044.892 8                  23831004.290
        48.600
 125550702.926 6  97831787.59745  23891489.727    23891488.7754   23891494.6204
        38.600          30.2004
 127705409.056 7  99326584.258 6  23864760.327    23864760.622    23864768.189
        43.200          40.800
 129339440.701 6 100597484.629 6  24204071.961    24204072.484    24204081.840
        40.500          40.000
 198982839.892 7                  37865173.260
        45.500
 200925035.396 7                  38234769.673
        44.000
 121200450.377 6                  22712902.884    22712903.642
        36.600
 133495213.455 5 104022351.10244  25403261.587    25403261.2794   25403264.9104
        35.400          26.5004
 146829118.462 6                  27940645.734
        37.900
 129018478.031 6 100534021.11045  24551349.809    24551349.3854   24551355.8724
        37.400          33.1004
 202134230.056 7                  38464840.476
        45.000
 111680523.781 8  87023914.84848  21252049.467    21252048.8594   21252048.9614
        49.600          48.3004
 116404821.362 7  90705102.85345  22151080.708    22151079.4484   22151081.2584
        44.300          32.4004
 125751785.420 8                  23929732.817
        48.100
 107693693.474 8  83761902.164 8  20174612.216    20174612.835    20174617.470
        52.300          48.700
 133061158.664 5 103684050.77444  25320691.136    25320690.6584   25320694.8294
        35.100          25.9004
 109157497.540 8  85057891.61046  20771944.929    20771944.5274   20771945.6214
        48.400          40.7004
 139811010.876 6                  26605115.538
        39.900
 108347395.463 8  84426690.03248  20617781.106    20617780.7354   20617783.8794
        49.500          51.5004
 145818638.693 6                  27748320.664
        38.300
 121677407.928 7  94638041.808 7  22730351.203    22730351.075    22730358.975
        47.000          43.100
 108748345.776 8                  20329324.670    20329324.876
        50.300
 130030886.638 7                  24744001.641
        47.100
 107642373.997 7                  20157912.387    20157911.874
        47.800
 133561529.327 5 104073947.08443  25415913.659    25415913.1634   25415918.9264
        34.300          23.2004
 130613230.938 7 101588120.369 6  24425333.772    24425333.889    24425344.391
        44.600          37.000
 122344977.693 7  95333886.56646  23281424.228    23281423.6204   23281425.8664
        43.200          38.4004
 107501011.626 8  83612084.064 8  20124356.350    20124356.948    20124363.704
        51.100          48.100
 124919597.848 8                  23771358.132
        48.400
 129128623.043 7 100433412.386 6  24224200.629    24224199.873    24224208.293
        44.300          38.500
 131596522.074 6 102352899.756 6  24574722.635    24574722.769    24574733.962
        39.500          37.400
 132272600.420 5 103069652.56742  25170612.872    25170612.5464   25170618.5894
        33.200          15.0004
 109703705.578 7  85483539.59546  20875865.438    20875863.9814   20875863.6824
        47.900          38.6004
 25  1  1  2  0 15.0000000  0 33E34G25R21R11S31S35R06G03E13G24S33G12
                                G20E15R22G05G11E02G06E36R07R23E27R13
                                G09R24G17R12E30R14R08G14G19
 125253120.337 8                  23834824.532
        48.300
 125499903.935 6  97792204.09345  23881822.498    23881821.5684   23881828.1264
        39.100          30.2004
 127751986.254 7  99362811.021 6  23873465.902    23873465.454    23873472.650
        44.100          40.700
 129408022.351 6 100650825.884 6  24216906.632    24216907.177    24216916.675
        40.400          39.200
 198982840.993 7                  37865173.336
        45.400
 200925071.196 7                  38234778.254
        44.000
 121198181.581 5                  22712478.112    22712477.626
        35.300
 133546125.027 6 104062022.47544  25412949.580    25412949.2634   25412953.1954
        38.500          27.3004
 146790889.888 6                  27933370.367
        37.000
 129057910.121 6 100564747.41145  24558852.910    24558852.4814   24558859.5724
        38.200          33.2004
 202134219.535 7                  38464838.518
        45.100
 111652045.192 8  87001723.76148  21246630.018    21246629.4104   21246629.6364
        49.700          48.2004
 116358158.206 7  90668741.99545  22142200.853    22142199.5974   22142201.6094
        45.200          32.3004
 125734782.893 7                  23926497.202
        47.600
 107718526.507 8  83781216.741 8  20179264.878    20179264.990    20179269.348
        52.800          48.900
 133002685.953 6 103638487.89444  25309565.081    25309564.5994   25309568.2204
        37.200          27.3004
 109142236.830 8  85046000.16046  20769041.210    20769040.7994   20769041.5664
        48.600          40.7004
 139854048.266 6                  26613305.161
        39.100
 108368927.877 8  84443468.53948  20621878.734    20621878.3684   20621881.3704
        49.500          51.3004
 145858103.000 6                  27755830.384
        37.500
 121633453.842 7  94603855.372 7  22722139.798    22722139.843    22722147.721
        47.600          42.800
 108732711.033 8                  20326401.750    20326402.108
        50.500
 130005484.481 7                  24739167.979
        46.800
 107627491.206 7                  20155125.241    20155124.698
        47.900
 133530631.455 5 104049870.85443  25410032.546    25410032.0234   25410039.2074
        32.800          23.4004
 130569350.532 7 101553991.270 6  24417127.702    24417128.636    24417139.916
        44.200          37.300
 122377459.399 7  95359196.97146  23287605.602    23287604.9814   23287606.9004
        42.900          38.0004
 107541052.079 8  83643226.640 8  20131852.254    20131852.671    20131859.467
        51.300          48.200
 124935091.519 8                  23774306.356
        48.200
 129068131.099 7 100386363.041 6  24212852.307    24212851.807    24212860.840
        43.900          38.700
 131539122.481 5 102308255.630 6  24564005.550    24564004.308    24564016.212
        35.700          36.500
 132329677.410 5 103114128.13943  25181474.483    25181474.1664   25181480.1164
        35.300          18.0004
 109724950.728 7  85500094.26246  20879907.970    20879906.5084   20879906.5124
        47.500          38.4004
 25  1  1  2  0 30.0000000  0 33E34G25R21R11S31S35R06G03E13G24S33G12
                                G20E15R22G05G11E02G06E36R07R23E27R13
                                G09R24G17R12E30R14R08G14G19
 125273246.769 8                  23838654.411
        48.800
 125449160.438 6  97752663.83044  23872166.127    23872165.1974   23872171.3624
        38.900          29.8004
 127798545.136 7  99399023.520 6  23882164.675    23882166.028    23882172.880
        44.500          41.000
 129476596.052 6 100704160.877 6  24229740.820    24229741.087    24229748.725
        41.400          38.100
 198982842.140 7                  37865174.463
        45.500
 200925107.748 7                  38234780.499
        43.800
 121196099.277 6                  22712088.203    22712087.679
        36.200
 133597094.540 6 104101738.98744  25422648.461    25422648.1534   25422652.5874
        37.100          28.0004
 146752691.629 6                  27926101.853
        37.300
 129097378.584 6 100595502.04945  24566363.659    24566363.2354   24566370.3604
        38.200          33.0004
 202134209.186 7                  38464842.037
        44.900
 111623689.347 8  86979628.32048  21241234.051    21241233.4484   21241233.7124
        49.700          48.2004
 116311567.563 7  90632437.63345  22133334.294    22133333.0344   22133335.5844
        45.700          32.3004
 125717849.667 8                  23923274.946
        48.300
 107743415.650 8  83800574.950 8  20183927.071    20183927.547    20183931.721
        52.500          49.000
 132944196.950 6 103592912.30044  25298434.024    25298433.5594   25298438.5214
        38.100          28.5004
 109127079.025 8  85034188.89346  20766156.711    20766156.3054   20766157.1504
        48.800          40.7004
 139897120.089 6                  26621501.073
        40.500
 108390544.338 8  84460312.54048  20625992.161    20625991.7814   20625994.8384
        49.800          51.2004
 145897561.057 6                  27763338.592
        37.900
 121589598.524 7  94569745.721 7  22713946.991    22713947.075    22713955.329
        47.200          42.700
 108717158.505 8                  20323494.489    20323494.484
        50.400
 129980152.559 7                  24734347.402
        47.200
 107612808.847 7                  20152375.660    20152375.375
        47.800
 133499785.758 5 104025835.26243  25404163.243    25404162.7474   25404169.5454
        33.300          22.7004
 130525502.143 7 101519887.110 6  24408927.326    24408928.342    24408939.792
        43.700          36.800
 122409971.185 7  95384530.81346  23293792.544    23293791.9414   23293793.4974
        42.700          37.8004
 107581253.319 8  83674494.239 8  20139378.175    20139378.228    20139385.454
        51.600          48.300
 124950677.131 8                  23777272.237
        48.600
 129007697.101 7 100339358.623 6  24201513.643    24201514.477    24201523.922
        43.600          39.000
 131481684.899 6 102263581.959 6  24553277.756    24553277.525    24553288.400
        38.200          36.500
 132386760.320 5 103158608.34042  25192336.597    25192336.2844   25192342.5594
        31.200          12.8004
 109746262.069 8  85516700.50146  20883963.800    20883962.3434   20883961.9164
        48.100          38.3004
 25  1  1  2  0 45.0000000  0 33E34G25R21R11S31S35R06G03E13G24S33G12
                                G20E15R22G05G11E02G06E36R07R23E27R13
                                G09R24G17R12E30R14R08G14G19
 125293427.750 8                  23842494.818
        48.500
 125398476.495 6  97713169.96245  23862521.255    23862520.3214   23862526.2604
        39.400          30.2004
 127845089.537 7  99435224.775 6  23890863.484    23890863.701    23890870.432
        43.600          40.800
 129545165.202 6 100757492.384 6  24242570.714    24242571.120    24242581.043
        40.800          38.800
 198982847.578 7                  37865175.044
        45.400
 200925147.164 7                  38234793.498
        44.000
 121194207.221 6                  22711734.165    22711733.414
        36.500
 133648125.520 5 104141503.19944  25432359.584    25432359.2894   25432363.3594
        33.100          25.3004
 146714527.461 6                  27918839.145
        37.300
 129136886.712 6 100626287.58745  24573881.384    24573880.9464   24573888.5974
        37.200          32.7004
 202134203.387 7                  38464843.678
        45.200
 111595460.162 8  86957631.57948  21235862.415    21235861.8074   21235861.8844
        49.700          48.2004
 116265053.352 7  90596192.83245  22124483.071    22124481.8024   22124484.1284
        44.900          32.4004
 125700989.435 8                  23920066.694
        48.100
 107768364.388 8  83819979.538 8  20188600.590    20188601.264    20188605.685
        52.500          48.900
 132885695.600 6 103547327.05944  25287301.633    25287301.1604   25287305.6934
        37.200          27.6004
 109112027.813 8  85022460.69346  20763292.526    20763292.1154   20763293.0094
        48.500          40.6004
 139940229.920 6                  26629704.784
        39.300
 108412248.336 8  84477224.74748  20630122.094    20630121.7144   20630124.9724
        49.400          51.2004
 145937016.509 6                  27770846.921
        38.200
 121545846.291 7  94535716.248 7  22705774.072    22705773.673    22705782.075
        47.500          43.000
 108701691.775 8                  20320603.135    20320603.325
        50.300
 129954894.769 7                  24729541.143
        47.200
 107598330.606 8                  20149664.389    20149663.926
        48.100
 133468996.346 5 104001843.54143  25398305.011    25398304.5204   25398310.2804
        34.200          23.6004
 130481689.428 7 101485810.671 6  24400734.202    24400734.492    24400746.085
        42.900          37.800
 122442516.916 7  95409891.11746  23299985.549    23299984.9554   23299986.6634
        42.500          37.6004
 107621618.390 8  83705889.294 8  20146934.404    20146934.779    20146941.615
        51.400          48.300
 124966358.416 8                  23780256.171
        48.500
 128947325.500 7 100292402.604 6  24190189.964    24190189.405    24190197.865
        43.900          37.900
 131424213.630 6 102218882.074 6  24542545.704    24542546.842    24542556.260
        38.300          36.200
 132443852.830 5 103203095.96742  25203200.889    25203200.5904   25203206.8764
        35.500          16.9004
 109767643.306 7  85533361.20446  20888032.409    20888030.9434   20888030.6454
        47.800          38.3004
 25  1  1  2  1  0.0000000  0 33E34G25R21R11S31S35R06G03E13G24S33G12
                                G20E15R22G05G11E02G06E36R07R23E27R13
                                G09R24G17R12E30R14R08G14G19
 125313658.230 8                  23846344.298
        48.300
 125347847.536 6  97673718.93545  23852886.446    23852885.5344   23852892.0464
        38.800          30.5004
 127891614.235 7  99471410.708 6  23899556.774    23899557.514    23899564.948
        43.400          41.000
 129613724.322 6 100810816.056 6  24255400.487    24255400.840    24255411.452
        39.400          38.900
 198982851.926 7                  37865173.296
        45.600
 200925186.845 7                  38234795.738
        43.900
 121192500.562 6                  22711414.771    22711414.221
        36.600
 133699212.871 6 104181311.28444  25442081.210    25442080.9384   25442085.0424
        37.700          28.6004
 146676392.579 6                  27911582.635
        37.400
 129176429.249 6 100657099.94845  24581406.698    24581406.2694   24581413.1044
        37.200          32.5004
 202134196.422 7                  38464834.542
        45.200
 111567353.087 8  86935729.98148  21230513.632    21230513.0294   21230513.2834
        49.900          48.1004
 116218611.117 7  90560004.11845  22115645.740    22115644.4664   22115646.4764
        45.700          32.5004
 125684197.241 8                  23916871.030
        48.000
 107793367.623 8  83839426.498 8  20193284.764    20193284.976    20193289.785
        52.500          48.900
 132827177.436 6 103501728.72144  25276165.539    25276165.0484   25276169.4484
        37.900          27.8004
 109097078.267 8  85010811.70646  20760447.898    20760447.4964   20760448.1944
        48.900          40.7004
 139983372.674 6                  26637914.804
        39.400
 108434034.758 8  84494201.18448  20634267.995    20634267.6154   20634270.7924
        49.400          51.1004
 145976464.287 6                  27778353.698
        37.100
 121502192.800 7  94501763.601 7  22697618.585    22697618.959    22697627.436
        47.100          43.000
 108686305.925 8                  20317727.103    20317726.963
        50.400
 129929706.432 7                  24724747.641
        47.000
 107584051.910 7                  20146990.422    20146989.918
        47.600
 133438258.646 5 103977892.16444  25392455.858    25392455.3894   25392460.7004
        34.100          24.6004
 130437907.331 7 101451758.032 6  24392547.693    24392547.948    24392558.361
        44.300          38.000
 122475091.659 7  95435274.01746  23306184.662    23306184.0594   23306185.5754
        42.400          37.5004
 107662142.082 8  83737407.712 8  20154520.494    20154520.757    20154527.862
        50.900          48.300
 124982130.413 8                  23783257.407
        48.300
 128887012.303 7 100245492.194 6  24178874.772    24178874.509    24178883.104
        44.000          38.100
 131366704.167 6 102174152.401 6  24531804.895    24531805.906    24531816.411
        39.200          39.000
 132500949.610 5 103247586.97842  25214066.073    25214065.7924   25214071.9034
        33.500          13.6004
 109789089.495 8  85550072.52146  20892113.379    20892111.9174   20892111.6814
        48.000          38.3004
 25  1  1  2  1 15.0000000  0 32E34G25R21R11S31S35R06E13G24S33G12G20
                                E15R22G05G11E02G06E36R07R23E27R13G09
                                R24G17R12E30R14R08G14G19
 125333936.933 8                  23850203.355
        48.500
 125297272.824 6  97634310.18145  23843262.376    23843261.4694   23843267.9704
        38.900          30.4004
 127938118.272 7  99507580.566 6  23908247.307    23908247.956    23908256.002
        42.700          41.500
 129682271.936 6 100864130.774 6  24268229.760    24268229.567    24268239.017
        40.800          39.000
 198982854.700 7                  37865173.492
        45.600
 200925224.413 7                  38234800.335
        43.600
 121190978.360 6                  22711128.141    22711128.319
        36.100
 146638285.940 6                  27904331.048
        38.300
 129216004.731 6 100687937.97745  24588937.674    24588937.2854   24588943.8794
        37.800          32.6004
 202134187.118 7                  38464833.000
        45.200
 111539367.423 8  86913922.99548  21225187.916    21225187.3044   21225187.7504
        49.600          48.1004
 116172239.992 7  90523870.81445  22106821.364    22106820.0904   22106822.2964
        45.300          32.6004
 125667471.979 8                  23913688.428
        48.000
 107818423.930 8  83858914.736 8  20197978.901    20197979.129    20197983.321
        52.900          48.900
 132768641.896 6 103456116.81544  25265027.168    25265026.6774   25265030.1444
        37.600          27.6004
 109082229.234 8  84999241.04246  20757621.711    20757621.2964   20757622.5454
        48.700          40.7004
 140026547.138 6                  26646130.350
        39.800
 108455902.232 8  84511240.77748  20638429.267    20638428.8834   20638432.0304
        49.400          51.1004
 146015903.202 6                  27785858.473
        38.000
 121458637.641 7  94467887.431 7  22689481.880    22689482.394    22689490.737
        47.600          42.900
 108670999.462 8                  20314865.407    20314865.567
        50.600
 129904586.600 7                  24719967.441
        46.900
 107569971.714 7                  20144353.338    20144353.253
        47.700
 133407571.887 5 103953980.45144  25386614.974    25386614.5014   25386621.5974
        33.100          24.2004
 130394154.858 7 101417728.481 6  24384365.559    24384365.308    24384377.000
        43.600          38.400
 122507694.380 7  95460678.72146  23312388.451    23312387.8434   23312389.6564
        42.100          37.3004
 107702822.729 8  83769048.205 8  20162135.953    20162136.471    20162143.366
        51.600          48.100
 124997992.036 8                  23786276.079
        48.400
 128826756.856 7 100198626.846 6  24167569.805    24167570.247    24167579.759
        42.300          38.600
 131309155.485 5 102129392.371 6  24521058.056    24521058.791    24521070.382
        35.900          37.200
 132558049.393 5 103292080.28542  25224931.095    25224930.7604   25224937.5084
        33.700          13.7004
 109810599.540 7  85566833.59546  20896206.458    20896204.9924   20896204.9154
        47.700          38.2004
 25  1  1  2  1 30.0000000  0 32E34G25R21R11S31S35R06E13G24S33G12G20
                                E15R22G05G11E02G06E36R07R23E27R13G09
                                R24G17R12E30R14R08G14G19
 125354266.074 8                  23854071.888
        48.400
 125246755.043 6  97594945.78045  23833650.000    23833649.0844   23833654.4874
        39.500          30.3004
 127984603.892 7  99543736.073 6  23916934.191    23916934.696    23916942.527
        43.000          40.900
 129750810.062 6 100917438.094 6  24281054.750    24281055.804    24281064.721
        40.900          37.800
 198982857.473 7                  37865175.679
        45.600
 200925262.441 7                  38234810.884
        43.800
 121189643.226 6                  22710877.292    22710877.689
        36.100
 146600209.954 6                  27897084.725
        37.500
 129255615.098 6 100718803.18745  24596474.505    24596474.1034   24596481.3764
        38.500          32.2004
 202134179.495 7                  38464831.050
        45.400
 111511505.938 8  86892212.77148  21219886.040    21219885.4324   21219885.8324
        49.400          48.1004
 116125942.755 7  90487795.08245  22098011.392    22098010.1144   22098012.1364
        45.400          32.6004
 125650815.967 7                  23910518.860
        47.700
 107843535.596 8  83878446.021 8  20202682.680    20202682.976    20202687.643
        52.200          48.700
 132710091.297 6 103410493.15444  25253885.039    25253884.5394   25253887.5314
        37.600          27.3004
 109067483.060 8  84987750.53046  20754815.775    20754815.3604   20754816.3874
        48.600          40.7004
 140069755.549 6                  26654352.703
        39.500
 108477852.905 8  84528345.19848  20642606.485    20642606.1144   20642609.0944
        49.100          51.1004
 146055335.457 6                  27793362.155
        37.700
 121415183.720 7  94434089.978 7  22681364.040    22681364.494    22681373.101
        47.300          42.900
 108655774.794 8                  20312019.598    20312019.532
        50.700
 129879537.864 7                  24715201.076
        47.100
 107556092.892 7                  20141754.432    20141754.154
        47.700
 133376938.827 5 103930110.58843  25380787.329    25380786.8424   25380792.3504
        31.900          22.5004
 130350434.395 7 101383723.778 6  24376189.066    24376189.509    24376199.587
        43.500          37.100
 122540327.548 6  95486107.15446  23318598.722    23318598.1234   23318599.4434
        41.400          37.1004
 107743662.390 8  83800812.370 8  20169781.405    20169781.689    20169788.432
        51.600          48.400
 125013945.627 8                  23789311.741
        48.500
 128766561.935 7 100151808.526 6  24156279.568    24156278.685    24156286.971
        43.600          38.200
 131251570.907 6 102084604.343 5  24510306.507    24510307.745    24510316.818
        38.100          35.500
 132615154.304 5 103336577.62742  25235798.605    25235798.2754   25235804.1504
        33.700          15.2004
 109832175.882 7  85583646.33146  20900312.552    20900311.0814   20900310.7454
        47.700          38.1004
 25  1  1  2  1 45.0000000  0 32E34G25R21R11S31S35R06E13G24S33G12G20
                                E15R22G05G11E02G06E36R07R23E27R13G09
                                R24G17R12E30R14R08G14G19
 125374644.281 8                  23857949.722
        48.300
 125196293.292 6  97555625.04545  23824046.981    23824046.0384   23824052.1204
        40.200          31.0004
 128031069.726 7  99579876.250 6  23925618.065    23925618.511    23925625.269
        42.900          40.800
 129819336.993 6 100970736.765 6  24293878.209    24293879.206    24293888.848
        40.700          39.100
 198982859.414 7                  37865175.482
        45.600
 200925299.359 7                  38234821.817
        44.200
 121188493.774 6                  22710662.466    22710662.112
        36.400
 146562163.539 6                  27889845.192
        36.800
 129295258.810 6 100749694.38645  24604018.525    24604018.1194   24604025.3164
        37.500          32.4004
 202134169.479 7                  38464826.534
        45.500
 111483767.377 8  86870598.33048  21214607.713    21214607.1054   21214607.3414
        50.000          48.2004
 116079718.593 7  90451776.29145  22089214.997    22089213.7194   22089215.8684
        46.000          32.9004
 125634227.968 8                  23907362.406
        48.000
 107868701.137 8  83898019.234 8  20207397.635    20207397.618    20207401.900
        52.900          48.800
 132651524.789 6 103364857.08044  25242739.527    25242739.0404   25242742.8354
        37.300          27.8004
 109052838.492 8  84976339.18846  20752029.142    20752028.7274   20752029.6094
        48.900          40.9004
 140112996.513 6                  26662581.469
        39.800
 108499885.340 8  84545513.33148  20646799.120    20646798.7494   20646801.7234
        49.400          51.2004
 146094759.873 6                  27800864.533
        37.900
 121371830.152 7  94400370.603 7  22673265.817    22673265.572    22673273.853
        47.300          42.900
 108640630.626 8                  20309188.400    20309188.342
        50.400
 129854559.193 7                  24710447.548
        47.400
 107542414.100 7                  20139192.854    20139192.504
        47.900
 133346358.661 5 103906281.90744  25374967.644    25374967.1444   25374973.1824
        34.900          24.6004
 130306744.712 7 101349743.075 6  24368019.227    24368018.165    24368030.009
        43.500          37.600
 122572989.930 7  95511558.33946  23324814.354    23324813.7734   23324814.9454
        42.000          37.0004
 107784659.467 8  83832698.981 8  20177456.111    20177456.241    20177463.552
        51.400          48.500
 125029989.951 8                  23792364.855
        48.500
 128706426.561 7 100105036.570 6  24144996.751    24144997.729    24145006.503
        44.200          39.100
 131193949.571 6 102039787.756 6  24499546.740    24499546.906    24499556.744
        41.900          38.200
 132672262.933 4 103381077.83441  25246667.245    25246666.9154   25246671.7224
        29.400          11.5004
 109853817.338 7  85600509.80346  20904430.699    20904429.2284   20904428.9754
        47.900          38.2004
 25  1  1  2  2  0.0000000  0 32E34G25R21R11S31S35R06E13G24S33G12G20
                                E15R22G05G11E02G06E36R07R23E27R13G09
                                R24G17R12E30R14R08G14G19
 125395070.358 8                  23861836.611
        48.500
 125145886.950 6  97516347.47445  23814454.503    23814453.5564   23814459.9574
        38.700          31.0004
 128077514.619 7  99616000.105 6  23934297.162    23934297.049    23934305.135
        42.400          40.800
 129887851.255 6 101024025.552 6  24306699.172    24306699.893    24306709.124
        38.700          36.900
 198982859.282 7                  37865171.668
        45.400
 200925334.663 7                  38234825.434
        44.000
 121187529.225 5                  22710482.931    22710481.503
        35.800
 146524145.735 6                  27882610.178
        37.400
 129334934.437 6 100780610.45845  24611569.218    24611568.8164   24611575.0564
        38.200          32.7004
 202134158.586 7                  38464830.366
        45.300
 111456151.044 8  86849079.13148  21209352.499    21209351.8874   21209352.1074
        49.500          48.3004
 116033566.762 7  90415813.86045  22080432.691    22080431.4134   22080433.4544
        46.000          32.9004
 125617706.913 8                  23904218.365
        48.100
 107893919.307 8  83917633.377 8  20212121.478    20212121.887    20212126.563
        53.100          48.800
 132592941.547 6 103319207.96244  25231591.884    25231591.4114   25231594.9954
        38.400          28.5004
 109038294.484 8  84965006.20846  20749261.448    20749261.0334   20749261.9744
        48.500          41.0004
 140156268.861 6                  26670815.736
        39.700
 108521998.275 8  84562744.19248  20651006.798    20651006.4234   20651009.6634
        49.300          51.2004
 146134175.212 6                  27808364.760
        36.800
 121328576.534 7  94366728.984 7  22665185.202    22665185.466    22665194.123
        47.300          42.800
 108625565.775 8                  20306371.747    20306372.096
        50.300
 129829649.753 7                  24705707.658
        47.100
 107528934.498 8                  20136669.108    20136668.211
        48.000
 133315830.643 5 103882493.88544  25369157.813    25369157.2904   25369163.8284
        33.000          24.3004
 130263085.106 7 101315785.759 6  24359853.936    24359854.024    24359865.573
        43.100          37.500
 122605680.682 6  95537031.63346  23331035.235    23331034.6504   23331035.9384
        41.500          37.1004
 107825812.355 8  83864706.783 8  20185159.629    20185160.194    20185167.469
        51.100          48.500
 125046123.966 8                  23795435.012
        48.500
 128646349.851 7 100058310.114 6  24133725.747    24133727.666    24133736.132
        44.300          38.900
 131136290.560 6 101994941.884 6  24488777.573    24488778.572    24488788.893
        39.500          36.000
 132729374.014 5 103425579.94742  25257532.843    25257532.5754   25257539.5634
        35.000          15.1004
 109875522.886 7  85617423.21946  20908561.177    20908559.7114   20908559.3954
        47.600          38.2004
 25  1  1  2  2 15.0000000  0 32E34G25R21R11S31S35R06E13G24S33G12G20
                                E15R22G05G11E02G06E36R07R23E27R13G09
                                R24G17R12E30R14R08G14G19
 125415546.456 8                  23865733.252
        48.400
 125095538.631 6  97477115.10645  23804874.141    23804873.1944   23804878.4954
        38.800          30.3004
 128123941.008 7  99652109.556 6  23942972.701    23942972.829    23942981.755
        42.900          41.600
 129956354.775 6 101077306.022 6  24319522.135    24319521.895    24319529.860
        40.700          39.000
 198982860.749 7                  37865171.945
        45.800
 200925370.481 7                  38234837.003
        44.600
 121186751.825 6                  22710336.409    22710335.586
        36.000
 146486158.869 6                  27875381.457
        36.500
 129374643.944 6 100811552.91445  24619125.203    24619124.7924   24619131.5574
        38.100          32.0004
 202134147.118 7                  38464827.070
        45.600
 111428659.614 8  86827657.25948  21204121.197    21204120.5854   21204120.6534
        49.200          48.0004
 115987489.784 7  90379909.76045  22071664.794    22071663.5254   22071665.3224
        45.600          32.6004
 125601255.092 8                  23901087.646
        48.100
 107919192.223 8  83937290.063 8  20216855.508    20216856.083    20216860.723
        52.300          48.800
 132534344.443 6 103273548.02044  25220440.291    25220439.8224   25220444.1994
        37.700          28.1004
 109023853.297 8  84953753.34546  20746513.535    20746513.1294   20746513.8944
        48.800          40.7004
 140199574.764 6                  26679056.341
        39.700
 108544193.777 8  84580039.38948  20655230.464    20655230.0894   20655233.3294
        49.300          50.9004
 146173583.684 6                  27815863.842
        38.000
 121285426.137 7  94333167.601 7  22657124.509    22657125.166    22657133.625
        47.800          43.100
 108610582.792 8                  20303570.983    20303571.344
        50.200
 129804812.045 7                  24700981.020
        47.500
 107515656.840 7                  20134182.191    20134181.788
        47.800
 133285357.532 5 103858748.68043  25363359.231    25363358.6994   25363364.7294
        33.600          23.2004
 130219457.454 7 101281853.272 6  24351694.832    24351695.209    24351707.853
        43.100          38.100
 122638401.957 6  95562528.71046  23337261.716    23337261.1624   23337262.4494
        41.500          36.6004
 107867123.120 8  83896837.365 8  20192893.600    20192893.990    20192900.787
        51.300          48.600
 125062349.964 8                  23798522.843
        48.600
 128586335.289 7 100011632.086 6  24122468.531    24122468.514    24122477.337
        43.500          38.800
 131078596.894 6 101950069.064 6  24478003.294    24478005.141    24478015.462
        39.700          36.800
 132786489.439 5 103470085.46442  25268402.372    25268402.0734   25268408.1634
        32.600          15.0004
 109897295.007 7  85634388.50546  20912704.346    20912702.8804   20912702.5064
        47.300          37.8004
 25  1  1  2  2 30.0000000  0 32E34G25R21R11S31S35R06E13G24S33G12G20
                                E15R22G05G11E02G06E36R07R23E27R13G09
                                R24G17R12E30R14R08G14G19
 125436073.480 8                  23869639.235
        48.400
 125045249.724 6  97437929.03845  23795303.980    23795303.0064   23795308.8564
        40.400          31.0004
 128170349.772 7  99688205.290 6  23951645.031    23951645.701    23951653.345
        42.900          41.100
 130024848.223 6 101130578.582 6  24332337.594    24332338.124    24332348.213
        40.100          38.900
 198982862.778 7                  37865172.737
        45.500
 200925407.637 7                  38234839.547
        44.100
 121186162.992 6                  22710225.721    22710226.246
        37.200
 146448204.093 6                  27868159.456
        36.700
 129414387.973 6 100842522.28845  24626688.057    24626687.6334   24626694.1894
        37.600          32.1004
 202134139.246 7                  38464822.406
        45.500
 111401294.416 8  86806333.75448  21198913.466    21198912.8634   21198913.1944
        49.500          48.0004
 115941489.026 7  90344065.05345  22062910.809    22062909.5224   22062911.6344
        46.100          32.8004
 125584873.503 8                  23897970.397
        48.000
 107944520.811 8  83956990.071 8  20221601.009    20221600.936    20221605.803
        52.600          48.700
 132475735.184 6 103227878.58544  25209287.919    25209287.4544   25209290.7614
        38.100          28.1004
 109009515.954 8  84942581.40046  20743785.090    20743784.6884   20743785.5744
        48.900          40.7004
 140242915.149 6                  26687303.689
        39.100
 108566472.684 8  84597399.57848  20659469.947    20659469.5674   20659472.8574
        49.700          51.0004
 146212986.266 6                  27823361.865
        37.700
 121242379.951 7  94299687.293 7  22649083.388    22649083.332    22649091.729
        47.300          42.800
 108595682.240 8                  20300785.758    20300785.609
        49.900
 129780047.309 7                  24696268.368
        47.400
 107502582.290 7                  20131733.369    20131733.015
        47.300
 133254940.600 5 103835047.23344  25357571.539    25357570.9984   25357576.3394
        33.300          24.0004
 130175863.133 7 101247946.699 6  24343542.836    24343542.435    24343554.448
        44.300          38.300
 122671154.855 7  95588050.43046  23343493.986    23343493.4144   23343495.1804
        42.600          36.6004
 107908592.262 8  83929091.124 8  20200656.369    20200656.629    20200664.002
        50.900          48.600
 125078668.994 8                  23801628.293
        48.500
 128526383.999 7  99965003.064 6  24111221.557    24111223.028    24111231.591
        44.200          38.500
 131020870.020 6 101905170.465 6  24467223.787    24467224.238    24467235.091
        39.300          38.200
 132843610.166 5 103514595.07441  25279272.182    25279271.8874   25279277.7924
        31.700          10.6004
 109919134.675 7  85651406.43146  20916860.248    20916858.7824   20916858.4854
        47.700          37.8004
 25  1  1  2  2 45.0000000  0 32E34G25R21R11S31S35R06E13G24S33G12G20
                                E15R22G05G11E02G06E36R07R23E27R13G09
                                R24G17R12E30R14R08G14G19
 125456649.738 8                  23873554.926
        48.500
 124995019.088 6  97398788.37645  23785745.000    23785744.0174   23785750.3074
        39.700          31.0004
 128216739.555 7  99724286.266 6  23960314.780    23960315.704    23960322.918
        42.900          41.500
 130093329.565 6 101183841.761 6  24345153.288    24345153.200    24345163.830
        38.900          38.900
 198982865.546 7                  37865174.033
        45.600
 200925445.209 7                  38234847.408
        44.100
 121185761.179 6                  22710149.513    22710151.216
        37.000
 146410279.981 6                  27860942.215
        37.100
 129454164.623 6 100873517.07845  24634257.841    24634257.4304   24634263.6764
        37.300          32.2004
 202134129.206 7                  38464816.298
        45.100
 111374054.195 8  86785107.62848  21193729.958    21193729.3594   21193729.5284
        49.600          48.1004
 115895563.390 7  90308278.88045  22054171.248    22054169.9564   22054172.2324
        46.200          32.9004
 125568560.625 7                  23894866.175
        47.900
 107969903.256 8  83976731.995 8  20226355.927    20226356.189    20226360.667
        52.400          48.700
 132417111.794 6 103182198.11644  25198132.174    25198131.7014   25198134.9254
        38.500          28.2004
 108995280.927 8  84931489.18246  20741076.333    20741075.9314   20741076.7234
        48.500          40.8004
 140286288.330 6                  26695557.767
        39.300
 108588833.240 8  84614823.38548  20663725.064    20663724.6894   20663727.9144
        49.500          51.0004
 146252381.390 6                  27830858.424
        37.300
 121199437.504 7  94266287.677 7  22641061.153    22641061.479    22641069.420
        47.400          42.800
 108580862.604 8                  20298015.203    20298015.367
        50.200
 129755354.229 7                  24691569.150
        47.300
 107489709.512 8                  20129322.834    20129322.637
        48.100
 133224578.867 5 103811388.79244  25351793.760    25351793.2154   25351798.6494
        34.300          24.2004
 130132300.552 7 101214064.818 6  24335396.740    24335397.298    24335407.702
        44.600          38.500
 122703937.962 6  95613595.69646  23349732.435    23349731.8634   23349733.6924
        40.900          36.5004
 107950217.838 8  83961466.564 8  20208449.257    20208449.585    20208456.145
        51.600          48.200
 125095079.486 8                  23804751.049
        48.500
 128466495.256 7  99918422.750 6  24099987.352    24099987.754    24099996.787
        43.100          38.700
 130963109.098 6 101860245.359 6  24456437.317    24456438.658    24456447.955
        41.500          37.600
 132900734.466 5 103559107.46842  25290142.621    25290142.3004   25290148.2134
        32.700          12.7004
 109941040.164 7  85668475.64246  20921028.622    20921027.1384   20921026.9864
        47.900          37.9004
 25  1  1  2  3  0.0000000  0 32E34G25R21R11S31S35R06E13G24S33G12G20
                                E15R22G05G11E02G06E36R07R23E27R13G09
                                R24G17R12E30R14R08G14G19
 125477273.495 8                  23877479.177
        48.400
 124944845.446 6  97359692.12945  23776197.436    23776196.4354   23776202.7044
        39.500          31.0004
 128263108.392 7  99760350.969 6  23968979.878    23968979.835    23968987.250
        42.700          40.800
 130161796.930 6 101237094.037 6  24357965.802    24357965.686    24357975.977
        38.800          38.200
 198982866.342 7                  37865179.435
        45.500
 200925481.208 7                  38234853.261
        43.900
 121185544.683 6                  22710109.970    22710109.590
        36.100
 146372384.982 6                  27853731.366
        37.100
 129493971.964 6 100904535.77645  24641832.486    24641832.0974   24641839.0294
        38.200          31.9004
 202134118.660 7                  38464823.242
        45.300
 111346937.597 8  86763977.83548  21188569.535    21188568.9324   21188569.3874
        49.600          48.0004
 115849711.504 7  90272550.17445  22045446.092    22045444.8004   22045446.8404
        46.100          32.9004
 125552314.804 8                  23891774.632
        48.000
 107995337.785 8  83996514.388 8  20231120.207    20231120.774    20231125.441
        52.100          48.600
 132358473.156 6 103136505.76644  25186973.262    25186972.7804   25186976.6444
        38.300          28.4004
 108981146.568 8  84920475.40546  20738386.774    20738386.3814   20738387.0294
        48.800          40.8004
 140329692.568 6                  26703817.052
        38.800
 108611273.592 8  84632309.37648  20667995.299    20667994.9284   20667998.1664
        49.500          51.0004
 146291767.277 6                  27838353.284
        37.400
 121156597.663 7  94232967.854 7  22633058.142    22633058.795    22633066.861
        46.600          42.800
 108566122.045 8                  20295259.607    20295259.806
        50.100
 129730731.409 7                  24686883.854
        47.400
 107477036.816 8                  20126949.674    20126949.640
        48.000
 133194271.046 5 103787772.35244  25346026.133    25346025.5614   25346031.0794
        34.500          24.4004
 130088768.089 7 101180206.387 6  24327255.085    24327255.059    24327267.118
        43.600          37.900
 122736749.548 6  95639163.14446  23355976.441    23355975.8654   23355977.5494
        40.800          36.2004
 107991997.937 8  83993962.180 8  20216270.413    20216270.672    20216277.477
        51.700          48.200
 125111579.847 8                  23807890.926
        48.700
 128406668.002 7  99871890.440 6  24088764.822    24088763.445    24088772.880
        43.000          39.800
 130905312.756 6 101815292.727 6  24445644.735    24445644.626    24445655.492
        40.500          38.400
 132957860.536 5 103603621.25542  25301013.505    25301013.1254   25301018.9064
        32.000          14.2004
 109963009.975 7  85685594.97446  20925209.044    20925207.5604   20925207.7654
        47.600          37.8004
 25  1  1  2  3 15.0000000  0 32E34G25R21R11S31S35R06E13G24S33G12G20
                                E15R22G05G11E02G06E36R07R23E27R13G09
                                R24G17R12E30R14R08G14G19
 125497952.714 8                  23881414.556
        48.500
 124894737.276 6  97320646.88545  23766661.925    23766660.9244   23766667.3054
        38.500          31.0004
 128309464.745 7  99796405.931 6  23977642.295    23977642.110    23977650.835
        43.100          40.900
 130230258.146 6 101290341.545 6  24370778.111    24370778.338    24370786.961
        40.000          37.100
 198982873.784 7                  37865179.001
        45.600
 200925523.426 7                  38234868.210
        44.200
 121185522.086 6                  22710106.084    22710106.120
        36.800
 146334527.341 6                  27846526.611
        37.600
 129533817.724 6 100935584.42045  24649414.810    24649414.4484   24649421.5154
        37.800          32.2004
 202134114.449 7                  38464822.800
        45.400
 111319953.080 8  86742950.96048  21183434.922    21183434.3194   21183434.3914
        49.000          48.0004
 115803942.087 7  90236885.73045  22036736.481    22036735.1804   22036737.1974
        45.900          33.0004
 125536144.151 8                  23888697.458
        48.300
 108020832.416 8  84016343.527 8  20235896.812    20235896.776    20235901.366
        52.200          48.600
 132299827.881 6 103090808.23344  25175813.893    25175813.4204   25175817.0304
        37.200          28.7004
 108967120.942 8  84909546.35846  20735717.643    20735717.2544   20735718.0514
        48.200          40.8004
 140373135.847 6                  26712084.374
        39.600
 108633801.660 8  84649863.71648  20672282.405    20672282.0344   20672285.1204
        49.000          51.1004
 146331151.954 6                  27845847.828
        38.000
 121113869.187 7  94199734.644 7  22625076.269    22625076.152    22625084.652
        47.100          42.700
 108551468.929 8                  20292520.588    20292520.584
        50.200
 129706187.148 7                  24682213.151
        47.500
 107464572.993 7                  20124615.360    20124615.279
        47.500
 133164025.571 5 103764204.52143  25340270.829    25340270.2534   25340275.8464
        32.400          23.6004
 130045273.990 7 101146377.758 6  24319121.932    24319121.616    24319133.223
        43.300          37.900
 122769597.689 6  95664759.07946  23362227.904    23362227.3464   23362228.1394
        40.900          36.1004
 108033940.286 8  84026583.994 8  20224122.116    20224122.483    20224129.481
        51.800          48.200
 125128178.170 8                  23811049.600
        48.500
 128346910.999 7  99825412.843 6  24077553.803    24077552.962    24077562.835
        43.300          40.000
 130847489.757 6 101770319.344 6  24434845.778    24434846.418    24434857.910
        40.000          38.000
 133014996.176 5 103648142.50942  25311886.635    25311886.2554   25311891.3214
        32.600          13.2004
 109985052.311 7  85702770.81646  20929403.624    20929402.1314   20929402.3084
        46.800          37.7004
 25  1  1  2  3 30.0000000  0 32E34G25R21R11S31S35R06E13G24S33G12G20
                                E15R22G05G11E02G06E36R07R23E27R13G09
                                R24G17R12E30R14R08G14G19
 125518674.687 8                  23885357.761
        48.300
 124844682.378 6  97281643.15745  23757137.139    23757136.1384   23757142.1544
        38.200          31.3004
 128355795.715 6  99832441.184 6  23986301.313    23986300.548    23986307.754
        41.900          40.500
 130298699.920 6 101343573.994 6  24383585.331    24383585.959    24383595.105
        39.200          38.100
 198982875.452 7                  37865184.189
        45.800
 200925560.064 7                  38234867.119
        44.000
 121185680.589 6                  22710135.458    22710135.288
        36.600
 146296694.537 6                  27839327.959
        37.400
 129573689.000 6 100966652.93845  24657002.227    24657001.8614   24657008.5574
        36.800          32.2004
 202134104.868 7                  38464821.065
        45.600
 111293088.406 8  86722017.47148  21178322.843    21178322.2494   21178322.2084
        48.900          48.1004
 115758242.552 7  90201275.73645  22028040.066    22028038.7704   22028040.7724
        45.400          33.1004
 125520036.075 8                  23885632.148
        48.200
 108046374.253 8  84036209.403 8  20240681.121    20240681.555    20240686.418
        52.100          48.600
 132241163.946 6 103045096.15644  25164650.311    25164649.8464   25164653.8304
        38.400          28.8004
 108953191.507 8  84898692.26446  20733066.905    20733066.5214   20733067.3674
        48.400          40.9004
 140416605.452 6                  26720356.309
        39.400
 108656404.674 8  84667476.45148  20676583.694    20676583.3374   20676586.3244
        49.100          51.1004
 146370522.780 6                  27853340.152
        37.700
 121071239.622 7  94166578.392 7  22617112.305    22617112.586    22617121.055
        47.900          42.900
 108536890.298 8                  20289794.768    20289795.152
        50.000
 129681709.113 7                  24677555.081
        47.200
 107452305.321 7                  20122318.639    20122318.153
        47.700
 133133830.318 5 103740675.79844  25334524.657    25334524.0814   25334529.7974
        32.700          24.1004
 130001805.788 7 101112569.274 6  24310993.777    24310993.610    24311003.674
        44.100          37.700
 122802469.965 6  95690373.81846  23368482.425    23368481.8584   23368483.5644
        41.200          36.1004
 108076031.678 8  84059321.748 8  20232001.568    20232002.019    20232008.887
        51.500          48.100
 125144861.880 8                  23814224.289
        48.400
 128287211.738 6  99778980.130 6  24066353.484    24066353.041    24066364.015
        40.500          40.300
 130789627.855 6 101725315.678 6  24424040.567    24424041.690    24424052.681
        41.900          39.200
 133072128.534 5 103692661.23241  25322756.772    25322756.4194   25322763.0924
        33.000          11.3004
 110007154.621 7  85719993.39546  20933609.786    20933608.2974   20933608.2134
        46.800          37.7004
 25  1  1  2  3 45.0000000  0 32E34G25R21R11S31S35R06E13G24S33G12G20
                                E15R22G05G11E02G06E36R07R23E27R13G09
                                R24G17R12E30R14R08G14G19
 125539445.496 8                  23889310.459
        48.400
 124794687.349 6  97242686.08945  23747623.061    23747622.0824   23747628.5494
        39.700          31.9004
 128402107.452 7  99868461.458 6  23994953.906    23994955.159    23994962.485
        42.800          40.600
 130367128.255 6 101396795.939 6  24396390.359    24396390.424    24396401.099
        37.300          36.600
 198982877.546 7                  37865182.945
        45.600
 200925597.169 7                  38234876.487
        44.200
 121186026.667 6                  22710200.819    22710199.966
        36.700
 146258892.890 6                  27832133.802
        37.200
 129613591.596 6 100997745.86945  24664596.119    24664595.7534   24664601.9044
        37.900          32.3004
 202134095.464 7                  38464816.611
        45.600
 111266350.035 8  86701182.40148  21173234.496    21173233.9064   21173234.0254
        49.300          48.1004
 115712619.548 7  90165725.38545  22019358.572    22019357.2984   22019358.8804
        46.000          33.2004
 125503996.786 7                  23882580.105
        47.900
 108071969.375 8  84056116.702 8  20245476.493    20245476.583    20245481.290
        52.300          48.700
 132182487.742 6 102999374.48944  25153484.162    25153483.7204   25153487.7464
        38.600          28.8004
 108939364.441 8  84887917.93546  20730435.627    20730435.2434   20730436.0954
        48.800          41.0004
 140460107.497 6                  26728634.184
        39.000
 108679088.607 8  84685152.24648  20680900.129    20680899.7674   20680902.9344
        49.500          51.3004
 146409885.920 6                  27860830.524
        38.100
 121028716.031 7  94133504.536 7  22609168.755    22609169.200    22609177.244
        47.800          43.000
 108522392.444 8                  20287084.489    20287084.821
        50.100
 129657303.724 7                  24672911.022
        47.300
 107440240.277 8                  20120058.756    20120058.696
        48.200
 133103691.871 5 103717191.34944  25328789.095    25328788.5374   25328794.5844
        33.300          24.7004
 129958369.507 7 101078785.616 6  24302869.602    24302870.045    24302881.267
        42.900          38.400
 122835372.807 6  95716012.38646  23374743.547    23374742.9664   23374744.7564
        40.800          36.1004
 108118278.127 8  84092180.076 8  20239910.244    20239910.732    20239917.555
        51.600          48.100
 125161637.214 8                  23817416.581
        48.400
 128227576.953 6  99732597.454 6  24055166.500    24055165.752    24055175.559
        41.200          39.100
 130731733.696 6 101680286.971 6  24413229.259    24413229.633    24413240.629
        38.900          37.100
 133129263.786 5 103737182.19642  25333629.767    25333629.3654   25333635.5384
        31.500          12.1004
 110029323.267 7  85737267.66346  20937828.170    20937826.6814   20937826.7514
        47.000          37.8004
 25  1  1  2  4  0.0000000  0 32E34G25R21R11S31S35R06E13G24S33G12G20
                                E15R22G05G11E02G06E36R07R23E27R13G09
                                R24G17R12E30R14R08G14G19
 125560265.033 8                  23893272.143
        48.400
 124744752.556 6  97203775.94645  23738120.828    23738119.8494   23738126.0294
        38.600          31.0004
 128448400.107 7  99904466.891 6  24003606.761    24003606.126    24003614.011
        42.200          40.900
 130435542.992 6 101450007.305 6  24409194.467    24409193.703    24409204.324
        38.300          38.500
 198982880.003 7                  37865180.558
        45.700
 200925634.647 7                  38234877.922
        43.800
 121186560.571 6                  22710301.302    22710300.300
        36.000
 146221122.517 6                  27824946.464
        37.000
 129653525.282 6 101028863.02145  24672194.925    24672194.5454   24672201.0694
        38.000          32.1004
 202134086.261 7                  38464815.922
        45.400
 111239738.440 8  86680446.11648  21168170.395    21168169.8054   21168169.9934
        49.500          48.2004
 115667073.443 7  90130234.94845  22010691.124    22010689.8504   22010691.7574
        46.100          33.4004
 125488026.297 8                  23879540.806
        48.200
 108097617.603 8  84076065.337 8  20250280.793    20250281.033    20250286.120
        52.100          48.700
 132123799.612 6 102953643.52944  25142316.263    25142315.8074   25142319.2694
        37.800          28.4004
 108925639.774 8  84877223.39946  20727823.845    20727823.4614   20727824.3814
        48.900          41.1004
 140503641.905 6                  26736918.805
        38.400
 108701853.309 8  84702890.97748  20685232.164    20685231.8024   20685234.9034
        49.600          51.4004
 146449241.281 6                  27868319.205
        37.200
 120986299.043 7  94100513.610 7  22601244.418    22601244.864    22601252.966
        47.100          43.000
 108507975.083 8                  20284389.395    20284389.765
        50.100
 129632971.225 7                  24668280.520
        47.500
 107428378.151 7                  20117837.460    20117837.163
        47.800
 133073610.694 5 103693751.54544  25323064.242    25323063.6794   25323070.3974
        35.300          25.4004
 129914965.410 7 101045026.946 6  24294753.596    24294753.844    24294763.797
        45.100          38.200
 122868306.180 6  95741674.73446  23381010.644    23381010.0594   23381011.9774
        41.100          36.3004
 108160679.145 8  84125158.632 8  20247847.898    20247848.130    20247855.280
        51.700          48.400
 125178504.190 8                  23820626.256
        48.600
 128168007.232 7  99686265.285 6  24043991.772    24043992.111    24044000.831
        43.400          38.900
 130673807.970 7 101635233.687 6  24402412.471    24402413.869    24402422.495
        42.000          36.800
 133186401.828 5 103781705.33541  25344503.659    25344503.1944   25344508.5254
        31.200          10.7004
 110051558.236 7  85754593.61046  20942059.553    20942058.0644   20942057.9034
        47.000          37.8004
 25  1  1  2  4 15.0000000  0 32E34G25R21R11S31S35R06E13G24S33G12G20
                                E15R22G05G11E02G06E36R07R23E27R13G09
                                R24G17R12E30R14R08G14G19
 125581132.620 8                  23897243.068
        48.500
 124694877.840 6  97164912.60245  23728630.058    23728629.0844   23728634.8634
        39.200          31.9004
 128494672.999 7  99940456.964 6  24012253.170    24012252.625    24012260.890
        42.000          41.100
 130503942.972 6 101503207.190 6  24421994.992    24421994.483    24422004.518
        39.500          38.200
 198982881.854 7                  37865180.826
        45.500
 200925671.168 7                  38234887.760
        43.800
 121187281.591 6                  22710435.824    22710435.420
        36.400
 146183382.985 6                  27817765.110
        37.300
 129693489.076 6 101060003.63545  24679799.473    24679799.0844   24679806.0434
        37.300          32.3004
 202134076.390 7                  38464814.187
        45.400
 111213253.260 8  86659808.33448  21163130.411    21163129.8174   21163129.9914
        49.200          48.2004
 115621604.023 7  90094804.27045  22002038.788    22002037.5194   22002039.1994
        45.300          33.4004
 125472124.047 8                  23876514.736
        48.100
 108123318.337 8  84096054.776 8  20255095.451    20255095.848    20255100.649
        52.300          48.800
 132065099.329 6 102907903.09144  25131145.755    25131145.2824   25131148.9334
        37.900          28.7004
 108912016.916 8  84866608.19846  20725231.458    20725231.0744   20725232.0214
        48.700          41.1004
 140547207.960 6                  26745209.436
        39.500
 108724698.004 8  84720692.03948  20689579.466    20689579.1044   20689582.1074
        49.600          51.4004
 146488588.323 6                  27875806.846
        36.800
 120943988.547 7  94067605.515 7  22593340.708    22593340.895    22593349.480
        46.800          43.700
 108493637.941 8                  20281709.209    20281709.582
        49.800
 129608711.275 7                  24663664.113
        47.500
 107416718.524 8                  20115654.085    20115653.844
        48.100
 133043586.587 5 103670356.19644  25317351.391    25317350.8244   25317356.7634
        34.000          25.5004
 129871592.807 7 101011292.778 6  24286641.524    24286641.820    24286653.481
        43.500          39.100
 122901269.491 6  95767360.41046  23387283.736    23387283.1784   23387284.7564
        40.400          36.2004
 108203233.935 8  84158256.792 8  20255814.331    20255814.514    20255821.346
        51.400          48.000
 125195462.247 8                  23823853.342
        48.500
 128108502.839 7  99639983.980 6  24032828.452    24032829.054    24032837.922
        43.100          38.700
 130615850.576 6 101590155.753 6  24391587.779    24391589.354    24391600.372
        41.600          39.200
 133243541.621 5 103826229.81342  25355376.208    25355375.7394   25355381.9604
        31.900          13.7004
 110073858.932 7  85771970.77446  20946303.190    20946301.6884   20946301.6384
        46.500          37.8004
 25  1  1  2  4 30.0000000  0 32E34G25R21R11S31S35R06E13G24S33G12G20
                                E15R22G05G11E02G06E36R07R23E27R13G09
                                R24G17R12E30R14R08G14G19
 125602049.164 8                  23901223.502
        48.200
 124645064.605 6  97126097.19445  23719150.560    23719149.5684   23719156.0784
        39.300          31.6004
 128540927.308 7  99976432.555 6  24020896.463    24020896.741    24020904.639
        43.200          41.200
 130572328.885 6 101556396.143 6  24434791.318    24434792.320    24434802.020
        38.900          37.600
 198982885.194 7                  37865182.816
        45.400
 200925709.635 7                  38234896.395
        43.900
 121188191.039 6                  22710606.263    22710606.218
        36.600
 146145675.418 6                  27810589.752
        37.400
 129733483.727 6 101091168.29845  24687410.854    24687410.4924   24687416.5614
        37.500          32.0004
 202134068.114 7                  38464813.517
        45.200
 111186895.835 8  86639270.10548  21158114.769    21158114.1794   21158114.3024
        49.100          48.1004
 115576212.728 7  90059434.46845  21993400.860    21993399.6174   21993401.5044
        46.300          33.4004
 125456291.079 8                  23873501.895
        48.100
 108149072.364 8  84116085.681 8  20259920.183    20259920.470    20259925.118
        52.300          48.700
 132006388.352 6 102862154.32644  25119974.057    25119973.5754   25119976.7674
        38.400          28.8004
 108898496.929 8  84856073.15246  20722658.848    20722658.4684   20722659.2554
        48.600          41.0004
 140590806.658 6                  26753505.576
        39.300
 108747623.541 8  84738556.09448  20693941.904    20693941.5334   20693944.6854
        49.900          51.4004
 146527927.931 6                  27883292.575
        36.800
 120901786.375 8  94034781.647 7  22585457.221    22585457.724    22585466.139
        48.000          43.600
 108479381.606 8                  20279044.672    20279044.365
        50.200
 129584525.157 7                  24659061.654
        47.300
 107405262.652 8                  20113508.784    20113508.547
        48.100
 133013620.875 5 103647006.34744  25311649.322    25311648.7504   25311654.1844
        33.500          24.4004
 129828253.048 7 100977584.155 6  24278537.696    24278537.425    24278548.486
        44.100          38.400
 122934263.956 6  95793070.36946  23393562.071    23393561.5174   23393563.4644
        40.900          36.0004
 108245942.936 8  84191474.897 8  20263809.952    20263809.802    20263816.804
        51.600          48.100
 125212512.489 8                  23827097.788
        48.400
 128049065.467 6  99593755.013 6  24021678.039    24021677.574    24021687.497
        41.700          39.000
 130557863.150 7 101545054.476 6  24380760.535    24380760.640    24380771.377
        42.400          39.300
 133300684.339 5 103870756.58741  25366248.900    25366248.5114   25366255.8014
        30.500           8.5004
 110096226.556 7  85789400.09246  20950559.430    20950557.9284   20950558.0284
        47.300          37.7004
 25  1  1  2  4 45.0000000  0 32E34G25R21R11S31S35R06E13G24S33G12G20
                                E15R22G05G11E02G06E36R07R23E27R13G09
                                R24G17R12E30R14R08G14G19
 125623016.771 8                  23905213.486
        48.300
 124595315.468 6  97087331.70945  23709683.249    23709682.2174   23709688.8304
        39.000          31.4004
 128587165.130 7 100012395.339 6  24029536.840    24029537.879    24029545.272
        43.300          41.000
 130640702.750 6 101609575.727 6  24447587.176    24447586.885    24447596.468
        38.600          38.000
 198982891.475 7                  37865181.300
        45.100
 200925750.999 7                  38234904.600
        43.700
 121189291.477 6                  22710812.388    22710811.881
        36.600
 146108002.155 6                  27803420.615
        37.200
 129773511.126 6 101122358.46745  24695027.540    24695027.1514   24695033.3134
        37.700          32.1004
 202134062.757 7                  38464805.665
        44.900
 111160668.691 8  86618833.39148  21153123.979    21153123.3854   21153123.4304
        49.200          48.2004
 115530902.147 7  90024127.55545  21984778.311    21984777.0734   21984779.1834
        45.600          33.3004
 125440529.617 7                  23870502.571
        47.700
 108174881.841 8  84136159.706 8  20264755.043    20264755.224    20264760.199
        52.200          48.800
 131947669.056 6 102816399.08444  25108799.810    25108799.3594   25108803.1844
        38.700          29.9004
 108885082.006 8  84845619.97846  20720106.056    20720105.6724   20720106.4734
        48.600          41.1004
 140634440.071 6                  26761808.520
        38.000
 108770631.949 8  84756484.72048  20698320.338    20698319.9674   20698323.0384
        50.000          51.5004
 146567262.331 6                  27890777.960
        37.300
 120859695.262 7  94002044.182 7  22577593.762    22577593.741    22577602.402
        47.000          43.500
 108465208.570 8                  20276394.602    20276395.001
        50.000
 129560415.323 7                  24654473.532
        47.300
 107394013.192 7                  20111401.875    20111401.729
        47.800
 132983716.345 5 103623704.16344  25305959.090    25305958.5324   25305963.6064
        34.300          24.5004
 129784948.256 7 100943902.699 6  24270438.994    24270439.021    24270450.011
        43.900          38.900
 122967291.799 6  95818806.32746  23399847.051    23399846.4844   23399848.5444
        41.400          36.1004
 108288808.099 8  84224814.446 8  20271834.367    20271834.406    20271841.158
        51.500          48.000
 125229657.086 8                  23830360.167
        48.300
 127989697.035 7  99547579.344 6  24010541.863    24010541.267    24010550.098
        42.600          39.100
 130499848.243 6 101499931.802 6  24369926.669    24369926.958    24369936.640
        40.500          36.500
 133357831.869 4 103915287.08342  25377124.056    25377123.6634   25377130.5774
        29.900          12.3004
 110118663.364 7  85806883.31546  20954828.936    20954827.4214   20954827.6324
        47.100          37.7004
 25  1  1  2  5  0.0000000  0 32E34G25R21R11S31S35R06E13G24S33G12G20
                                E15R22G05G11E02G06E36R07R23E27R13G09
                                R24G17R12E30R14R08G14G19
 125644025.029 8                  23909211.153
        48.400
 124545620.506 6  97048608.44545  23700226.317    23700225.2674   23700232.1094
        39.500          32.3004
 128633375.996 7 100048337.195 6  24038172.630    24038172.439    24038180.601
        42.300          40.600
 130709053.649 6 101662737.431 6  24460377.243    24460378.149    24460388.148
        38.700          38.600
 198982890.313 7                  37865180.540
        45.200
 200925784.696 7                  38234912.685
        43.900
 121190572.220 6                  22711050.923    22711051.976
        36.800
 146070352.986 6                  27796255.442
        36.900
 129813560.596 6 101153565.83945  24702648.786    24702648.3934   24702654.9294
        37.800          32.5004
 202134050.405 7                  38464807.645
        45.300
 111134561.927 8  86598490.48148  21148155.948    21148155.3544   21148155.4624
        49.400          48.3004
 115485662.273 7  89988875.74045  21976169.644    21976168.4014   21976170.1744
        46.000          33.7004
 125424829.339 8                  23867514.870
        48.000
 108200736.046 8  84156268.531 8  20269598.777    20269598.720    20269603.771
        52.200          49.200
 131888931.788 6 102770629.83944  25097622.210    25097621.7814   25097626.2964
        38.500          29.6004
 108871761.867 8  84835240.65946  20717571.611    20717571.2364   20717571.7154
        48.400          41.3004
 140678097.763 6                  26770116.768
        38.600
 108793712.729 8  84774469.74548  20702712.436    20702712.0704   20702715.1694
        50.000          51.7004
 146606581.053 6                  27898259.804
        37.500
 120817705.232 8  93969385.328 7  22569749.350    22569750.309    22569757.933
        48.000          43.700
 108451108.382 8                  20273758.376    20273759.024
        49.700
 129536371.670 7                  24649898.169
        47.300
 107382959.622 8                  20109331.904    20109331.757
        48.100
 132953863.022 5 103600441.90044  25300277.000    25300276.4424   25300283.1474
        33.900          25.4004
 129741668.008 7 100910240.337 6  24262345.324    24262346.113    24262356.428
        44.200          39.000
 123000342.779 6  95844560.32446  23406136.002    23406135.4124   23406138.0024
        41.100          36.2004
 108331818.501 8  84258266.968 8  20279885.751    20279885.902    20279892.828
        51.700          48.100
 125246885.766 8                  23833638.792
        48.400
 127930388.548 7  99501450.470 6  23999415.974    23999415.914    23999424.630
        44.100          39.900
 130441796.033 7 101454780.135 6  24359085.850    24359087.164    24359096.515
        42.000          38.400
 133414973.834 5 103959813.28741  25387998.148    25387997.6664   25388004.3334
        34.400           9.9004
 110141159.162 7  85824412.50946  20959109.867    20959108.3434   20959108.4374
        46.700          37.9004
 25  1  1  2  5 15.0000000  0 33E34G25R21R11S31S35R06E13G24S33G12G20
                                E15R22G05G11E02G06G04E36R07R23E27R13
                                G09R24G17R12E30R14R08G14G19
 125665082.219 8                  23913218.297
        48.300
 124495988.463 6  97009934.20445  23690781.918    23690780.8944   23690787.2194
        38.600          31.8004
 128679568.506 6 100084264.733 6  24046805.173    24046804.951    24046812.053
        41.800          40.600
 130777389.804 6 101715887.716 6  24473166.480    24473166.444    24473176.591
        38.100          36.700
 198982890.840 7                  37865179.815
        45.600
 200925820.371 7                  38234920.734
        44.100
 121192042.162 5                  22711326.639    22711326.574
        35.800
 146032736.463 6                  27789097.724
        37.600
 129853640.244 6 101184796.73045  24710275.275    24710274.8824   24710281.4474
        37.300          32.1004
 202134039.179 7                  38464806.903
        45.300
 111108584.400 8  86578248.27148  21143212.360    21143211.7614   21143212.0844
        49.400          48.2004
 115440501.809 7  89953685.80545  21967576.111    21967574.8644   21967576.4224
        46.300          33.5004
 125409198.690 7                  23864540.506
        47.900
 108226643.450 8  84176418.720 8  20274451.670    20274452.232    20274456.899
        52.000          49.200
 131830185.263 6 102724853.36144  25086443.219    25086442.8084   25086446.4394
        38.500          28.8004
 108858544.905 8  84824941.73946  20715056.309    20715055.9344   20715056.5844
        48.900          41.2004
 140721788.083 6                  26778430.590
        38.600
 108816874.078 8  84792517.54948  20707119.892    20707119.5214   20707122.6194
        50.200          51.6004
 135206879.392 6 105356016.23244  25729013.430    25729013.7344   25729014.8184
        40.600          24.2004
 146645892.579 6                  27905740.853
        36.900
 120775825.969 7  93936812.640 7  22561925.598    22561926.204    22561934.910
        47.000          43.700
 108437089.403 8                  20271138.013    20271138.295
        50.100
 129512402.859 7                  24645337.244
        47.100
 107372110.883 8                  20107300.452    20107300.330
        48.400
 132924069.770 5 103577226.44744  25294607.910    25294607.3384   25294613.1974
        34.300          24.8004
 129698421.006 7 100876603.863 6  24254257.892    24254257.945    24254269.234
        43.700          38.800
 123033425.412 6  95870338.97746  23412432.203    23412431.5954   23412433.3264
        41.400          36.0004
 108374982.441 8  84291838.919 8  20287966.211    20287966.361    20287973.341
        51.700          48.100
 125264206.983 8                  23836934.954
        48.400
 127871148.790 7  99455375.098 6  23988301.110    23988301.705    23988311.235
        44.100          40.200
 130383715.787 6 101409606.669 6  24348239.850    24348240.054    24348251.247
        41.000          38.800
 133472118.465 4 104004341.48241  25398872.645    25398872.1674   25398878.5234
        27.800           9.8004
 110163722.336 7  85841994.20346  20963403.577    20963402.0624   20963402.0844
        46.900          37.7004
 25  1  1  2  5 30.0000000  0 34E34G25R21R11S31S35R06E13G24S33G12G20
                                E15R22G05G11E02G06G04E36R07R23E27R13
                                G09R24G17R12E21E30R14R08G14G19
 125686190.037 8                  23917234.882
        48.200
 124446421.617 6  96971310.77445  23681349.651    23681348.6194   23681355.0744
        38.500          31.8004
 128725744.574 7 100120179.481 6  24055434.100    24055434.386    24055441.627
        43.300          40.600
 130845712.737 6 101769027.676 6  24485952.978    24485952.521    24485962.869
        39.400          38.300
 198982894.704 7                  37865181.041
        45.600
 200925859.611 7                  38234927.946
        44.300
 121193703.075 5                  22711638.896    22711638.255
        35.900
 145995154.434 6                  27781945.836
        36.500
 129893751.504 6 101216052.25645  24717907.748    24717907.3374   24717914.3244
        37.600          31.8004
 202134031.720 7                  38464803.912
        45.200
 111082738.204 8  86558108.40048  21138294.192    21138293.5894   21138293.6744
        49.300          48.1004
 115395423.119 7  89918559.58545  21958997.906    21958996.6544   21958998.2634
        46.100          33.4004
 125393639.464 7                  23861579.674
        47.900
 108252605.716 8  84196611.588 8  20279315.000    20279315.457    20279320.307
        51.700          49.100
 131771431.431 6 102679071.19444  25075263.304    25075262.8804   25075265.7024
        38.400          28.9004
 108845432.924 8  84814724.62146  20712560.893    20712560.5134   20712561.4644
        49.000          41.1004
 140765512.692 6                  26786750.798
        38.100
 108840117.631 8  84810629.40948  20711543.014    20711542.6394   20711545.7204
        50.300          51.5004
 135187751.357 4 105341111.30442  25725372.862    25725372.7374   25725375.5264
        26.300          13.3004
 146685198.549 6                  27913220.163
        37.600
 120734059.271 7  93904327.486 7  22554123.794    22554124.140    22554132.393
        46.800          44.000
 108423153.091 8                  20268532.792    20268533.016
        50.300
 129488510.915 7                  24640790.539
        47.200
 107361468.865 8                  20105307.333    20105307.431
        48.300
 132894338.691 5 103554059.43244  25288950.737    25288950.1614   25288955.3604
        34.200          26.1004
 129655209.102 7 100842994.573 6  24246177.406    24246177.191    24246188.082
        43.900          38.800
 123066541.532 6  95896143.72746  23418733.348    23418732.7184   23418735.0544
        41.100          36.0004
 108418301.234 8  84325531.292 8  20296075.533    20296075.640    20296082.128
        51.400          48.100


 125281622.504 8                  23840248.952
        48.300
 127811980.115 7  99409355.012 6  23977201.762    23977202.320    23977211.053
        43.100          38.500
 130325609.591 7 101364412.954 6  24337388.690    24337389.063    24337400.068
        42.600          39.700
 133529267.182 5 104048872.97342  25409747.869    25409747.4044   25409753.7514
        32.900          14.6004
 110186354.804 7  85859629.89246  20967710.161    20967708.6374   20967708.8654
        46.900          37.6004
 25  1  1  2  5 45.0000000  0 33E34G25R21R11S31S35R06E13G24S33G12G20
                                E15R22G05G11E02G06G04E36R07R23E27R13
                                G09R24G17R12E30R14R08G14G19
 125707343.415 8                  23921260.315
        48.200
 124396915.378 6  96932734.58045  23671929.271    23671928.2394   23671934.2914
        40.500          32.1004
 128771899.114 7 100156077.467 6  24064059.807    24064059.757    24064067.065
        42.800          40.900
 130914017.090 6 101822153.183 6  24498733.310    24498734.980    24498744.765
        37.600          36.700
 198982896.714 7                  37865181.099
        45.500
 200925896.172 7                  38234931.859
        44.000
 121195550.158 6                  22711983.251    22711984.739
        36.600
 145957602.164 6                  27774799.899
        37.400
 129933889.146 6 101247328.33145  24725546.410    24725545.9864   24725552.0294
        36.100          31.7004
 202134022.262 7                  38464803.451
        45.400
 111057018.339 8  86538066.96648  21133399.726    21133399.1234   21133399.3004
        49.300          48.1004
 115350421.571 7  89883493.48545  21950434.116    21950432.8644   21950434.7524
        46.500          33.4004
 125378146.716 7                  23858631.439
        47.700
 108278617.670 8  84216843.092 8  20284188.330    20284188.649    20284193.446
        52.200          49.100
 131712665.916 6 102633279.94344  25064080.090    25064079.6524   25064083.1224
        38.300          29.4004
 108832420.961 8  84804585.43746  20710084.914    20710084.5344   20710085.3524
        49.000          41.1004
 140809266.547 6                  26795077.034
        38.600
 108863438.252 8  84828801.32448  20715980.735    20715980.3604   20715983.4924
        50.000          51.5004


 146724494.020 6                  27920698.283
        37.300
 120692400.706 7  93871926.416 7  22546341.943    22546342.246    22546350.008
        47.400          44.000
 108409294.919 8                  20265942.355    20265942.324
        50.400
 129464691.139 7                  24636257.873
        47.200
 107351028.680 8                  20103352.729    20103352.245
        48.700
 132864665.303 5 103530937.36244  25283303.507    25283302.8994   25283308.5824
        34.500          24.8004
 129612027.415 7 100809408.857 6  24238102.108    24238102.702    24238113.302
        44.400          39.300
 123099686.324 6  95921970.82046  23425040.998    23425040.3594   23425042.4574
        41.300          36.1004
 108461769.444 8  84359339.884 8  20304213.101    20304213.161    20304219.953
        51.500          48.000
 125299127.433 8                  23843580.014
        48.400
 127752878.257 7  99363387.017 6  23966115.235    23966115.057    23966124.229
        42.900          39.400
 130267472.923 6 101319195.606 6  24326532.298    24326532.451    24326544.037
        41.800          38.900


 110209051.665 7  85877315.75446  20972029.672    20972028.1614   20972027.9344
        46.300          37.6004
 25  1  1  2  6  0.0000000  0 33E34G25R21R11S31S35R06E21E13G24S33G12
                                G20E15R22G05G11E02G06G04E36R07R23E27
                                R13G09R24G17R12E30R14R08G19
 125728542.774 8                  23925294.479
        48.700
 124347470.633 6  96894206.27945  23662520.125    23662519.0844   23662524.9914
        38.300          32.0004
 128818032.474 7 100191959.036 6  24072680.453    24072680.571    24072688.041
        43.200          40.400
 130982303.080 6 101875264.426 6  24511512.881    24511513.648    24511522.999
        40.100          39.600
 198982897.864 7                  37865184.555
        45.800
 200925932.386 7                  38234939.980
        44.300
 121197583.960 6                  22712365.705    22712366.074
        37.500
 152668340.100 5                  29051816.876
        32.400
 145920080.236 6                  27767659.384
        36.800
 129974053.338 6 101278625.10645  24733189.623    24733189.2084   24733195.1644
        38.000          32.2004
 202134011.622 7                  38464801.899
        45.300
 111031425.821 8  86518124.76948  21128529.632    21128529.0294   21128529.1804
        49.100          48.3004
 115305497.951 7  89848488.09545  21941885.258    21941884.0064   21941885.9944
        46.000          33.7004
 125362720.986 8                  23855696.134
        48.100
 108304679.655 8  84237113.531 8  20289070.827    20289071.058    20289075.992
        52.600          49.200
 131653889.293 6 102587480.03544  25052895.217    25052894.7704   25052898.1054
        39.500          29.6004
 108819509.582 8  84794524.63546  20707627.788    20707627.4044   20707628.3294
        48.800          41.3004
 140853050.106 6                  26803408.789
        38.600
 108886836.298 8  84847033.56448  20720433.272    20720432.9014   20720435.9904
        50.000          51.7004


 146763779.469 6                  27928173.560
        37.300
 120650851.719 7  93839610.637 7  22538579.732    22538579.934    22538588.018
        46.600          43.800
 108395515.150 8                  20263366.002    20263366.244
        50.100
 129440944.287 7                  24631739.041
        47.800
 107340791.279 8                  20101435.199    20101434.840
        48.200
 132835050.561 5 103507861.00944  25277667.523    25277666.9384   25277673.4654
        34.800          26.4004
 129568876.371 7 100775846.955 6  24230032.479    24230032.362    24230043.276
        43.600          38.500
 123132860.213 6  95947820.58846  23431353.566    23431352.9324   23431355.4354
        41.300          36.4004
 108505387.195 8  84393264.809 8  20312378.276    20312378.362    20312385.091
        51.200          48.000
 125316722.293 8                  23846928.322
        48.700
 127693843.607 7  99317471.082 6  23955040.598    23955039.666    23955048.771
        42.800          39.100
 130209306.918 6 101273955.381 6  24315670.157    24315671.130    24315680.512
        41.500          38.600
 110231813.481 7  85895052.23446  20976361.163    20976359.6614   20976359.3714
        46.600          37.8004
 25  1  1  2  6 15.0000000  0 33E34G25R21R11S31S35R06E21E13G24S33G12
                                G20E15R22G05G11E02G06G04E36R07R23E27
                                R13G09R24G17R12E30R14R08G19
 125749787.271 8                  23929337.038
        48.700
 124298087.098 6  96855725.68645  23653122.630    23653121.5934   23653127.6304
        39.500          32.5004
 128864144.113 7 100227823.638 6  24081298.605    24081297.683    24081304.401
        43.400          40.100
 131050569.383 5 101928360.408 5  24524287.966    24524287.826    24524298.854
        34.200          34.600
 198982896.685 7                  37865185.534
        45.400
 200925966.579 7                  38234940.632
        43.800
 121199803.771 6                  22712782.253    22712782.302
        37.200
 152625072.622 5                  29043583.319
        35.100
 145882588.000 6                  27760525.393
        38.400
 130014243.041 6 101309941.74445  24740837.832    24740837.4214   24740843.0874
        36.900          31.6004
 202133999.483 7                  38464796.359
        45.300
 111005960.299 8  86498281.52348  21123683.500    21123682.8924   21123683.2204
        49.100          48.1004
 115260651.999 7  89813543.23745  21933351.482    21933350.2354   21933352.0814
        46.000          33.5004
 125347361.554 8                  23852773.073
        48.500
 108330790.803 8  84257422.195 8  20293962.099    20293962.561    20293967.107
        52.500          49.200
 131595101.270 6 102541671.23745  25041707.641    25041707.2084   25041711.4464
        38.600          30.1004
 108806698.047 8  84784541.62846  20705190.054    20705189.6654   20705190.3704
        48.600          41.1004
 140896862.488 6                  26811746.553
        39.100
 108910310.810 8  84865325.39448  20724900.473    20724900.1074   20724903.0384
        50.300          51.5004
 135130910.037 6                  25714557.120
        38.100
 146803054.100 6                  27935647.158
        37.300
 120609411.812 7  93807379.648 7  22530838.301    22530838.134    22530847.278
        46.500          44.200
 108381812.773 8                  20260804.679    20260804.653
        50.100
 129417269.867 7                  24627234.104
        47.900
 107330755.986 8                  20099556.448    20099555.569
        48.200
 132805494.141 5 103484830.07744  25272044.160    25272043.5844   25272048.9784
        34.400          26.9004
 129525755.570 7 100742308.525 6  24221969.549    24221969.128    24221979.724
        44.600          38.700
 123166062.507 6  95973692.48146  23437672.419    23437671.8024   23437673.5834
        40.700          36.0004
 108549153.563 8  84427305.294 8  20320571.702    20320571.761    20320578.513
        51.900          48.200
 125334406.411 8                  23850293.472
        49.000
 127634876.215 7  99271607.419 6  23943978.015    23943978.339    23943986.562
        43.100          38.200
 130151111.363 6 101228692.185 6  24304803.165    24304803.723    24304813.355
        41.800          38.500
 110254639.551 7  85912838.77946  20980704.431    20980702.9204   20980703.0564
        46.500          37.6004
 25  1  1  2  6 30.0000000  0 33E34G25R21R11S31S35R06E21E13G24S33G12
                                G20E15R22G05G11E02G06G04E36R07R23E27
                                R13G09R24G17R12E30R14R08G19
 125771083.370 8                  23933389.640
        48.700
 124248771.684 6  96817298.18045  23643737.653    23643736.6214   23643743.3004
        38.900          32.4004
 128910240.679 7 100263676.553 6  24089911.057    24089911.625    24089919.344
        43.100          40.200
 131118822.859 6 101981446.295 6  24537063.533    24537061.794    24537071.364
        39.500          38.200
 198982901.009 7                  37865182.427
        45.400
 200926005.723 7                  38234948.851
        43.600
 121202216.559 6                  22713233.322    22713234.459
        36.900
 152581815.249 5                  29035351.453
        35.400
 145845132.202 6                  27753397.293
        38.500
 130054464.471 6 101341283.11545  24748492.068    24748491.6484   24748497.1504
        37.000          32.0004
 202133992.036 7                  38464797.745
        45.100
 110980628.675 8  86478542.61648  21118863.133    21118862.5254   21118862.7664
        49.100          48.1004
 115215890.492 7  89778664.17745  21924833.582    21924832.3354   21924834.2974
        45.800          33.6004
 125332074.995 8                  23849864.256
        48.500
 108356957.671 8  84277774.200 8  20298864.224    20298864.524    20298869.195
        52.600          48.900
 131536309.187 6 102495859.29144  25030520.158    25030519.7474   25030523.4654
        38.500          29.7004
 108793992.931 8  84774641.54846  20702772.451    20702772.0714   20702772.6484
        48.800          41.1004
 140940710.201 6                  26820090.127
        38.500
 108933868.209 8  84883681.80648  20729383.184    20729382.8134   20729385.8674
        50.000          51.5004
 135112153.868 6 105282204.43443  25710988.989    25710988.6544   25710990.1514
        38.000          19.1004
 146842324.477 6                  27943120.222
        37.300
 120568088.814 7  93775239.567 7  22523118.755    22523119.143    22523127.866
        47.600          44.100
 108368194.543 8                  20258259.105    20258259.079
        50.500
 129393674.690 7                  24622743.886
        47.900
 107320929.621 8                  20097715.851    20097715.474
        48.100
 132776002.981 5 103461850.00644  25266431.803    25266431.2134   25266437.4184
        34.200          27.0004
 129482671.590 7 100708798.771 6  24213911.803    24213911.608    24213922.540
        44.100          38.700
 123199300.034 6  95999591.84046  23443997.382    23443996.7704   23443998.2954
        40.300          36.1004
 108593074.521 8  84461466.012 8  20328793.383    20328793.822    20328800.440
        51.400          48.000
 125352186.333 8                  23853676.772
        48.800
 127575983.844 7  99225802.217 6  23932930.007    23932929.608    23932938.578
        42.200          39.900
 130092893.541 6 101183411.664 6  24293930.264    24293930.982    24293941.066
        41.700          38.000
 110277536.533 7  85930680.58346  20985062.085    20985060.5834   20985060.2014
        46.700          37.6004
 25  1  1  2  6 45.0000000  0 32E34G25R21R11S31S35R06E21E13G24S33G12
                                G20E15R22G05G11E02G06E36R07R23E27R13
                                G09R24G17R12E30R14R08G19
 125792423.855 8                  23937450.601
        48.300
 124199517.722 6  96778918.55245  23634365.484    23634364.4344   23634370.6134
        38.900          32.5004
 128956314.827 7 100299512.008 6  24098521.791    24098521.761    24098528.939
        42.500          39.900
 131187055.587 5 102034516.151 5  24549830.297    24549830.821    24549840.306
        33.800          35.700
 198982903.180 7                  37865183.169
        45.700
 200926042.629 7                  38234959.565
        43.900
 121204815.207 6                  22713721.032    22713720.994
        37.200
 152538560.915 6                  29027120.732
        37.100
 145807705.842 6                  27746274.896
        37.700
 130094710.260 6 101372643.46845  24756149.620    24756149.1914   24756155.8504
        37.800          32.2004
 202133982.572 7                  38464794.195
        45.200
 110955424.154 8  86458902.74748  21114066.922    21114066.3104   21114066.4864
        48.900          48.1004
 115171206.776 7  89743845.73245  21916330.701    21916329.4724   21916331.2124
        45.700          33.7004
 125316854.209 8                  23846967.683
        48.200
 108383172.862 8  84298163.788 8  20303775.302    20303775.514    20303780.413
        52.700          49.000
 131477506.316 6 102450038.94444  25019330.427    25019329.9984   25019333.3194
        38.100          29.1004
 108781387.120 8  84764818.84446  20700373.428    20700373.0534   20700373.8204
        48.800          41.1004
 140984585.969 6                  26828439.554
        38.600
 108957501.196 8  84902097.11948  20733880.572    20733880.2014   20733883.0674
        50.000          51.6004
 146881583.401 6                  27950590.910
        37.300
 120526875.451 7  93743184.797 7  22515419.557    22515419.805    22515428.421
        47.000          43.900
 108354653.210 8                  20255727.319    20255727.532
        50.100
 129370151.866 7                  24618267.592
        47.900
 107311305.267 8                  20095913.775    20095913.106
        48.100
 132746570.420 5 103438915.60844  25260831.242    25260830.6574   25260836.5774
        33.200          26.3004
 129439617.250 7 100675312.040 6  24205860.275    24205860.711    24205870.892
        44.200          38.000
 123232565.754 6  96025513.16646  23450326.977    23450326.3744   23450328.6104
        39.700          36.3004
 108637142.579 8  84495741.165 7  20337043.073    20337043.452    20337050.038
        51.500          47.600
 125370054.964 8                  23857077.205
        48.700
 127517159.470 7  99180049.921 6  23921895.102    23921893.907    23921904.009
        43.000          40.000
 130034646.843 7 101138108.750 6  24283052.018    24283053.809    24283063.987
        42.600          38.900
 110300497.262 7  85948572.05646  20989430.941    20989429.4354   20989429.4504
        46.800          37.6004
 25  1  1  2  7  0.0000000  0 32E34G25R21R11S31S35R06E21E13G24S33G12
                                G20E15R22G05G11E02G06E36R07R23E27R13
                                G09R24G17R12E30R14R08G19
 125813812.816 8                  23941520.758
        48.600
 124150329.780 6  96740590.37245  23625004.598    23625003.5484   23625010.3944
        39.700          32.4004
 129002370.981 7 100335333.497 6  24107128.340    24107128.328    24107135.511
        44.100          39.200
 131255271.552 6 102087572.881 6  24562595.829    24562595.783    24562606.055
        39.100          37.500
 198982907.059 7                  37865185.834
        45.700
 200926081.921 7                  38234964.757
        43.900
 121207603.943 6                  22714244.525    22714243.718
        36.800
 152495314.011 6                  29018891.235
        36.800
 145770313.252 6                  27739159.596
        37.900
 130134984.219 6 101404025.75845  24763813.264    24763812.8134   24763820.0104
        38.000          31.8004
 202133974.801 7                  38464792.683
        45.200
 110930351.328 8  86439365.50148  21109295.665    21109295.0624   21109295.2784
        49.100          48.0004
 115126605.347 7  89709091.40545  21907843.416    21907842.1874   21907843.8754
        46.000          33.6004
 125301703.424 8                  23844084.675
        48.200
 108409440.545 8  84318594.210 8  20308696.347    20308696.396    20308701.112
        52.500          49.000
 131418696.744 6 102404213.37344  25008139.341    25008138.8994   25008142.0774
        39.400          29.7004
 108768884.823 8  84755076.80646  20697994.294    20697993.9194   20697994.7374
        49.100          41.0004
 141028493.951 6                  26836794.927
        38.300
 108981213.799 8  84920574.46848  20738392.923    20738392.5484   20738395.4174
        50.200          51.4004
 146920835.028 6                  27958060.361
        37.900
 120485777.049 7  93711219.443 7  22507741.826    22507742.051    22507751.249
        46.200          44.500
 108341192.851 8                  20253211.485    20253211.333
        50.300
 129346705.875 7                  24613805.804
        47.800
 107301887.363 8                  20094149.802    20094149.507
        48.200
 132717201.066 5 103416030.46944  25255241.819    25255241.2654   25255247.3844
        34.700          26.3004
 129396596.958 7 100641851.837 6  24197815.602    24197815.627    24197825.714
        44.000          37.900
 123265863.744 6  96051459.62046  23456664.079    23456663.5124   23456665.1724
        40.900          36.2004
 108681361.671 8  84530133.786 7  20345320.935    20345321.449    20345327.897
        51.500          47.700
 125388016.582 8                  23860495.217
        48.600
 127458408.153 7  99134354.482 6  23910872.184    23910873.200    23910882.233
        42.900          39.100
 129976375.866 6 101092786.967 6  24272171.632    24272171.941    24272182.320
        40.800          38.600
 110323526.264 7  85966516.73246  20993813.384    20993811.8824   20993811.6854
        46.600          37.5004
 25  1  1  2  7 15.0000000  0 32E34G25R21R11S31S35R06E21E13G24S33G12
                                G20E15R22G05G11E02G06E36R07R23E27R13
                                G09R24G17R12E30R14R08G19
 125835245.169 8                  23945599.028
        48.400
 124101203.264 6  96702310.05345  23615656.563    23615655.5224   23615661.9084
        40.200          32.8004
 129048403.990 7 100371136.960 6  24115730.277    24115730.469    24115738.377
        43.700          40.000
 131323465.420 6 102140612.524 6  24575357.543    24575357.333    24575368.106
        39.800          37.200
 198982908.204 7                  37865189.004
        45.700
 200926118.134 7                  38234974.952
        44.000
 121210577.771 6                  22714801.884    22714801.517
        37.100
 152452069.868 4                  29010661.056
        27.700
 145732949.491 6                  27732049.846
        38.100
 130175281.084 6 101435425.90645  24771481.760    24771481.3004   24771487.8454
        37.900          31.4004
 202133964.753 7                  38464789.030
        45.200
 110905405.476 8  86419927.19447  21104548.642    21104548.0304   21104548.1904
        49.100          47.7004
 115082081.760 7  89674397.73445  21899370.610    21899369.3544   21899371.3364
        46.700          33.3004
 125286617.638 8                  23841213.919
        48.300
 108435755.388 8  84339061.299 8  20313625.861    20313625.882    20313630.741
        52.300          48.900
 131359876.326 6 102358379.35744  24996946.174    24996945.7414   24996949.2394
        38.700          29.8004
 108756481.049 8  84745411.54046  20695633.735    20695633.3514   20695634.3744
        48.700          40.8004
 141072429.053 6                  26845155.444
        38.300
 109005000.805 8  84939109.79748  20742919.279    20742918.9134   20742921.9384
        49.800          51.2004
 146960074.250 6                  27965526.948
        37.400
 120444788.803 7  93679339.733 7  22500085.047    22500085.002    22500094.262
        46.700          44.100
 108327808.609 8                  20250708.985    20250709.151
        50.200
 129323331.929 7                  24609358.097
        47.600
 107292670.997 8                  20092423.958    20092423.372
        48.000
 132687890.291 5 103393190.94144  25249664.090    25249663.5324   25249669.0534
        35.200          26.3004
 129353605.701 7 100608414.181 6  24189775.633    24189775.605    24189786.657
        43.200          38.600
 123299189.328 6  96077427.59646  23463005.596    23463005.0334   23463006.6174
        40.600          36.1004
 108725726.311 8  84564639.592 7  20353625.995    20353626.245    20353633.243
        50.800          47.800
 125406066.145 8                  23863929.963
        48.500
 127399724.998 7  99088712.084 6  23899863.732    23899863.520    23899873.604
        42.600          39.800
 129918076.244 7 101047442.862 6  24261284.615    24261285.441    24261295.471
        43.500          40.100
 110346618.565 7  85984510.72946  20998207.746    20998206.2444   20998205.9974
        46.600          37.1004
 25  1  1  2  7 30.0000000  0 32E34G25R21R11S31S35R06E21E13G24S33G12
                                G20E15R22G05G11E02G06E36R07R23E27R13
                                G09R24G17R12E30R14R08G19
 125856725.202 8                  23949686.561
        48.500
 124052142.998 6  96664081.36745  23606320.110    23606319.0694   23606326.0454
        39.600          32.6004
 129094418.423 7 100406926.002 6  24124329.388    24124329.833    24124336.372
        43.000          39.700
 131391641.593 5 102193638.303 6  24588116.738    24588114.908    24588126.155
        34.400          36.100
 198982911.301 7                  37865181.613
        45.500
 200926155.556 7                  38234982.925
        44.100
 121213741.437 6                  22715393.766    22715394.137
        37.000
 152408833.096 6                  29002434.439
        36.600
 145695619.173 6                  27724945.517
        37.100
 130215604.894 6 101466847.04745  24779155.239    24779154.7834   24779161.2174
        38.200          31.5004
 202133956.601 7                  38464787.268
        45.300
 110880591.484 8  86400591.63647  21099826.642    21099826.0304   21099826.1934
        49.000          47.6004
 115037640.707 7  89639768.37245  21890913.781    21890912.5164   21890914.3804
        46.000          33.3004
 125271601.267 8                  23838356.437
        48.200
 108462121.834 8  84359568.543 8  20318564.813    20318565.379    20318570.099
        52.200          48.900
 131301049.438 6 102312540.31445  24985751.619    24985751.1904   24985754.9344
        38.900          30.1004
 108744180.208 8  84735826.48546  20693293.071    20693292.6824   20693293.5604
        49.200          40.7004
 141116395.554 6                  26853521.780
        38.500
 109028866.474 8  84957706.42148  20747460.982    20747460.6204   20747463.4164
        50.000          51.1004
 146999305.546 6                  27972992.795
        36.800
 120403916.200 7  93647549.989 7  22492449.967    22492450.372    22492458.599
        47.200          44.100
 108314504.506 8                  20248222.089    20248222.093
        49.900
 129300034.691 7                  24604925.026
        47.700
 107283661.122 8                  20090737.121    20090736.425
        48.400
 132658642.958 5 103370400.86444  25244098.304    25244097.7374   25244103.4214
        34.200          25.6004
 129310647.843 7 100575002.498 6  24181743.623    24181743.426    24181753.794
        44.600          38.600
 123332546.900 6  96103420.48946  23469353.198    23469352.6534   23469354.4484
        40.500          36.1004
 108770240.486 8  84599261.720 7  20361959.718    20361959.695    20361966.210
        51.800          47.600
 125424208.127 8                  23867382.218
        48.900
 127341115.092 7  99043126.605 6  23888869.079    23888869.884    23888878.505
        44.500          39.800
 129859752.856 7 101002080.309 6  24250393.753    24250394.460    24250404.450
        43.500          39.800
 110369778.492 7  86002557.42546  21002614.672    21002613.1754   21002613.1534
        46.200          37.1004
 25  1  1  2  7 45.0000000  0 32E34G25R21R11S31S35R06E21E13G24S33G12
                                G20E15R22G05G11E02G06E36R07R23E27R13
                                G09R24G17R12E30R14R08G19
 125878251.514 8                  23953783.105
        48.800
 124003148.086 6  96625903.60045  23596997.321    23596996.2894   23597002.1364
        39.100          32.5004
 129140412.880 7 100442699.502 6  24132923.955    24132924.082    24132932.333
        42.200          39.800
 131459798.024 6 102246648.797 6  24600871.259    24600870.690    24600881.432
        40.300          41.500
 198982914.188 7                  37865186.362
        45.300
 200926193.904 7                  38234983.551
        43.700
 121217093.614 6                  22716019.991    22716021.671
        36.700
 152365602.563 4                  28994207.077
        28.100
 145658321.063 6                  27717847.919
        37.600
 130255954.064 6 101498287.95445  24786833.427    24786832.9764   24786839.1404
        38.500          31.7004
 202133947.047 7                  38464785.596
        45.200
 110855908.247 8  86381357.96347  21095129.849    21095129.2414   21095129.0754
        49.300          47.6004
 114993281.154 7  89605202.52145  21882472.469    21882471.1954   21882472.9184
        46.600          33.3004
 125256653.042 8                  23835511.820
        48.600
 108488538.406 8  84380114.779 8  20323513.840    20323513.896    20323518.817
        52.400          49.000
 131242215.036 6 102266695.39844  24974555.475    24974555.0284   24974558.5154
        38.800          29.1004
 108731981.003 8  84726320.61946  20690971.580    20690971.1874   20690972.1124
        49.000          40.8004
 141160392.106 6                  26861894.118
        38.700
 109052809.321 8  84976363.18248  20752017.144    20752016.7784   20752019.5834
        50.100          51.1004
 147038527.472 6                  27980455.980
        37.300
 120363157.888 7  93615849.135 7  22484835.532    22484836.174    22484844.893
        46.600          44.400
 108301279.567 8                  20245749.999    20245749.956
        50.200
 129276813.104 8                  24600505.809
        48.300
 107274856.118 8                  20089087.316    20089087.166
        48.200
 132629458.174 5 103347659.53644  25238545.990    25238545.4494   25238549.8454
        35.700          26.7004
 129267722.433 7 100541616.061 6  24173714.403    24173715.308    24173725.354
        44.300          37.700
 123365935.181 6  96129437.31546  23475707.208    23475706.6674   23475708.1814
        40.300          36.2004
 108814902.574 8  84633998.893 7  20370320.428    20370320.346    20370327.255
        51.200          47.800
 125442441.214 8                  23870851.864
        49.100
 127282577.695 7  98997597.396 6  23877887.413    23877887.936    23877897.086
        43.400          39.300
 129801404.821 7 100956698.578 6  24239497.408    24239498.135    24239507.638
        42.200          39.300
 110393004.764 7  86020655.81246  21007034.612    21007033.1104   21007033.0214
        46.800          37.2004
 25  1  1  2  8  0.0000000  0 32E34G25R21R11S31S35R06E21E13G24S33G12
                                G20E15R22G05G11E02G06E36R07R23E27R13
                                G09R24G17R12E30R14R08G19
 125899822.625 8                  23957887.799
        48.700
 123954217.520 6  96587775.97545  23587685.899    23587684.8804   23587690.8364
        39.600          32.7004
 129186386.059 7 100478456.405 6  24141514.854    24141515.365    24141522.678
        42.700          39.500
 131527932.984 6 102299642.546 6  24613621.344    24613621.262    24613631.369
        37.800          38.400
 198982916.121 7                  37865186.129
        45.500
 200926231.312 7                  38234998.303
        44.200
 121220633.051 6                  22716685.300    22716684.996
        36.200
 152322377.232 5                  28985981.917
        35.900
 145621053.895 6                  27710755.843
        37.300
 130296326.899 6 101529747.30245  24794516.508    24794516.0524   24794522.0904
        38.000          31.5004
 202133937.819 7                  38464785.037
        45.100
 110831354.528 8  86362225.21447  21090456.996    21090456.3844   21090456.6324
        49.300          47.7004
 114949002.097 7  89570699.39145  21874045.861    21874044.5694   21874046.9364
        46.400          33.6004
 125241771.582 8                  23832680.129
        48.600
 108515003.549 8  84400698.769 8  20328471.787    20328471.821    20328476.434
        52.600          48.900
 131183372.627 6 102220844.24444  24963357.910    24963357.4684   24963361.0844
        39.100          29.9004
 108719882.076 8  84716892.89846  20688669.329    20688668.9324   20688669.7414
        48.800          40.8004
 141204417.207 6                  26870271.895
        38.400
 109076827.786 8  84995078.86948  20756587.653    20756587.2874   20756590.1544
        50.200          51.2004
 147077738.712 6                  27987917.968
        37.700
 120322513.663 7  93584237.005 7  22477242.718    22477243.095    22477252.163
        46.600          44.400
 108288132.130 8                  20243292.032    20243292.223
        50.400
 129253666.013 8                  24596101.019
        48.100
 107266255.019 8                  20087476.971    20087476.675
        48.400
 132600334.933 5 103324966.12744  25233002.601    25233002.0474   25233008.0644
        35.100          27.5004
 129224828.018 7 100508253.740 6  24165693.619    24165694.098    24165704.676
        44.500          38.500
 123399352.914 6  96155477.09746  23482065.815    23482065.2794   23482067.3654
        41.700          36.4004
 108859710.658 8  84668849.593 7  20378708.178    20378708.779    20378715.558
        51.500          47.700
 125460764.088 8                  23874338.653
        49.000
 127224112.028 7  98952124.003 6  23866919.715    23866919.323    23866928.750
        42.200          40.000
 129743031.616 7 100911297.249 6  24228595.945    24228597.003    24228605.746
        42.100          38.500
 110416296.234 7  86038805.00846  21011466.755    21011465.2534   21011465.2534
        46.700          37.3004
 25  1  1  2  8 15.0000000  0 32E34G25R21R11S31S35R06E21E13G24S33G12
                                G20E15R22G05G11E02G06E36R07R23E27R13
                                G09R24G17R12E30R14R08G19
 125921437.228 8                  23962000.870
        48.300
 123905350.512 6  96549697.87945  23578386.777    23578385.7714   23578392.0074
        39.200          33.0004
 129232336.547 7 100514195.703 6  24150101.812    24150103.000    24150110.174
        43.100          40.200
 131596045.228 5 102352618.668 6  24626366.710    24626367.273    24626377.720
        33.100          37.200
 198982916.514 7                  37865182.646
        45.400
 200926266.460 7                  38235001.187
        44.100
 121224358.565 6                  22717382.754    22717383.276
        37.000
 152279156.108 5                  28977757.396
        35.100
 145583816.664 6                  27703670.469
        37.400
 130336721.859 6 101561223.88245  24802202.533    24802202.0864   24802209.3594
        37.700          31.9004
 202133926.944 7                  38464785.149
        45.100
 110806929.552 8  86343192.78647  21085809.109    21085808.4924   21085808.6984
        49.300          47.7004
 114904802.686 7  89536258.32445  21865635.438    21865634.1554   21865636.0294
        46.100          33.6004
 125226955.705 8                  23829860.683
        48.300
 108541515.933 8  84421319.517 8  20333438.088    20333438.443    20333443.280
        52.200          48.800
 131124521.025 6 102174985.93945  24952159.009    24952158.5714   24952161.9244
        39.400          30.5004
 108707882.220 8  84707542.37646  20686385.914    20686385.5254   20686386.2134
        48.700          40.8004
 141248469.533 6                  26878655.399
        37.800
 109100920.509 8  85013852.41548  20761172.194    20761171.8324   20761174.8554
        49.900          51.1004
 147116938.023 6                  27995376.483
        36.700
 120281982.802 7  93552713.038 7  22469671.199    22469671.949    22469680.060
        46.600          44.500
 108275061.017 8                  20240848.614    20240848.687
        50.300
 129230592.487 7                  24591710.238
        47.900
 107257856.858 8                  20085904.490    20085903.840
        48.200
 132571272.526 5 103302320.16444  25227471.863    25227471.3094   25227477.5624
        35.400          27.1004
 129181963.363 7 100474914.609 6  24157677.621    24157677.936    24157688.863
        44.700          38.800
 123432799.023 6  96181538.98146  23488430.340    23488429.8084   23488432.0534
        41.900          36.7004
 108904663.214 8  84703812.684 7  20387123.383    20387123.604    20387130.731
        50.900          47.800
 125479175.515 8                  23877842.209
        48.700
 127165717.385 7  98906705.904 6  23855965.479    23855966.151    23855974.697
        44.100          39.900
 129684632.360 7 100865875.655 6  24217691.261    24217692.433    24217700.831
        43.300          38.700
 110439651.667 7  86057004.04446  21015911.188    21015909.6864   21015909.6164
        46.400          37.3004
 25  1  1  2  8 30.0000000  0 31E34G25R21S31S35R06E21E13G24S33G12G20
                                E15R22G05G11E02G06E36R07R23E27R13G09
                                R24G17R12E30R14R08G19
 125943101.040 8                  23966123.321
        48.200
 123856553.261 6  96511674.14145  23569101.095    23569100.1164   23569106.0974
        40.200          33.1004
 129278270.540 7 100549922.158 6  24158686.132    24158687.415    24158693.910
        43.700          39.300
 198982920.768 7                  37865188.423
        45.500
 200926305.166 7                  38235011.409
        44.200
 121228276.067 6                  22718117.630    22718117.369
        37.400
 152235945.163 5                  28969534.754
        33.500
 145546615.210 6                  27696590.937
        37.800
 130377144.462 6 101592722.00445  24809895.443    24809894.9784   24809901.5114
        38.400          31.5004
 202133918.462 7                  38464783.767
        45.100
 110782639.374 8  86324265.39247  21081186.917    21081186.2874   21081186.4094
        49.100          47.6004
 114860689.127 7  89501884.15645  21857240.921    21857239.6384   21857241.4344
        46.200          33.5004
 125212211.215 8                  23827054.764
        48.100
 108568081.310 8  84441981.486 8  20338415.066    20338415.274    20338419.757
        52.600          48.800
 131065666.581 6 102129125.41745  24940959.579    24940959.1144   24940962.4504
        38.700          30.4004
 108695987.231 8  84698273.56546  20684122.328    20684121.9484   20684122.6334
        48.600          40.7004
 141292554.833 6                  26887044.512
        38.100
 109125093.084 8  85032688.18548  20765772.291    20765771.9254   20765774.7374
        49.900          51.0004
 147156131.130 6                  28002835.398
        36.900
 120241571.488 7  93521282.074 7  22462122.344    22462122.836    22462131.134
        47.200          44.400
 108262072.103 8                  20238420.410    20238420.448
        50.200
 129207598.544 7                  24587334.784
        47.800
 107249667.445 8                  20084370.622    20084370.414
        48.300
 132542277.156 6 103279726.41944  25221954.194    25221953.6624   25221959.9554
        36.500          28.1004
 129139134.529 7 100441603.334 6  24149667.990    24149668.974    24149679.387
        44.900          38.600
 123466279.255 7  96207627.45546  23494801.424    23494800.8974   23494803.3014
        42.300          36.6004
 108949765.710 8  84738892.395 7  20395567.040    20395567.136    20395573.821
        51.100          47.700
 125497681.356 8                  23881363.863
        48.600
 127107400.359 7  98861348.248 6  23845025.348    23845025.030    23845034.143
        43.300          39.500
 129626213.547 6 100820438.929 6  24206781.152    24206781.173    24206792.084
        41.300          38.800
 110463076.846 7  86075257.42646  21020368.983    21020367.4944   21020367.2784
        47.000          37.2004
 25  1  1  2  8 45.0000000  0 31E34G25R21S31S35R06E21E13G24S33G12G20
                                E15R22G05G11E02G06E36R07R23E27R13G09
                                R24G17R12E30R14R08G19
 125964808.608 8                  23970254.304
        48.200
 123807820.830 6  96473700.90645  23559827.166    23559826.1964   23559832.3414
        40.400          33.1004
 129324182.451 7 100585631.406 6  24167265.837    24167266.559    24167273.733
        44.500          39.700
 198982922.500 7                  37865187.448
        45.400
 200926342.831 7                  38235014.857
        43.700
 121232380.422 6                  22718886.878    22718886.166
        36.800
 152192739.120 5                  28961312.605
        34.700
 145509444.377 6                  27689517.610
        36.900
 130417589.038 6 101624237.25345  24817591.966    24817591.4844   24817597.6614
        38.100          31.5004
 202133909.302 7                  38464779.063
        44.800
 110758479.061 8  86305439.18847  21076589.351    21076588.7124   21076588.7984
        49.500          47.6004
 114816656.475 7  89467573.02945  21848861.559    21848860.2674   21848862.2894
        46.600          33.5004
 125197532.797 8                  23824261.615
        48.200
 108594694.100 8  84462680.304 8  20343400.697    20343400.552    20343405.165
        52.900          48.800
 131006804.233 6 102083258.74745  24929758.766    24929758.3154   24929761.5054
        39.700          30.5004
 108684191.790 8  84689082.32346  20681877.875    20681877.5044   20681878.0174
        49.100          40.8004
 141336667.662 6                  26895438.348
        38.400
 109149339.998 8  85051581.88348  20770386.180    20770385.8184   20770388.7904
        50.400          51.0004
 147195312.616 6                  28010291.435
        36.400
 120201274.889 7  93489940.316 7  22454593.951    22454594.609    22454603.037
        46.400          44.200
 108249159.782 8                  20236006.634    20236006.591
        49.900
 129184679.100 7                  24582973.316
        47.800
 107241681.692 8                  20082874.969    20082874.889
        48.400
 132513343.866 6 103257181.06744  25216448.137    25216447.6144   25216454.0914
        36.300          27.4004
 129096336.263 7 100408315.824 6  24141665.070    24141664.622    24141676.086
        44.100          38.900
 123499788.324 6  96233738.40646  23501178.567    23501178.0224   23501179.6434
        41.000          36.3004
 108995012.259 8  84774084.121 8  20404037.739    20404037.467    20404044.246
        51.400          48.000
 125516276.276 8                  23884902.319
        48.600
 127049156.082 7  98816047.190 6  23834097.734    23834098.625    23834107.725
        43.200          39.400
 129567770.390 7 100774983.218 6  24195867.215    24195868.272    24195877.493
        43.000          38.600
 110486566.626 7  86093561.14946  21024838.927    21024837.4564   21024837.2694
        46.800          37.2004
 25  1  1  2  9  0.0000000  0 31E34G25R21S31S35R06E21E13G24S33G12G20
                                E15R22G05G11E02G06E36R07R23E27R13G09
                                R24G17R12E30R14R08G19
 125986559.314 8                  23974393.312
        48.400
 123759153.140 6  96435778.11245  23550566.427    23550565.4624   23550571.0164
        39.700          33.0004
 129370071.863 7 100621323.223 6  24175841.687    24175841.744    24175849.571
        42.300          39.200
 198982923.229 7                  37865183.424
        45.400
 200926378.070 7                  38235025.750
        44.300
 121236671.138 6                  22719691.287    22719690.834
        37.400
 152149537.845 5                  28953091.623
        31.700
 145472303.709 6                  27682449.566
        37.600
 130458054.741 6 101655768.95945  24825292.083    24825291.6014   24825298.4174
        38.700          31.8004
 202133898.545 7                  38464780.306
        45.400
 110734448.411 8  86286714.02547  21072016.445    21072015.8024   21072015.8894
        49.400          47.5004
 114772704.546 7  89433324.80345  21840497.836    21840496.5404   21840498.5264
        46.600          33.7004
 125182919.948 8                  23821480.859
        48.200
 108621353.681 8  84483415.540 8  20348394.788    20348394.925    20348399.524
        52.500          48.600
 130947934.000 6 102037385.92145  24918555.388    24918554.9374   24918559.0084
        39.500          30.7004
 108672495.384 8  84679968.25746  20679651.846    20679651.4714   20679652.2494
        49.400          40.8004
 141380807.395 6                  26903838.244
        38.200
 109173660.590 8  85070532.99348  20775014.239    20775013.8684   20775016.8614
        50.000          51.0004
 147234481.995 6                  28017744.911
        37.600
 120161093.356 7  93458688.086 7  22447088.302    22447087.993    22447097.016
        46.800          44.200
 108236323.556 8                  20233606.452    20233606.876
        49.900
 129161833.882 8                  24578625.900
        48.000
 107233899.324 7                  20081417.220    20081417.323
        47.900
 132484472.538 5 103234683.97844  25210954.274    25210953.7654   25210959.8534
        35.100          26.7004
 129053567.961 7 100375051.629 6  24133667.141    24133667.425    24133677.511
        44.200          38.500
 123533325.847 6  96259871.52146  23507560.636    23507560.1044   23507561.6104
        41.600          36.4004
 109040401.926 8  84809387.192 7  20412534.345    20412534.480    20412541.107
        51.200          47.800
 125534959.793 8                  23888457.578
        48.700
 126990984.584 7  98770802.756 6  23823184.949    23823185.397    23823194.953
        43.400          39.900
 129509302.771 7 100729508.509 6  24184948.256    24184949.236    24184959.423
        42.500          40.200
 110510120.518 7  86111914.82446  21029321.248    21029319.7734   21029319.4094
        47.200          37.3004
 25  1  1  2  9 15.0000000  0 32E34G25R21G04S31S35R06E21E13G24S33G12
                                G20E15R22G05G11E02G06E36R07R23E27R13
                                G09R24G17R12E30R14R08G19
 126008358.748 8                  23978541.372
        48.200
 123710556.205 6  96397910.46145  23541318.659    23541317.6894   23541323.6294
        40.300          33.4004
 129415944.587 7 100657002.015 6  24184414.265    24184415.137    24184421.243
        43.500          39.200
 134912045.636 5                  25672908.532
        35.100
 198982927.568 7                  37865185.673
        45.500
 200926417.658 7                  38235033.459
        44.300
 121241153.948 6                  22720530.272    22720530.583
        36.700
 152106347.367 6                  28944872.709
        36.000
 145435199.012 6                  27675389.274
        37.200
 130498546.942 6 101687321.31145  24832996.885    24832996.4034   24833003.6984
        38.700          31.3004
 202133890.798 7                  38464782.184
        45.200
 110710553.481 8  86268094.61347  21067469.406    21067468.7634   21067468.8124
        49.900          47.5004
 114728839.609 7  89399144.36745  21832150.699    21832149.4214   21832151.2184
        46.600          33.7004
 125168378.363 8                  23818713.686
        48.200
 108648065.671 8  84504191.539 8  20353398.488    20353398.903    20353403.565
        52.200          48.600
 130889061.482 6 101991511.32345  24907352.745    24907352.2724   24907355.6444
        39.000          30.4004
 108660903.673 8  84670935.76846  20677446.176    20677445.7964   20677446.3584
        49.400          40.8004
 141424979.623 6                  26912243.673
        38.600
 109198060.326 8  85089545.77048  20779657.429    20779657.0584   20779660.0024
        50.200          50.9004
 147273644.914 6                  28025196.746
        37.600
 120121033.206 7  93427530.254 7  22439604.541    22439604.643    22439613.823
        46.700          44.800
 108223569.102 8                  20231222.665    20231222.563
        50.000
 129139068.802 7                  24574293.841
        47.900
 107226326.101 8                  20079999.625    20079999.135
        48.100
 132455669.260 6 103212239.92844  25205472.830    25205472.3304   25205478.9324
        36.100          27.1004
 129010835.497 7 100341815.360 6  24125675.839    24125676.036    24125686.883
        44.700          38.600
 123566897.645 7  96286031.34646  23513948.510    23513947.9744   23513950.1104
        42.800          36.7004
 109085940.239 8  84844805.876 7  20421058.966    20421059.092    20421066.112
        50.800          47.800
 125553737.572 8                  23892031.005
        48.600
 126932891.886 7  98725619.483 6  23812287.133    23812286.989    23812296.679
        42.600          39.900
 129450817.039 7 100684019.750 6  24174026.814    24174027.902    24174036.474
        42.600          39.300
 110533744.408 7  86130323.04946  21033816.571    21033815.1004   21033814.8924
        47.200          37.3004
 25  1  1  2  9 30.0000000  0 32E34G25R21G04S31S35R06E21E13G24S33G12
                                G20E15R22G05G11E02G06E36R07R23E27R13
                                G09R24G17R12E30R14R08G19
 126030199.282 8                  23982697.650
        48.100
 123662022.942 6  96360092.41945  23532082.964    23532081.9724   23532087.8064
        40.600          33.5004
 129461792.863 7 100692661.762 6  24192982.477    24192982.927    24192989.301
        44.500          38.800
 134894424.848 5                  25669555.551    25669555.3284
        34.500
 198982927.291 7                  37865184.081
        45.500
 200926453.406 7                  38235040.761
        44.300
 121245821.368 6                  22721405.653    22721404.848
        36.900
 152063160.134 5                  28936654.455
        35.200
 145398122.946 6                  27668333.620
        36.500
 130539057.825 6 101718888.22045  24840706.860    24840706.3784   24840712.5474
        38.100          31.5004
 202133880.487 7                  38464776.138
        45.500
 110686787.059 8  86249575.34347  21062946.612    21062945.9644   21062946.1784
        49.300          47.6004
 114685054.246 7  89365025.92845  21823818.341    21823817.0814   21823819.1054
        46.300          33.7004
 125153900.532 8                  23815958.530
        48.300
 108674822.279 8  84525002.202 8  20358411.098    20358411.217    20358416.075
        52.600          48.700
 130830180.085 6 101945629.79845  24896147.956    24896147.4834   24896150.6664
        40.200          31.1004
 108649409.178 8  84661979.02946  20675258.766    20675258.3914   20675259.0324
        49.300          40.9004
 141469176.728 6                  26920654.074
        38.900
 109222531.533 8  85108614.24048  20784314.092    20784313.7174   20784316.7324
        50.100          51.0004
 147312793.766 6                  28032646.777
        37.100
 120081087.298 7  93396461.257 7  22432141.781    22432142.051    22432151.369
        46.500          44.700
 108210888.763 8                  20228851.825    20228852.142
        49.900
 129116376.596 7                  24569975.616
        47.900
 107218954.658 7                  20078619.357    20078618.602
        47.700
 132426926.979 5 103189843.38844  25200004.087    25200003.5874   25200009.0914
        34.800          27.2004
 128968131.373 7 100308601.098 6  24117689.242    24117689.817    24117700.618
        44.200          39.300
 123600496.237 6  96312212.05146  23520342.505    23520341.9644   23520343.9044
        41.800          36.8004
 109131619.084 8  84880333.840 7  20429610.232    20429610.448    20429617.366
        51.000          47.700
 125572602.148 8                  23895620.738
        48.800
 126874871.315 7  98680492.446 6  23801402.791    23801403.346    23801412.298
        43.700          40.400
 129392306.097 7 100638511.306 6  24163099.882    24163100.946    24163110.641
        42.300          40.200
 110557430.782 7  86148779.96046  21038323.804    21038322.3294   21038322.2704
        46.800          37.4004
 25  1  1  2  9 45.0000000  0 32E34G25R21G04S31S35R06E21E13G24S33G12
                                G20E15R22G05G11E02G06E36R07R23E27R13
                                G09R24G17R12E30R14R08G19
 126052086.241 8                  23986862.613
        48.100
 123613559.187 6  96322328.53345  23522859.833    23522858.8274   23522865.4154
        40.000          33.7004
 129507622.311 7 100728306.907 6  24201545.888    24201546.424    24201553.142
        43.600          38.300
 134876902.393 6 105098894.53643  25666220.814    25666220.5694   25666222.5474
        37.600          18.4004
 198982929.915 7                  37865182.802
        45.300
 200926490.964 7                  38235043.372
        44.000
 121250678.965 6                  22722315.960    22722316.164
        37.800
 152019981.860 5                  28928438.004
        33.900
 145361080.986 6                  27661284.708
        37.300
 130579592.459 6 101750473.64445  24848420.003    24848419.5304   24848426.1234
        39.000          32.0004
 202133870.528 7                  38464771.220
        45.200
 110663154.810 8  86231160.61847  21058450.111    21058449.4504   21058449.0804
        49.900          47.7004
 114641354.155 7  89330973.94045  21815502.682    21815501.4304   21815503.2024
        46.500          33.8004
 125139491.882 8                  23813216.677
        48.100
 108701628.919 8  84545851.816 8  20363432.758    20363433.014    20363437.940
        52.400          48.600
 130771295.265 6 101899745.60445  24884942.141    24884941.6684   24884944.8694
        40.100          31.1004
 108638017.297 8  84653102.25246  20673090.960    20673090.5804   20673091.1944
        49.100          41.0004
 141513404.041 6                  26929070.321
        38.000
 109247079.475 8  85127742.50248  20788985.336    20788984.9564   20788988.0614
        49.900          51.1004
 147351933.898 6                  28040094.566
        37.400
 120041261.713 7  93365485.834 7  22424702.552    22424702.997    22424711.304
        46.500          44.600
 108198288.032 8                  20226496.428    20226496.473
        49.500
 129093762.918 7                  24565672.530
        47.900
 107211790.796 7                  20077277.232    20077276.878
        47.600
 132398251.534 5 103167498.96444  25194547.214    25194546.7094   25194552.2894
        35.900          27.3004
 128925461.024 7 100275413.128 6  24109709.662    24109709.701    24109721.281
        44.100          39.200
 123634127.237 7  96338417.99946  23526741.637    23526741.1014   23526743.5744
        42.300          36.7004
 109177443.469 8  84915975.008 7  20438188.736    20438188.836    20438195.959
        50.800          47.700
 125591558.962 8                  23899228.132
        48.600
 126816928.637 7  98635425.905 6  23790534.274    23790533.551    23790542.177
        44.300          39.900
 129333776.028 7 100592988.012 6  24152169.053    24152170.351    24152180.958
        42.500          40.100
 110581185.247 7  86167289.93146  21042844.170    21042842.7044   21042842.6064
        47.200          37.5004
 25  1  1  2 10  0.0000000  0 32E34G25R21G04S31S35R06E21E13G24S33G12
                                G20E15R22G05G11E02G06E36R07R23E27R13
                                G09R24G17R12E30R14R08G19
 126074015.427 8                  23991035.534
        48.100
 123565161.247 6  96284615.94245  23513650.307    23513649.3194   23513655.5544
        39.800          33.6004
 129553428.882 7 100763934.271 6  24210106.573    24210106.219    24210113.813
        43.500          38.500
 134859474.524 6 105085314.41742  25662904.446    25662904.2544   25662905.7654
        36.800          17.0004
 198982930.553 7                  37865184.421
        45.500
 200926525.936 7                  38235054.399
        44.200
 121255722.714 6                  22723259.580    22723261.094
        37.900
 151976808.814 5                  28920222.807
        33.600
 145324069.209 6                  27654241.569
        37.600
 130620146.488 6 101782074.17445  24856136.935    24856136.4704   24856142.9894
        38.200          31.7004
 202133859.102 7                  38464770.969
        45.400
 110639653.007 8  86212847.53747  21053977.387    21053976.7264   21053976.8094
        49.300          47.7004
 114597735.677 7  89296985.54045  21807202.296    21807201.0314   21807202.8114
        46.700          33.8004
 125125148.312 8                  23810487.391
        48.000
 108728481.242 8  84566736.957 8  20368463.282    20368463.353    20368468.198
        52.200          48.700
 130712403.512 6 101853856.00645  24873734.820    24873734.3334   24873738.0884
        39.900          31.1004
 108626723.923 8  84644302.22946  20670942.043    20670941.6774   20670942.0974
        49.000          41.0004
 141557657.384 6                  26937491.592
        37.900
 109271699.833 8  85146927.19548  20793670.343    20793669.9684   20793673.1864
        49.600          51.0004
 147391061.149 6                  28047540.358
        37.600
 120001552.901 7  93334601.242 7  22417284.968    22417285.071    22417292.829
        47.700          44.600
 108185762.661 8                  20224154.884    20224154.931
        49.800
 129071223.898 8                  24561383.596
        48.000
 107204830.343 7                  20075974.281    20075973.427
        47.500
 132369639.175 5 103145203.67644  25189101.855    25189101.3504   25189107.1454
        34.900          26.6004
 128882820.391 7 100242248.248 6  24101736.079    24101736.123    24101746.540
        43.600          39.000
 123667786.496 7  96364645.98446  23533147.341    23533146.7914   23533148.6324
        42.000          36.7004
 109223408.924 8  84951725.910 7  20446793.746    20446794.018    20446800.412
        51.400          47.500
 125610603.874 8                  23902852.366
        48.600
 126759060.037 7  98590416.897 6  23779678.075    23779679.059    23779686.562
        45.800          39.900
 129275223.282 7 100547447.045 6  24141235.474    24141236.778    24141245.914
        42.800          39.000
 110605003.713 7  86185849.77246  21047376.529    21047375.0724   21047375.0964
        46.800          37.6004
 25  1  1  2 10 15.0000000  0 32E34G25R21G04S31S35R06E21E13G24S33G12
                                G20E15R22G05G11E02G06E36R07R23E27R13
                                G09R24G17R12E30R14R08G19
 126095989.435 8                  23995217.130
        48.300
 123516832.199 6  96246957.02945  23504453.564    23504452.5854   23504458.6074
        40.300          33.6004
 129599215.161 7 100799545.823 6  24218662.928    24218663.630    24218670.370
        44.000          38.700
 134842144.230 5 105071810.25942  25659607.172    25659606.8954   25659607.8104
        35.400          15.5004
 198982930.523 7                  37865189.429
        45.600
 200926561.430 7                  38235058.840
        43.900
 121260955.311 6                  22724241.424    22724241.337
        36.900
 151933643.883 6                  28912008.319
        37.100
 145287090.409 6                  27647204.820
        38.100
 130660722.240 6 101813691.63945  24863858.758    24863858.2894   24863863.9754
        37.100          31.2004
 202133847.937 7                  38464762.209
        45.100
 110616284.578 8  86194638.38547  21049530.554    21049529.8974   21049529.9244
        49.400          47.8004
 114554201.934 7  89263063.17245  21798917.965    21798916.6824   21798918.5674
        47.000          34.0004
 125110872.560 8                  23807770.716
        48.300
 108755381.941 8  84587659.704 8  20373502.699    20373502.764    20373507.475
        52.500          48.600
 130653507.635 6 101807963.18845  24862527.091    24862526.6004   24862530.7134
        39.600          31.4004
 108615531.771 8  84635581.08546  20668812.136    20668811.7704   20668812.2904
        49.000          41.1004
 141601939.357 6                  26945918.593
        38.400
 109296395.144 8  85166170.28948  20798369.770    20798369.3954   20798372.5754
        49.600          51.1004
 147430178.207 6                  28054984.378
        37.000
 119961964.319 8  93303810.158 7  22409889.130    22409889.714    22409897.347
        48.200          44.300
 108173315.359 8                  20221827.928    20221827.988
        50.100
 129048762.488 8                  24557109.297
        48.200
 107198076.277 7                  20074708.968    20074708.781
        47.700
 132341093.018 6 103122959.97244  25183671.069    25183670.5694   25183675.0454
        36.000          27.7004
 128840212.409 7 100209108.798 6  24093767.927    24093768.371    24093779.709
        45.500          39.700
 123701476.814 7  96390898.16546  23539558.015    23539557.4394   23539559.9064
        42.200          36.9004
 109269517.743 8  84987588.300 7  20455425.187    20455425.139    20455432.231
        50.600          47.500
 125629739.633 8                  23906493.689
        48.900
 126701269.415 7  98545468.647 6  23768835.786    23768836.483    23768844.908
        44.100          39.500
 129216651.034 7 100501890.948 6  24130297.301    24130297.763    24130308.567
        42.400          39.800
 110628888.691 7  86204461.43746  21051921.740    21051920.2834   21051920.2374
        47.200          37.7004
 25  1  1  2 10 30.0000000  0 32E34G25R21G04S31S35R06E21E13G24S33G12
                                G20E15R22G05G11E02G06E36R07R23E27R13
                                G09R24G17R12E30R14R08G19
 126118008.682 8                  23999407.361
        48.100
 123468572.987 6  96209352.54045  23495270.272    23495269.2754   23495274.8294
        40.300          33.7004
 129644981.699 7 100835142.024 6  24227214.897    24227214.852    24227222.138
        42.800          38.100
 134824912.351 5 105058382.91742  25656327.543    25656327.2444   25656329.0464
        34.500          14.9004
 198982932.104 7                  37865190.198
        45.700
 200926597.779 7                  38235066.625
        44.200
 121266377.503 6                  22725257.267    22725257.307
        37.100
 151890487.869 6                  28903796.403
        36.700
 145250145.194 6                  27640174.195
        37.100
 130701319.955 6 101845326.21145  24871584.775    24871584.3374   24871589.6374
        38.800          31.8004
 202133838.244 7                  38464765.268
        45.300
 110593050.620 8  86176534.01747  21045109.331    21045108.6704   21045108.6164
        49.300          47.7004
 114510753.815 7  89229207.52245  21790650.146    21790648.8594   21790650.7114
        46.400          33.9004
 125096665.129 8                  23805067.258
        48.200
 108782331.352 8  84608620.369 8  20378551.026    20378551.382    20378556.053
        52.300          48.700
 130594608.676 6 101762067.98245  24851319.306    24851318.8104   24851322.9544
        40.800          31.9004
 108604441.345 8  84626939.20646  20666701.573    20666701.2074   20666701.8404
        49.300          41.1004
 141646250.325 6                  26954350.179
        37.600
 109321165.755 8  85185472.06448  20803083.448    20803083.0734   20803086.2824
        49.500          51.0004
 147469285.770 6                  28062426.505
        37.700
 119922496.762 7  93273113.218 7  22402516.165    22402516.979    22402524.196
        47.500          44.300
 108160946.563 8                  20219515.535    20219515.716
        49.200
 129026379.475 8                  24552849.694
        48.000
 107191529.302 7                  20073483.113    20073482.693
        47.600
 132312614.053 6 103100768.62544  25178251.709    25178251.2224   25178255.6674
        36.800          28.2004
 128797637.708 7 100175995.245 6  24085806.316    24085806.280    24085817.628
        44.600          39.700
 123735198.833 7  96417175.03146  23545975.253    23545974.6864   23545977.0464
        42.000          36.9004
 109315769.979 8  85023562.245 7  20464083.869    20464084.065    20464091.130
        51.200          47.500
 125648966.772 8                  23910152.499
        48.700
 126643557.603 7  98500581.657 6  23758009.438    23758010.358    23758017.974
        44.900          39.600
 129158060.399 7 100456320.496 6  24119355.501    24119356.176    24119366.475
        42.800          40.200
 110652840.856 7  86223125.45646  21056479.646    21056478.1894   21056478.1804
        47.500          37.6004
 25  1  1  2 10 45.0000000  0 33E34G25R21G04S31S35R06E21E13G24S33G12
                                G20E15R22G05G11E02G06E36R07R23E27R13
                                E05G09R24G17R12E30R14R08G19
 126140069.829 8                  24003605.358
        48.000
 123420380.772 6  96171800.25845  23486099.412    23486098.4154   23486104.1034
        39.500          33.7004
 129690725.400 7 100870720.470 6  24235762.908    24235763.311    24235771.169
        43.000          38.800
 134807776.096 5 105045030.01442  25653066.515    25653066.1944   25653068.2674
        35.700          17.4004
 198982932.445 7                  37865189.470
        45.500
 200926632.875 7                  38235073.158
        44.400
 121271985.955 6                  22726309.204    22726309.230
        38.400
 151847337.609 6                  28895584.805
        36.200
 145213230.466 6                  27633149.675
        36.800
 130741936.038 6 101876975.09145  24879313.577    24879313.1484   24879318.8734
        37.400          31.9004
 202133826.613 7                  38464764.065
        45.600
 110569947.864 8  86158531.88347  21040713.034    21040712.3824   21040712.2694
        49.600          47.8004
 114467388.341 7  89195416.27145  21782397.997    21782396.7054   21782398.3814
        46.600          33.9004
 125082522.808 8                  23802375.838
        48.100
 108809326.065 8  84629616.263 8  20383608.436    20383608.756    20383613.235
        53.000          48.700
 130535703.761 6 101716168.12845  24840110.194    24840109.6804   24840113.7724
        40.200          32.0004
 108593449.419 8  84618374.08346  20664609.766    20664609.3914   20664610.1144
        49.500          41.1004
 141690587.004 6                  26962787.222
        38.400
 109346008.254 8  85204829.85248  20807810.977    20807810.6024   20807813.6734
        49.600          51.0004
 147508380.450 6                  28069865.717
        36.700
 119883147.862 8  93242508.578 7  22395165.775    22395166.003    22395174.149
        48.100          44.700
 108148652.974 8                  20217217.963    20217217.687
        50.000
 129004071.800 7                  24548604.628
        47.900
 107185186.323 7                  20072295.017    20072294.780
        47.600


 132284199.375 6 103078627.37444  25172844.241    25172843.7504   25172848.3264
        36.900          28.2004
 128755092.873 7 100142904.944 6  24077850.037    24077850.821    24077861.068
        44.900          39.700
 123768949.317 6  96443474.08746  23552397.962    23552397.3994   23552399.4954
        41.400          36.6004
 109362162.091 8  85059644.986 7  20472768.460    20472768.537    20472775.643
        50.800          47.600
 125668282.069 8                  23913828.077
        48.600
 126585921.766 7  98455753.814 6  23747197.431    23747197.353    23747205.550
        44.700          39.600
 129099448.726 7 100410733.689 6  24108410.833    24108412.332    24108421.611
        44.000          40.000
 110676857.319 7  86241839.58246  21061049.735    21061048.2604   21061048.4104
        47.400          37.6004
 25  1  1  2 11  0.0000000  0 33E34G25R21G04S31S35R06E21E13G24S33G12
                                G20E15R22G05G11E02G06E36R07R23E27R13
                                E05G09R24G17R12E30R14R08G19
 126162177.232 8                  24007812.314
        48.000
 123372260.375 6  96134303.94145  23476942.180    23476941.1704   23476946.9044
        40.600          34.1004
 129736450.686 7 100906284.584 6  24244308.474    24244308.855    24244315.251
        44.300          38.700
 134790739.952 5 105031755.07942  25649825.015    25649824.6714   25649825.8404
        35.900          17.4004
 198982934.024 7                  37865188.955
        45.400
 200926669.810 7                  38235074.629
        43.700
 121277785.340 6                  22727396.672    22727395.275
        37.300
 151804197.823 5                  28887375.442
        32.400
 145176350.772 6                  27626131.789
        37.000
 130782574.662 6 101908641.55445  24887046.241    24887045.8124   24887051.7304
        38.500          32.2004
 202133817.142 7                  38464759.231
        45.100
 110546981.153 8  86140635.75948  21036342.569    21036341.9124   21036341.8304
        49.500          48.1004
 114424110.627 7  89161693.40045  21774162.386    21774161.0904   21774162.7834
        46.500          34.2004
 125068450.042 7                  23799698.001
        47.900
 108836370.509 8  84650650.834 8  20388674.112    20388674.546    20388679.556
        52.300          48.700
 130476797.960 6 101670267.57145  24828900.634    24828900.1114   24828903.9554
        40.300          32.0004
 108582560.414 8  84609889.15246  20662537.833    20662537.4584   20662538.0004
        49.400          41.4004
 141734953.696 6                  26971230.068
        38.300
 109370926.900 8  85224246.97648  20812552.745    20812552.3704   20812555.5514
        49.600          51.3004
 147547466.561 6                  28077303.639
        37.000
 119843922.508 8  93212000.027 7  22387837.631    22387838.538    22387846.783
        48.500          44.600
 108136438.956 8                  20214934.652    20214934.400
        49.900
 128981844.190 7                  24544375.100
        47.900
 107179051.945 7                  20071146.607    20071145.761
        47.300


 132255853.828 6 103056539.97644  25167449.993    25167449.4844   25167454.3104
        36.400          28.6004
 128712582.457 7 100109841.369 6  24069901.295    24069901.242    24069911.709
        44.500          39.800
 123802732.699 6  96469798.77646  23558827.080    23558826.5264   23558828.2124
        41.200          37.0004
 109408698.052 8  85095839.609 7  20481480.392    20481480.255    20481487.253
        50.900          47.700
 125687689.969 8                  23917521.227
        48.500
 126528367.036 7  98410989.003 6  23736399.717    23736399.932    23736408.818
        43.500          39.600
 129040821.026 7 100365134.446 6  24097461.929    24097462.647    24097472.633
        42.300          40.500
 110700942.489 7  86260607.23946  21065633.295    21065631.8204   21065631.6274
        47.600          37.9004
 25  1  1  2 11 15.0000000  0 33E34G25R21G04S31S35R06E21E13G24S33G12
                                G20E15R22G05G11E02G06E36R07R23E27R13
                                E05G09R24G17R12E30R14R08G19
 126184328.811 8                  24012027.544
        48.100
 123324210.233 6  96096862.36145  23467798.139    23467797.1384   23467803.1834
        40.000          34.1004
 129782155.471 7 100941832.758 6  24252849.065    24252849.233    24252856.412
        43.300          38.200
 134773802.335 6 105018556.98142  25646601.900    25646601.5474   25646602.4584
        36.500          16.7004
 198982936.327 7                  37865186.451
        45.400
 200926707.552 7                  38235086.640
        44.200
 121283773.625 6                  22728517.899    22728517.679
        37.600
 151761066.785 5                  28879168.260
        35.300
 145139504.290 6                  27619119.873
        37.900
 130823233.524 6 101940323.77445  24894783.265    24894782.8094   24894788.8444
        38.900          32.1004
 202133807.448 7                  38464761.123
        45.200
 110524148.816 8  86122844.34348  21031997.706    21031997.0544   21031996.9924
        49.400          48.2004
 114380918.767 7  89128037.42845  21765943.323    21765942.0314   21765943.6594
        46.300          34.3004
 125054444.866 8                  23797032.753
        48.300
 108863462.528 8  84671722.405 8  20393749.780    20393749.927    20393754.602
        52.300          48.700
 130417889.357 6 101624364.83645  24817690.176    24817689.6404   24817693.8844
        40.200          32.1004
 108571772.389 8  84601482.91346  20660484.776    20660484.3964   20660485.0644
        49.500          41.5004
 141779348.363 6                  26979677.888
        38.800
 109395919.554 8  85243721.77248  20817308.522    20817308.1474   20817311.5074
        49.600          51.3004
 147586542.153 6                  28084739.066
        37.800
 119804819.442 8  93181586.583 7  22380533.485    22380533.231    22380541.699
        48.000          44.500
 108124302.590 8                  20212665.147    20212665.490
        49.400
 128959694.893 8                  24540160.070
        48.000
 107173124.226 7                  20070035.834    20070035.828
        47.600


 132227575.993 6 103034505.37244  25162068.491    25162067.9824   25162073.3484
        37.700          29.0004
 128670104.761 7 100076803.306 6  24061956.371    24061957.387    24061968.475
        44.300          39.500
 123836547.142 6  96496147.66546  23565261.422    23565260.8644   23565262.9404
        41.800          37.0004
 109455375.386 8  85132144.200 7  20490217.665    20490218.132    20490225.269
        50.700          47.700
 125707188.541 8                  23921231.870
        48.700
 126470892.076 7  98366286.298 6  23725617.839    23725618.211    23725626.264
        45.300          39.900
 128982175.881 7 100319521.597 6  24086510.460    24086512.122    24086521.490
        43.100          40.600
 110725094.119 7  86279426.68846  21070229.227    21070227.7474   21070227.5344
        47.100          38.0004
 25  1  1  2 11 30.0000000  0 33E34G25R21G04S31S35R06E21E13G24S33G12
                                G20E15R22G05G11E02G06E36R07R23E27R13
                                E05G09R24G17R12E30R14R08G19
 126206525.163 7                  24016251.524
        47.900
 123276231.482 6  96059476.40745  23458668.634    23458667.6514   23458673.1184
        39.900          34.0004
 129827840.776 7 100977365.803 6  24261387.627    24261386.786    24261394.041
        43.400          38.500
 134756964.406 5 105005436.56442  25643397.347    25643396.9904   25643398.5314
        34.900          16.1004
 198982940.718 7                  37865189.045
        45.300
 200926746.898 7                  38235093.048
        43.800
 121289951.633 6                  22729676.137    22729675.794
        37.200
 151717945.482 5                  28870962.879
        35.800
 145102691.802 6                  27612114.581
        37.200
 130863913.011 6 101972022.05845  24902523.951    24902523.4954   24902530.3014
        38.900          31.8004
 202133799.967 7                  38464759.687
        45.200
 110501451.802 8  86105158.37348  21027678.632    21027677.9754   21027677.8784
        49.900          48.1004
 114337813.797 7  89094449.16645  21757740.706    21757739.4284   21757741.0274
        46.400          34.1004
 125040507.990 8                  23794380.657
        48.000
 108890602.650 8  84692831.375 8  20398833.808    20398834.184    20398838.967
        52.500          48.400
 130358979.239 6 101578460.91645  24806480.642    24806480.1154   24806483.4594
        39.800          32.3004
 108561086.021 8  84593155.88446  20658451.387    20658451.0074   20658451.4824
        49.300          41.4004
 141823771.595 6                  26988131.154
        38.500
 109420986.734 8  85263254.63548  20822078.807    20822078.4274   20822081.6464
        49.400          51.2004
 147625607.894 6                  28092173.564
        37.400
 119765839.663 7  93151269.025 7  22373251.185    22373251.815    22373259.488
        47.300          44.600
 108112244.413 8                  20210411.453    20210411.408
        49.700
 128937624.849 8                  24535960.294
        48.000
 107167404.218 7                  20068965.263    20068964.543
        47.300
 143944448.770 5                  27391717.722
        34.500
 132199366.814 6 103012524.23744  25156700.874    25156700.3654   25156705.3084
        37.400          29.7004
 128627660.473 7 100043791.194 6  24054019.604    24054019.765    24054029.923
        44.500          38.800
 123870393.347 7  96522521.30646  23571701.770    23571701.2074   23571703.7534
        42.000          36.9004
 109502194.592 8  85168559.112 7  20498983.107    20498983.054    20498989.949
        51.200          47.700
 125726778.461 8                  23924959.736
        48.500
 126413498.187 7  98321646.690 6  23714850.144    23714851.201    23714859.152
        45.100          39.900
 128923514.596 7 100273896.259 6  24075556.208    24075557.282    24075566.784
        42.700          40.300
 110749313.148 7  86298298.65246  21074837.853    21074836.3784   21074836.3054
        47.100          37.9004
 25  1  1  2 11 45.0000000  0 33E34G25R21G04S31S35R06E21E13G24S33G12
                                G20E15R22G05G11E02G06E36R07R23E27R13
                                E05G09R24G17R12E30R14R08G19
 126228761.524 8                  24020482.819
        48.100
 123228319.803 6  96022142.72545  23449551.372    23449550.3934   23449556.0524
        40.100          34.3004
 129873501.762 7 101012879.875 6  24269919.917    24269919.729    24269926.751
        43.800          38.000
 134740221.669 5 104992390.29742  25640211.340    25640210.9654   25640212.3444
        35.800          15.5004
 198982941.464 7                  37865188.759
        45.800
 200926782.419 7                  38235099.125
        43.900
 121296314.748 6                  22730869.050    22730867.794
        37.500
 151674829.416 5                  28862758.070
        35.000
 145065908.765 6                  27605114.842
        37.800
 130904608.163 6 102003732.56345  24910268.472    24910268.0214   24910274.3954
        37.900          31.8004
 202133788.987 7                  38464758.078
        45.100
 110478885.920 8  86087574.58048  21023384.330    21023383.6644   21023383.7034
        49.500          48.1004
 114294791.445 7  89060925.27445  21749554.014    21749552.7314   21749554.1124
        46.000          34.0004
 125026634.749 8                  23791740.731
        48.500
 108917786.052 8  84713974.027 8  20403926.276    20403926.736    20403931.268
        52.700          48.300
 130300063.052 6 101532552.26245  24795269.592    24795269.0834   24795272.3274
        39.500          32.1004
 108550496.639 8  84584904.42546  20656436.211    20656435.8314   20656436.3554
        48.900          41.4004
 141868218.642 6                  26996589.590
        38.400
 109446123.583 8  85282841.78648  20826862.262    20826861.8874   20826865.0524
        49.000          51.2004
 147664659.033 6                  28099604.065
        38.100
 119726979.337 8  93121044.358 7  22365992.108    22365992.561    22366000.005
        48.000          44.500
 108100259.637 8                  20208170.987    20208171.094
        50.000
 128915629.622 8                  24531774.795
        48.200
 107161886.962 7                  20067932.041    20067931.666
        47.700
 143911970.672 5                  27385537.728
        32.100
 132171222.117 6 102990593.35544  25151345.396    25151344.9004   25151349.6054
        36.300          29.3004
 128585244.749 7 100010801.293 6  24046087.486    24046087.858    24046098.592
        44.900          39.200
 123904266.694 7  96548916.09046  23578147.974    23578147.4114   23578149.5174
        42.000          36.7004
 109549150.428 8  85205080.307 7  20507772.707    20507773.007    20507780.376
        50.700          47.500
 125746455.089 8                  23928703.924
        48.900
 126356180.861 7  98277066.596 6  23704098.572    23704099.015    23704106.523
        45.100          39.700
 128864833.005 7 100228255.113 6  24064597.842    24064599.445    24064608.872
        44.200          40.900
 110773594.977 7  86317219.55646  21079458.724    21079457.2624   21079456.9894
        46.800          37.9004
 25  1  1  2 12  0.0000000  0 33E34G25R21G04S31S35R06E21E13G24S33G12
                                G20E15R22G05G11E02G06E36R07R23E27R13
                                E05G09R24G17R12E30R14R08G19
 126251043.006 8                  24024722.849
        48.300
 123180480.856 6  95984865.71145  23440447.449    23440446.4704   23440452.5894
        40.800          34.3004
 129919143.669 7 101048379.132 6  24278448.995    24278448.508    24278455.825
        43.000          38.100
 134723579.652 6 104979422.54842  25637044.796    25637044.4524   25637045.4914
        36.200          15.5004
 198982943.636 7                  37865190.950
        45.700
 200926820.214 7                  38235114.198
        44.100
 121302868.087 6                  22732096.699    22732095.992
        38.100
 151631724.121 6                  28854555.258
        37.400
 145029160.477 6                  27598121.863
        37.400
 130945323.814 6 102035459.03545  24918016.492    24918016.0324   24918022.1834
        39.100          31.7004
 202133779.597 7                  38464756.056
        45.300
 110456456.706 8  86070097.28448  21019116.252    21019115.5824   21019115.5574
        49.600          48.0004
 114251857.245 7  89027470.08245  21741383.967    21741382.6934   21741383.9574
        46.800          34.1004
 125012830.366 8                  23789114.003
        48.500
 108945017.902 8  84735154.348 8  20409027.705    20409028.093    20409032.616
        52.300          48.300
 130241146.798 6 101486643.55445  24784058.052    24784057.5434   24784060.7134
        39.500          32.2004
 108540009.451 8  84576732.60246  20654440.609    20654440.2344   20654440.7104
        49.300          41.3004
 141912694.585 6                  27005052.884
        38.500
 109471335.158 8  85302487.16848  20831660.012    20831659.6414   20831662.6564
        49.300          51.1004
 147703700.749 6                  28107033.648
        38.100
 119688244.231 8  93090917.094 7  22358755.375    22358756.563    22358763.614
        48.300          44.700
 108088353.651 8                  20205945.064    20205945.183
        49.600
 128893714.681 8                  24527604.309
        48.500
 107156578.125 7                  20066937.825    20066937.155
        47.700
 143879514.552 6                  27379361.375
        36.000
 132143147.515 6 102968717.10344  25146002.821    25146002.3304   25146006.9734
        36.900          28.9004
 128542863.133 7  99977837.959 6  24038161.633    24038161.616    24038172.351
        43.900          39.400
 123938172.620 6  96575336.27346  23584599.863    23584599.3054   23584601.5634
        41.600          36.5004
 109596247.646 8  85241711.458 7  20516589.738    20516590.126    20516596.855
        51.100          47.400
 125766223.622 8                  23932465.853
        48.900
 126298946.104 7  98232550.733 6  23693360.697    23693361.035    23693370.336
        45.000          40.200
 128806136.807 7 100182602.647 6  24053636.723    24053638.855    24053647.257
        43.500          40.900
 110797944.946 7  86336193.55446  21084092.172    21084090.6924   21084090.6684
        47.500          37.8004
 25  1  1  2 12 15.0000000  0 33E34G25R21G04S31S35R06E21E13G24S33G12
                                G20E15R22G05G11E02G06E36R07R23E27R13
                                E05G09R24G17R12E30R14R08G19
 126273368.752 7                  24028971.375
        47.900
 123132714.234 6  95947645.04545  23431357.570    23431356.5914   23431362.7464
        40.500          34.2004
 129964765.649 7 101083862.899 6  24286974.004    24286974.300    24286981.684
        43.500          38.100
 134707038.012 5 104966532.99042  25633896.944    25633896.5914   25633897.5274
        33.500          14.1004
 198982947.568 7                  37865190.905
        45.500
 200926858.729 7                  38235111.596
        43.700
 121309611.111 6                  22733359.291    22733359.758
        37.500
 151588628.953 6                  28846354.391
        36.400
 144992446.343 6                  27591134.890
        38.400
 130986058.955 6 102067200.69145  24925768.146    24925767.6734   24925773.7904
        38.500          31.6004
 202133771.844 7                  38464757.993
        45.300
 110434163.538 8  86052725.99748  21014874.147    21014873.4774   21014873.2934
        49.400          48.2004
 114209010.830 7  88994083.28345  21733229.971    21733228.6844   21733230.6244
        46.200          34.1004
 124999094.072 8                  23786499.871
        48.100
 108972297.298 8  84756371.659 8  20414138.272    20414138.325    20414143.108
        52.400          48.300
 130182229.734 6 101440734.21445  24772845.594    24772845.0804   24772849.2554
        40.000          32.7004
 108529623.691 8  84568639.81046  20652464.421    20652464.0464   20652464.3334
        49.300          41.4004
 141957198.590 6                  27013522.143
        38.200
 109496620.510 8  85322190.03948  20836471.510    20836471.1394   20836474.3144
        49.300          51.2004
 147742732.353 6                  28114461.041
        37.700
 119649634.135 8  93060887.064 7  22351543.900    22351543.501    22351551.321
        48.200          44.800
 108076525.574 8                  20203733.745    20203734.046
        49.700
 128871879.501 8                  24523449.418
        48.100
 107151477.378 7                  20065982.308    20065982.155
        47.700
 143847079.689 6                  27373189.411
        36.400
 132115142.620 6 102946895.16944  25140673.436    25140672.9584   25140678.0474
        36.900          29.6004
 128500514.820 7  99944900.494 6  24030243.380    24030243.347    24030252.754
        44.800          39.400
 123972110.564 6  96601781.39846  23591058.288    23591057.7124   23591059.8964
        41.100          36.6004
 109643485.163 8  85278451.732 7  20525432.387    20525432.661    20525439.909
        50.700          47.200
 125786083.320 8                  23936244.814
        48.500
 126241793.660 7  98188098.708 6  23682640.256    23682639.993    23682647.801
        46.300          39.400
 128747425.882 7 100136938.680 6  24042672.570    24042673.264    24042683.295
        42.500          40.700
 110822362.336 7  86355220.09046  21088738.777    21088737.2974   21088737.0954
        47.000          37.8004
 25  1  1  2 12 30.0000000  0 33E34G25R21G04S31S35R06E21E13G24S33G12
                                G20E15R22G05G11E02G06E36R07R23E27R13
                                E05G09R24G17R12E30R14R08G19
 126295733.586 7                  24033227.021
        47.800
 123085015.305 6  95910477.13745  23422280.920    23422279.9414   23422285.6294
        39.800          34.0004
 130010362.711 7 101119327.323 6  24295494.743    24295495.496    24295502.214
        44.300          38.000
 134690591.831 6 104953717.82442  25630767.522    25630767.1744   25630768.1614
        36.700          15.8004
 198982947.633 7                  37865192.828
        45.900
 200926893.895 7                  38235123.504
        44.200
 121316538.602 6                  22734658.124    22734657.977
        37.100
 151545539.145 5                  28838154.695
        34.800
 144955761.366 6                  27584153.475
        37.100
 131026808.208 6 102098953.35545  24933522.361    24933521.8924   24933528.1744
        38.000          31.4004
 202133760.601 7                  38464755.104
        45.200
 110412001.767 8  86035457.09648  21010656.990    21010656.3294   21010656.0354
        49.400          48.0004
 114166247.418 7  88960761.16945  21725092.671    21725091.3884   21725092.9324
        46.500          34.0004
 124985420.830 7                  23783898.012
        47.900
 108999618.967 8  84777621.846 8  20419256.728    20419256.773    20419261.377
        52.300          48.300
 130123307.060 6 101394820.51145  24761633.178    24761632.6644   24761636.9614
        39.300          32.0004
 108519334.273 8  84560622.09046  20650506.188    20650505.8084   20650506.3264
        49.300          41.3004
 142001725.474 6                  27021995.404
        38.100
 109521974.389 8  85341946.30848  20841296.158    20841295.7874   20841298.9894
        49.300          51.0004
 147781748.629 6                  28121885.603
        38.100
 119611144.416 7  93030950.659 7  22344352.882    22344353.458    22344361.260
        47.900          44.800
 108064770.172 8                  20201536.525    20201536.480
        49.500
 128850119.224 7                  24519308.446
        47.900
 107146579.254 7                  20065065.267    20065064.775
        47.600
 143814661.471 5                  27367020.407
        33.600
 132087202.782 6 102925123.90344  25135356.466    25135355.9884   25135361.0514
        37.200          29.4004
 128458194.732 7  99911984.982 6  24022328.850    24022328.830    24022338.715
        44.400          39.600
 124006075.355 6  96628247.45246  23597521.500    23597520.9104   23597523.2024
        41.300          36.4004
 109690857.414 8  85315296.797 7  20534301.229    20534301.163    20534308.112
        50.500          47.200
 125806029.139 8                  23940040.598
        48.500
 126184719.262 7  98143707.509 6  23671932.823    23671933.113    23671940.881
        46.200          40.100
 128688695.600 7 100091259.634 6  24031704.556    24031705.939    24031715.353
        43.300          41.000
 110846842.216 7  86374295.31046  21093397.082    21093395.6024   21093395.4664
        47.400          37.8004
 25  1  1  2 12 45.0000000  0 33E34G25R21G04S31S35R06E21E13G24S33G12
                                G20E15R22G05G11E02G06E36R07R23E27R13
                                E05G09R24G17R12E30R14R08G19
 126318139.848 7                  24037490.937
        47.900
 123037386.907 6  95873364.18345  23413217.561    23413216.6054   23413221.9814
        40.300          34.0004
 130055937.513 7 101154774.410 6  24304011.951    24304011.884    24304019.040
        43.100          37.700
 134674243.890 6 104940979.17543  25627656.517    25627656.1784   25627657.1684
        37.700          18.8004
 198982946.052 7                  37865191.911
        45.400
 200926927.783 7                  38235129.728
        44.000
 121323653.248 6                  22735991.997    22735991.321
        37.400
 151502457.426 6                  28829956.557
        36.500
 144919108.151 6                  27577179.588
        38.500
 131067573.652 6 102130718.61745  24941279.926    24941279.4664   24941285.5144
        38.600          31.4004
 202133747.274 7                  38464748.951
        45.100
 110389974.171 8  86018292.75247  21006465.449    21006464.7924   21006464.2864
        49.400          47.9004
 114123569.925 7  88927506.00345  21716971.395    21716970.1124   21716971.5944
        45.600          33.8004
 124971813.067 8                  23781308.495
        48.100
 109026985.287 8  84798906.761 8  20424382.715    20424383.193    20424388.011
        52.100          48.400
 130064382.041 6 101348904.96745  24750419.811    24750419.2934   24750423.6754
        39.000          32.2004
 108509143.631 8  84552681.33846  20648567.107    20648566.7274   20648567.0904
        49.100          41.2004
 142046277.593 6                  27030473.127
        39.100
 109547399.070 8  85361757.74648  20846134.182    20846133.7934   20846137.1514
        49.500          50.9004
 147820752.085 6                  28129307.723
        37.800
 119572778.281 7  93001110.385 7  22337185.537    22337185.800    22337193.960
        47.500          44.700
 108053089.955 8                  20199352.748    20199352.951
        49.600
 128828436.564 8                  24515182.485
        48.100
 107141886.525 7                  20064186.850    20064186.074
        47.500
 143782262.530 5                  27360854.843
        31.500
 132059330.913 6 102903405.62244  25130052.502    25130052.0204   25130057.1834
        36.800          29.6004
 128415905.394 7  99879093.409 6  24014419.817    24014420.497    24014430.454
        44.600          38.900
 124040069.627 6  96654736.47646  23603990.375    23603989.7764   23603992.0254
        41.800          36.4004
 109738366.425 8  85352248.244 7  20543194.598    20543194.845    20543201.731
        50.700          47.200
 125826063.499 8                  23943852.828
        48.700
 126127725.690 7  98099379.182 6  23661239.815    23661240.650    23661250.063
        45.800          40.600
 128629949.131 7 100045568.017 6  24020734.898    24020734.523    24020744.920
        42.300          40.400
 110871387.033 7  86393421.14046  21098067.822    21098066.3384   21098066.2244
        47.200          37.6004
 25  1  1  2 13  0.0000000  0 33E34G25R21G04S31S35R06E21E13G24S33G12
                                G20E15R22G05G11E02G06E36R07R23E27R13
                                E05G09R24G17R12E30R14R08G19
 126340593.038 8                  24041763.755
        48.000
 122989835.024 6  95836310.85045  23404168.577    23404167.6214   23404173.4654
        40.100          34.2004
 130101495.524 7 101190208.388 6  24312526.034    24312525.822    24312532.728
        44.100          37.700
 134658000.114 6 104928321.74543  25624564.724    25624564.3714   25624566.0024
        36.500          18.4004
 198982949.167 7                  37865191.357
        45.300
 200926966.096 7                  38235132.461
        43.800
 121330960.768 6                  22737360.838    22737359.933
        36.500
 151459389.565 6                  28821760.844
        36.400
 144882492.362 6                  27570211.036
        38.100
 131108360.608 6 102162500.65745  24949041.213    24949040.7624   24949047.0884
        37.000          31.4004
 202133739.139 7                  38464750.306
        45.100
 110368086.681 8  86001237.57648  21002300.181    21002299.5334   21002299.2474
        49.300          48.1004
 114080984.246 7  88894322.38345  21708867.688    21708866.4014   21708867.8024
        46.400          34.0004
 124958276.402 7                  23778732.551
        47.900
 109054401.784 8  84820230.691 8  20429519.250    20429519.419    20429524.032
        52.700          48.200
 130005460.249 6 101302991.93845  24739207.491    24739206.9864   24739211.2334
        39.400          33.0004
 108499057.373 8  84544821.92846  20646647.776    20646647.3964   20646647.7184
        49.300          41.4004
 142090860.458 6                  27038957.037
        38.600
 109572899.967 8  85381628.57748  20850986.852    20850986.4634   20850989.7914
        49.100          51.0004
 147859748.229 6                  28136728.438
        37.200
 119534542.103 8  92971371.150 7  22330043.366    22330043.412    22330050.946
        48.100          44.800
 108041490.380 8                  20197184.397    20197184.487
        49.700
 128806837.331 8                  24511072.095
        48.100
 107137404.948 7                  20063346.720    20063346.728
        47.800
 143749888.942 5                  27354694.589
        34.400
 132031532.989 6 102881744.95444  25124762.759    25124762.2724   25124767.2004
        36.700          29.8004
 128373652.561 7  99846230.235 6  24006519.120    24006518.684    24006528.744
        44.300          39.600
 124074098.897 6  96681252.77446  23610466.015    23610465.3984   23610467.4854
        41.600          36.4004
 109786017.508 8  85389310.164 7  20552115.550    20552115.504    20552122.265
        51.100          47.400
 125846192.034 8                  23947683.395
        48.600
 126070819.120 7  98055118.507 6  23650565.564    23650565.595    23650574.131
        46.000          40.200
 128571192.677 7  99999868.703 6  24009762.085    24009763.330    24009773.083
        43.300          40.900
 110896002.447 7  86412601.97846  21102751.849    21102750.3604   21102750.3604
        47.100          37.8004
 25  1  1  2 13 15.0000000  0 33E34G25R21G04S31S35R06E21E13G24S33G12
                                G20E15R22G05G11E02G06E36R07R23E27R13
                                E05G09R24G17R12E30R14R08G19
 126363088.338 8                  24046044.362
        48.100
 122942355.323 6  95799313.76045  23395133.505    23395132.5534   23395138.1504
        39.600          34.1004
 130147032.087 7 101225625.750 6  24321036.150    24321035.986    24321042.329
        45.100          38.200
 134641856.076 5 104915741.96842  25621493.356    25621493.0084   25621493.8814
        34.600          16.0004
 198982952.341 7                  37865198.136
        45.400
 200927004.166 7                  38235140.662
        44.000
 121338456.345 6                  22738763.804    22738765.051
        37.100
 151416331.049 6                  28813567.345
        37.000
 144845909.376 6                  27563249.755
        38.000
 131149164.021 6 102194295.52945  24956806.371    24956805.9154   24956811.8414
        38.100          30.9004
 202133730.104 7                  38464746.948
        45.100
 110346334.733 8  85984288.01848  20998160.979    20998160.3274   20998159.9834
        49.400          48.2004
 114038486.058 7  88861206.93745  21700780.493    21700779.2104   21700780.6224
        46.300          34.1004
 124944806.088 8                  23776169.235
        48.200
 109081863.553 8  84841589.854 8  20434663.386    20434663.990    20434668.616
        52.700          48.200
 129946537.500 6 101257078.17045  24727995.007    24727994.5164   24727998.4204
        40.200          32.6004
 108489070.749 8  84537040.14946  20644747.283    20644746.9034   20644747.3104
        49.400          41.5004
 142135469.216 6                  27047445.546
        38.000
 109598472.167 8  85401554.96548  20855852.989    20855852.5964   20855856.0034
        49.100          51.1004
 147898732.274 6                  28144146.535
        37.300
 119496431.256 7  92941729.454 7  22322923.211    22322923.918    22322931.667
        47.200          44.500
 108029966.744 8                  20195030.195    20195030.377
        49.900
 128785317.030 8                  24506976.980
        48.100
 107133129.966 7                  20062546.999    20062546.357
        47.700
 143717536.283 6                  27348537.798
        36.400
 132003804.576 6 102860138.45144  25119486.404    25119485.9084   25119490.4394
        36.800          29.0004
 128331431.718 7  99813391.951 6  23998622.412    23998623.413    23998633.660
        44.400          39.900
 124108158.628 6  96707792.79546  23616947.359    23616946.7424   23616948.8514
        41.200          36.4004
 109833805.304 8  85426478.457 7  20561061.054    20561061.177    20561068.269
        51.000          47.500
 125866410.002 8                  23951530.710
        48.600
 126013995.379 7  98010922.285 6  23639904.585    23639905.251    23639913.904
        46.100          40.400
 128512422.105 7  99954158.403 6  23998787.757    23998788.944    23998797.114
        43.900          40.100
 110920683.812 7  86431834.20646  21107448.898    21107447.4184   21107447.0934
        46.900          37.9004
 25  1  1  2 13 30.0000000  0 34E34G25R21G04S31S35R06E21E13G24S33G12
                                G20E15R22G05G11E02G06E36R07R23E27R13
                                E05G09R24G17R12E09E30R14R08G19
 126385624.763 7                  24050332.891
        47.800
 122894947.337 6  95762372.55145  23386111.910    23386110.9454   23386116.7814
        40.500          34.2004
 130192546.345 7 101261025.735 6  24329541.255    24329541.129    24329547.198
        44.400          37.700
 134625811.183 5 104903239.48642  25618439.073    25618438.6764   25618440.4474
        33.400          14.1004
 198982953.620 7                  37865189.684
        45.400
 200927041.092 7                  38235145.835
        44.000
 121346139.106 6                  22740204.966    22740204.082
        36.100
 151373281.202 5                  28805375.058
        35.000
 144809358.469 6                  27556294.334
        38.200
 131189982.687 6 102226102.26145  24964573.126    24964572.6534   24964579.4614
        38.600          31.4004
 202133719.861 7                  38464744.148
        45.200
 110324717.706 8  85967443.59548  20994047.369    20994046.7214   20994046.3724
        49.800          48.2004
 113996074.897 7  88828159.29845  21692709.818    21692708.5314   21692710.0284
        46.800          34.0004
 124931401.262 8                  23773618.303
        48.000
 109109369.542 8  84862983.400 8  20439815.995    20439816.327    20439821.222
        52.100          48.200
 129887613.318 6 101211163.27645  24716782.394    24716781.8984   24716785.2464
        40.300          32.7004
 108479182.861 8  84529335.30946  20642865.559    20642865.1754   20642865.6784
        49.500          41.4004
 142180102.891 6                  27055939.625
        38.600
 109624114.636 8  85421536.10948  20860732.669    20860732.2764   20860735.6084
        49.300          51.0004
 147937703.355 6                  28151562.759
        37.300
 119458445.611 7  92912185.113 7  22315828.200    22315828.061    22315835.188
        47.600          44.500
 108018517.845 8                  20192890.006    20192890.057
        49.800
 128763875.019 8                  24502896.739
        48.100
 107129060.815 7                  20061785.003    20061784.245
        47.400
 143685203.744 5                  27342385.305
        35.500
 131976145.340 6 102838585.85944  25114223.189    25114222.6934   25114226.6294
        37.900          29.7004
 128289241.642 7  99780577.545 6  23990733.129    23990733.566    23990743.429
        44.100          39.800
 124142247.963 7  96734355.88846  23623434.195    23623433.5744   23623436.0314
        42.600          36.5004
 109881728.620 8  85463752.125 7  20570032.300    20570032.535    20570039.632
        50.700          47.500
 153162608.973 4                  29145875.733
        29.000
 125886716.515 8                  23955395.002
        48.500
 125957254.214 7  97966790.276 6  23629259.951    23629259.677    23629269.792
        44.300          40.300
 128453636.841 7  99908436.688 6  23987809.451    23987809.595    23987819.486
        42.200          40.100
 110945430.292 7  86451117.17946  21112158.004    21112156.5244   21112156.1954
        47.500          37.8004
 25  1  1  2 13 45.0000000  0 33E34G25R21G04S31S35R06E21E13G24S33G12
                                G20E15R22G05G11E02G06E36R07R23E27R13
                                E05G09R24G17R12E30R14R08G19
 126408205.219 8                  24054629.731
        48.000
 122847614.510 6  95725489.91345  23377104.228    23377103.2454   23377109.5964
        41.100          34.4004
 130238041.346 7 101296410.747 6  24338042.387    24338042.537    24338049.783
        43.800          37.700
 134609868.695 6 104890816.77442  25615406.257    25615405.8914   25615406.7154
        36.700          16.8004
 198982957.252 7                  37865195.251
        45.600
 200927079.798 7                  38235157.229
        44.300
 121354012.121 6                  22741680.984    22741680.218
        37.100
 151330243.377 5                  28797185.178
        35.300
 144772842.733 6                  27549345.475
        38.000
 131230819.339 6 102257923.02145  24972344.442    24972343.9824   24972350.6404
        38.500          32.0004
 202133712.731 7                  38464744.108
        45.400
 110303238.992 8  85950706.94948  20989960.222    20989959.5704   20989959.1074
        49.900          48.4004
 113953753.992 7  88795181.99745  21684656.613    21684655.3304   21684656.6224
        46.100          34.2004
 124918064.951 7                  23771080.418
        47.800
 109136922.747 8  84884413.668 8  20444977.933    20444978.454    20444982.910
        52.800          48.000
 129828691.031 6 101165249.86345  24705569.753    24705569.2444   24705572.6564
        40.300          32.7004
 108469396.742 8  84521709.77346  20641003.468    20641003.0884   20641003.4394
        49.200          41.7004
 142224764.397 6                  27064438.182
        38.100
 109649830.193 8  85441574.20648  20865626.335    20865625.9384   20865629.1064
        49.200          51.1004
 147976664.452 6                  28158976.932
        37.900
 119420589.207 8  92882741.272 7  22308755.891    22308756.364    22308763.326
        49.100          44.700
 108007146.950 8                  20190764.006    20190764.328
        49.600
 128742514.554 8                  24498831.809
        48.000
 107125200.585 7                  20061061.875    20061061.202
        47.200
 143652894.755 5                  27336236.914
        33.500
 131948558.610 6 102817089.75345  25108972.950    25108972.4594   25108977.2394
        37.300          30.4004
 128247085.865 7  99747789.829 6  23982849.623    23982849.349    23982859.203
        44.000          39.300
 124176369.971 6  96760944.43846  23629927.081    23629926.4384   23629929.2434
        41.500          36.4004
 109929790.030 8  85501133.204 7  20579029.478    20579029.784    20579036.858
        50.500          47.400
 125907114.622 8                  23959276.465
        48.400
 125900598.953 7  97922725.069 6  23618632.618    23618632.383    23618641.192
        46.000          40.400
 128394840.678 7  99862706.466 6  23976829.712    23976829.441    23976839.059
        42.500          39.300
 110970244.990 7  86470453.30046  21116879.894    21116878.4054   21116878.3134
        47.300          37.9004
 25  1  1  2 14  0.0000000  0 33E34G25R21G04S31S35R06E21E13G24S33G12
                                G20E15R22G05G11E02G06E36R07R23E27R13
                                E05G09R24G17R12E30R14R08G19
 126430825.131 7                  24058934.335
        47.800
 122800352.739 6  95688662.63545  23368110.803    23368109.7844   23368115.7504
        40.200          34.4004
 130283512.575 7 101331777.244 6  24346540.595    24346540.033    24346546.738
        44.300          37.500
 134594024.505 6 104878470.66442  25612391.084    25612390.6914   25612391.9834
        36.500          16.9004
 198982958.783 7                  37865191.562
        45.400
 200927116.489 7                  38235160.829
        43.800
 121362070.890 6                  22743191.379    22743190.911
        37.100
 151287213.271 6                  28788997.130
        36.000
 144736357.819 6                  27542402.305
        37.500
 131271669.158 6 102289754.03745  24980118.495    24980118.0304   24980124.2744
        37.500          31.2004
 202133702.422 7                  38464740.048
        45.100
 110281894.415 8  85934074.82348  20985898.136    20985897.4884   20985897.3724
        49.700          48.5004
 113911519.380 7  88762271.93045  21676619.324    21676618.0464   21676619.6324
        46.800          34.3004
 124904792.664 8                  23768554.689
        48.000
 109164518.406 8  84905876.939 8  20450147.822    20450147.859    20450152.521
        52.500          48.200
 129769766.812 6 101119334.94445  24694356.270    24694355.7614   24694359.8974
        40.300          33.3004
 108459707.862 8  84514160.00446  20639159.799    20639159.4194   20639159.7094
        49.500          41.7004
 142269449.151 6                  27072940.910
        38.500
 109675614.184 8  85461665.62548  20870532.865    20870532.4684   20870535.6254
        49.700          51.2004
 148015611.001 6                  28166388.508
        37.600
 119382857.537 8  92853394.481 7  22301705.894    22301706.963    22301714.797
        48.200          44.700
 107995849.636 8                  20188652.679    20188652.345
        49.600
 128721231.389 8                  24494781.933
        48.000
 107121544.823 7                  20060376.855    20060376.789
        47.800
 143620605.146 5                  27330092.353
        35.300
 131921040.361 6 102795647.01145  25103736.096    25103735.6004   25103740.9424
        37.300          30.3004
 128204959.573 7  99715025.057 6  23974972.151    23974972.375    23974981.147
        45.000          38.600
 124210520.149 6  96787554.92846  23636425.838    23636425.1904   23636427.8434
        41.900          36.5004
 109977984.560 8  85538617.809 7  20588051.605    20588052.128    20588058.808
        50.500          47.100
 125927599.835 8                  23963174.751
        48.600
 125844026.151 7  97878723.999 6  23608019.801    23608019.412    23608028.074
        45.500          40.000
 128336029.394 7  99816964.430 6  23965845.374    23965846.626    23965856.772
        42.200          40.000
 110995123.493 7  86489839.14446  21121614.189    21121612.7094   21121612.5944
        47.000          38.0004
 25  1  1  2 14 15.0000000  0 33E34G25R21G04S31S35R06E21E13G24S33G12
                                G20E15R22G05G11E02G06E36R07R23E27R13
                                E05G09R24G17R12E30R14R08G19
 126453485.818 8                  24063246.497
        48.000
 122753163.835 6  95651892.14645  23359130.891    23359129.8764   23359135.9904
        39.200          34.2004
 130328961.536 7 101367126.476 6  24355033.112    24355033.250    24355040.777
        44.200          38.500
 134578280.258 5 104866202.44742  25609395.161    25609394.7994   25609395.7194
        35.200          13.9004
 198982958.822 7                  37865194.285
        45.400
 200927151.607 7                  38235168.251
        43.700
 121370316.944 6                  22744735.735    22744735.481
        36.900
 151244192.533 6                  28780810.827
        37.200
 144699905.210 6                  27535466.386
        37.800
 131312533.268 6 102321596.18845  24987894.259    24987893.7864   24987900.7084
        36.400          31.2004
 202133691.067 7                  38464740.759
        45.200
 110260685.608 8  85917548.49048  20981862.389    20981861.7464   20981861.4644
        49.900          48.4004
 113869372.656 7  88729430.34845  21668599.138    21668597.8424   21668599.4414
        46.400          34.2004
 124891585.815 7                  23766041.669
        47.900
 109192157.918 8  84927374.334 8  20455325.400    20455325.520    20455330.155
        52.300          48.000
 129710842.112 6 101073419.66145  24683143.938    24683143.4334   24683147.0764
        40.700          33.2004
 108450117.646 8  84506687.11946  20637334.728    20637334.3534   20637334.7154
        49.300          41.6004
 142314158.457 6                  27081449.281
        38.300
 109701467.861 8  85481811.34348  20875452.497    20875452.0954   20875455.3984
        49.000          51.0004
 148054544.383 6                  28173796.644
        36.900
 119345252.775 8  92824146.382 7  22294681.752    22294681.946    22294690.025
        48.200          45.100
 107984626.837 8                  20186554.501    20186554.546
        49.400
 128700027.177 8                  24490746.692
        48.000
 107118095.331 8                  20059731.041    20059730.738
        48.100
 143588336.673 5                  27323951.772
        35.500
 131893592.350 6 102774258.99445  25098513.168    25098512.6724   25098517.6004
        37.500          30.3004
 128162864.494 7  99682284.567 6  23967100.131    23967100.983    23967109.647
        44.400          39.500
 124244700.000 7  96814188.55046  23642930.264    23642929.6254   23642932.0154
        42.100          36.4004
 110026313.334 8  85576206.847 7  20597099.235    20597099.379    20597106.314
        50.900          47.400
 125948173.562 8                  23967089.850
        48.700
 125787537.125 7  97834788.005 6  23597422.681    23597423.200    23597431.629
        46.800          40.800
 128277205.345 7  99771212.463 6  23954861.277    23954862.349    23954871.614
        42.900          39.800
 111020067.217 7  86509275.80646  21126361.109    21126359.6474   21126359.2174
        46.900          37.9004
 25  1  1  2 14 30.0000000  0 33E34G25R21G04S31S35R06E21E13G24S33G12
                                G20E15R22G05G11E02G06E36R07R23E27R13
                                E05G09R24G17R12E30R14R08G19
 126476186.844 8                  24067566.272
        48.000
 122706047.872 6  95615178.49145  23350165.469    23350164.4594   23350169.7294
        40.200          34.0004
 130374387.863 7 101402458.046 6  24363522.195    24363522.567    24363529.012
        44.000          36.900
 134562635.948 5 104854012.06142  25606417.210    25606416.8484   25606418.7904
        35.100          15.4004
 198982958.278 7                  37865193.637
        45.600
 200927185.737 7                  38235176.028
        43.900
 121378749.885 6                  22746316.488    22746315.775
        36.800
 151201181.077 6                  28772625.780
        37.300
 144663484.748 6                  27528534.987
        38.400
 131353410.975 6 102353448.93945  24995672.741    24995672.2504   24995679.1444
        37.800          30.8004
 202133677.786 7                  38464740.249
        45.300
 110239612.652 8  85901128.01848  20977852.187    20977851.5394   20977851.4114
        49.800          48.3004
 113827314.008 7  88696657.39845  21660595.443    21660594.1334   21660595.9084
        46.500          34.1004
 124878444.082 8                  23763540.733
        48.000
 109219840.821 8  84948905.482 8  20460511.553    20460511.820    20460516.258
        52.600          48.000
 129651917.132 6 101027504.14645  24671930.441    24671929.9274   24671933.7894
        39.700          32.7004
 108440625.737 8  84499290.83246  20635528.306    20635527.9264   20635528.4834
        49.100          41.5004
 142358891.936 6                  27089961.837
        38.300
 109727390.693 8  85502010.95248  20880385.773    20880385.3804   20880388.3444
        49.100          50.8004
 148093464.250 6                  28181203.286
        37.200
 119307774.921 8  92794996.975 7  22287680.767    22287681.549    22287688.721
        48.700          44.900
 107973478.404 8                  20184470.552    20184470.394
        49.300
 128678901.774 8                  24486726.798
        48.100
 107114851.558 7                  20059123.290    20059123.277
        47.800
 143556089.310 5                  27317815.681
        33.400
 131866214.717 6 102752925.81745  25093303.378    25093302.8874   25093307.7214
        37.400          30.0004
 128120800.055 7  99649567.902 6  23959233.719    23959233.391    23959243.200
        44.000          39.900
 124278909.458 6  96840845.23746  23649440.358    23649439.7014   23649441.8924
        40.900          36.1004
 110074775.392 8  85613899.542 7  20606171.218    20606171.518    20606178.158
        50.500          47.200
 125968835.455 8                  23971021.422
        48.700
 125731132.614 7  97790917.853 6  23586841.237    23586841.280    23586849.874
        46.800          40.700
 128218368.488 7  99725450.515 6  23943874.304    23943874.709    23943883.751
        44.000          40.100
 111045075.951 7  86528763.13046  21131119.880    21131118.4184   21131118.2004
        46.800          37.7004
 25  1  1  2 14 45.0000000  0 33E34G25R21G04S31S35R06E21E13G24S33G12
                                G20E15R22G05G11E02G06E36R07R23E27R13
                                E05G09R24G17R12E30R14R08G19
 126498933.273 8                  24071894.842
        48.000
 122659010.406 6  95578525.99545  23341213.713    23341212.6814   23341218.7574
        39.200          34.1004
 130419796.706 7 101437776.034 6  24372008.010    24372008.316    24372014.573
        44.300          36.900
 134547097.086 6 104841903.85642  25603461.655    25603461.2844   25603462.0374
        36.400          17.5004
 198982961.127 7                  37865194.970
        45.500
 200927224.272 7                  38235185.579
        44.200
 121387375.135 6                  22747932.454    22747931.998
        37.500
 151158184.352 6                  28764443.427
        36.700
 144627101.648 6                  27521611.422
        37.100
 131394307.162 6 102385316.09645  25003455.338    25003454.8514   25003460.9214
        37.400          30.4004
 202133669.605 7                  38464734.177
        45.600
 110218680.935 8  85884817.59848  20973869.093    20973868.4414   20973868.2244
        49.500          48.3004
 113785348.937 7  88663957.36545  21652609.697    21652608.3744   21652610.1944
        45.900          34.1004
 124865372.645 8                  23761053.279
        48.000
 109247572.188 8  84970474.310 8  20465706.224    20465706.879    20465711.143
        52.500          48.100
 129592997.371 6 100981592.71045  24660719.003    24660718.4804   24660721.4414
        39.400          32.6004
 108431237.290 8  84491975.16946  20633742.043    20633741.6684   20633741.9224
        49.200          41.5004
 142403654.566 6                  27098479.870
        38.200
 109753387.681 8  85522268.34448  20885332.578    20885332.1894   20885335.3994
        49.400          50.8004
 148132375.771 6                  28188607.740
        38.100
 119270430.095 8  92765951.045 7  22280703.854    22280704.857    22280712.565
        48.000          45.000
 107962409.418 8                  20182401.292    20182400.838
        49.500
 128657860.638 7                  24482722.617
        47.900
 107111819.021 8                  20058555.611    20058555.412
        48.000
 143523868.552 5                  27311684.210
        34.400
 131838912.990 6 102731651.81045  25088108.473    25088107.9734   25088112.3534
        37.100          30.2004
 128078771.906 7  99616879.477 6  23951374.339    23951374.800    23951383.197
        44.800          38.900
 124313153.650 6  96867528.99446  23655956.536    23655955.8884   23655958.4864
        41.700          36.2004
 110123375.660 8  85651699.739 7  20615269.287    20615269.826    20615276.627
        50.600          47.300
 125989590.731 8                  23974971.254
        48.300
 125674818.433 7  97747118.034 6  23576276.118    23576276.159    23576285.389
        46.100          40.300
 128159524.869 7  99679683.407 6  23932885.637    23932886.707    23932895.615
        43.600          39.800
 111070154.956 7  86548305.20946  21135892.323    21135890.8664   21135890.6064
        46.700          37.7004
 25  1  1  2 15  0.0000000  0 33E34G25R21G04S31S35R06E21E13G24S33G12
                                G20E15R22G05G11E02G06E36R07R23E27R13
                                E05G09R24G17R12E30R14R08G19
 126521716.851 7                  24076230.303
        47.900
 122612043.714 6  95541928.65245  23332277.563    23332276.5624   23332281.2494
        40.300          34.2004
 130465180.159 7 101473074.256 6  24380488.964    24380489.079    24380496.190
        44.800          37.100
 134531655.768 6 104829871.67643  25600522.572    25600522.1924   25600523.7434
        37.500          19.1004
 198982960.494 7                  37865195.014
        45.300
 200927258.323 7                  38235186.643
        43.600
 121396184.355 6                  22749583.762    22749583.114
        36.900
 151115194.353 5                  28756262.503
        35.500
 144590747.929 6                  27514693.670
        37.200
 131435213.385 6 102417191.06145  25011240.072    25011239.5904   25011244.9434
        36.800          30.9004
 202133657.022 7                  38464727.644
        45.100
 110197882.612 8  85868611.12548  20969911.336    20969910.6884   20969910.4364
        49.500          48.4004
 113743469.308 7  88631323.91445  21644640.661    21644639.3604   21644640.6674
        46.200          34.1004
 124852363.308 7                  23758577.821
        47.700
 109275343.642 8  84992074.322 8  20470908.992    20470909.169    20470913.849
        52.500          48.200
 129534075.200 6 100935679.38845  24649505.864    24649505.3504   24649508.9914
        40.000          33.1004
 108421944.156 8  84484733.77146  20631973.586    20631973.2114   20631973.4904
        49.200          41.6004
 142448438.111 6                  27107001.932
        38.500
 109779450.501 8  85542577.03648  20890292.305    20890291.9124   20890294.9694
        49.000          50.7004
 148171270.800 6                  28196009.136
        38.300
 119233210.602 8  92737002.606 7  22273750.942    22273751.408    22273759.246
        48.300          45.000
 107951411.531 8                  20180345.489    20180345.077
        49.700
 128636895.819 7                  24478733.170
        47.800
 107108989.433 8                  20058026.463    20058025.422
        48.300
 143491666.608 6                  27305556.000
        36.100
 131811679.460 6 102710430.93844  25082926.106    25082925.6104   25082929.9304
        37.100          29.8004
 128036771.469 7  99584212.598 6  23943519.163    23943520.239    23943529.207
        45.300          39.700
 124347424.411 6  96894233.44946  23662478.491    23662477.8484   23662479.9364
        40.100          36.0004
 110172105.436 8  85689600.656 7  20624391.513    20624391.882    20624398.965
        50.900          47.100
 126010431.171 8                  23978936.885
        48.600
 125618586.612 7  97703382.215 6  23565727.346    23565728.152    23565736.639
        46.100          39.900
 128100666.745 7  99633905.024 6  23921893.708    23921894.135    23921904.076
        42.800          39.700
 111095296.167 7  86567895.75446  21140676.618    21140675.1614   21140674.8084
        47.200          37.7004
 25  1  1  2 15 15.0000000  0 33E34G25R21G04S31S35R06E21E13G24S33G12
                                G20E15R22G05G11E02G06E36R07R23E27R13
                                E05G09R24G17R12E30R14R08G19
 126544547.676 7                  24080574.772
        47.900
 122565158.358 6  95505394.68545  23323354.545    23323353.5304   23323359.5754
        39.500          34.3004
 130510548.201 7 101508360.547 6  24388966.276    24388967.003    24388974.490
        44.000          37.500
 134516322.483 6 104817923.69343  25597604.573    25597604.1894   25597605.4814
        37.400          18.2004
 198982965.494 7                  37865192.667
        45.400
 200927298.777 7                  38235199.861
        44.200
 121405187.894 6                  22751269.876    22751270.825
        37.900
 151072221.647 5                  28748085.059
        35.800
 144554433.816 6                  27507783.215
        37.800
 131476139.507 6 102449081.52945  25019027.436    25019026.9494   25019033.0564
        37.200          30.5004
 202133650.818 7                  38464729.978
        45.300
 110177228.245 8  85852516.82848  20965981.041    20965980.3984   20965980.0414
        49.800          48.4004
 113701685.822 7  88598765.37245  21636689.394    21636688.0804   21636689.5674
        46.700          34.3004
 124839426.314 8                  23756116.014
        48.000
 109303165.437 8  85013713.491 8  20476120.994    20476121.418    20476125.610
        52.400          48.100
 129475161.040 6 100889772.31345  24638295.371    24638294.8804   24638298.0474
        40.200          33.1004
 108412756.494 8  84477574.56346  20630225.193    20630224.8224   20630225.1214
        49.100          41.6004
 142493252.691 6                  27115529.434
        38.500
 109805589.147 8  85562944.80848  20895266.370    20895265.9774   20895268.9344
        49.300          50.7004
 148210159.452 6                  28203409.179
        37.600
 119196127.162 8  92708159.959 7  22266823.946    22266823.912    22266831.947
        48.100          45.200
 107940495.174 8                  20178304.881    20178304.309
        49.500
 128616017.741 7                  24474760.232
        47.800
 107106373.235 7                  20057535.839    20057535.493
        47.900
 143459493.832 6                  27299433.973
        37.000
 131784524.668 6 102689271.41844  25077758.266    25077757.7614   25077762.4074
        37.600          29.9004
 127994809.590 7  99551575.701 6  23935672.662    23935672.483    23935681.774
        44.100          39.100
 124381731.972 6  96920966.58545  23669006.963    23669006.3424   23669008.2864
        40.900          35.8004
 110220974.546 8  85727609.968 7  20633539.787    20633540.388    20633547.198
        50.300          47.000
 126031367.019 8                  23982920.929
        48.600
 125562448.292 7  97659719.145 6  23555196.147    23555196.698    23555204.644
        47.400          40.700
 128041805.042 7  99588123.895 6  23910901.821    23910902.945    23910912.050
        44.200          40.400
 111120509.727 7  86587542.68146  21145474.272    21145472.8194   21145472.8244
        47.000          37.5004
 25  1  1  2 15 30.0000000  0 33E34G25R21G04S31S35R06E21E13G24S33G12
                                G20E15R22G05G11E02G06E36R07R23E27R13
                                E05G09R24G17R12E30R14R08G19
 126567413.341 8                  24084926.090
        48.200
 122518342.413 6  95468914.80745  23314445.329    23314444.3284   23314450.7034
        39.500          34.1004
 130555888.724 7 101543625.391 6  24397440.271    24397440.530    24397446.846
        44.200          37.200
 134501085.136 6 104806050.42643  25594704.275    25594703.8864   25594706.2114
        36.600          19.3004
 198982964.271 7                  37865191.057
        45.200
 200927332.710 7                  38235199.101
        43.600
 121414373.153 6                  22752992.083    22752991.886
        37.200
 151029254.084 6                  28739909.076
        36.800
 144518147.144 6                  27500877.714
        38.000
 131517072.902 6 102480977.67645  25026816.738    25026816.2514   25026822.4974
        37.200          30.6004
 202133638.197 7                  38464727.438
        45.200
 110156705.726 8  85836525.26348  20962075.571    20962074.9284   20962074.7494
        49.700          48.5004
 113659986.558 7  88566272.46345  21628754.194    21628752.8934   21628754.4504
        46.300          34.2004
 124826549.319 7                  23753665.478
        47.800
 109331024.957 8  85035382.024 8  20481339.837    20481340.217    20481344.562
        52.200          48.000
 129416242.858 6 100843862.10745  24627083.491    24627083.0004   24627086.1874
        40.300          32.8004
 108403661.982 8  84470487.93546  20628494.393    20628494.0224   20628494.4914
        49.500          41.6004
 142538085.828 6                  27124061.242
        38.900
 109831791.145 8  85583361.94748  20900252.465    20900252.0814   20900254.9864
        49.200          50.6004
 148249029.470 6                  28210806.135
        38.400
 119159167.985 8  92679413.999 7  22259919.925    22259919.834    22259927.632
        48.400          45.000
 107929647.559 8                  20176276.615    20176276.660
        49.700
 128595214.317 8                  24470801.676
        48.100
 107103958.173 7                  20057083.900    20057083.300
        47.800
 143427338.258 5                  27293314.921
        34.100
 131757436.744 6 102668163.99845  25072603.554    25072603.0404   25072607.7354
        37.600          30.5004
 127952873.503 7  99518958.884 6  23927829.484    23927830.160    23927839.451
        44.700          39.100
 124416063.946 6  96947718.75345  23675540.098    23675539.4814   23675541.5504
        40.200          35.9004
 110269970.167 8  85765717.660 7  20642712.300    20642712.196    20642719.096
        50.100          47.000
 126052385.929 8                  23986920.774
        48.800
 125506391.401 7  97616119.419 6  23544680.104    23544680.296    23544688.779
        46.900          41.200
 127982927.599 7  99542330.476 6  23899905.812    23899907.167    23899916.746
        43.700          40.700
 111145783.419 7  86607236.46246  21150283.875    21150282.4224   21150282.2064
        46.900          37.4004
 25  1  1  2 15 45.0000000  0 33E34G25R21G04S31S35R06E21E13G24S33G12
                                G20E15R22G05G11E02G06E36R07R23E27R13
                                E05G09R24G17R12E30R14R08G19
 126590321.825 8                  24089285.466
        48.000
 122471604.407 6  95432495.66045  23305552.141    23305551.1314   23305556.6334
        40.700          34.3004
 130601209.789 7 101578875.097 6  24405909.284    24405909.037    24405915.513
        44.400          36.700
 134485952.089 5 104794258.43043  25591825.893    25591825.4784   25591826.4194
        34.500          18.1004
 198982965.745 7                  37865194.827
        45.300
 200927369.063 7                  38235206.985
        43.300
 121423748.500 6                  22754748.103    22754748.849
        37.300
 150986300.043 6                  28731735.858
        37.200
 144481896.130 6                  27493979.877
        38.200
 131558021.363 6 102512885.56045  25034608.883    25034608.3924   25034614.5774
        37.800          30.1004
 202133627.555 7                  38464723.677
        44.800
 110136323.415 8  85820642.95348  20958197.015    20958196.3764   20958196.1224
        49.700          48.6004
 113618379.864 7  88533851.68745  21620837.002    21620835.7154   21620836.9144
        46.700          34.4004
 124813740.421 7                  23751228.178
        47.900
 109358930.220 8  85057086.098 7  20486567.559    20486568.040    20486572.506
        52.500          47.900
 129357329.261 6 100797955.46645  24615872.038    24615871.5424   24615875.1144
        39.700          32.9004
 108394668.712 8  84463480.20446  20626782.979    20626782.6044   20626783.1434
        49.500          41.8004
 142582945.579 6                  27132597.857
        38.300
 109858064.410 8  85603834.61948  20905252.007    20905251.6184   20905254.5954
        49.200          50.6004
 148287888.714 6                  28218200.323
        36.900
 119122341.923 7  92650771.523 7  22253039.741    22253040.149    22253047.737
        47.800          45.000
 107918877.311 8                  20174263.213    20174263.326
        49.900
 128574493.881 8                  24466858.598
        48.100
 107101752.518 7                  20056670.697    20056670.288
        47.700
 143395208.301 6                  27287200.936
        36.100
 131730424.098 6 102647115.24445  25067462.604    25067462.0904   25067467.3464
        37.300          30.0004
 127910971.532 7  99486368.556 6  23919993.805    23919993.575    23920002.803
        44.600          38.600
 124450428.969 6  96974496.67546  23682079.949    23682079.3414   23682081.1914
        40.600          36.0004
 110319100.025 8  85803929.732 7  20651909.265    20651909.680    20651916.727
        50.300          47.000
 126073496.008 8                  23990937.819
        48.700
 125450424.677 7  97572589.755 6  23534181.060    23534180.635    23534189.150
        46.500          41.200
 127924043.266 7  99496531.616 6  23888910.630    23888911.711    23888920.355
        43.300          40.500
 111171125.393 7  86626983.45146  21155106.217    21155104.7694   21155104.6414
        47.200          37.5004
 25  1  1  2 16  0.0000000  0 33E34G25R21G04S31S35R06E21E13G24S33G12
                                G20E15R22G05G11E02G06E36R07R23E27R13
                                E05G09R24G17R12E30R14R08G19
 126613273.464 7                  24093653.136
        47.700
 122424945.147 6  95396137.87045  23296672.442    23296671.4184   23296677.3184
        40.000          34.3004
 130646511.928 7 101614110.087 6  24414375.203    24414375.352    24414381.569
        44.300          37.000
 134470924.104 5 104782548.33342  25588965.396    25588964.9634   25588966.5974
        34.400          16.0004
 198982969.029 7                  37865196.249
        45.500
 200927407.743 7                  38235216.031
        43.500
 121433314.318 6                  22756540.419    22756541.491
        36.400
 150943360.187 6                  28723564.421
        36.600
 144445681.281 6                  27487088.153
        37.300
 131598984.989 6 102544805.26745  25042403.508    25042403.0084   25042409.9074
        36.800          30.5004
 202133619.364 7                  38464724.044
        45.200
 110116082.014 8  85804870.44548  20954345.228    20954344.5894   20954344.3154
        49.900          48.7004
 113576866.597 7  88501503.70645  21612936.849    21612935.5624   21612937.1494
        46.500          34.5004
 124801000.038 7                  23748803.548
        47.600
 109386881.575 8  85078826.049 8  20491804.004    20491804.024    20491808.624
        52.300          48.000
 129298420.846 6 100752052.86745  24604662.231    24604661.7444   24604665.0024
        41.000          33.0004
 108385777.050 8  84456551.64346  20625091.014    20625090.6434   20625091.1084
        49.700          41.9004
 142627832.207 6                  27141139.544
        38.100
 109884409.177 8  85624363.01148  20910265.152    20910264.7724   20910267.8164
        49.300          50.6004
 148326737.644 6                  28225593.505
        37.500
 119085649.515 8  92622233.029 7  22246185.592    22246185.760    22246193.790
        48.000          45.100
 107908184.550 8                  20172264.451    20172264.390
        50.300
 128553857.075 7                  24462931.450
        47.600
 107099756.949 7                  20056297.532    20056296.590
        47.900
 143363104.679 5                  27281091.126
        35.600
 131703487.622 6 102626125.83644  25062337.398    25062336.8754   25062341.2484
        36.400          29.5004
 127869104.319 7  99453805.313 6  23912164.222    23912165.235    23912174.208
        44.500          40.200
 124484827.363 7  97001300.60146  23688625.073    23688624.4744   23688626.9894
        42.000          36.2004
 110368364.089 8  85842246.228 7  20661131.399    20661132.075    20661138.836
        50.200          46.900
 126094697.650 8                  23994972.401
        48.400
 125394549.040 7  97529130.911 6  23523698.033    23523698.253    23523707.783
        46.100          40.700
 127865153.128 7  99450728.243 6  23877912.220    23877913.612    23877923.665
        43.200          40.900
 111196536.070 7  86646783.97146  21159941.772    21159940.3194   21159940.1504
        47.400          37.5004
 25  1  1  2 16 15.0000000  0 33E34G25R21G04S31S35R06E21E13G24S33G12
                                G20E15R22G05G11E02G06E36R07R23E27R13
                                E05G09R24G17R12E30R14R08G19
 126636263.804 7                  24098027.959
        47.600
 122378360.663 6  95359838.35545  23287808.100    23287807.0854   23287812.6354
        40.400          34.2004
 130691790.708 7 101649326.877 6  24422836.080    24422836.632    24422843.346
        43.800          37.000
 134455997.180 5 104770916.96442  25586124.660    25586124.2004   25586126.2054
        32.700          12.5004
 198982970.945 7                  37865200.152
        45.700
 200927444.623 7                  38235226.284
        44.000
 121443066.279 6                  22758369.559    22758368.931
        36.500
 150900430.352 6                  28715394.637
        36.400
 144409498.370 6                  27480203.220
        37.600
 131639959.144 6 102576733.16745  25050200.814    25050200.3144   25050207.4474
        36.500          30.3004
 202133610.454 7                  38464722.720
        45.500
 110095977.670 8  85789204.73348  20950519.525    20950518.8864   20950518.6014
        50.000          48.6004
 113535442.858 7  88469225.49145  21605054.443    21605053.1564   21605054.5554
        47.000          34.5004
 124788323.837 7                  23746391.378
        47.500
 109414874.527 8  85100598.324 7  20497047.501    20497047.994    20497052.616
        51.800          47.900
 129239514.062 6 100706151.54045  24593452.304    24593451.8174   24593455.2884
        39.300          32.7004
 108376982.652 8  84449698.87546  20623417.347    20623416.9674   20623417.6084
        49.400          41.8004
 142672741.282 6                  27149685.670
        38.100
 109910820.930 8  85644943.59848  20915291.212    20915290.8374   20915293.7774
        49.100          50.4004
 148365571.969 6                  28232983.015
        37.500
 119049087.399 7  92593795.863 7  22239355.239    22239355.432    22239363.472
        47.800          45.100
 107897564.675 8                  20170279.314    20170279.061
        49.800
 128533299.794 7                  24459019.501
        47.500
 107097966.900 7                  20055961.644    20055961.362
        47.900
 143331023.376 5                  27274986.149
        32.800
 131676623.379 6 102605192.70145  25057225.502    25057224.9614   25057229.5884
        37.000          30.0004
 127827267.242 7  99421265.457 6  23904340.422    23904341.331    23904350.398
        44.600          39.300
 124519254.859 6  97028127.19245  23695176.439    23695175.8584   23695178.5334
        40.700          35.9004
 110417757.536 8  85880663.334 7  20670377.977    20670378.371    20670385.512
        50.500          47.100
 126115986.517 8                  23999023.500
        48.300
 125338760.556 7  97485739.856 6  23513232.101    23513232.121    23513242.353
        45.400          41.000
 127806253.412 7  99404917.370 6  23866914.029    23866915.670    23866923.822
        43.700          41.000
 111222011.189 7  86666634.70846  21164789.185    21164787.7194   21164787.9214
        47.200          37.3004
 25  1  1  2 16 30.0000000  0 33E34G25R21G04S31S35R06E21E13G24S33G12
                                G20E15R22G05G11E02G06E36R07R23E27R13
                                E05G09R24G17R12E30R14R08G19
 126659291.407 8                  24102410.017
        48.000
 122331850.046 6  95323596.38345  23278957.351    23278956.3364   23278961.9354
        39.700          34.4004
 130737044.805 7 101684524.513 6  24431293.689    24431294.228    24431300.441
        45.000          37.100
 134441170.163 5 104759363.43242  25583303.075    25583302.6244   25583304.7544
        35.400          14.6004
 198982969.781 7                  37865193.369
        45.200
 200927478.545 7                  38235231.301
        44.000
 121453002.947 6                  22760231.851    22760231.054
        36.600
 150857509.489 6                  28707227.574
        36.900
 144373346.157 6                  27473322.959
        38.500
 131680942.098 6 102608667.92545  25057999.759    25057999.2634   25058006.6234
        37.300          30.6004
 202133596.406 7                  38464726.973
        45.300
 110076009.151 8  85773644.86148  20946719.437    20946718.7944   20946718.7014
        49.800          48.8004
 113494107.500 7  88437016.14345  21597188.181    21597186.8854   21597188.6944
        46.200          34.6004
 124775710.469 7                  23743991.174
        47.800
 109442907.643 8  85122401.846 8  20502299.620    20502299.539    20502304.130
        52.100          48.100
 129180607.903 6 100660250.70345  24582243.658    24582243.1804   24582245.8344
        40.600          32.9004
 108368284.167 8  84442920.84447  20621761.900    20621761.5254   20621762.2984
        49.400          42.0004
 142717671.392 6                  27158235.802
        38.400
 109937298.181 8  85665575.21848  20920329.709    20920329.3384   20920332.2044
        49.000          50.5004
 148404390.394 6                  28240369.880
        36.900
 119012654.474 7  92565459.197 7  22232548.831    22232549.301    22232557.425
        47.500          45.300
 107887016.328 8                  20168307.092    20168307.326
        50.300
 128512820.916 7                  24455122.351
        47.600
 107096381.038 7                  20055664.026    20055664.133
        47.600
 143298963.426 5                  27268885.621
        33.700
 131649830.422 6 102584315.12345  25052126.551    25052126.0104   25052131.1204
        37.600          30.5004
 127785459.148 7  99388748.190 6  23896521.520    23896521.080    23896531.520
        43.500          38.800
 124553710.163 6  97054975.45545  23701733.556    23701732.9574   23701734.8664
        40.800          35.7004
 110467278.637 8  85919179.725 7  20679648.697    20679649.109    20679655.749
        50.500          47.000
 126137361.296 8                  24003091.003
        48.500
 125283058.563 7  97442416.115 6  23502783.611    23502783.808    23502791.733
        46.300          40.800
 127747343.179 7  99359098.378 6  23855912.823    23855913.730    23855923.130
        44.300          40.500
 111247549.657 7  86686534.80846  21169648.991    21169647.5164   21169647.7254
        46.800          37.4004
 25  1  1  2 16 45.0000000  0 33E34G25R21G04S31S35R06E21E13G24S33G12
                                G20E15R22G05G11E02G06E36R07R23E27R13
                                E05G09R24G17R12E30R14R08G19
 126682362.780 8                  24106800.207
        48.000
 122285420.305 6  95287417.44345  23270122.116    23270121.1014   23270126.6214
        39.800          34.3004
 130782280.913 7 101719708.152 6  24439746.751    24439747.160    24439754.267
        44.400          37.500
 134426450.068 5 104747893.19642  25580502.275    25580501.8424   25580503.7654
        34.600          16.1004
 198982972.320 7                  37865195.909
        45.500
 200927516.223 7                  38235242.221
        44.000
 121463131.058 6                  22762129.380    22762129.092
        37.500
 150814604.399 6                  28699062.817
        36.700
 144337231.332 6                  27466450.451
        37.300
 131721940.245 6 102640614.52645  25065801.510    25065801.0144   25065808.1334
        37.100          30.3004
 202133587.853 7                  38464717.252
        45.100
 110056183.233 8  85758196.10348  20942946.820    20942946.1774   20942945.9484
        49.900          48.8004
 113452867.569 7  88404881.15945  21589340.763    21589339.4764   21589340.9514
        46.900          34.6004
 124763166.530 7                  23741604.178
        47.800
 109470987.366 8  85144241.652 8  20507559.735    20507559.907    20507564.591
        52.000          48.300
 129121708.942 6 100614355.46645  24571034.655    24571034.1904   24571037.6724
        41.400          33.7004
 108359688.173 8  84436222.67747  20620126.300    20620125.9204   20620126.5474
        49.500          42.0004
 142762628.967 6                  27166790.660
        38.400
 109963847.312 8  85686262.85348  20925381.651    20925381.2764   20925384.3154
        49.100          50.4004
 148443199.280 6                  28247755.069
        37.400
 118976358.032 7  92537228.669 7  22225768.629    22225768.528    22225776.576
        47.400          44.900
 107876546.195 8                  20166349.998    20166349.953
        50.400
 128492427.290 7                  24451241.701
        47.900
 107095006.467 7                  20055407.925    20055406.746
        47.500
 143266931.667 5                  27262790.084
        34.700
 131623115.717 6 102563498.52345  25047042.726    25047042.1764   25047047.1004
        37.600          30.4004
 127743686.803 7  99356258.714 6  23888710.847    23888710.707    23888719.635
        44.600          38.700
 124588199.757 6  97081850.44645  23708296.381    23708295.7874   23708298.1044
        41.400          35.7004
 110516933.498 8  85957800.174 7  20688944.376    20688944.454    20688951.765
        50.200          47.100
 126158828.550 8                  24007175.962
        48.600
 125227450.551 7  97399165.480 6  23492351.080    23492351.419    23492359.983
        45.900          40.500
 127688429.769 7  99313276.951 6  23844911.374    23844910.985    23844921.512
        43.000          41.400
 111273157.964 7  86706489.33046  21174522.421    21174520.9504   21174520.8464
        46.700          37.3004
 25  1  1  2 17  0.0000000  0 33E34G25R21G04S31S35R06E21E13G24S33G12
                                G20E15R22G05G11E02G06E36R07R23E27R13
                                E05G09R24G17R12E30R14R08G19
 126705472.093 7                  24111197.800
        47.900
 122239066.078 6  95251297.34445  23261300.919    23261299.8954   23261305.8454
        40.100          34.5004
 130827493.305 7 101754873.327 6  24448196.181    24448196.970    24448202.718
        45.100          37.400
 134411831.353 5 104736502.00842  25577720.529    25577720.0734   25577721.8174
        33.500          14.9004
 198982972.278 7                  37865196.499
        45.300
 200927551.408 7                  38235245.414
        44.000
 121473444.877 6                  22764062.127    22764061.884
        37.100
 150771709.601 6                  28690900.104
        37.100
 144301148.304 6                  27459583.793
        38.200
 131762947.520 6 102672568.24845  25073604.817    25073604.3034   25073611.0384
        37.200          30.3004
 202133576.875 7                  38464725.269
        45.100
 110036494.557 8  85742854.28848  20939200.125    20939199.4914   20939199.3104
        50.100          48.9004
 113411717.578 7  88372816.24945  21581510.087    21581508.7914   21581510.3134
        46.800          34.8004
 124750686.278 7                  23739229.202
        47.900
 109499107.857 8  85166113.111 8  20512827.603    20512827.675    20512832.503
        51.700          48.200
 129062811.883 6 100568461.71345  24559826.672    24559826.1994   24559829.7424
        39.300          32.8004
 108351188.916 8  84429599.88747  20618509.103    20618508.7234   20618509.1934
        49.500          42.1004
 142807608.279 6                  27175349.971
        38.900
 109990462.426 8  85707001.90348  20930446.420    20930446.0454   20930448.9864
        49.200          50.4004
 148481992.952 6                  28255137.588
        37.100
 118940192.903 7  92509100.265 7  22219012.965    22219013.073    22219020.849
        47.300          44.800
 107866148.431 8                  20164406.219    20164406.206
        50.100
 128472113.388 7                  24447376.040
        47.700
 107093837.195 7                  20055188.292    20055187.816
        47.700
 143234922.737 5                  27256699.069
        33.800
 131596473.968 6 102542738.76045  25041973.211    25041972.6534   25041977.3044
        37.700          30.5004
 127701944.586 7  99323792.635 6  23880904.238    23880904.560    23880913.962
        44.300          39.400
 124622718.017 6  97108747.76145  23714865.042    23714864.4254   23714866.8864
        41.600          35.8004
 110566715.909 8  85996519.795 7  20698263.686    20698263.763    20698270.912
        50.400          47.000
 126180382.532 8                  24011277.634
        48.700
 125171930.942 7  97355983.605 6  23481935.131    23481935.374    23481945.180
        45.400          41.000
 127629508.234 7  99267449.137 6  23833908.286    23833909.944    23833917.399
        44.200          40.700
 111298830.485 7  86726493.88446  21179407.619    21179406.1484   21179406.1924
        46.900          37.2004
 25  1  1  2 17 15.0000000  0 33E34G25R21G04S31S35R06E21E13G24S33G12
                                G20E15R22G05G11E02G06E36R07R23E27R13
                                E05G09R24G17R12E30R14R08G19
 126728622.051 7                  24115603.202
        47.900
 122192790.601 6  95215238.60245  23252495.624    23252494.6054   23252499.5794
        39.800          34.6004
 130872684.907 7 101790022.344 6  24456640.968    24456641.357    24456648.410
        44.300          37.600
 134397317.149 5 104725192.21342  25574958.689    25574958.2694   25574959.8754
        35.700          16.0004
 198982973.432 7                  37865197.027
        45.300
 200927587.899 7                  38235253.172
        43.800
 121483947.083 6                  22766029.564    22766029.648
        37.100
 150728828.223 6                  28682739.545
        36.800
 144265099.991 6                  27452723.881
        38.300
 131803966.378 6 102704530.98445  25081409.878    25081409.3554   25081417.0654
        37.300          30.8004
 202133566.231 7                  38464719.134
        45.600
 110016946.245 8  85727621.84748  20935480.222    20935479.5884   20935479.4034
        49.900          49.1004
 113370660.689 7  88340823.89245  21573697.307    21573696.0154   21573697.4584
        46.900          35.0004
 124738272.540 7                  23736866.981
        47.600
 109527271.811 8  85188018.414 8  20518103.510    20518103.957    20518108.436
        51.900          48.200
 129003920.260 6 100522572.18545  24548620.499    24548620.0344   24548622.7564
        40.500          33.0004
 108342789.178 8  84423054.64547  20616910.756    20616910.3764   20616910.8164
        49.300          42.2004
 142852611.879 6                  27183913.455
        38.700
 110017146.158 8  85727794.42148  20935524.414    20935524.0434   20935526.6974
        48.900          50.4004
 148520774.282 6                  28262517.257
        36.800
 118904162.517 7  92481076.662 7  22212281.805    22212281.757    22212289.738
        46.800          44.900
 107855825.713 8                  20162476.437    20162476.469
        50.100
 128451882.266 7                  24443525.908
        47.700
 107092876.344 7                  20055008.052    20055007.896
        47.600
 143202939.750 5                  27250612.715
        34.900
 131569908.325 6 102522038.30345  25036918.025    25036917.4754   25036922.1134
        37.200          31.0004
 127660235.113 7  99291352.041 6  23873104.073    23873104.565    23873113.780
        44.000          39.300
 124657268.061 6  97135669.84245  23721439.589    23721438.9774   23721441.4814
        40.900          35.7004
 110616628.348 8  86035340.578 7  20707607.631    20707608.005    20707614.506
        50.700          47.000
 126202026.068 8                  24015396.324
        48.600
 125116503.164 7  97312873.151 6  23471537.481    23471536.937    23471547.620
        44.900          41.200
 127570581.500 7  99221617.340 6  23822902.807    23822903.578    23822913.814
        43.500          41.000
 111324570.084 7  86746550.71046  21184306.089    21184304.6234   21184304.2604
        46.300          37.4004
 25  1  1  2 17 30.0000000  0 33E34G25R21G04S31S35R06E21E13G24S33G12
                                G20E15R22G05G11E02G06E36R07R23E27R13
                                E05G09R24G17R12E30R14R08G19
 126751814.118 8                  24120016.359
        48.100
 122146595.793 6  95179242.72145  23243704.308    23243703.3024   23243708.9464
        39.700          34.9004
 130917857.258 7 101825156.389 6  24465083.382    24465083.852    24465089.930
        44.100          37.300
 134382909.259 6 104713965.26842  25572217.125    25572216.7234   25572218.1134
        37.500          17.4004
 198982977.105 7                  37865198.694
        45.600
 200927626.574 7                  38235266.247
        44.100
 121494639.566 6                  22768032.502    22768033.830
        36.800
 150685962.031 6                  28674582.512
        36.700
 144229088.035 6                  27445870.762
        37.600
 131844998.098 6 102736503.73845  25089218.552    25089218.0254   25089224.5674
        37.900          30.2004
 202133557.163 7                  38464716.272
        44.800
 109997540.091 8  85712500.17748  20931787.374    20931786.7404   20931786.5414
        49.900          49.2004
 113329698.880 7  88308905.62145  21565902.207    21565900.9154   21565902.6424
        47.000          35.1004
 124725926.853 7                  23734517.792
        47.700
 109555480.766 8  85209958.693 8  20523387.862    20523388.333    20523393.093
        51.700          48.300
 128945036.148 6 100476688.51545  24537414.951    24537414.4954   24537417.5494
        40.400          33.3004
 108334490.513 8  84416588.16647  20615331.511    20615331.1404   20615331.5784
        49.500          42.3004
 142897641.320 6                  27192482.426
        38.400
 110043899.898 8  85748641.49148  20940615.457    20940615.0864   20940617.7384
        49.300          50.4004
 148559544.758 6                  28269895.223
        37.300
 118868269.075 7  92453159.556 7  22205577.498    22205577.596    22205584.781
        47.900          44.800
 107845579.625 8                  20160561.145    20160561.179
        50.500
 128431735.703 7                  24439692.375
        47.800
 107092125.318 7                  20054867.526    20054867.402
        47.500
 143170984.484 5                  27244531.967
        35.100
 131543420.759 6 102501398.69445  25031877.121    25031876.5674   25031881.6594
        38.200          30.8004
 127618560.120 7  99258938.303 6  23865310.451    23865310.840    23865320.592
        43.700          39.900
 124691851.382 6  97162617.85245  23728020.947    23728020.3214   23728022.6014
        41.500          35.7004
 110666671.836 8  86074263.269 7  20716975.542    20716975.929    20716983.244
        50.800          47.100
 126223760.693 8                  24019532.294
        48.600
 125061169.335 7  97269835.772 6  23461157.111    23461157.353    23461165.586
        45.400          40.200
 127511651.955 7  99175783.316 6  23811899.199    23811899.156    23811908.650
        42.500          41.000
 111350378.329 7  86766661.02646  21189217.307    21189215.8594   21189215.4524
        46.600          37.3004
 25  1  1  2 17 45.0000000  0 33E34G25R21G04S31S35R06E21E13G24S33G12
                                G20E15R22G05G11E02G06E36R07R23E27R13
                                E05G09R24G17R12E30R14R08G19
 126775043.459 8                  24124436.890
        48.000
 122100477.347 6  95143306.34345  23234928.196    23234927.2134   23234932.7784
        40.200          34.4004
 130963005.679 7 101860271.802 6  24473519.063    24473519.612    24473526.965
        43.400          37.300
 134368603.260 6 104702817.75642  25569494.760    25569494.3714   25569495.5524
        36.500          16.8004
 198982978.747 7                  37865193.861
        45.500
 200927663.117 7                  38235265.795
        43.800
 121505517.100 6                  22770072.623    22770071.991
        37.400
 150643106.541 6                  28666427.147
        37.000
 144193107.782 6                  27439024.672
        36.700
 131886037.601 6 102768482.56545  25097028.006    25097027.4654   25097033.5274
        37.100          30.3004
 202133547.320 7                  38464712.547
        45.200
 109978271.643 8  85697485.81448  20928120.725    20928120.0994   20928119.8594
        49.900          49.1004
 113288827.681 7  88277057.95445  21558124.767    21558123.4844   21558125.0604
        46.900          35.1004
 124713644.481 7                  23732180.285
        47.900
 109583729.754 8  85231930.118 8  20528680.417    20528680.498    20528684.914
        52.000          48.200
 128886154.606 6 100430806.85245  24526210.273    24526209.8264   24526212.8354
        40.200          33.3004
 108326288.158 8  84410196.72947  20613770.618    20613770.2524   20613770.7174
        49.600          42.2004
 142942691.735 6                  27201056.110
        38.600
 110070718.734 8  85769539.28048  20945718.435    20945718.0604   20945721.1924
        49.000          50.2004
 148598299.548 6                  28277269.839
        38.500
 118832508.187 7  92425345.577 7  22198896.387    22198896.898    22198904.629
        46.900          45.000
 107835405.439 8                  20158658.966    20158658.982
        50.200
 128411669.199 8                  24435873.880
        48.100
 107091579.668 7                  20054765.614    20054764.890
        47.800
 143139052.537 5                  27238455.249
        33.700
 131517006.956 6 102480816.55945  25026850.445    25026849.8824   25026855.3054
        37.600          30.5004
 127576914.921 7  99226547.719 6  23857521.805    23857521.900    23857532.590
        43.400          39.600
 124726463.233 6  97189588.09645  23734607.041    23734606.4154   23734609.0014
        40.900          35.4004
 110716841.332 8  86113283.970 7  20726367.578    20726367.682    20726374.649
        51.000          46.800
 126245581.646 8                  24023684.632
        48.900
 125005925.548 7  97226868.427 6  23450793.901    23450793.608    23450801.809
        45.700          40.100
 127452715.441 7  99129943.921 6  23800892.420    23800893.406    23800903.204
        43.100          41.400
 111376250.612 7  86786821.23846  21194140.276    21194138.8284   21194138.7444
        46.800          37.1004
 25  1  1  2 18  0.0000000  0 33E34G25R21G04S31S35R06E21E13G24S33G12
                                G20E15R22G05G11E02G06E36R07R23E27R13
                                E05G09R24G17R12E30R14R08G19
 126798308.487 8                  24128864.008
        48.100
 122054434.202 6  95107428.63245  23226166.787    23226165.7904   23226170.8134
        40.100          34.5004
 131008128.692 7 101895367.458 6  24481951.792    24481952.869    24481960.204
        43.800          38.100
 134354397.952 5 104691748.66042  25566791.293    25566790.9274   25566792.2684
        35.200          16.9004
 198982976.095 7                  37865193.172
        44.900
 200927695.983 7                  38235274.108
        43.600
 121516578.361 6                  22772145.206    22772144.561
        36.400
 150600260.434 6                  28658274.432
        37.900
 144157157.920 6                  27432183.455
        38.100
 131927083.163 6 102800466.12245  25104839.419    25104838.8744   25104844.6244
        37.600          30.5004
 202133533.426 7                  38464715.342
        45.100
 109959139.712 8  85682577.82548  20924480.092    20924479.4714   20924479.1984
        50.000          49.0004
 113248046.020 7  88245280.06445  21550364.572    21550363.2944   21550364.5594
        46.600          35.0004
 124701423.938 8                  23729854.960
        48.000
 109612017.141 8  85253931.417 8  20533978.700    20533979.621    20533984.212
        51.800          48.300
 128827274.881 6 100384926.60445  24515005.566    24515005.1104   24515008.2634
        39.800          32.7004
 108318180.607 8  84403879.16647  20612227.849    20612227.4834   20612227.9004
        49.200          42.2004
 142987761.585 6                  27209632.175
        38.900
 110097601.017 8  85790486.50948  20950834.171    20950833.8004   20950836.7104
        49.100          50.0004
 148637037.213 6                  28284641.096
        36.700
 118796878.974 7  92397634.010 7  22192240.190    22192240.495    22192249.182
        47.600          45.100
 107825301.397 8                  20156770.245    20156770.289
        50.300
 128391681.488 7                  24432070.435
        47.900
 107091237.700 7                  20054701.314    20054700.950
        47.500
 143107142.812 5                  27232383.148
        34.300
 131490665.850 6 102460291.07845  25021838.757    25021838.1814   25021842.9564
        37.400          31.0004
 127535298.126 7  99194179.220 6  23849739.918    23849738.992    23849750.040
        42.100          39.800
 124761102.414 6  97216579.62545  23741199.041    23741198.4074   23741200.6204
        41.600          35.5004
 110767134.710 8  86152401.033 7  20735782.367    20735782.720    20735789.914
        50.500          46.900
 126267487.468 8                  24027853.149
        48.800
 124950770.536 7  97183970.183 6  23440446.070    23440446.408    23440455.298
        46.300          41.200
 127393770.970 7  99084098.282 6  23789886.626    23789886.208    23789894.507
        44.100          41.000
 111402185.539 7  86807030.26646  21199075.538    21199074.0904   21199073.9804
        46.800          37.0004
 25  1  1  2 18 15.0000000  0 33E34G25R21G04S31S35R06E21E13G24S33G12
                                G20E15R22G05G11E02G06E36R07R23E27R13
                                E05G09R24G17R12E30R14R08G19
 126821618.498 7                  24133299.856
        47.800
 122008476.108 6  95071617.19345  23217420.804    23217419.7894   23217425.2184
        39.900          34.6004
 131053235.827 7 101930450.787 6  24490381.053    24490381.215    24490388.510
        44.000          37.300
 134340302.935 6 104680765.52642  25564109.689    25564109.3274   25564110.0684
        36.700          17.8004
 198982979.456 7                  37865194.370
        45.300
 200927734.604 7                  38235278.982
        44.000
 121527832.832 6                  22774254.905    22774254.027
        37.100
 150557433.425 6                  28650123.985
        37.100
 144121247.899 6                  27425349.492
        36.500
 131968143.819 6 102832461.43245  25112652.132    25112651.5914   25112658.1684
        37.500          30.2004
 202133524.236 7                  38464705.491
        45.100
 109940153.925 8  85667783.71648  20920867.057    20920866.4404   20920866.3424
        49.800          49.1004
 113207363.583 7  88213579.49245  21542622.753    21542621.4704   21542622.8394
        47.200          35.1004
 124689274.622 7                  23727542.841
        47.700
 109640352.385 8  85275969.916 8  20539287.391    20539287.777    20539292.556
        52.000          48.400
 128768406.774 6 100339055.40145  24503803.117    24503802.6574   24503805.9144
        40.800          33.0004
 108310177.221 8  84397642.77347  20610704.952    20610704.5864   20610704.9024
        49.600          42.2004
 143032860.116 6                  27218214.165
        39.000
 110124555.929 8  85811490.33448  20955963.407    20955963.0364   20955966.0734
        48.900          50.0004
 148675767.065 6                  28292011.270
        36.800
 118761391.502 7  92370032.671 7  22185611.234    22185611.587    22185619.107
        47.500          44.800
 107815277.072 8                  20154896.270    20154896.380
        50.300
 128371782.196 7                  24428283.530
        47.500
 107091109.181 7                  20054677.385    20054676.996
        47.500
 143075264.899 5                  27226317.097
        34.800
 131464407.173 6 102439829.81445  25016841.294    25016840.7184   25016845.7714
        37.400          30.6004
 127493719.347 7  99161840.250 6  23841965.791    23841964.986    23841974.196
        43.700          39.000
 124795778.133 6  97243599.63345  23747797.337    23747796.7034   23747799.4034
        41.600          35.7004
 110817561.045 8  86191621.496 7  20745222.951    20745222.954    20745229.447
        51.000          46.600
 126289487.527 8                  24032039.626
        48.600
 124895714.412 7  97141148.796 6  23430117.988    23430118.145    23430127.012
        45.100          40.600
 127334828.610 7  99038254.308 6  23778878.507    23778879.774    23778888.266
        44.500          41.200
 111428192.418 7  86827295.36046  21204024.219    21204022.7624   21204022.9134
        46.800          36.9004
 25  1  1  2 18 30.0000000  0 33E34G25R21G04S31S35R06E21E13G24S33G12
                                G20E15R22G05G11E02G06E36R07R23E27R13
                                E05G09R24G17R12E30R14R08G19
 126844968.821 7                  24137743.182
        47.600
 121962598.865 6  95035868.76745  23208691.292    23208690.2824   23208695.0504
        40.600          34.8004
 131098322.543 7 101965518.241 6  24498806.457    24498807.004    24498815.180
        44.300          37.900
 134326313.980 6 104669865.04543  25561447.279    25561446.8994   25561448.3224
        37.500          19.3004
 198982984.444 7                  37865195.909
        45.100
 200927774.442 7                  38235287.103
        43.800
 121539275.854 6                  22776398.048    22776398.349
        36.800
 150514621.111 6                  28641977.138
        36.800
 144085373.265 6                  27418523.171
        37.300
 132009214.710 6 102864464.72245  25120467.996    25120467.4694   25120473.9254
        37.100          30.5004
 202133518.297 7                  38464708.067
        45.100
 109921310.007 8  85653100.15448  20917281.172    20917280.5554   20917280.4764
        49.800          49.2004
 113166776.307 7  88181953.06445  21534899.161    21534897.8694   21534899.3544
        47.200          35.2004
 124677191.935 7                  23725243.513
        47.500
 109668730.714 8  85298041.936 8  20544603.815    20544604.188    20544608.765
        52.200          48.400
 128709545.830 6 100293189.78945  24492602.753    24492602.2884   24492605.1884
        39.800          33.3004
 108302273.403 8  84391483.96547  20609200.819    20609200.4574   20609200.8444
        49.900          42.4004
 143077982.626 6                  27226800.698
        38.800
 110151578.733 8  85832547.06148  20961106.029    20961105.6544   20961108.3494
        49.100          50.1004
 148714484.490 6                  28299378.973
        37.000
 118726041.871 7  92342538.563 7  22179007.005    22179007.805    22179015.451
        47.300          44.800
 107805327.772 8                  20153036.589    20153036.569
        50.600
 128351966.961 7                  24424512.894
        47.300
 107091189.542 7                  20054692.086    20054691.922
        47.500
 143043414.597 5                  27220256.060
        34.800
 131438226.761 6 102419429.56145  25011859.914    25011859.3294   25011863.9364
        37.800          31.4004
 127452173.689 7  99129527.078 6  23834194.299    23834194.259    23834204.149
        43.200          38.600
 124830485.837 6  97270644.54845  23754402.489    23754401.8724   23754404.1464
        39.900          35.5004
 110868115.375 8  86230941.523 7  20754686.340    20754686.267    20754693.784
        50.100          46.800
 126311577.211 8                  24036243.177
        48.200
 124840753.037 7  97098401.053 6  23419808.084    23419807.678    23419816.188
        45.600          40.600
 127275884.229 7  98992408.716 6  23767870.017    23767871.582    23767880.902
        43.300          41.400
 111454266.851 7  86847613.09346  21208986.351    21208984.8944   21208984.7554
        46.400          36.9004
 25  1  1  2 18 45.0000000  0 33E34G25R21G04S31S35R06E21E13G24S33G12
                                G20E15R22G05G11E02G06E36R07R23E27R13
                                E05G09R24G17R12E30R14R08G19
 126868353.306 7                  24142193.096
        47.800
 121916796.861 6  95000178.96645  23199974.998    23199973.9924   23199979.3624
        40.400          34.7004
 131143382.529 7 102000564.873 6  24507227.376    24507227.727    24507233.774
        42.100          36.400
 134312425.271 6 104659042.65943  25558803.701    25558803.3304   25558805.4234
        36.000          18.8004
 198982984.152 7                  37865197.733
        45.300
 200927809.310 7                  38235291.731
        43.400
 121550901.406 6                  22778576.957    22778576.852
        37.000
 150471817.707 6                  28633831.792
        36.700
 144049528.029 6                  27411701.964
        38.000
 132050289.431 6 102896470.98945  25128284.226    25128283.7084   25128290.6794
        37.300          30.2004
 202133506.847 7                  38464704.910
        45.100
 109902602.269 8  85638522.70648  20913721.427    20913720.8244   20913720.5104
        50.200          49.1004
 113126278.041 7  88150395.99745  21527192.870    21527191.5924   21527192.7364
        47.200          35.2004
 124665169.826 7                  23722956.116
        47.700
 109697145.864 8  85320142.596 8  20549926.501    20549926.823    20549931.847
        51.600          48.500
 128650686.585 6 100247325.48945  24481401.791    24481401.3444   24481404.5034
        40.200          33.0004
 108294463.076 8  84385398.00747  20607714.387    20607714.0164   20607714.5764
        49.800          42.2004
 143123122.957 6                  27235390.257
        38.900
 110178663.217 8  85853651.84448  20966259.988    20966259.6084   20966262.3504
        49.200          49.9004
 148753183.512 6                  28306743.248
        37.300
 118690824.267 7  92315147.112 7  22172428.046    22172428.636    22172436.603
        47.600          45.000
 107795447.199 8                  20151189.434    20151189.275
        50.400
 128332229.958 7                  24420757.048
        47.700
 107091472.542 7                  20054744.954    20054744.947
        47.500
 143011586.113 5                  27214199.121
        34.000
 131412118.939 6 102399085.83645  25006891.933    25006891.3574   25006895.3604
        37.000          30.8004
 127410655.345 7  99097235.112 6  23826430.719    23826431.366    23826440.701
        44.000          39.400
 124865219.738 6  97297709.88845  23761011.869    23761011.2664   23761013.8074
        40.400          35.3004
 110918790.828 8  86270355.739 7  20764173.074    20764173.091    20764180.358
        50.400          46.800
 126333750.500 8                  24040462.617
        48.500
 124785881.015 7  97055722.821 6  23409513.220    23409513.127    23409522.701
        45.800          40.700
 127216932.570 7  98946557.538 6  23756861.648    23756861.938    23756872.187
        43.000          41.800
 111480402.702 7  86867978.68346  21213960.070    21213958.6224   21213958.2594
        46.600          36.7004
 25  1  1  2 19  0.0000000  0 33E34G25R21G04S31S35R06E21E13G24S33G12
                                G20E15R22G05G11E02G06E36R07R23E27R13
                                E05G09R24G17R12E30R14R08G19
 126891776.947 7                  24146650.464
        47.800
 121871075.599 6  94964552.07445  23191273.968    23191272.9714   23191278.6934
        40.800          34.5004
 131188421.354 7 102035595.039 6  24515643.494    24515643.969    24515651.233
        42.500          36.100
 134298642.203 6 104648302.60543  25556182.143    25556181.7724   25556182.4634
        36.700          18.1004
 198982984.677 7                  37865200.197
        45.200
 200927844.757 7                  38235300.692
        43.700
 121562714.516 6                  22780789.628    22780791.025
        36.800
 150429028.598 6                  28625689.260
        37.600
 144013717.446 6                  27404887.355
        37.800
 132091372.793 6 102928483.98145  25136102.039    25136101.5344   25136108.8464
        37.100          30.2004
 202133495.196 7                  38464705.648
        45.300
 109884036.093 8  85624055.56648  20910188.085    20910187.4734   20910187.4774
        49.900          49.0004
 113085874.541 7  88118912.77145  21519504.104    21519502.8214   21519504.1614
        47.300          35.1004
 124653213.393 7                  23720680.609
        47.700
 109725602.866 8  85342275.794 8  20555257.833    20555258.191    20555262.763
        51.700          48.400
 128591834.529 6 100201466.79245  24470202.804    24470202.3664   24470205.1324
        39.400          32.7004
 108286751.318 8  84379388.85547  20606246.946    20606246.5804   20606247.0614
        49.400          42.2004
 143168286.128 6                  27243984.932
        38.800
 110205814.314 8  85874808.54148  20971426.343    20971425.9594   20971429.0554
        49.100          49.7004
 148791869.108 6                  28314104.189
        37.000
 118655744.282 7  92287862.708 7  22165874.799    22165876.054    22165883.096
        47.900          44.900
 107785640.646 8                  20149356.220    20149356.093
        50.300
 128312576.542 7                  24417017.114
        47.500
 107091963.536 7                  20054837.384    20054836.865
        47.200
 142979784.892 5                  27208147.792
        33.500
 131386089.224 6 102378802.99245  25001938.095    25001937.5054   25001941.9644
        37.800          30.7004
 127369169.415 7  99064968.391 6  23818672.943    23818672.707    23818682.015
        43.600          39.500
 124899985.077 6  97324799.72745  23767627.773    23767627.1704   23767629.2824
        41.300          35.1004
 110969592.469 8  86309868.092 7  20773683.143    20773683.535    20773690.412
        50.600          46.700
 126356012.470 8                  24044699.099
        48.300
 124731104.239 7  97013118.726 6  23399238.169    23399237.477    23399246.389
        46.300          41.100
 127157978.968 7  98900704.802 6  23745853.437    23745852.656    23745862.458
        43.500          41.600
 111506605.247 7  86888396.24846  21218945.943    21218944.4904   21218944.4584
        46.900          36.6004
 25  1  1  2 19 15.0000000  0 33E34G25R21G04S31S35R06E21E13G24S33G12
                                G20E15R22G05G11E02G06E36R07R23E27R13
                                E05G09R24G17R12E30R14R08G19
 126915242.033 8                  24151115.608
        48.000
 121825437.861 6  94928990.26645  23182589.964    23182588.9904   23182594.0114
        40.800          34.5004
 131233441.187 7 102070610.453 6  24524056.829    24524057.050    24524064.993
        44.300          37.600
 134284967.391 5 104637646.88542  25553578.803    25553578.4324   25553580.1264
        35.200          16.5004
 198982988.061 7                  37865202.424
        45.700
 200927883.552 7                  38235311.554
        44.100
 121574717.713 6                  22783040.338    22783040.023
        37.300
 150386256.359 6                  28617549.955
        38.700
 143977943.947 6                  27398079.518
        37.700
 132132466.889 6 102960505.36445  25143922.275    25143921.7754   25143928.4264
        37.400          30.1004
 202133486.792 7                  38464705.929
        45.300
 109865614.044 8  85609700.73448  20906682.449    20906681.8414   20906681.8734
        50.100          49.0004
 113045568.452 7  88087505.45445  21511834.250    21511832.9764   21511834.1664
        47.200          35.0004
 124641325.000 7                  23718418.283
        47.900
 109754104.057 8  85364443.370 8  20560597.031    20560597.268    20560602.028
        51.900          48.500
 128532992.308 6 100155615.76645  24459005.236    24459004.7764   24459007.7554
        40.400          32.8004
 108279140.468 8  84373458.33347  20604798.714    20604798.3524   20604798.7744
        49.700          42.2004
 143213474.384 6                  27252583.864
        39.200
 110233034.180 8  85896018.82048  20976606.409    20976606.0204   20976608.8444
        49.300          49.7004
 148830543.643 6                  28321464.018
        37.800
 118620805.243 7  92260687.943 7  22159348.184    22159348.379    22159356.423
        47.500          45.000
 107775910.389 8                  20147537.139    20147537.104
        50.500
 128293009.252 7                  24413293.488
        47.500
 107092665.004 7                  20054968.884    20054967.978
        47.000
 142948013.699 5                  27202101.915
        34.800
 131360140.360 6 102358583.14345  24996999.813    24996999.2104   24997004.2244
        37.400          30.7004
 127327718.471 7  99032728.873 6  23810920.536    23810921.503    23810930.172
        43.100          39.100
 124934784.103 6  97351915.82045  23774249.805    23774249.1844   23774251.4424
        41.000          35.3004
 111020522.118 8  86349480.033 7  20783217.662    20783217.643    20783224.605
        50.900          46.600
 126378365.471 8                  24048952.517
        48.600
 124676425.300 7  96970590.746 6  23388978.950    23388979.467    23388988.559
        45.900          40.300
 127099026.582 7  98854852.936 6  23734843.104    23734844.058    23734853.667
        43.100          41.500
 111532877.042 7  86908867.77046  21223945.099    21223943.6514   21223943.7814
        46.700          36.5004
 25  1  1  2 19 30.0000000  0 33E34G25R21G04S31S35R06E21E13G24S33G12
                                G20E15R22G05G11E02G06E36R07R23E27R13
                                E05G09R24G17R12E30R14R08G19
 126938739.300 8                  24155586.982
        48.100
 121779874.837 6  94893486.67345  23173919.035    23173918.0254   23173923.4544
        40.600          34.8004
 131278432.868 7 102105603.949 6  24532464.689    24532464.769    24532472.131
        42.400          36.700
 134271391.965 5 104627068.66442  25550995.656    25550995.2854   25550996.8574
        35.600          17.6004
 198982984.961 7                  37865199.584
        45.400
 200927915.559 7                  38235314.992
        43.800
 121586901.580 6                  22785324.164    22785324.016
        37.200
 150343492.050 6                  28609411.413
        38.100
 143942198.564 6                  27391276.995
        37.900
 132173562.252 6 102992527.71245  25151741.891    25151741.3824   25151748.7664
        37.300          30.5004
 202133471.415 7                  38464697.536
        45.200
 109847327.234 8  85595451.28148  20903202.855    20903202.2474   20903201.9894
        50.100          49.2004
 113005351.012 7  88056167.21345  21504180.882    21504179.6084   21504181.0424
        47.800          35.2004
 124629495.480 8                  23716167.145
        48.000
 109782640.045 8  85386638.011 8  20565943.132    20565943.195    20565947.916
        51.900          48.600
 128474151.135 6 100109765.55845  24447807.842    24447807.3734   24447810.8884
        39.800          33.0004
 108271621.358 8  84367599.29547  20603367.937    20603367.5664   20603367.9624
        49.900          42.3004
 143258678.487 6                  27261186.048
        38.600
 110260313.523 8  85917275.44648  20981797.327    20981796.9344   20981799.9474
        49.100          49.8004
 148869197.985 6                  28328819.750
        38.200
 118585998.293 7  92233615.902 7  22152845.976    22152846.207    22152854.004
        47.600          44.900
 107766246.889 8                  20145730.843    20145730.569
        50.400
 128273519.214 7                  24409584.780
        47.800
 107093567.623 7                  20055137.956    20055137.247
        46.600
 142916263.599 5                  27196060.135
        35.300
 131334263.619 6 102338419.49945  24992075.797    24992075.1854   24992080.1324
        38.400          31.2004
 127286293.110 7  99000509.251 6  23803174.036    23803173.701    23803184.619
        42.300          40.200
 124969607.929 6  97379051.23845  23780876.789    23780876.1634   23780878.2304
        41.300          35.4004
 111071570.039 8  86389183.956 7  20792773.694    20792773.715    20792780.623
        50.400          46.300
 126400800.350 8                  24053221.871
        48.600
 124621835.646 7  96928132.149 6  23378738.128    23378738.012    23378747.586
        45.200          40.600
 127040066.908 7  98808995.464 7  23723834.024    23723833.425    23723843.777
        42.300          42.000
 111559209.014 7  86929386.18746  21228955.969    21228954.5214   21228954.6234
        46.600          36.6004
 25  1  1  2 19 45.0000000  0 34E34G25R21G04S31S35R06E21E13G24S33G12
                                G20E15R22G05G11E02G06E36R07R23E27E09
                                R13E05G09R24G17R12E30R14R08G19
 126962279.343 7                  24160066.745
        47.900
 121734397.638 6  94858049.96845  23165265.275    23165264.2474   23165269.5234
        40.500          35.0004
 131323407.240 6 102140584.038 5  24540868.263    24540869.318    24540876.192
        41.500          34.900
 134257926.819 5 104616576.27442  25548433.190    25548432.8194   25548434.6624
        34.100          14.4004
 198982986.354 7                  37865200.756
        45.400
 200927951.952 7                  38235319.866
        43.700
 121599276.806 6                  22787642.006    22787642.535
        36.400
 150300746.572 6                  28601276.892
        36.800
 143906491.962 6                  27384482.728
        37.500
 132214669.226 6 103024559.11245  25159564.512    25159564.0124   25159571.2084
        36.800          30.5004
 202133461.839 7                  38464698.332
        45.100
 109829186.587 8  85581315.72048  20899750.505    20899749.8974   20899749.9284
        50.000          49.3004
 112965233.150 7  88024906.56345  21496546.768    21496545.4854   21496546.8294
        47.100          35.4004
 124617735.512 8                  23713929.489
        48.000
 109811221.562 8  85408868.081 8  20571297.168    20571297.279    20571302.321
        51.700          48.500
 128415322.318 6 100063924.97945  24436613.911    24436613.4604   24436616.3384
        41.000          33.8004
 108264204.621 8  84361820.03147  20601956.494    20601956.1234   20601956.5974
        49.600          42.5004
 143303908.969 6                  27269793.071
        38.700
 110287662.835 8  85938586.59348  20987001.697    20987001.3044   20987004.3654
        48.700          49.9004
 148907842.776 6                  28336173.735
        36.600
 118551334.453 7  92206655.168 7  22146371.088    22146371.208    22146378.469
        47.300          44.900
 107756661.158 8                  20143938.689    20143938.857
        50.200
 128254117.290 7                  24405892.652
        47.600
 152857612.765 6                  29087836.661
        38.700
 107094682.466 7                  20055346.896    20055346.063
        47.000
 142884545.593 5                  27190023.812
        35.000
 131308470.020 6 102318320.63545  24987166.981    24987166.3514   24987171.2834
        37.100          30.5004
 127244904.397 7  98968318.134 6  23795435.127    23795435.098    23795443.735
        43.800          39.800
 125004467.268 6  97406214.32545  23787509.666    23787509.0364   23787511.5254
        41.200          35.3004
 111122746.602 8  86428987.943 7  20802354.253    20802354.323    20802361.298
        50.700          46.700
 126423327.740 8                  24057508.669
        48.500
 124567346.291 7  96885751.556 6  23368517.328    23368516.746    23368524.697
        46.000          40.100
 126981111.246 7  98763141.187 6  23712823.103    23712823.816    23712833.887
        43.100          41.800
 111585611.644 7  86949959.65746  21233980.452    21233979.0264   21233978.8764
        46.500          36.6004
 25  1  1  2 20  0.0000000  0 34E34G25R21G04S31S35R06E21E13G24S33G12
                                G20E15R22G05G11E02G06E36R07R23E27E09
                                R13E05G09R24G17R12E30R14R08G19
 126985857.820 7                  24164553.444
        47.800
 121689002.430 6  94822677.14645  23156626.619    23156625.5914   23156631.0954
        40.000          34.9004
 131368360.066 7 102175547.296 6  24549270.259    24549270.705    24549277.754
        43.400          36.700
 134244568.124 5 104606166.94242  25545892.035    25545891.6694   25545892.4594
        34.900          14.2004
 198982988.200 7                  37865196.825
        45.200
 200927989.438 7                  38235327.057
        43.800
 121611839.267 6                  22789996.341    22789996.969
        37.100
 150258016.002 6                  28593146.083
        36.900
 143870820.078 6                  27377694.487
        36.600
 132255783.251 6 103056596.02545  25167388.572    25167388.0994   25167394.5534
        37.600          30.3004
 202133452.109 7                  38464691.491
        45.200
 109811188.177 8  85567290.99548  20896325.627    20896325.0154   20896324.9374
        49.800          49.3004
 112925210.992 7  87993720.49145  21488930.920    21488929.6334   21488930.8284
        47.300          35.5004
 124606040.847 7                  23711703.974
        47.800
 109839844.191 8  85431130.108 8  20576659.085    20576659.327    20576664.181
        51.800          48.600
 128356501.961 6 100018091.00345  24425419.708    24425419.2574   24425423.0264
        40.500          33.8004
 108256886.028 8  84356117.24347  20600563.824    20600563.4584   20600563.8884
        49.400          42.5004
 143349161.504 6                  27278404.522
        39.100
 110315077.709 8  85959948.82548  20992218.725    20992218.3324   20992221.2644
        49.100          49.9004
 148946473.825 6                  28343525.151
        36.600
 118516810.351 8  92179803.131 7  22139920.439    22139921.250    22139929.419
        48.100          45.300
 107747148.811 8                  20142160.590    20142160.390
        50.600
 128234799.497 7                  24402216.593
        47.600
 152846573.392 6                  29085735.494
        36.600
 107096005.175 7                  20055594.137    20055593.692
        46.700
 142852855.717 5                  27183994.173
        34.700
 131282755.752 6 102298283.58345  24982273.575    24982272.9634   24982277.7764
        38.400          31.3004
 127203548.003 7  98936152.156 6  23787699.887    23787700.054    23787709.130
        44.000          39.200
 125039357.812 6  97433401.73845  23794149.231    23794148.6014   23794151.1384
        40.900          35.6004
 111174046.943 8  86468888.181 7  20811957.615    20811957.754    20811964.904
        50.100          46.700
 126445943.385 8                  24061812.259
        48.400
 124512954.068 7  96843446.485 6  23358312.397    23358312.418    23358321.411
        46.300          40.400
 126922155.919 7  98717287.073 6  23701813.620    23701814.994    23701824.260
        43.800          41.700
 111612080.790 7  86970584.95746  21239017.302    21239015.8724   21239015.7524
        46.900          36.7004
 25  1  1  2 20 15.0000000  0 34E34G25R21G04S31S35R06E21E13G24S33G12
                                G20E15R22G05G11E02G06E36R07R23E27E09
                                R13E05G09R24G17R12E30R14R08G19
 127009475.533 7                  24169047.814
        47.500
 121643690.526 6  94787369.24245  23148004.240    23148003.2344   23148008.4344
        41.200          34.8004
 131413292.559 7 102210494.763 6  24557665.078    24557666.771    24557673.382
        42.400          36.300
 134231317.032 5 104595841.35942  25543369.857    25543369.4864   25543370.7594
        35.000          14.8004
 198982991.613 7                  37865197.353
        45.300
 200928027.536 7                  38235336.277
        43.600
 121624589.657 6                  22792386.007    22792385.996
        36.800
 150215301.423 6                  28585017.596
        36.300
 143835183.887 6                  27370913.346
        37.900
 132296904.984 6 103088638.92845  25175213.577    25175213.1084   25175219.6424
        38.200          30.4004
 202133442.224 7                  38464694.057
        44.900
 109793333.157 8  85553378.00248  20892928.053    20892927.4454   20892927.2514
        49.900          49.2004
 112885285.680 7  87962609.88145  21481333.069    21481331.7774   21481333.2244
        47.200          35.4004
 124594412.391 7                  23709491.201
        47.600
 109868508.730 8  85453424.729 8  20582028.905    20582029.129    20582033.867
        51.700          48.400
 128297690.987 6  99972264.33045  24414228.485    24414228.0034   24414231.2214
        38.700          32.7004
 108249666.444 8  84350491.60447  20599189.962    20599189.5964   20599190.0354
        49.600          42.3004
 143394436.913 6                  27287019.838
        38.500
 110342558.873 8  85981362.71048  20997448.155    20997447.7624   20997450.7824
        49.000          49.7004
 148985091.858 6                  28350873.546
        36.900
 118482427.241 7  92153060.725 7  22133498.145    22133498.462    22133506.206
        47.300          44.900
 107737710.709 8                  20140396.030    20140396.120
        50.200
 128215566.938 7                  24398556.591
        47.400
 152835625.763 5                  29083652.210
        33.500
 107097536.618 7                  20055881.215    20055880.681
        47.300
 142821195.208 5                  27177968.938
        33.000
 131257122.120 6 102278309.37745  24977396.056    24977395.4354   24977400.0684
        37.900          31.2004
 127162224.981 7  98904012.115 6  23779971.785    23779972.728    23779982.121
        43.200          39.700
 125074280.366 6  97460614.08945  23800794.760    23800794.1524   23800796.7384
        41.100          35.2004
 111225471.758 8  86508885.228 7  20821584.419    20821584.509    20821591.502
        50.600          46.700
 126468648.210 8                  24066132.851
        48.200
 124458660.032 7  96801217.833 6  23348127.380    23348127.676    23348135.958
        46.100          40.800
 126863202.307 7  98671434.371 6  23690803.779    23690805.511    23690814.951
        42.500          41.800
 111638617.452 7  86991262.87646  21244067.142    21244065.7124   21244065.4074
        46.900          36.4004
 25  1  1  2 20 30.0000000  0 34E34G25R21G04S31S35R06E21E13G24S33G12
                                G20E15R22G05G11E02G06E36R07R23E27E09
                                R13E05G09R24G17R12E30R14R08G19
 127033129.005 7                  24173548.746
        47.600
 121598458.897 6  94752123.87545  23139396.286    23139395.2984   23139400.9904
        40.000          34.8004
 131458201.051 7 102245423.649 6  24566058.304    24566058.844    24566066.125
        42.600          36.700
 134218170.311 6 104585597.15342  25540868.620    25540868.2494   25540869.1554
        36.800          17.1004
 198982992.372 7                  37865198.534
        45.500
 200928063.846 7                  38235340.682
        43.800
 121637524.751 6                  22794810.925    22794809.625
        36.100
 150172599.740 6                  28576892.292
        36.500
 143799580.134 6                  27364137.862
        36.500
 132338030.705 6 103120684.93345  25183039.165    25183038.6874   25183045.7954
        37.700          30.4004
 202133433.147 7                  38464690.842
        45.300
 109775618.364 8  85539574.27748  20889557.070    20889556.4584   20889556.2384
        50.000          49.1004
 112845454.240 7  87931572.41945  21473753.799    21473752.5164   21473753.5604
        47.200          35.4004
 124582846.748 7                  23707290.318
        47.300
 109897211.652 8  85475749.223 8  20587406.432    20587406.188    20587411.306
        51.800          48.700
 128238886.918 6  99926443.05045  24403039.270    24403038.8054   24403041.2494
        40.400          33.6004
 108242542.437 8  84344940.44147  20597834.279    20597833.9174   20597834.4094
        49.400          42.3004
 143439731.711 6                  27295639.096
        37.800
 110370102.766 8  86002825.47848  21002689.706    21002689.3134   21002692.2174
        48.800          49.7004
 149023693.469 6                  28358219.331
        36.700
 118448182.268 8  92126425.790 7  22127100.441    22127101.430    22127108.861
        48.300          45.100
 107728343.250 8                  20138644.944    20138644.818
        50.100
 128196416.470 7                  24394912.372
        47.100
 152824766.617 5                  29081585.559
        33.700
 107099273.533 7                  20056206.329    20056205.674
        47.000
 142789560.988 5                  27171948.937
        34.800
 131231566.103 6 102258395.64545  24972532.653    24972532.0324   24972537.1514
        37.400          31.5004
 127120931.830 7  98871895.330 6  23772250.244    23772251.116    23772259.285
        44.200          39.700
 125109231.668 6  97487848.83145  23807445.815    23807445.1984   23807447.7624
        41.100          35.2004
 111277017.099 8  86548976.053 7  20831233.849    20831233.895    20831240.790
        50.500          46.400
 126491438.786 8                  24070469.599
        48.000
 124404461.489 7  96759063.460 6  23337960.115    23337961.107    23337968.486
        46.600          40.300
 126804247.669 7  98625580.824 6  23679795.389    23679796.564    23679805.114
        44.100          41.400
 111665218.330 7  87011990.82046  21249129.162    21249127.7324   21249127.3874
        46.200          36.3004
 25  1  1  2 20 45.0000000  0 34E34G25R21G04S31S35R06E21E13G24S33G12
                                G20E15R22G05G11E02G06E36R07R23E27E09
                                R13E05G09R24G17R12E30R14R08G19
 127056820.962 7                  24178057.458
        47.800
 121553310.783 6  94716943.59045  23130805.480    23130804.5064   23130809.5144
        40.300          34.7004
 131503088.590 7 102280336.140 6  24574447.695    24574447.845    24574455.283
        43.900          37.700
 134205131.205 5 104575436.82042  25538387.017    25538386.6154   25538387.8694
        35.000          17.1004
 198982994.174 7                  37865199.862
        45.500
 200928101.098 7                  38235348.270
        43.800
 121650647.088 6                  22797269.093    22797269.661
        36.900
 150129913.990 6                  28568769.409
        37.200
 143764011.743 6                  27357369.494
        36.600
 132379162.926 6 103152736.01045  25190866.539    25190866.0614   25190873.0084
        36.800          30.2004
 202133422.594 7                  38464686.786
        45.200
 109758046.883 8  85525882.22348  20886213.260    20886212.6484   20886212.5064
        49.500          48.9004
 112805719.858 7  87900610.58845  21466192.160    21466190.8684   21466192.4444
        47.100          35.2004
 124571346.717 7                  23705101.962
        47.500
 109925955.713 8  85498105.712 8  20592790.525    20592790.960    20592795.815
        51.800          48.800
 128180092.715 6  99880629.45545  24391850.120    24391849.6424   24391853.1824
        40.200          33.6004
 108235516.811 8  84339465.93947  20596497.262    20596496.9004   20596497.4394
        49.200          42.2004
 143485048.558 6                  27304262.830
        38.200
 110397712.023 8  86024339.17748  21007943.408    21007943.0114   21007946.0874
        49.100          49.5004
 149062281.556 6                  28365562.207
        36.500
 118414078.938 7  92099901.008 7  22120730.072    22120730.195    22120738.007
        47.600          45.000
 107719049.277 8                  20136907.330    20136907.284
        50.100
 128177351.117 7                  24391284.421
        47.300
 152813999.252 5                  29079536.732
        33.200
 107101218.628 7                  20056570.230    20056570.013
        47.300
 142757956.240 5                  27165934.720
        34.200
 131206090.905 6 102238544.89845  24967684.844    24967684.2234   24967689.3584
        37.400          31.3004
 127079671.567 7  98839804.119 6  23764535.213    23764534.800    23764543.688
        43.200          39.600
 125144214.967 6  97515108.51145  23814102.744    23814102.1104   23814104.8414
        41.100          35.1004
 111328685.263 8  86589162.371 7  20840905.910    20840906.484    20840913.339
        50.500          46.500
 126514317.936 8                  24074823.556
        48.000
 124350361.777 7  96716985.917 6  23327810.453    23327810.734    23327819.324
        46.500          40.100
 126745295.314 7  98579729.098 6  23668786.382    23668787.165    23668796.105
        44.200          41.600
 111691886.252 7  87032771.01446  21254204.081    21254202.6604   21254202.1424
        46.500          36.2004
 25  1  1  2 21  0.0000000  0 34E34G25R21G04S31S35R06E21E13G24S33G12
                                G20E15R22G05G11E02G06E36R07R23E27E09
                                R13E05G09R24G17R12E30R14R08G19
 127080548.650 7                  24182572.521
        47.900
 121508243.910 6  94681826.61445  23122229.471    23122228.4974   23122233.4654
        40.800          34.7004
 131547952.282 6 102315230.144 5  24582831.772    24582831.560    24582837.907
        41.400          35.700
 134192197.134 6 104565358.29543  25535925.880    25535925.4914   25535926.7964
        36.200          18.0004
 198982994.573 7                  37865200.528
        45.800
 200928136.340 7                  38235356.663
        44.300
 121663954.326 6                  22799761.532    22799762.421
        36.200
 150087241.841 6                  28560648.140
        37.400
 143728476.098 6                  27350607.367
        37.700
 132420298.669 6 103184789.83845  25198695.051    25198694.5734   25198700.9914
        37.800          30.7004
 202133410.735 7                  38464685.293
        45.500
 109740616.358 8  85512300.00648  20882896.214    20882895.6024   20882895.5644
        49.800          49.0004
 112766080.493 7  87869722.79245  21458649.561    21458648.2834   21458649.3004
        46.600          35.2004
 124559909.656 7                  23702925.581
        47.700
 109954738.122 8  85520492.024 8  20598182.685    20598182.731    20598187.527
        51.600          48.800
 128121305.717 6  99834821.48545  24380664.338    24380663.8694   24380666.3324
        39.200          33.5004
 108228586.877 8  84334066.00247  20595178.516    20595178.1594   20595178.6684
        49.400          42.2004
 143530384.736 6                  27312889.962
        39.200
 110425383.834 8  86045901.61848  21013209.324    21013208.9274   21013211.8974
        48.800          49.6004
 149100853.390 5                  28372902.828
        35.800
 118380115.093 7  92073484.723 7  22114385.257    22114385.696    22114393.060
        47.100          45.000
 107709826.096 8                  20135183.272    20135183.281
        50.100
 128158368.448 7                  24387672.137
        47.400
 152803320.291 6                  29077504.300
        37.400
 107103369.371 7                  20056973.158    20056973.009
        47.100
 142726378.559 5                  27159926.134
        35.200
 131180694.262 6 102218755.33845  24962852.085    24962851.4864   24962856.4694
        37.600          31.4004
 127038441.556 7  98807736.424 6  23756824.770    23756825.029    23756834.083
        43.800          40.100
 125179227.389 6  97542390.87245  23820765.879    23820765.2494   23820767.6974
        41.300          35.2004
 111380473.136 8  86629441.817 7  20850601.004    20850601.359    20850608.210
        50.500          46.300
 126537282.948 8                  24079193.617
        48.300
 124296358.890 7  96674983.705 6  23317679.378    23317679.835    23317688.823
        45.800          40.800
 126686343.266 7  98533877.589 7  23657777.957    23657778.630    23657787.994
        43.700          42.200
 111718618.888 7  87053601.63146  21259290.679    21259289.2444   21259289.2884
        46.800          36.1004
 25  1  1  2 21 15.0000000  0 34E34G25R21G04S31S35R06E21E13G24S33G12
                                G20E15R22G05G11E02G06E36R07R23E27E09
                                R13E05G09R24G17R12E30R14R08G19
 127104312.903 7                  24187094.873
        47.900
 121463259.622 6  94646773.98745  23113668.569    23113667.5864   23113673.2054
        40.900          34.9004
 131592793.475 6 102350106.650 5  24591210.902    24591211.846    24591218.278
        41.800          35.400
 134179369.386 6 104555362.62342  25533485.017    25533484.6374   25533485.5984
        36.500          17.6004
 198982993.548 7                  37865203.421
        45.600
 200928170.499 7                  38235358.197
        43.600
 121677447.005 6                  22802290.983    22802290.949
        36.200
 150044584.387 6                  28552530.859
        36.500
 143692974.312 6                  27343851.137
        37.500
 132461438.580 6 103216846.91045  25206523.427    25206522.9494   25206529.6084
        38.400          30.6004
 202133398.693 7                  38464682.592
        45.500
 109723328.028 8  85498828.58748  20879606.375    20879605.7634   20879605.7024
        49.700          48.9004
 112726536.906 7  87838909.63945  21451124.485    21451123.2164   21451124.4494
        47.100          35.3004
 124548536.461 7                  23700761.147
        47.800
 109983559.638 8  85542908.766 8  20603581.778    20603582.274    20603586.980
        52.000          48.700
 128062527.628 6  99789020.46145  24369479.062    24369478.6114   24369481.1944
        40.900          33.8004
 108221753.534 8  84328741.32847  20593878.116    20593877.7504   20593878.3204
        49.100          42.2004
 143575741.013 6                  27321520.925
        39.100
 110453118.942 8  86067513.38148  21018486.838    21018486.4414   21018489.7484
        48.900          49.5004
 149139409.933 5                  28380239.102
        35.700
 118346292.182 7  92047178.060 7  22108066.628    22108066.873    22108075.033
        47.000          45.200
 107700674.583 8                  20133472.374    20133472.586
        50.300
 128139469.639 7                  24384075.951
        47.400
 152792731.272 5                  29075489.252
        35.300
 107105726.782 7                  20057414.537    20057414.175
        46.900
 142694829.255 5                  27153922.278
        34.100
 131155377.494 6 102199028.03445  24958034.643    24958034.0224   24958039.0244
        38.100          31.5004
 126997242.610 7  98775692.956 6  23749119.589    23749119.386    23749129.477
        42.100          39.800
 125214270.018 6  97569696.77045  23827434.392    23827433.7624   23827436.1484
        40.700          34.8004
 111432381.279 8  86669814.806 7  20860318.623    20860318.759    20860325.332
        50.400          46.200
 126560334.778 8                  24083580.233
        48.200
 124242454.279 7  96633057.909 6  23307567.643    23307567.896    23307576.924
        46.100          40.800
 126627392.971 7  98488027.480 6  23646768.848    23646769.186    23646778.188
        42.300          41.300
 111745417.058 7  87074483.31146  21264390.113    21264388.6654   21264388.8294
        46.200          36.1004
 25  1  1  2 21 30.0000000  0 34E34G25R21G04S31S35R06E21E13G24S33G12
                                G20E15R22G05G11E02G06E36R07R23E27E09
                                R13E05G09R24G17R12E30R14R08G19
 127128116.006 7                  24191624.416
        47.800
 121418360.734 6  94611787.90045  23105124.955    23105123.9764   23105129.0794
        40.500          35.3004
 131637614.517 7 102384967.458 6  24599586.378    24599587.499    24599593.761
        43.000          36.900
 134166650.663 6 104545451.92443  25531064.687    25531064.3214   25531065.3604
        36.500          19.7004
 198982994.307 7                  37865197.089
        45.300
 200928207.257 7                  38235366.957
        44.000
 121691127.617 6                  22804855.601    22804855.465
        37.200
 150001944.258 6                  28544417.113
        36.600
 143657508.825 6                  27337102.088
        37.900
 132502584.755 6 103248908.86645  25214353.648    25214353.1924   25214359.2044
        38.400          30.9004
 202133387.334 7                  38464684.340
        45.400
 109706184.475 8  85485469.98648  20876343.922    20876343.3144   20876343.3904
        49.500          49.2004
 112687091.839 7  87808173.24345  21443618.021    21443616.7344   21443618.2854
        47.300          35.7004
 124537229.525 7                  23698609.442
        47.700
 110012422.658 8  85565357.773 8  20608988.662    20608988.993    20608993.932
        51.600          48.600
 128003761.458 6  99743228.73245  24358295.148    24358294.6834   24358298.2034
        40.600          34.1004
 108215019.127 8  84323493.74747  20592596.801    20592596.4444   20592596.7984
        49.500          42.5004
 143621119.713 6                  27330155.995
        38.300
 110480919.558 8  86089176.19248  21023777.143    21023776.7324   21023780.0674
        48.800          49.9004
 149177953.474 6                  28387573.900
        36.000
 118312613.122 8  92020983.260 7  22101775.048    22101776.029    22101783.362
        48.200          45.100
 107691597.159 8                  20131775.620    20131775.641
        49.900
 128120657.264 7                  24380495.919
        47.400
 152782234.978 6                  29073492.130
        36.300
 107108293.389 7                  20057895.958    20057895.156
        47.300
 142663310.923 5                  27147924.309
        35.100
 131130143.366 6 102179365.13545  24953232.784    24953232.1584   24953237.1104
        36.900          31.7004
 126956077.517 6  98743675.771 6  23741420.745    23741420.035    23741430.752
        41.900          39.700
 125249345.274 6  97597028.10245  23834108.518    23834107.8884   23834110.6614
        40.400          35.0004
 111484411.605 8  86710282.809 7  20870059.449    20870059.245    20870065.447
        51.100          46.300
 126583475.755 8                  24087983.849
        48.200
 124188650.830 7  96591210.806 6  23297475.144    23297475.215    23297483.318
        47.500          40.800
 126568447.573 7  98442181.128 6  23635760.838    23635761.925    23635770.699
        43.800          41.400
 111772283.064 7  87095417.85646  21269502.924    21269501.4894   21269501.1374
        46.200          36.3004
 25  1  1  2 21 45.0000000  0 34E34G25R21G04S31S35R06E21E13G24S33G12
                                G20E15R22G05G11E02G06E36R07R23E27E09
                                R13E05G09R24G17R12E30R14R08G19
 127151955.293 7                  24196160.872
        47.700
 121373544.990 6  94576866.60945  23096596.779    23096595.7914   23096600.9844
        40.000          35.2004
 131682412.664 7 102419810.451 5  24607957.808    24607958.752    24607965.492
        42.700          35.900
 134154038.573 6 104535624.28743  25528664.153    25528663.7824   25528665.3064
        36.700          19.0004
 198982994.901 7                  37865203.466
        45.700
 200928242.261 7                  38235373.414
        43.900
 121704993.608 6                  22807453.454    22807453.701
        36.300
 149959319.128 6                  28536305.480
        37.000
 143622077.156 6                  27330360.350
        38.000
 132543734.272 6 103280973.41645  25222183.498    25222183.0474   25222190.1334
        38.100          30.9004
 202133375.821 7                  38464678.027
        45.200
 109689183.506 8  85472222.48848  20873108.952    20873108.3404   20873108.1934
        49.500          49.2004
 112647743.337 7  87777512.09545  21436130.251    21436128.9594   21436130.4864
        47.200          35.8004
 124525986.260 7                  23696470.080
        47.700
 110041324.468 8  85587836.941 8  20614403.466    20614403.444    20614408.410
        51.600          48.700
 127945004.593 6  99697444.25045  24347114.962    24347114.4844   24347117.1794
        39.700          34.0004
 108208381.064 8  84318321.24147  20591333.352    20591332.9904   20591333.6094
        49.600          42.5004
 143666518.102 6                  27338795.073
        38.400
 110508782.954 8  86110887.92348  21029079.530    21029079.1194   21029082.3294
        48.800          49.9004
 149216481.446 6                  28394905.361
        36.800
 118279075.690 7  91994898.626 7  22095510.434    22095510.562    22095518.011
        47.900          45.000
 107682591.043 8                  20130092.039    20130092.044
        50.100
 128101928.988 7                  24376932.038
        47.200
 152771828.857 6                  29071511.806
        36.500
 107111066.438 7                  20058414.856    20058414.285
        47.600
 142631821.331 5                  27141932.263
        34.300
 131104989.741 6 102159764.96045  24948446.672    24948446.0424   24948450.3054
        37.200          31.9004
 126914943.409 7  98711682.640 6  23733729.795    23733730.145    23733738.760
        43.500          39.600
 125284450.689 6  97624382.94645  23840788.890    23840788.2874   23840791.1184
        41.500          35.5004
 111536561.036 8  86750843.470 7  20879820.738    20879821.298    20879828.072
        50.700          46.300
 126606703.308 8                  24092403.851
        48.200
 124134946.495 7  96549440.791 6  23287399.294    23287399.456    23287409.178
        45.700          41.300
 126509504.883 7  98396336.885 6  23624754.227    23624755.183    23624764.328
        44.000          41.800
 111799214.420 7  87116403.32246  21274627.721    21274626.2914   21274625.9924
        46.300          36.2004
 25  1  1  2 22  0.0000000  0 34E34G25R21G04S31S35R06E21E13G24S33G12
                                G20E15R22G05G11E02G06E36R07R23E27E09
                                R13E05G09R24G17R12E30R14R08G19
 127175834.079 7                  24200704.882
        47.500
 121328816.304 6  94542013.15645  23088085.046    23088084.0854   23088089.3224
        40.900          35.2004
 131727191.602 7 102454638.493 6  24616326.007    24616326.906    24616333.110
        43.500          36.000
 134141536.781 5 104525882.61643  25526285.648    25526285.2684   25526286.7294
        35.600          18.0004
 198982997.336 7                  37865200.734
        45.500
 200928280.173 7                  38235383.600
        43.900
 121719048.344 6                  22810086.828    22810088.099
        37.400
 149916712.788 6                  28528197.722
        37.500
 143586682.853 6                  27323624.179
        37.300
 132584890.283 6 103313043.04445  25230015.953    25230015.5114   25230021.5454
        38.500          30.6004
 202133367.369 7                  38464677.441
        45.200
 109672328.612 8  85459088.81348  20869901.483    20869900.8754   20869900.7834
        49.700          49.1004
 112608494.979 7  87746928.98145  21428661.598    21428660.3114   21428661.7414
        47.300          35.6004
 124514810.068 7                  23694343.236
        47.600
 110070268.391 8  85610348.871 8  20619825.147    20619825.671    20619830.489
        51.700          48.500
 127886261.039 6  99651670.14845  24335936.277    24335935.7864   24335938.5564
        40.900          34.6004
 108201842.738 8  84313226.45247  20590089.183    20590088.8214   20590089.3814
        49.300          42.4004
 143711939.516 6                  27347438.710
        37.800
 110536712.362 8  86132651.08848  21034394.324    21034393.9184   21034397.1304
        48.700          49.8004
 149254997.172 6                  28402234.855
        36.700
 118245684.244 8  91968927.535 7  22089271.716    22089272.559    22089280.437
        48.300          44.900
 107673659.753 8                  20128422.054    20128422.380
        50.100
 128083288.441 7                  24373384.878
        47.100
 152761516.362 5                  29069549.123
        34.600
 107114049.349 7                  20058973.194    20058972.916
        47.400
 142600364.257 5                  27135945.712
        34.400
 131079920.313 6 102140230.38645  24943675.323    24943674.6894   24943679.2854
        38.200          31.8004
 126873843.903 7  98679716.474 6  23726043.826    23726044.530    23726053.284
        43.900          40.100
 125319589.400 6  97651763.72445  23847475.854    23847475.2514   23847477.8084
        41.300          35.1004
 111588832.609 8  86791499.117 7  20889606.485    20889606.898    20889613.387
        50.300          46.300
 126630020.804 8                  24096841.032
        48.000
 124081345.554 7  96507751.210 6  23277343.815    23277343.609    23277352.811
        45.800          40.900
 126450569.107 7  98350498.078 6  23613748.455    23613748.660    23613757.997
        43.200          41.300
 111826214.570 7  87137442.39946  21279765.722    21279764.2924   21279763.9404
        46.600          36.1004
 25  1  1  2 22 15.0000000  0 34E34G25R21G04S31S35R06E21E13G24S33G12
                                G20E15R22G05G11E02G06E36R07R23E27E09
                                R13E05G09R24G17R12E30R14R08G19
 127199746.113 7                  24205255.200
        47.700
 121284168.810 6  94507222.96745  23079589.406    23079588.4544   23079592.9444
        41.000          35.1004
 131771945.021 7 102489446.651 6  24624689.165    24624689.806    24624696.962
        42.000          37.300
 134129139.381 6 104516222.24042  25523926.279    25523925.9134   25523927.5144
        36.100          16.5004
 198982996.661 7                  37865198.574
        45.200
 200928314.348 7                  38235387.155
        43.400
 121733285.422 5                  22812755.323    22812754.980
        35.700
 149874119.132 6                  28520092.388
        37.000
 143551319.809 6                  27316894.693
        37.000
 132626046.293 6 103345112.66045  25237847.213    25237846.7754   25237853.1994
        38.400          30.5004
 202133354.523 7                  38464677.164
        45.100
 109655613.890 8  85446064.36448  20866720.842    20866720.2344   20866720.0644
        49.400          48.9004
 112569340.949 7  87716419.37245  21421210.941    21421209.6544   21421211.0874
        46.400          35.6004
 124503694.766 7                  23692228.171
        47.500
 110099248.088 8  85632888.636 8  20625254.199    20625254.587    20625259.365
        51.200          48.600
 127827525.329 6  99605902.16245  24324758.791    24324758.3094   24324761.4004
        41.200          34.3004
 108195397.933 8  84308204.53447  20588862.827    20588862.4744   20588862.9894
        49.400          42.3004
 143757377.675 6                  27356085.169
        38.300
 110564701.428 8  86154460.74148  21039720.671    21039720.2694   21039723.2844
        48.800          49.7004
 149293494.609 6                  28409560.091
        36.300
 118212432.712 8  91943065.255 7  22083060.457    22083060.818    22083068.388
        48.300          44.800
 107664796.935 8                  20126765.396    20126765.474
        50.100
 128064729.676 7                  24369853.255
        47.100
 152751291.510 6                  29067603.845
        36.100
 107117236.322 7                  20059570.035    20059569.672
        47.400
 142568933.813 5                  27129964.929
        34.500
 131054929.385 6 102120756.97945  24938920.351    24938919.7084   24938923.6564
        37.200          31.8004
 126832772.752 7  98647772.325 6  23718362.643    23718363.016    23718371.792
        43.700          38.800
 125354755.560 6  97679165.90245  23854167.652    23854167.0314   23854169.7394
        40.700          34.9004
 111641219.656 8  86832244.570 7  20899413.441    20899413.739    20899420.402
        50.000          46.300
 126653422.097 8                  24101294.357
        48.000
 124027841.907 7  96466137.250 6  23267306.989    23267307.374    23267315.709
        46.400          41.200
 126391634.460 7  98304660.096 6  23602742.886    23602742.744    23602752.131
        43.400          41.600
 111853277.475 7  87158530.36745  21284915.537    21284914.1164   21284913.7834
        46.400          35.9004
 25  1  1  2 22 30.0000000  0 34E34G25R21G04S31S35R06E21E13G24S33G12
                                G20E15R22G05G11E02G06E36R07R23E27E09
                                R13E05G09R24G17R12E30R14R08G19
 127223697.919 7                  24209813.021
        47.800
 121239609.574 6  94472501.55245  23071109.859    23071108.9074   23071113.5634
        41.300          35.2004
 131816679.775 6 102524240.321 5  24633048.197    24633049.715    24633056.737
        41.000          35.700
 134116853.311 6 104506648.65142  25521588.361    25521587.9774   25521589.3484
        36.300          17.7004
 198982999.344 7                  37865198.999
        45.400
 200928351.983 7                  38235394.493
        43.500
 121747711.553 6                  22815458.331    22815458.572
        36.100
 149831545.190 6                  28511990.991
        37.800
 143515994.794 6                  27310173.078
        37.000
 132667208.621 6 103377187.20645  25245680.795    25245680.3574   25245685.7604
        38.200          30.2004
 202133345.504 7                  38464674.986
        45.200
 109639046.336 8  85433154.59348  20863568.144    20863567.5504   20863567.3564
        49.600          49.0004
 112530288.159 7  87685988.65045  21413779.533    21413778.2684   21413779.5014
        47.400          35.7004
 124492646.975 7                  23690125.717
        47.600
 110128270.200 8  85655461.394 8  20630690.965    20630691.338    20630696.237
        51.500          48.600
 127768803.940 6  99560145.33545  24313584.404    24313583.9084   24313586.7934
        40.600          34.2004
 108189053.238 8  84303260.62747  20587655.590    20587655.2334   20587655.6064
        49.800          42.4004
 143802839.076 6                  27364736.341
        36.400
 110592756.624 8  86176321.92448  21045059.329    21045058.9144   21045062.0304
        49.200          49.8004
 149331980.302 6                  28416884.175
        36.300
 118179328.476 8  91917317.567 7  22076876.208    22076876.689    22076884.558
        48.300          45.200
 107656009.174 8                  20125122.612    20125122.645
        50.100
 128046259.534 7                  24366338.555
        47.200
 152741161.444 6                  29065676.357
        38.200
 107120633.605 7                  20060206.058    20060205.872
        47.000
 142537536.910 5                  27123990.023
        33.400
 131030023.926 6 102101350.16645  24934180.608    24934179.9744   24934184.3624
        39.100          31.5004
 126791736.747 7  98615855.538 6  23710688.790    23710689.613    23710698.801
        42.300          40.000
 125389956.091 7  97706594.85445  23860866.136    23860865.5244   23860868.3014
        42.000          35.2004
 111693728.427 8  86873084.729 7  20909243.267    20909243.649    20909250.097
        50.700          46.300
 126676913.787 8                  24105764.464
        48.100
 123974443.100 7  96424604.905 6  23257288.863    23257289.365    23257298.197
        45.400          40.600
 126332708.214 7  98258828.600 7  23591737.816    23591739.253    23591747.879
        44.400          42.100
 111880409.873 7  87179672.49346  21290078.775    21290077.3494   21290076.8794
        46.200          36.0004
 25  1  1  2 22 45.0000000  0 34E34G25R21G04S31S35R06E21E13G24S33G12
                                G20E15R22G05G11E02G06E36R07R23E27E09
                                R13E05G09R24G17R12E30R14R08G19
 127247687.843 8                  24214378.285
        48.100
 121195137.425 6  94437847.98945  23062647.393    23062646.4504   23062650.6604
        40.400          35.3004
 131861394.410 6 102559018.335 5  24641405.834    24641405.706    24641412.549
        38.900          35.100
 134104677.185 6 104497160.66243  25519271.985    25519271.6104   25519272.6274
        36.500          19.1004
 198983003.631 7                  37865200.336
        45.300
 200928391.405 7                  38235397.529
        43.300
 121762325.097 6                  22818197.158    22818197.172
        36.100
 149788989.649 6                  28503892.868
        38.500
 143480706.270 6                  27303457.808
        38.200
 132708375.426 6 103409265.23445  25253514.470    25253514.0504   25253519.9934
        37.700          30.5004
 202133337.801 7                  38464668.699
        45.200
 109622624.543 8  85420358.39648  20860443.151    20860442.5524   20860442.3894
        49.400          49.0004
 112491335.370 7  87655635.85245  21406366.797    21406365.5194   21406366.9914
        47.000          35.8004
 124481665.136 8                  23688036.100
        48.200
 110157333.019 8  85678065.789 8  20636135.271    20636135.883    20636140.571
        51.700          48.700
 127710095.535 6  99514398.62045  24302412.927    24302412.4224   24302414.8334
        40.800          34.5004
 108182807.068 8  84298393.49147  20586466.884    20586466.5314   20586467.0094
        49.500          42.4004
 143848322.060 6                  27373391.254
        37.600
 110620876.211 8  86198233.27948  21050410.237    21050409.8224   21050413.0424
        48.600          49.8004
 149370452.758 6                  28424204.711
        37.300
 118146370.486 8  91891683.596 7  22070719.135    22070719.810    22070727.555
        48.400          44.900
 107647294.985 8                  20123493.450    20123493.610
        49.900
 128027876.669 7                  24362840.275
        47.700
 152731124.601 6                  29063766.480
        37.000
 107124239.851 7                  20060881.665    20060881.297
        47.400
 142506172.368 5                  27118021.898
        35.600
 131005202.821 6 102082009.09845  24929457.265    24929456.6314   24929461.1444
        38.100          31.9004
 126750734.410 7  98583964.935 6  23703021.216    23703021.152    23703030.179
        43.200          39.400
 125425189.418 6  97734049.36045  23867570.873    23867570.2614   23867572.9984
        40.900          35.1004
 111746356.684 8  86914017.788 7  20919094.949    20919095.488    20919102.539
        50.600          46.400
 126700494.247 8                  24110251.701
        48.600
 123921147.917 7  96383153.121 6  23247291.823    23247291.720    23247300.315
        46.200          40.700
 126273789.543 7  98213003.035 7  23580737.004    23580737.537    23580745.380
        45.500          42.000
 111907610.130 7  87200867.49145  21295254.792    21295253.3794   21295252.9614
        46.500          35.9004
 25  1  1  2 23  0.0000000  0 34E34G25R21G04S31S35R06E21E13G24S33G12
                                G20E15R22G05G11E02G06E36R07R23E27E09
                                R13E05G09R24G17R12E30R14R08G19
 127271710.363 8                  24218949.476
        48.100
 121150747.343 6  94403258.38745  23054199.955    23054199.0124   23054203.6664
        40.500          35.6004
 131906083.352 6 102593776.353 6  24649756.654    24649756.770    24649764.074
        41.600          38.100
 134092606.053 5 104487754.58343  25516973.725    25516973.3504   25516975.8274
        35.700          18.5004
 198983003.656 7                  37865205.639
        45.600
 200928426.968 7                  38235412.246
        44.000
 121777120.590 6                  22820971.897    22820970.665
        37.400
 149746447.271 6                  28495796.776
        37.200
 143445448.979 6                  27296748.582
        38.200
 132749540.966 6 103441342.26645  25261347.167    25261346.7474   25261353.6994
        37.700          30.4004
 202133326.288 7                  38464666.897
        45.100
 109606343.510 8  85407671.88948  20857344.909    20857344.3154   20857344.2124
        49.400          49.1004
 112452477.683 7  87625357.16046  21398972.753    21398971.4844   21398972.5504
        47.300          36.0004
 124470743.807 7                  23685957.986
        47.800
 110186430.955 8  85700697.523 8  20641586.273    20641586.366    20641591.716
        51.000          48.400
 127651395.269 6  99468658.27045  24291241.335    24291240.8174   24291244.8724
        41.300          35.0004
 108176653.984 8  84293598.88947  20585296.196    20585295.8484   20585296.1104
        49.400          42.5004
 143893821.090 6                  27382049.657
        38.000
 110649054.597 8  86220190.45248  21055772.400    21055771.9854   21055775.2334
        48.800          50.0004
 149408906.325 6                  28431522.541
        37.400
 118113553.971 8  91866159.679 7  22064589.502    22064589.905    22064597.045
        48.400          44.800
 107638648.621 8                  20121877.242    20121877.347
        50.000
 128009575.899 7                  24359357.936
        47.400
 152721175.695 6                  29061873.525
        36.400
 107128049.424 7                  20061595.729    20061594.736
        47.700
 142474834.981 5                  27112058.434
        35.400
 130980460.973 6 102062729.78245  24924748.429    24924747.7994   24924752.4584
        38.200          31.8004
 126709760.198 7  98552096.216 6  23695358.738    23695358.723    23695367.696
        42.700          39.200
 125460450.225 6  97761525.27845  23874280.777    23874280.1604   23874282.9364
        40.900          35.4004
 111799098.643 8  86955039.301 7  20928968.535    20928968.996    20928975.582
        50.200          46.000
 126724158.079 8                  24114754.873
        48.500
 123867951.694 7  96341778.310 6  23237311.456    23237311.712    23237320.713
        46.200          40.200
 126214873.478 7  98167179.531 6  23569733.188    23569734.009    23569743.239
        43.800          41.800
 111934872.973 7  87222111.25946  21300442.432    21300441.0114   21300440.8574
        46.600          36.1004
 25  1  1  2 23 15.0000000  0 34E34G25R21G04S31S35R06E21E13G24S33G12
                                G20E15R22G05G11E02G06E36R07R23E27E09
                                R13E05G09R24G17R12E30R14R08G19
 127295768.322 8                  24223527.688
        48.200
 121106442.646 6  94368735.31345  23045769.169    23045768.2224   23045772.6814
        40.500          35.8004
 131950749.656 6 102628516.758 5  24658102.151    24658103.268    24658111.404
        39.000          34.300
 134080642.906 6 104478432.61142  25514698.095    25514697.7654   25514699.5394
        36.400          16.9004
 198983003.818 7                  37865203.408
        45.600
 200928461.993 7                  38235412.791
        43.600
 121792100.706 6                  22823778.257    22823777.011
        36.900
 149703921.210 6                  28487704.962
        37.300
 143410225.928 6                  27290045.402
        37.900
 132790707.902 6 103473420.40345  25269181.755    25269181.3354   25269186.9044
        37.500          30.1004
 202133315.068 7                  38464665.931
        45.300
 109590206.330 8  85395097.47348  20854273.725    20854273.1314   20854273.4154
        49.700          49.1004
 112413718.190 7  87595154.97946  21391596.436    21391595.1494   21391596.8684
        47.500          36.1004
 124459885.906 8                  23683891.424
        48.100
 110215566.834 8  85723358.764 8  20647044.506    20647044.790    20647049.712
        51.400          48.400
 127592706.662 6  99422926.99045  24280074.356    24280073.8334   24280076.6104
        40.800          34.6004
 108170596.846 8  84288879.05247  20584143.328    20584142.9754   20584143.4424
        49.500          42.6004
 143939339.014 6                  27390711.162
        38.400
 110677294.547 8  86242195.59848  21061146.364    21061145.9494   21061149.1444
        48.900          50.1004
 149447344.114 6                  28438836.411
        37.100
 118080881.932 8  91840748.136 7  22058485.834    22058485.796    22058493.880
        48.900          45.300
 107630073.239 8                  20120274.722    20120274.373
        50.100
 127991360.355 7                  24355891.541
        47.800
 152711317.835 5                  29059997.235
        35.400
 107132065.565 7                  20062347.083    20062346.979
        47.200
 142443528.055 5                  27106100.840
        35.100
 130955801.696 6 102043514.80345  24920056.012    24920055.3914   24920060.0854
        37.800          32.0004
 126668817.318 6  98520251.839 6  23687702.052    23687701.172    23687711.415
        41.600          39.300
 125495741.379 6  97789024.84645  23880996.757    23880996.1274   23880998.5844
        41.500          35.1004
 111851956.814 8  86996151.204 7  20938863.650    20938864.231    20938870.545
        50.000          46.100
 126747908.129 8                  24119274.304
        48.400
 123814857.676 7  96300482.987 6  23227351.484    23227352.170    23227360.711
        46.300          40.700
 126155963.464 7  98121360.700 6  23558732.906    23558733.643    23558741.885
        44.500          41.500
 111962201.396 7  87243406.12646  21305643.118    21305641.6974   21305641.2784
        46.600          36.1004
