     2.11           OBSERVATION DATA    M (MIXED)           RINEX VERSION / TYPE
teqc  2019Feb25                         20260317 16:20:09UTCPGM / RUN BY / DATE
Linux 2.4.21-27.ELsmp|Opteron|gcc -static|Linux 64|=+       COMMENT
BIT 2 OF LLI FLAGS DATA COLLECTED UNDER A/S CONDITION       COMMENT
-Unknown-                                                   MARKER NAME
-Unknown-           -Unknown-                               OBSERVER / AGENCY
-Unknown-           -Unknown-           -Unknown-           REC # / TYPE / VERS
-Unknown-           -Unknown-                               ANT # / TYPE
        0.0000        0.0000        0.0000                  APPROX POSITION XYZ
        0.0000        0.0000        0.0000                  ANTENNA: DELTA H/E/N
     1     1                                                WAVELENGTH FACT L1/2
     7    L1    L2    C1    P1    P2    S1    S2            # / TYPES OF OBSERV
 SNR is mapped to RINEX snr flag value [0-9]                COMMENT
  L1 & L2: min(max(int(snr_dBHz/6), 0), 9)                  COMMENT
  2025     1     1     9     0    0.0000000     GPS         TIME OF FIRST OBS
    18                                                      LEAP SECONDS
                                                            END OF HEADER
 25  1  1  9  0  0.0000000  0 29G10G24E08R04S31S35G13R12E13S48S33R02
                                R13E29G23R19G18E07G29G15R11E33E26G08
                                G27G32R18R17R03
 117798395.769 7  91790974.08747  22416285.741    22416285.1744   22416287.9484
        47.100          46.3004
 113199144.343 7  88207161.76547  21541073.943    21541073.5634   21541076.7514
        45.700          46.3004
 134024738.038 7                  25504050.656
        44.900
 116214565.722 8  90389153.984 7  21702251.993    21702252.835    21702259.082
        49.400          44.800
 198974527.283 7                  37863586.192
        46.000
 200953995.701 7                  38240276.812
        44.500
 131577225.794 6 102527727.04542  25038308.675    25038307.9874   25038309.3104
        38.500          17.8004
 126420014.767 7  98326707.238 7  23666089.629    23666090.137    23666099.312
        43.500          42.200
 128609092.948 7                  24473477.952
        46.400
 412744891.698 5                  78542742.579
        33.000
 202097301.890 7                  38457809.055
        45.400
 114285143.997 8  88888488.375 7  21416982.719    21416982.540    21416988.056
        50.800          46.300
 130897260.214 6                  24512848.066    24512847.941
        36.400
 135135145.192 7                  25715360.239
        43.200
 107479951.809 8  83750621.20046  20452749.798    20452749.4144   20452749.2854
        48.000          39.6004
 114122639.957 6  88762077.790 7  21334015.270    21334015.608    21334021.707
        38.600          43.300
 108621262.776 7  84639948.78146  20669933.650    20669933.2664   20669934.0164
        47.100          39.8004
 122150931.234 8                  23244543.424
        48.300
 134898826.237 6 105116001.52543  25670381.351    25670380.7034   25670382.6964
        36.500          23.2004
 115444596.601 7  89956847.27447  21968367.915    21968367.4684   21968368.0644
        46.000          42.9004
 129806733.034 7 100960814.543 6  24291563.760    24291564.509    24291570.315
        43.600          38.100
 139156120.389 7                  26480526.819
        42.100
 123192231.439 8                  23442699.167
        48.700
 130056170.210 6 101342483.66345  24748864.196    24748863.4724   24748867.5704
        39.700          30.1004
 121391384.318 7  94590703.74146  23100009.742    23100009.0324   23100012.4804
        43.400          39.2004
 124161859.154 7  96749507.90846  23627214.620    23627214.1384   23627216.8234
        43.900          39.9004
 102619141.765 8  79814930.693 8  19224015.400    19224015.689    19224021.527
        52.300          48.600
 110340426.828 8  85820372.379 7  20619743.833    20619744.108    20619751.622
        49.600          46.900
 104537947.360 8  81307327.980 8  19528561.307    19528561.597    19528566.909
        52.600          48.300
 25  1  1  9  0 15.0000000  0 29G10G24E08R04S31S35G13R12E13S48S33R02
                                R13E29G23R19G18E07G29G15R11E33E26G08
                                G27G32R18R17R03
 117768896.247 7  91767987.43347  22410672.527    22410671.9694   22410674.3054
        47.900          46.2004
 113180637.750 7  88192741.07647  21537552.041    21537551.6574   21537555.0314
        46.200          46.2004
 134058504.569 7                  25510476.081
        45.000
 116175644.254 8  90358881.761 7  21694984.148    21694984.423    21694990.603
        48.800          44.700
 198974523.509 7                  37863587.645
        46.200
 200953996.200 7                  38240271.549
        44.300
 131633668.725 6 102571708.51942  25049049.080    25049048.3784   25049050.0674
        38.900          17.2004
 126387427.209 7  98301361.422 7  23659990.643    23659990.624    23659998.906
        46.100          42.300
 128636459.924 7                  24478685.701
        46.400
 412744689.588 5                  78542722.899
        33.200
 202097276.172 7                  38457803.989
        45.400
 114329627.013 8  88923086.287 7  21425318.475    21425318.848    21425324.108
        50.700          46.000
 130845929.362 6                  24503236.602    24503236.390
        38.700
 135098312.986 7                  25708351.698
        43.100
 107475863.129 8  83747435.23246  20451971.401    20451971.0174   20451971.2774
        48.300          39.5004
 114072436.418 6  88723030.603 7  21324630.761    21324630.804    21324636.786
        38.300          43.300
 108643349.436 7  84657159.16046  20674136.693    20674136.3224   20674136.9844
        47.700          39.7004
 122148701.161 8                  23244119.002
        48.400
 134952492.669 6 105157819.56544  25680593.860    25680593.2174   25680594.8664
        38.000          25.4004
 115490665.362 7  89992745.01247  21977134.462    21977134.0154   21977134.5864
        46.600          42.8004
 129818904.638 7 100970281.311 6  24293841.164    24293841.223    24293848.119
        42.100          37.600
 139117216.037 7                  26473123.514
        42.600
 123180394.389 8                  23440446.589
        48.900
 130031001.664 6 101322871.85044  24744074.386    24744073.6584   24744078.3734
        39.400          29.6004
 121390447.051 7  94589973.41046  23099831.623    23099830.9084   23099834.2194
        43.000          38.9004
 124116354.719 7  96714049.91446  23618555.269    23618554.7964   23618557.9114
        44.100          40.0004
 102616000.420 8  79812487.430 8  19223426.907    19223427.215    19223432.932
        52.300          48.500
 110392076.610 8  85860544.417 7  20629396.311    20629396.145    20629403.181
        49.600          46.500
 104540061.174 8  81308972.085 8  19528956.105    19528956.245    19528961.709
        52.500          48.400
 25  1  1  9  0 30.0000000  0 29G10G24E08R04S31S35G13R12E13S48S33R02
                                R13E29G23R19G18E07G29G15R11E33E26G08
                                G27G32R18R17R03
 117739422.351 7  91745020.72847  22405063.199    22405062.6274   22405065.5404
        47.500          46.3004
 113162283.358 7  88178438.97847  21534059.552    21534059.1684   21534062.2474
        45.700          46.3004
 134092312.523 7                  25516909.635
        44.700
 116136809.513 8  90328676.996 7  21687731.346    21687731.750    21687738.279
        48.800          44.600
 198974521.133 7                  37863588.942
        46.200
 200953998.285 7                  38240277.214
        44.300
 131690117.647 6 102615694.67342  25059790.696    25059790.0034   25059791.9734
        38.600          17.6004
 126354961.797 7  98276110.587 7  23653911.694    23653912.035    23653921.671
        44.300          42.700
 128663898.914 7                  24483907.138
        46.300
 412744490.485 5                  78542698.301
        32.400
 202097252.380 7                  38457797.702
        45.200
 114374140.289 8  88957707.719 7  21433660.352    21433660.490    21433665.893
        50.600          46.100
 130794603.299 6                  24493623.102    24493624.105
        36.100
 135061533.062 7                  25701352.569
        43.400
 107471833.065 7  83744294.94046  20451204.568    20451204.1794   20451204.3404
        47.900          39.5004
 114022345.969 6  88684071.368 7  21315266.769    21315266.614    21315273.209
        38.500          43.200
 108665564.205 7  84674469.36446  20678364.024    20678363.6584   20678364.2904
        47.400          39.7004
 122146559.166 8                  23243711.527
        48.400
 135006122.011 6 105199608.70844  25690799.213    25690798.5654   25690800.3164
        36.600          26.1004
 115536790.510 7  90028686.68947  21985911.714    21985911.2634   21985911.9924
        45.800          42.9004
 129831248.900 7 100979882.304 6  24296151.692    24296152.153    24296159.049
        43.100          38.600
 139078330.408 7                  26465723.791
        42.200
 123168634.402 8                  23438208.964
        48.900
 130005952.448 6 101303353.02044  24739307.906    24739307.1874   24739311.6154
        38.600          29.3004
 121389656.213 7  94589357.18046  23099681.539    23099680.8374   23099683.7364
        42.900          39.1004
 124070907.115 7  96678636.20346  23609906.541    23609906.0594   23609909.6274
        44.100          40.1004
 102613059.499 8  79810200.044 8  19222875.996    19222876.374    19222882.024
        52.300          48.600
 110443856.413 8  85900817.584 7  20639072.096    20639072.495    20639079.540
        49.900          47.200
 104542285.343 8  81310702.001 8  19529371.289    19529371.838    19529377.127
        52.700          48.300
 25  1  1  9  0 45.0000000  0 29G10G24E08R04S31S35G13R12E13S48S33R02
                                R13E29G23R19G18E07G29G15R11E33E26G08
                                G27G32R18R17R03
 117709975.692 7  91722075.23147  22399459.885    22399459.3224   22399462.1184
        47.400          46.2004
 113144082.963 7  88164256.88647  21530596.016    21530595.6324   21530598.8014
        46.200          46.3004
 134126163.278 7                  25523351.255
        44.500
 116098062.938 8  90298540.797 7  21680496.082    21680496.102    21680502.564
        48.400          44.700
 198974523.012 7                  37863586.344
        46.000
 200954004.254 7                  38240277.769
        44.400
 131746573.715 6 102659686.38943  25070534.174    25070533.5044   25070535.2604
        38.800          18.5004
 126322620.589 7  98250956.387 7  23647857.492    23647857.744    23647867.027
        44.000          42.400
 128691411.440 7                  24489142.648
        46.500
 412744294.693 5                  78542675.267
        32.600
 202097231.840 7                  38457793.709
        45.200
 114418685.554 8  88992354.055 7  21442007.785    21442008.235    21442013.957
        50.500          46.300
 130743284.372 6                  24484014.142    24484013.417
        37.100
 135024807.088 7                  25694363.749
        43.600
 107467863.224 7  83741201.57046  20450449.186    20450448.8064   20450448.8864
        47.800          39.5004
 113972370.700 6  88645201.761 7  21305924.210    21305923.659    21305930.250
        38.100          43.100
 108687908.594 7  84691880.57446  20682615.844    20682615.4734   20682616.3124
        47.500          39.6004
 122144506.743 8                  23243320.871
        48.600
 135059715.566 6 105241369.96243  25700998.316    25700997.6594   25700998.0314
        36.300          23.2004
 115582973.342 7  90064673.31147  21994700.655    21994700.2134   21994700.2604
        46.300          42.9004
 129843767.740 7 100989619.333 6  24298494.075    24298493.897    24298500.762
        42.000          37.900
 139039465.187 7                  26458327.690
        42.200
 123156953.196 8                  23435985.990
        49.100
 129981024.272 6 101283928.48644  24734564.338    24734563.6144   24734567.6704
        38.100          29.4004
 121389013.368 7  94588856.27346  23099558.600    23099557.9034   23099561.3924
        43.000          39.1004
 124025518.108 7  96643268.14946  23601269.158    23601268.6714   23601272.3224
        44.000          40.1004
 102610320.779 8  79808069.930 8  19222362.955    19222363.233    19222369.075
        52.000          48.500
 110495767.419 8  85941192.784 7  20648773.365    20648773.202    20648780.622
        50.000          46.900
 104544620.678 8  81312518.388 8  19529807.979    19529808.103    19529813.539
        52.700          48.400
 25  1  1  9  1  0.0000000  0 29G10G24E08R04S31S35G13R12E13S48S33R02
                                R13E29G23R19G18E07G29G15R11E33E26G08
                                G27G32R18R17R03
 117680550.511 7  91699146.47747  22393860.602    22393860.0354   22393862.8284
        47.500          46.2004
 113126030.962 7  88150190.42447  21527160.477    21527160.0934   21527163.5844
        46.100          46.3004
 134160050.790 7                  25529799.621
        44.900
 116059398.810 8  90268468.714 7  21673275.611    21673275.965    21673282.279
        48.500          44.700
 198974522.422 7                  37863587.618
        46.100
 200954007.897 7                  38240278.999
        44.300
 131803030.903 6 102703678.94443  25081278.437    25081277.7894   25081278.8934
        38.600          18.5004
 126290398.008 7  98225894.396 7  23641825.564    23641825.668    23641835.063
        44.200          42.400
 128718991.632 7                  24494390.860
        46.500
 412744098.333 5                  78542652.131
        32.700
 202097209.158 7                  38457787.614
        45.200
 114463256.459 8  89027020.295 7  21450360.092    21450360.422    21450366.174
        50.200          46.200
 130691967.038 6                  24474403.814    24474403.918
        36.300
 134988129.304 7                  25687384.169
        43.100
 107463947.798 7  83738150.60146  20449704.303    20449703.9374   20449703.8204
        47.900          39.5004
 113922505.319 6  88606417.585 7  21296602.058    21296602.025    21296608.254
        38.200          43.200
 108710376.674 7  84709388.17246  20686891.519    20686891.1534   20686891.9034
        47.800          39.7004
 122142537.934 8                  23242946.247
        48.500
 135113267.396 6 105283098.69343  25711188.314    25711187.6394   25711188.0184
        36.500          22.9004
 115629207.789 7  90100700.15547  22003498.326    22003497.8664   22003498.4064
        46.300          42.9004
 129856454.022 6 100999486.234 6  24300868.387    24300867.810    24300874.867
        41.600          38.000
 139000614.761 7                  26450934.735
        42.300
 123145345.033 8                  23433776.949
        49.000
 129956211.536 6 101264593.93044  24729842.392    24729841.6644   24729845.8654
        37.800          29.6004
 121388512.552 7  94588466.03946  23099463.024    23099462.3094   23099466.0664
        43.300          38.9004
 123980181.985 7  96607941.31146  23592642.338    23592641.8514   23592644.9704
        44.400          40.1004
 102607778.550 8  79806092.609 8  19221886.704    19221887.157    19221892.838
        52.300          48.500
 110547803.265 8  85981665.083 7  20658497.444    20658497.210    20658504.456
        48.400          46.600
 104547061.140 8  81314416.514 8  19530263.839    19530263.918    19530269.386
        52.600          48.300
 25  1  1  9  1 15.0000000  0 29G10G24E08R04S31S35G13R12E13S48S33R02
                                R13E29G23R19G18E07G29G15R11E33E26G08
                                G27G32R18R17R03
 117651148.829 8  91676236.05347  22388265.403    22388264.8454   22388267.8944
        48.200          46.2004
 113108129.548 7  88136241.30447  21523753.931    21523753.5514   21523757.0314
        46.400          46.3004
 134193976.860 7                  25536255.308
        44.800
 116020819.215 8  90238462.402 7  21666071.108    21666071.595    21666077.789
        48.900          44.900
 198974521.220 7                  37863586.639
        46.300
 200954011.134 7                  38240273.306
        44.000
 131859490.844 6 102747673.67543  25092021.928    25092021.3024   25092023.0034
        39.200          18.3004
 126258296.860 7  98200926.882 7  23635816.368    23635816.653    23635824.849
        44.200          42.500
 128746641.428 7                  24499652.736
        46.000
 412743901.840 5                  78542630.931
        32.600
 202097186.278 7                  38457782.440
        45.000
 114507854.739 8  89061707.855 7  21458718.341    21458718.255    21458724.115
        50.100          46.500
 130640653.832 6                  24464795.216    24464794.307
        37.000
 134951501.799 7                  25680414.187
        42.900
 107460088.842 8  83735143.63246  20448969.828    20448969.4624   20448969.4544
        48.200          39.4004
 113872752.374 6  88567720.863 7  21287301.550    21287301.355    21287307.462
        38.400          43.300
 108732970.390 8  84726993.66146  20691190.835    20691190.4644   20691191.3414
        48.000          39.6004
 122140654.683 8                  23242587.831
        48.100
 135166779.206 6 105324796.24843  25721371.132    25721370.4224   25721371.3784
        37.100          23.4004
 115675495.439 7  90136768.45247  22012306.840    22012306.3934   22012306.6754
        46.300          42.8004
 129869310.900 7 101009485.979 6  24303274.539    24303275.255    24303281.682
        42.900          38.800
 138961781.315 7                  26443545.314
        42.000
 123133812.093 8                  23431582.342
        48.600
 129931516.372 6 101245350.97144  24725143.238    24725142.5104   24725146.7354
        39.200          29.5004
 121388155.717 7  94588187.99646  23099395.354    23099394.6444   23099398.0134
        42.700          38.9004
 123934900.882 7  96572657.34146  23584025.806    23584025.3284   23584028.4444
        44.800          40.2004
 102605434.966 8  79804269.820 8  19221448.158    19221448.196    19221453.873
        52.300          48.300
 110599965.568 8  86022235.735 7  20668245.479    20668245.298    20668252.477
        49.400          47.100
 104549608.611 8  81316397.923 8  19530739.647    19530739.832    19530745.283
        52.600          48.400
 25  1  1  9  1 30.0000000  0 29G10G24E08R04S31S35G13R12E13S48S33R02
                                R13E29G23R19G18E07G29G15R11E33E26G08
                                G27G32R18R17R03
 117621769.267 7  91653342.83447  22382675.150    22382674.5834   22382677.1544
        47.800          46.2004
 113090377.688 7  88122408.71547  21520376.021    21520375.6374   21520378.9434
        46.700          46.3004
 134227939.992 7                  25542718.522
        44.700
 115982322.805 8  90208520.750 7  21658882.239    21658882.747    21658888.940
        48.900          45.000
 198974519.397 7                  37863582.467
        45.800
 200954013.272 7                  38240279.374
        44.300
 131915952.081 6 102791669.38042  25102765.928    25102765.3254   25102766.8234
        38.900          17.5004
 126226315.984 7  98176052.939 7  23629829.072    23629829.767    23629838.201
        44.900          42.400
 128774359.480 7                  24504927.276
        46.100
 412743703.576 5                  78542605.014
        32.900
 202097162.347 7                  38457780.611
        45.200
 114552478.817 8  89096415.466 7  21467080.369    21467080.856    21467086.563
        49.800          46.500
 130589344.009 5                  24455186.459    24455184.996
        34.100
 134914923.386 7                  25673453.764
        43.200
 107456285.083 8  83732179.68146  20448245.861    20448245.4994   20448245.5794
        48.500          39.6004
 113823111.052 6  88529110.977 7  21278021.187    21278021.683    21278027.759
        38.700          43.600
 108755688.345 7  84744695.96346  20695514.098    20695513.7274   20695514.3994
        47.600          39.6004
 122138855.575 8                  23242245.333
        48.400
 135220249.325 6 105366461.31644  25731546.248    25731545.5464   25731546.4664
        37.100          26.6004
 115721834.817 7  90172877.05547  22021125.087    22021124.6224   22021124.7684
        46.400          42.9004
 129882336.013 6 101019616.430 6  24305711.473    24305712.151    24305719.101
        41.900          37.700
 138922963.726 7                  26436158.501
        42.000
 123122353.214 8                  23429401.782
        48.800
 129906937.725 6 101226198.80644  24720465.346    24720464.6004   24720469.8614
        39.100          29.5004
 121387941.512 7  94588021.10146  23099354.634    23099353.9244   23099357.0484
        42.800          38.7004
 123889673.675 7  96537415.36646  23575419.068    23575418.5814   23575421.9214
        45.300          40.4004
 102603288.794 8  79802600.571 8  19221045.608    19221046.031    19221051.704
        52.100          48.500
 110652252.582 8  86062903.380 7  20678016.415    20678016.514    20678023.402
        49.400          46.700
 104552261.378 8  81318461.215 8  19531235.061    19531235.445    19531240.868
        53.100          48.500
 25  1  1  9  1 45.0000000  0 29G10G24E08R04S31S35G13R12E13S48S33R02
                                R13E29G23R19G18E07G29G15R11E33E26G08
                                G27G32R18R17R03
 117592412.908 8  91630467.68547  22377088.643    22377088.0764   22377090.8544
        48.600          46.3004
 113072776.559 7  88108693.58047  21517026.679    21517026.2824   21517029.5154
        46.300          46.4004
 134261940.998 7                  25549188.863
        44.200
 115943910.568 8  90178644.584 7  21651709.374    21651709.669    21651716.140
        49.400          44.900
 198974516.312 7                  37863584.743
        46.000
 200954014.382 7                  38240276.535
        44.400
 131972415.308 6 102835666.69243  25113510.714    25113510.1204   25113511.5914
        39.000          18.5004
 126194456.842 7  98151273.632 7  23623864.442    23623864.811    23623874.071
        43.800          42.500
 128802146.732 7                  24510214.967
        45.900
 412743504.223 5                  78542577.562
        33.000
 202097137.453 7                  38457776.909
        45.300
 114597129.268 8  89131143.605 7  21475448.110    21475448.384    21475454.154
        50.200          46.500
 130538039.185 6                  24445578.321    24445577.612
        36.200
 134878395.106 7                  25666502.596
        42.700
 107452537.540 8  83729259.53246  20447532.784    20447532.4274   20447532.4764
        48.400          39.7004
 113773582.619 6  88490588.860 7  21268762.150    21268762.772    21268768.773
        38.200          43.400
 108778531.462 8  84762495.79046  20699861.017    20699860.6554   20699861.2944
        48.100          39.6004
 122137141.534 8                  23241919.132
        48.200
 135273678.141 6 105408094.20243  25741713.285    25741712.5884   25741712.7444
        36.200          21.4004
 115768226.552 7  90209026.45947  22029952.883    22029952.4184   22029953.0034
        46.300          43.0004
 129895530.807 6 101029878.894 6  24308180.964    24308181.336    24308188.112
        41.400          37.200
 138884163.076 7                  26428775.052
        42.200
 123110969.534 8                  23427235.690
        48.500
 129882476.650 6 101207138.25544  24715810.805    24715810.0684   24715815.0544
        39.800          29.9004
 121387870.854 7  94587966.05446  23099341.322    23099340.6204   23099343.3784
        42.900          38.6004
 123844501.456 7  96502216.23746  23566822.861    23566822.3744   23566825.8844
        44.500          40.4004
 102601341.129 8  79801085.739 8  19220681.059    19220681.228    19220686.824
        52.200          48.300
 110704664.926 8  86103668.505 7  20687811.142    20687810.816    20687818.272
        49.200          46.300
 104555020.373 8  81320607.133 8  19531750.595    19531750.728    19531756.124
        52.500          48.400
 25  1  1  9  2  0.0000000  0 29G10G24E08R04S31S35G13R12E13S48S33R02
                                R13E29G23R19G18E07G29G15R11E33E26G08
                                G27G32R18R17R03
 117563080.878 8  91607611.53847  22371506.808    22371506.2274   22371509.2144
        48.100          46.4004
 113055327.418 7  88095096.87847  21513706.262    21513705.8734   21513709.0224
        46.700          46.5004
 134295980.664 7                  25555666.465
        44.400
 115905583.635 8  90148834.772 7  21644551.923    21644552.194    21644558.700
        49.700          45.000
 198974513.748 7                  37863584.542
        45.900
 200954016.477 7                  38240278.940
        44.300
 132028881.325 6 102879666.12042  25124255.581    25124254.9874   25124256.8824
        37.100          17.0004
 126162721.072 7  98126590.290 7  23617924.477    23617924.542    23617933.297
        44.300          42.700
 128830004.141 7                  24515515.894
        45.900
 412743304.383 5                  78542562.229
        32.900
 202097112.895 7                  38457772.987
        45.500
 114641807.112 8  89165893.022 7  21483820.637    21483820.795    21483826.288
        50.200          46.400
 130486740.484 6                  24435971.517    24435970.876
        37.200
 134841918.096 7                  25659561.280
        43.100
 107448847.273 8  83726384.01446  20446830.558    20446830.2054   20446830.2484
        48.600          39.8004
 113724169.020 6  88452156.087 7  21259524.430    21259525.607    21259531.496
        38.700          43.400
 108801500.704 7  84780393.89246  20704231.872    20704231.5064   20704232.1804
        47.700          39.7004
 122135513.483 8                  23241609.334
        48.100
 135327067.058 5 105449696.01043  25751872.392    25751871.6994   25751872.1324
        35.400          22.3004
 115814671.326 7  90245217.19347  22038790.785    22038790.3204   22038791.0674
        46.800          43.0004
 129908895.928 7 101040273.811 6  24310682.925    24310683.545    24310689.507
        43.100          38.200
 138845380.586 7                  26421394.739
        42.100
 123099662.200 8                  23425083.679
        48.400
 129858134.436 6 101188170.33344  24711178.317    24711177.5624   24711182.8464
        38.400          29.6004
 121387944.638 7  94588023.56346  23099354.722    23099354.0204   23099357.2994
        42.600          38.9004
 123799385.445 7  96467060.89946  23558238.402    23558237.9064   23558240.5304
        44.500          40.6004
 102599593.117 8  79799726.179 8  19220353.420    19220353.717    19220359.305
        52.300          48.600
 110757203.054 8  86144531.459 7  20697628.244    20697628.737    20697636.229
        49.700          46.900
 104557886.437 8  81322836.314 8  19532285.803    19532286.155    19532291.512
        52.800          48.400
 25  1  1  9  2 15.0000000  0 29G10G24E08R04S31S35G13R12E13S48S33R02
                                R13E29G23R19G18E07G29G15R11E33E26G08
                                G27G32R18R17R03
 117533773.079 7  91584774.30047  22365929.751    22365929.1664   22365932.1134
        47.900          46.2004
 113038030.400 7  88081618.71347  21510414.552    21510414.1594   21510417.4654
        46.500          46.4004
 134330058.720 7                  25562151.071
        44.600
 115867341.987 8  90119091.297 7  21637410.409    21637410.503    21637417.027
        48.600          45.000
 198974511.567 7                  37863584.595
        46.000
 200954018.158 7                  38240280.452
        44.500
 132085349.729 6 102923667.42342  25135001.116    25135000.5134   25135002.8134
        38.800          17.0004
 126131108.925 7  98102003.095 7  23612006.751    23612006.698    23612014.908
        44.300          42.500
 128857931.551 7                  24520830.515
        46.000
 412743106.079 5                  78542544.191
        33.700
 202097089.417 7                  38457765.985
        45.300
 114686511.787 8  89200663.326 7  21492197.997    21492198.577    21492204.280
        49.900          46.600
 130435448.582 6                  24426366.235    24426365.965
        36.300
 134805492.341 7                  25652629.442
        43.300
 107445214.207 8  83723553.06646  20446139.115    20446138.7584   20446138.9444
        48.500          39.6004
 113674870.297 6  88413812.646 7  21250310.667    21250309.455    21250315.603
        38.600          43.600
 108824595.900 7  84798390.15046  20708627.083    20708626.7264   20708627.1104
        47.200          39.5004
 122133971.226 8                  23241315.853
        48.100
 135380415.398 5 105491266.19043  25762024.511    25762023.8144   25762024.1194
        35.700          22.0004
 115861168.682 7  90281448.90247  22047639.278    22047638.8134   22047639.2274
        46.100          42.9004
 129922430.772 7 101050800.495 6  24313214.665    24313215.699    24313222.524
        42.400          38.400
 138806616.303 6                  26414017.758
        41.600
 123088431.219 8                  23422946.760
        48.500
 129833911.136 6 101169295.05344  24706569.239    24706568.4844   24706573.3504
        38.200          29.3004
 121388162.719 7  94588193.50446  23099397.053    23099396.3514   23099398.7604
        42.900          38.5004
 123754325.666 7  96431949.39046  23549663.450    23549662.9504   23549666.2514
        44.500          40.7004
 102598044.807 8  79798521.960 8  19220063.139    19220063.562    19220069.204
        52.300          48.500
 110809866.653 8  86185492.007 7  20707470.788    20707470.309    20707477.416
        49.600          46.900
 104560859.486 8  81325148.699 8  19532841.437    19532841.531    19532846.941
        53.000          48.400
 25  1  1  9  2 30.0000000  0 29G10G24E08R04S31S35G13R12E13S48S33R02
                                R13E29G23R19G18E07G29G15R11E33E26G08
                                G27G32R18R17R03
 117504488.921 7  91561955.47747  22360357.486    22360356.9054   22360359.4694
        47.400          46.3004
 113020885.177 7  88068258.82747  21507152.061    21507151.6594   21507154.7824
        46.400          46.5004
 134364174.446 7                  25568642.992
        44.300
 115829185.089 8  90089413.746 7  21630285.311    21630285.209    21630291.345
        49.100          45.100
 198974508.930 7                  37863586.576
        46.000
 200954020.165 7                  38240281.248
        44.400
 132141819.697 6 102967669.93543  25145747.124    25145746.5164   25145748.8954
        39.300          18.2004
 126099620.261 7  98077511.976 7  23606111.030    23606110.743    23606120.339
        43.400          42.600
 128885928.397 7                  24526158.093
        46.200
 412742910.371 5                  78542517.160
        33.100
 202097065.040 7                  38457765.466
        45.500
 114731242.584 8  89235453.962 7  21500580.702    21500580.772    21500587.235
        49.500          46.700
 130384163.690 6                  24416762.627    24416762.861
        36.200
 134769117.400 7                  25645707.762
        43.300
 107441637.863 8  83720766.31846  20445458.423    20445458.0484   20445458.3544
        48.400          39.8004
 113625686.557 6  88375558.664 7  21241115.378    21241115.182    21241121.544
        38.900          43.600
 108847816.450 7  84816484.08646  20713045.670    20713045.3174   20713045.8384
        47.300          39.7004
 122132514.140 8                  23241038.459
        48.200
 135433722.368 5 105532804.11143  25772168.641    25772167.9394   25772168.2504
        34.900          23.3004
 115907717.899 7  90317721.01847  22056497.230    22056496.7704   22056497.3064
        46.000          43.0004
 129936135.579 6 101061459.581 6  24315781.226    24315781.655    24315788.560
        41.900          37.900
 138767869.938 7                  26406644.544
        42.100
 123077276.275 8                  23420823.846
        48.800
 129809806.339 6 101150512.14744  24701982.203    24701981.4484   24701986.4454
        37.900          29.2004
 121388524.510 7  94588475.43146  23099465.883    23099465.1814   23099467.8154
        42.000          38.7004
 123709321.710 7  96396881.39046  23541099.429    23541098.9294   23541102.1734
        44.400          40.6004
 102596695.761 8  79797472.715 8  19219810.628    19219810.853    19219816.441
        52.200          48.500
 110862654.514 8  86226549.212 7  20717335.246    20717335.169    20717342.491
        49.900          46.900
 104563938.355 8  81327543.429 8  19533416.116    19533416.667    19533422.045
        52.500          48.300
 25  1  1  9  2 45.0000000  0 29G10G24E08R04S31S35G13R12E13S48S33R02
                                R13E29G23R19G18E07G29G15R11E33E26G08
                                G27G32R18R17R03
 117475225.952 8  91539153.14247  22354788.939    22354788.3674   22354790.9044
        48.200          46.4004
 113003889.527 7  88055015.49347  21503917.593    21503917.1914   21503920.5914
        46.200          46.6004
 134398325.168 7                  25575141.787
        44.300
 115791110.485 8  90059800.178 7  21623175.219    21623175.097    21623181.411
        49.000          44.900
 198974503.827 7                  37863581.881
        45.600
 200954019.324 7                  38240280.251
        44.300
 132198288.440 6 103011671.53043  25156492.986    25156492.3604   25156494.8084
        38.600          18.4004
 126068253.226 7  98053115.394 7  23600239.342    23600239.793    23600248.629
        44.400          42.700
 128913992.177 7                  24531498.401
        46.100
 412742711.045 5                  78542492.297
        33.300
 202097038.572 7                  38457759.107
        45.000
 114775996.675 8  89270262.688 7  21508967.195    21508967.586    21508973.567
        49.100          46.400
 130332883.734 6                  24407160.077    24407159.492
        38.300
 134732790.916 7                  25638795.048
        43.400
 107438115.832 8  83718021.89246  20444788.176    20444787.7924   20444788.1344
        48.300          39.9004
 113576615.989 6  88337392.662 7  21231941.710    21231942.144    21231948.042
        39.000          43.200
 108871159.818 7  84834673.72846  20717487.608    20717487.2554   20717487.9704
        47.600          39.7004
 122131139.678 8                  23240777.033
        48.100
 135486984.877 6 105574307.38243  25782303.425    25782302.7644   25782304.6224
        36.000          23.7004
 115954316.214 7  90354031.39447  22065364.457    22065364.0064   22065364.7034
        46.200          43.1004
 129950008.017 7 101072249.383 6  24318376.941    24318376.739    24318383.899
        42.300          38.200
 138729139.121 6                  26399274.517
        41.900
 123066195.067 8                  23418715.226
        48.700
 129785817.811 6 101131819.83244  24697417.706    24697416.9604   24697421.4154
        38.000          29.0004
 121389027.450 7  94588867.34646  23099561.236    23099560.5434   23099563.6644
        43.000          38.9004
 123664371.321 7  96361855.12146  23532545.402    23532544.9154   23532548.1344
        44.400          40.8004
 102595543.630 8  79796576.600 8  19219594.800    19219594.959    19219600.623
        52.400          48.500
 110915563.996 8  86267700.983 7  20727222.588    20727222.691    20727229.771
        50.000          46.900
 104567120.646 8  81330018.547 8  19534010.808    19534011.200    19534016.476
        52.600          48.500
 25  1  1  9  3  0.0000000  0 29G10G24E08R04S31S35G13R12E13S48S33R02
                                R13E29G23R19G18E07G29G15R11E33E26G08
                                G27G32R18R17R03
 117445987.990 7  91516370.26347  22349224.803    22349224.2134   22349227.1194
        47.500          46.4004
 112987047.452 7  88041891.83747  21500713.174    21500712.7814   21500715.6054
        46.200          46.6004
 134432514.532 7                  25581647.823
        44.600
 115753121.995 8  90030253.603 7  21616080.907    21616080.863    21616086.923
        48.800          44.900
 198974500.209 7                  37863581.483
        46.100
 200954020.112 7                  38240280.438
        44.600
 132254759.695 6 103055675.06842  25167239.284    25167238.6234   25167240.7794
        38.400          17.8004
 126037011.959 7  98028816.722 7  23594391.387    23594390.951    23594400.172
        44.100          42.900
 128942126.629 7                  24536852.395
        46.200
 412742512.705 5                  78542472.032
        33.300
 202097013.078 7                  38457751.175
        45.400
 114820777.556 8  89305092.263 7  21517359.514    21517359.520    21517366.078
        49.900          46.600
 130281612.743 6                  24397558.361    24397559.084
        37.500
 134696516.741 7                  25631892.011
        43.000
 107434651.921 8  83715322.75346  20444129.205    20444128.8214   20444128.9674
        48.200          39.9004
 113527662.816 6  88299317.998 7  21222790.459    21222790.638    21222796.531
        39.000          43.100
 108894629.692 7  84852961.94346  20721953.760    20721953.4124   20721954.1684
        47.100          39.7004
 122129851.563 8                  23240531.992
        48.400
 135540206.931 5 105615779.16843  25792431.961    25792431.2914   25792432.7004
        34.200          22.5004
 116000967.092 7  90390382.72847  22074241.852    22074241.4374   22074242.1044
        45.200          43.1004
 129964050.836 6 101083171.599 6  24321004.570    24321004.510    24321012.337
        41.900          39.200
 138690427.875 7                  26391908.297
        42.400
 123055191.464 8                  23416621.251
        48.800
 129761949.513 6 101113221.21045  24692875.431    24692874.6894   24692878.9664
        38.400          30.1004
 121389675.305 7  94589372.18346  23099684.975    23099684.3144   23099686.9164
        42.400          38.7004
 123619478.410 7  96326873.64146  23524002.311    23524001.8114   23524005.5554
        44.200          41.1004
 102594592.303 8  79795836.671 8  19219416.319    19219416.765    19219422.370
        52.000          48.500
 110968598.233 8  86308949.791 7  20737133.280    20737133.291    20737140.555
        50.300          46.900
 104570409.594 8  81332576.640 8  19534625.124    19534625.440    19534630.904
        52.200          48.300
 25  1  1  9  3 15.0000000  0 29G10G24E08R04S31S35G13R12E13S48S33R02
                                R13E29G23R19G18E07G29G15R11E33E26G08
                                G27G32R18R17R03
 117416779.959 7  91493610.72047  22343667.032    22343666.4424   22343669.0264
        47.700          46.3004
 112970364.015 7  88028891.78847  21497538.137    21497537.7264   21497540.8254
        46.300          46.4004
 134466747.124 7                  25588162.114
        44.800
 115715224.530 8  90000777.814 7  21609003.695    21609003.917    21609010.133
        49.100          45.100
 198974502.089 7                  37863580.656
        46.000
 200954026.040 7                  38240280.519
        44.500
 132311237.852 6 103099684.01642  25177986.389    25177985.7234   25177987.4344
        38.200          17.2004
 126005902.024 7  98004620.126 7  23588567.225    23588566.784    23588576.210
        43.500          42.800
 128970336.529 7                  24542220.495
        46.400
 412742319.928 5                  78542457.495
        33.200
 202096993.597 7                  38457745.232
        45.100
 114865590.085 8  89339946.445 7  21525757.476    21525757.925    21525763.588
        50.200          46.400
 130230356.241 5                  24387957.585    24387958.586
        35.000
 134660299.817 7                  25625000.514
        43.500
 107431251.025 8  83712672.71546  20443481.945    20443481.5564   20443481.7854
        48.400          39.8004
 113478832.262 6  88261338.685 7  21213662.674    21213662.666    21213668.594
        39.100          43.500
 108918230.831 7  84871352.42846  20726445.090    20726444.7424   20726445.2834
        47.300          39.5004
 122128654.565 8                  23240304.138
        48.400
 135593392.988 5 105657222.83843  25802552.575    25802551.9094   25802553.9764
        35.800          23.6004
 116047675.074 7  90426778.55747  22083130.317    22083129.9244   22083130.3664
        45.800          42.9004
 129978268.865 7 101094229.967 6  24323665.942    24323665.466    24323672.841
        42.300          38.700
 138651741.187 7                  26384545.950
        42.300
 123044270.465 8                  23414542.997
        48.700
 129738206.382 6 101094720.08944  24688357.139    24688356.4114   24688360.6874
        38.500          29.3004
 121390472.807 7  94589993.63846  23099836.153    23099835.4744   23099838.5574
        42.800          38.7004
 123574647.954 7  96291940.82746  23515471.588    23515471.0974   23515474.5534
        44.500          40.9004
 102593846.781 8  79795256.797 8  19219276.780    19219277.089    19219282.744
        52.000          48.400
 111021761.895 8  86350299.263 7  20747068.068    20747068.445    20747075.463
        50.100          46.600
 104573810.181 8  81335221.554 8  19535260.678    19535260.791    19535266.178
        52.600          48.500
 25  1  1  9  3 30.0000000  0 29G10G24E08R04S31S35G13R12E13S48S33R02
                                R13E29G23R19G18E07G29G15R11E33E26G08
                                G27G32R18R17R03
 117387595.285 8  91470869.34847  22338113.199    22338112.6054   22338115.3964
        48.300          46.2004
 112953832.862 7  88016010.40747  21494392.217    21494391.8064   21494395.0114
        46.500          46.4004
 134501016.215 7                  25594683.219
        44.800
 115677411.867 8  89971367.985 7  21601942.481    21601942.693    21601948.716
        49.200          44.900
 198974503.478 7                  37863580.034
        45.800
 200954031.539 7                  38240283.631
        44.200
 132367716.177 6 103143693.07542  25188733.863    25188733.1664   25188734.7954
        38.500          17.5004
 125974917.030 7  97980520.717 7  23582767.312    23582767.362    23582775.675
        45.200          42.500
 128998615.273 7                  24547601.584
        46.600
 412742126.296 5                  78542422.786
        33.100
 202096973.739 7                  38457745.992
        45.100
 114910427.168 8  89374819.748 7  21534159.259    21534159.491    21534165.973
        49.300          46.400
 130179108.091 6                  24378363.148    24378362.256
        37.600
 134624133.678 7                  25618117.976
        43.400
 107427906.612 8  83710066.69446  20442845.637    20442845.2444   20442845.3524
        48.500          39.7004
 113430118.384 6  88223450.145 7  21204556.041    21204555.960    21204561.791
        38.900          43.700
 108941956.628 8  84889840.05446  20730959.710    20730959.3624   20730960.1514
        48.100          39.5004
 122127542.001 8                  23240092.424
        48.400
 135646536.225 5 105698633.21943  25812665.929    25812665.2814   25812666.1524
        34.200          20.1004
 116094433.256 7  90463213.50647  22092027.914    22092027.5124   22092028.1624
        45.900          42.8004
 129992656.375 7 101105420.541 6  24326357.809    24326358.299    24326364.529
        43.300          38.400
 138613072.703 7                  26377187.776
        42.500
 123033425.705 8                  23412479.518
        48.800
 129714582.072 6 101076311.57844  24683861.463    24683860.7174   24683865.4414
        38.600          29.6004
 121391413.283 7  94590726.51146  23100015.260    23100014.5814   23100017.4584
        42.900          38.6004
 123529873.542 7  96257051.68046  23506951.567    23506951.0804   23506954.1004
        45.200          40.9004
 102593300.564 8  79794831.951 8  19219174.525    19219174.846    19219180.460
        52.100          48.400
 111075047.949 8  86391743.945 7  20757026.064    20757025.837    20757033.561
        49.600          46.600
 104577315.464 8  81337947.901 8  19535915.611    19535915.597    19535921.003
        52.700          48.500
 25  1  1  9  3 45.0000000  0 29G10G24E08R04S31S35G13R12E13S48S33R02
                                R13E29G23R19G18E07G29G15R11E33E26G08
                                G27G32R18R17R03
 117358431.317 7  91448144.16047  22332563.369    22332562.7754   22332565.7554
        47.800          46.3004
 112937451.386 7  88003245.65347  21491275.082    21491274.6764   21491277.6554
        46.400          46.4004
 134535318.819 7                  25601210.668
        44.400
 115639680.815 8  89942021.610 7  21594896.316    21594896.922    21594902.991
        49.600          45.200
 198974501.765 7                  37863582.498
        45.800
 200954034.134 7                  38240284.177
        44.400
 132424191.706 6 103187699.98442  25199480.788    25199480.0464   25199481.4954
        36.000          15.7004
 125944054.561 7  97956516.639 7  23576988.403    23576988.939    23576998.352
        43.300          42.300
 129026960.008 7                  24552995.373
        46.200
 412741930.315 5                  78542403.388
        32.600
 202096949.915 7                  38457740.353
        45.200
 114955285.639 8  89409709.675 7  21542566.691    21542566.531    21542572.824
        49.500          46.700
 130127866.081 6                  24368766.925    24368766.221
        37.000
 134588015.609 7                  25611245.167
        44.000
 107424615.926 8  83707502.53646  20442219.438    20442219.0414   20442219.1374
        48.500          39.9004
 113381518.959 6  88185650.600 7  21195470.872    21195471.099    21195476.339
        38.600          43.200
 108965804.171 7  84908422.54646  20735497.659    20735497.2974   20735498.2174
        47.800          39.5004
 122126510.999 8                  23239896.307
        48.500
 135699633.283 6 105740007.55944  25822769.844    25822769.1834   25822769.9314
        36.600          26.6004
 116141238.541 7  90499685.15947  22100934.836    22100934.4214   22100934.8784
        45.800          42.8004
 130007208.881 6 101116739.149 6  24329081.236    24329081.182    24329088.454
        41.800          39.000
 138574419.771 7                  26369832.664
        42.500
 123022654.481 8                  23410429.589
        48.500
 129691073.968 6 101057993.61944  24679387.505    24679386.7364   24679392.0384
        38.600          28.5004
 121392493.893 7  94591568.57646  23100220.945    23100220.2664   23100223.0234
        42.700          38.6004
 123485152.552 7  96222204.16946  23498441.287    23498440.8004   23498444.1734
        44.700          41.1004
 102592951.048 8  79794560.140 8  19219108.958    19219109.278    19219115.031
        51.800          48.300
 111128453.126 8  86433281.295 7  20767005.908    20767006.301    20767013.158
        49.900          46.500
 104580922.479 8  81340753.383 8  19536589.111    19536589.180    19536594.800
        52.600          48.600
 25  1  1  9  4  0.0000000  0 29G10G24E08R04S31S35G13R12E13S48S33R02
                                R13E29G23R19G18E07G29G15R11E33E26G08
                                G27G32R18R17R03
 117329290.845 8  91425437.29647  22327018.321    22327017.7224   22327020.5674
        48.200          46.4004
 112921222.683 7  87990599.94247  21488186.777    21488186.3714   21488189.4104
        46.500          46.5004
 134569657.592 7                  25607745.185
        44.300
 115602034.298 8  89912741.013 7  21587866.045    21587866.052    21587872.934
        48.700          45.100
 198974498.995 7                  37863581.335
        45.700
 200954035.556 7                  38240282.804
        44.300
 132480667.108 6 103231706.78942  25210228.105    25210227.3684   25210228.7634
        38.300          16.5004
 125913318.168 7  97932610.598 7  23571234.558    23571235.276    23571244.496
        44.300          43.000
 129055373.526 7                  24558402.507
        45.900
 412741733.462 5                  78542374.054
        32.700
 202096926.090 7                  38457736.584
        45.300
 115000168.355 8  89444618.452 7  21550977.517    21550977.572    21550983.602
        49.900          46.500
 130076633.608 6                  24359172.668    24359173.147
        36.600
 134551948.532 7                  25604381.516
        43.300
 107421381.840 8  83704982.47746  20441603.752    20441603.3504   20441603.7394
        48.300          39.9004
 113333037.127 6  88147942.531 7  21186406.840    21186407.335    21186413.170
        39.100          43.300
 108989776.265 7  84927102.08946  20740059.441    20740059.0704   20740059.9344
        47.700          39.5004
 122125564.312 8                  23239715.968
        48.300
 135752686.974 5 105781348.12443  25832866.085    25832865.4104   25832865.8674
        34.600          19.8004
 116188093.631 7  90536195.61747  22109850.690    22109850.2794   22109850.9944
        45.900          42.7004
 130021929.012 7 101128187.760 6  24331835.758    24331836.274    24331842.374
        42.300          37.900
 138535785.413 6                  26362480.589
        41.800
 123011959.773 8                  23408394.442
        48.400
 129667685.073 6 101039768.55544  24674937.155    24674936.3954   24674941.3164
        39.500          29.9004
 121393717.372 7  94592521.96146  23100454.071    23100453.3924   23100455.7754
        43.200          38.8004
 123440487.933 7  96187400.59246  23489942.115    23489941.6334   23489944.8974
        45.100          41.2004
 102592800.964 8  79794443.381 8  19219080.870    19219081.170    19219086.909
        51.800          48.200
 111181979.577 8  86474912.965 7  20777009.102    20777008.843    20777016.124
        49.300          46.600
 104584633.439 8  81343639.690 8  19537282.769    19537282.554    19537288.045
        52.400          48.700
 25  1  1  9  4 15.0000000  0 29G10G24E08R04S31S35G13R12E13S48S33R02
                                R13E29G23R19G18E07G29G15R11E33E26G08
                                G27G32R18R17R03
 117300174.018 8  91402748.86447  22321477.497    22321476.9034   22321479.8564
        48.200          46.4004
 112905147.047 7  87978073.50947  21485127.662    21485127.2604   21485130.2754
        46.500          46.4004
 134604032.427 7                  25614286.403
        44.300
 115564472.348 8  89883526.191 7  21580851.975    21580851.932    21580858.376
        49.500          45.100
 198974495.818 7                  37863580.142
        45.700
 200954036.753 7                  38240281.740
        44.200
 132537141.916 6 103275713.09342  25220974.943    25220974.2284   25220975.4184
        37.700          15.7004
 125882708.295 7  97908802.999 7  23565505.062    23565505.638    23565514.009
        44.500          43.000
 129083855.861 7                  24563822.635
        46.100
 412741537.678 5                  78542345.516
        32.500
 202096901.690 7                  38457731.066
        45.000
 115045075.029 8  89479545.854 7  21559393.112    21559393.403    21559398.932
        50.200          46.400
 130025411.378 6                  24349581.653    24349580.398
        36.200
 134515932.651 7                  25597528.202
        43.600
 107418204.496 8  83702506.63646  20440999.421    20440999.0244   20440999.1004
        48.100          39.9004
 113284673.833 6  88110326.658 7  21177365.984    21177366.251    21177372.251
        39.200          43.300
 109013872.894 7  84945878.67146  20744644.880    20744644.5144   20744645.3954
        47.600          39.4004
 122124701.930 8                  23239551.942
        48.400
 135805697.028 6 105822654.68044  25842952.405    25842951.7484   25842953.4984
        36.700          25.7004
 116234998.211 7  90572744.64447  22118776.741    22118776.3354   22118776.5854
        45.400          42.6004
 130036818.254 7 101139768.287 6  24334620.925    24334622.430    24334629.564
        42.200          38.900
 138497169.869 6                  26355132.344
        41.500
 123001341.826 8                  23406374.039
        48.500
 129644415.572 6 101021636.49244  24670509.144    24670508.3894   24670513.3104
        37.900          29.1004
 121395083.743 7  94593586.69446  23100713.929    23100713.2504   23100715.8764
        42.700          38.6004
 123395879.950 7  96152641.15046  23481453.172    23481452.6904   23481456.1974
        45.400          41.4004
 102592850.689 8  79794482.045 8  19219090.319    19219090.623    19219096.219
        51.600          48.300
 111235627.185 8  86516638.852 7  20787034.489    20787034.314    20787041.216
        49.700          46.400
 104588448.817 8  81346607.237 8  19537994.779    19537995.251    19538000.692
        52.200          48.500
 25  1  1  9  4 30.0000000  0 29G10G24E08R04S31S35G13R12E13S48S33R02
                                R13E29G23R19G18E07G29G15R11E33E26G08
                                G27G32R18R17R03
 117271083.856 7  91380081.17247  22315941.960    22315941.3574   22315944.1754
        47.300          46.5004
 112889227.765 7  87965668.90447  21482098.092    21482097.6904   21482100.9024
        46.200          46.6004
 134638446.232 7                  25620835.375
        44.400
 115526998.521 8  89854379.900 7  21573853.486    21573853.503    21573860.184
        48.800          45.300
 198974495.455 7                  37863581.465
        45.900
 200954040.438 7                  38240283.014
        44.100
 132593619.088 6 103319721.27642  25231721.791    25231721.0454   25231722.8554
        39.000          16.8004
 125852228.402 7  97885096.462 7  23559799.293    23559799.723    23559808.187
        45.000          42.600
 129112410.067 7                  24569256.051
        45.600
 412741343.937 5                  78542333.729
        32.800
 202096879.669 7                  38457727.623
        45.200
 115090008.488 8  89514494.114 7  21567813.161    21567813.495    21567819.547
        50.000          46.400
 129974203.072 6                  24339991.061    24339990.476
        37.000
 134479971.117 7                  25590684.599
        43.500
 107415087.034 8  83700077.45146  20440406.270    20440405.8774   20440405.8864
        48.200          40.2004
 113236432.334 6  88072805.519 7  21168347.736    21168348.092    21168354.213
        38.700          43.400
 109038097.116 7  84964754.68246  20749254.801    20749254.4304   20749255.1424
        47.000          39.4004
 122123926.882 8                  23239404.294
        48.300
 135858666.336 6 105863929.48343  25853033.362    25853032.7234   25853033.2914
        36.800          22.0004
 116281955.040 7  90609334.38147  22127712.444    22127712.0424   22127712.2734
        45.600          42.6004
 130051878.711 6 101151481.832 6  24337440.713    24337440.881    24337448.770
        41.800          38.300
 138458576.445 6                  26347788.315
        41.900
 122990803.887 8                  23404368.793
        48.300
 129621268.774 6 101003600.04144  24666104.501    24666103.7414   24666107.6624
        38.200          29.2004
 121396596.008 7  94594765.11346  23101001.831    23101001.1704   23101003.8004
        42.300          38.7004
 123351331.836 7  96117928.35346  23472975.735    23472975.2574   23472978.8864
        45.200          41.6004
 102593103.361 8  79794678.556 8  19219137.642    19219137.875    19219143.596
        52.200          48.300
 111289398.534 8  86558460.945 7  20797082.535    20797082.757    20797089.904
        49.700          46.400
 104592371.090 8  81349657.913 8  19538727.800    19538728.100    19538733.376
        52.500          48.600
 25  1  1  9  4 45.0000000  0 29G10G24E08R04S31S35G13R12E13S48S33R02
                                R13E29G23R19G18E07G29G15R11E33E26G08
                                G27G32R18R17R03
 117242014.312 7  91357429.57247  22310410.395    22310409.7924   22310412.3224
        47.500          46.4004
 112873458.876 7  87953381.49347  21479097.356    21479096.9544   21479100.1624
        46.400          46.6004
 134672892.596 7                  25627390.100
        44.500
 115489606.328 8  89825297.141 7  21566870.770    21566870.934    21566877.512
        49.100          45.200
 198974491.379 7                  37863581.559
        45.800
 200954040.737 7                  38240283.112
        44.300
 132650092.149 6 103363726.22742  25242467.720    25242466.9114   25242469.2114
        36.600          15.2004
 125821872.842 7  97861486.680 7  23554115.628    23554116.156    23554125.345
        44.600          42.800
 129141029.871 7                  24574702.408
        46.200
 412741146.401 5                  78542318.114
        32.700
 202096855.033 7                  38457724.077
        45.200
 115134962.161 8  89549458.109 7  21576237.701    21576237.867    21576244.120
        49.900          46.700
 129923002.559 6                  24330403.056    24330402.575
        37.300
 134444057.849 7                  25583850.454
        44.000
 107412023.306 8  83697690.14246  20439822.943    20439822.5504   20439822.8844
        48.200          40.1004
 113188307.200 6  88035374.904 7  21159351.456    21159351.501    21159357.072
        38.700          43.100
 109062442.581 7  84983725.16646  20753887.783    20753887.4214   20753887.9804
        47.000          39.4004
 122123232.854 8                  23239272.260
        48.400
 135911588.651 5 105905167.69143  25863103.757    25863103.1404   25863103.9934
        34.600          21.4004
 116328957.643 7  90645959.78747  22136656.424    22136656.0134   22136656.6234
        45.700          42.6004
 130067103.961 7 101163323.533 6  24340289.829    24340289.729    24340297.788
        43.100          38.700
 138419999.086 7                  26340446.951
        42.000
 122980339.908 8                  23402377.273
        48.400
 129598238.654 6 100985654.50144  24661722.708    24661721.9484   24661725.1414
        38.700          29.2004
 121398247.863 7  94596052.30746  23101315.706    23101315.0454   23101318.1154
        42.500          39.0004
 123306837.531 7  96083257.49046  23464509.160    23464508.6694   23464511.9184
        44.400          41.5004
 102593552.740 8  79795028.099 8  19219221.726    19219222.040    19219227.806
        52.000          48.200
 111343287.061 8  86600374.226 7  20807152.916    20807152.869    20807160.177
        49.100          46.200
 104596394.169 8  81352786.996 8  19539479.709    19539479.655    19539484.890
        52.800          48.600
 25  1  1  9  5  0.0000000  0 28G10G24E08R04S31S35G13R12E13S48S33R02
                                R13E29G23R19G18E07G15R11E33E26G08G27
                                G32R18R17R03
 117212972.115 7  91334799.31247  22304883.741    22304883.1474   22304885.7184
        47.900          46.7004
 112857847.244 7  87941216.61647  21476126.325    21476125.9144   21476129.3864
        46.400          46.8004
 134707378.062 7                  25633952.588
        44.500
 115452302.447 8  89796283.034 7  21559904.695    21559904.656    21559911.199
        48.300          45.300
 198974490.456 7                  37863582.489
        45.800
 200954044.488 7                  38240282.938
        44.100
 132706567.602 6 103407733.04242  25253215.411    25253214.6164   25253216.0944
        37.800          15.3004
 125791648.673 7  97837979.060 7  23548458.754    23548458.856    23548466.762
        44.800          42.900
 129169721.949 7                  24580162.374
        46.100
 412740952.748 5                  78542286.446
        32.600
 202096832.890 7                  38457718.979
        45.100
 115179942.510 8  89584442.822 7  21584666.774    21584667.188    21584673.115
        50.000          46.500
 129871817.530 6                  24320816.995    24320817.129
        37.500
 134408199.620 7                  25577027.005
        43.900
 107409020.041 8  83695349.94246  20439251.468    20439251.0794   20439251.3534
        48.400          40.3004
 113140305.775 6  87998040.467 7  21150377.832    21150378.224    21150383.912
        38.500          43.500
 109086915.941 7  85002795.30946  20758544.851    20758544.4894   20758545.0944
        47.500          39.6004
 122122626.461 8                  23239156.981
        48.700
 116376012.543 7  90682625.95147  22145610.369    22145609.9494   22145610.8144
        45.500          42.6004
 130082501.414 6 101175299.410 6  24343171.300    24343171.524    24343178.497
        41.700          37.300
 138381444.674 7                  26333110.041
        42.400
 122969956.762 8                  23400401.528
        48.500
 129575331.995 6 100967805.15744  24657362.634    24657361.8794   24657366.3914
        38.300          29.3004
 121400045.955 7  94597453.44146  23101657.986    23101657.3204   23101660.2304
        42.700          39.0004
 123262403.893 7  96048633.90146  23456053.686    23456053.2134   23456056.3844
        45.600          41.7004
 102594205.863 8  79795536.100 8  19219344.188    19219344.526    19219350.083
        52.200          48.200
 111397299.132 8  86642383.598 7  20817247.085    20817246.971    20817253.756
        49.600          46.400
 104600524.354 8  81355999.380 8  19540250.567    19540251.077    19540256.599
        52.300          48.700
 25  1  1  9  5 15.0000000  0 28G10G24E08R04S31S35G13R12E13S48S33R02
                                R13E29G23R19G18E07G15R11E33E26G08G27
                                G32R18R17R03
 117183952.440 8  91312186.57947  22299361.550    22299360.9514   22299363.4434
        48.100          46.8004
 112842388.362 7  87929170.76547  21473185.099    21473184.6844   21473187.6624
        46.300          46.8004
 134741897.660 7                  25640521.612
        44.400
 115415082.516 8  89767334.208 7  21552954.222    21552954.552    21552960.982
        49.100          45.400
 198974487.790 7                  37863582.006
        46.100
 200954045.895 7                  38240285.514
        44.500
 132763040.447 6 103451737.78542  25263962.106    25263961.3334   25263962.4894
        37.900          17.4004
 125761551.576 7  97814570.301 7  23542823.487    23542823.176    23542832.768
        43.500          42.700
 129198481.479 7                  24585635.183
        46.200
 412742356.716 5                  78542260.748
        33.200
 202096808.914 7                  38457713.059
        45.300
 115224944.735 8  89619444.549 7  21593101.083    21593101.227    21593106.269
        50.900          46.400
 129820643.672 6                  24311236.403    24311234.759
        37.500
 134372391.784 7                  25570213.101
        43.500
 107406072.542 8  83693053.19746  20438690.714    20438690.3254   20438690.4914
        48.300          40.4004
 113092423.338 6  87960798.597 7  21141427.347    21141427.404    21141433.087
        39.100          43.400
 109111512.368 7  85021961.34646  20763225.251    20763224.8984   20763225.6534
        47.200          39.7004
 122122102.886 8                  23239057.358
        48.700
 116423114.692 7  90719328.92447  22154573.799    22154573.3844   22154574.0254
        45.300          42.5004
 130098065.611 7 101187405.059 6  24346083.681    24346083.937    24346090.417
        42.600          38.200
 138342908.670 7                  26325776.892
        42.000
 122959649.822 8                  23398440.107
        48.600
 129552544.401 6 100950048.60544  24653026.592    24653025.8324   24653030.6074
        38.500          29.0004
 121401985.410 7  94598964.73046  23102026.889    23102026.2014   23102029.3174
        42.100          39.0004
 123218026.315 7  96014053.99747  23447608.894    23447608.4384   23447611.8274
        44.100          42.0004
 102595057.916 8  79796198.824 8  19219503.798    19219504.025    19219509.675
        52.100          48.200
 111451429.264 8  86684484.778 7  20827361.696    20827361.942    20827369.470
        49.300          45.900
 104604756.405 8  81359290.988 8  19541041.277    19541041.570    19541047.146
        52.000          48.600
 25  1  1  9  5 30.0000000  0 28G10G24E08R04S31S35G13R12E13S48S33R02
                                R13E29G23R19G18E07G15R11E33E26G08G27
                                G32R18R17R03
 117154960.963 7  91289595.78947  22293844.525    22293843.9264   22293846.5924
        47.900          46.7004
 112827088.087 7  87917248.50647  21470273.355    21470272.9444   21470276.0954
        46.400          46.7004
 134776456.875 7                  25647097.906
        44.400
 115377951.873 8  89738454.864 7  21546019.889    21546020.277    21546026.873
        49.100          45.400
 198974489.069 7                  37863580.374
        46.100
 200954051.811 7                  38240286.014
        44.600
 132819516.219 6 103495744.86642  25274709.077    25274708.3584   25274709.2604
        37.100          15.5004
 125731587.793 7  97791265.213 7  23537214.064    23537214.863    23537223.694
        44.400          42.800
 129227314.074 7                  24591121.542
        46.300
 412742165.195 5                  78542245.875
        33.400
 202096789.254 7                  38457712.643
        45.600
 115269974.046 8  89654467.348 7  21601538.652    21601539.385    21601545.052
        50.500          46.400
 129769487.031 6                  24301653.143    24301654.142
        36.900
 134336640.066 7                  25563409.769
        44.000
 107403186.505 8  83690804.34646  20438141.673    20438141.2894   20438141.2734
        48.100          40.3004
 113044666.407 6  87923654.323 7  21132499.664    21132499.761    21132504.983
        38.900          43.400
 109136237.409 7  85041227.59846  20767930.163    20767929.8064   20767930.6504
        47.300          39.3004
 122121667.685 8                  23238974.421
        48.700
 116470269.499 7  90756072.93147  22163547.173    22163546.7494   22163547.3064
        45.300          42.3004
 130113801.276 7 101199643.769 6  24349028.640    24349029.024    24349036.148
        42.400          38.200
 138304396.895 7                  26318448.544
        42.300
 122949424.853 8                  23396494.399
        48.600
 129529881.559 6 100932389.27244  24648714.283    24648713.4884   24648717.9204
        38.100          28.4004
 121404071.832 6  94600590.53946  23102424.645    23102423.9664   23102426.2544
        41.800          38.8004
 123173710.579 7  95979522.29347  23439176.028    23439175.5904   23439178.8574
        46.000          42.2004
 102596114.619 8  79797020.692 8  19219701.689    19219701.957    19219707.611
        52.200          48.200
 111505683.040 8  86726682.140 7  20837501.086    20837500.966    20837507.863
        50.100          46.300
 104609096.258 8  81362666.469 8  19541851.929    19541852.285    19541857.739
        52.400          48.400
 25  1  1  9  5 45.0000000  0 28G10G24E08R04S31S35G13R12E13S48S33R02
                                R13E29G23R19G18E07G15R11E33E26G08G27
                                G32R18R17R03
 117125987.335 8  91267018.92947  22288331.035    22288330.4324   22288333.1674
        48.000          46.7004
 112811936.081 7  87905441.78047  21467389.930    21467389.5154   21467392.6994
        45.800          46.5004
 134811044.979 7                  25653679.580
        44.100
 115340900.107 8  89709636.831 7  21539101.202    21539101.076    21539107.417
        48.800          45.500
 198974483.986 7                  37863578.017
        45.700
 200954050.601 7                  38240287.830
        44.200
 132875983.980 6 103539745.69042  25285454.158    25285453.4254   25285454.7214
        37.200          14.9004
 125701747.165 7  97768055.936 7  23531629.025    23531629.060    23531636.715
        45.300          42.700
 129256209.154 7                  24596620.275
        45.900
 412741967.221 5                  78542211.408
        32.700
 202096763.570 7                  38457705.837
        45.200
 115315019.653 8  89689502.815 7  21609980.686    21609980.936    21609986.590
        50.400          46.200
 129718337.664 5                  24292076.469    24292075.426
        35.900
 134300934.022 7                  25556615.088
        43.800
 107400351.437 8  83688595.21046  20437601.951    20437601.5674   20437601.7714
        48.500          40.3004
 112997024.645 6  87886599.631 7  21123593.541    21123593.228    21123599.402
        38.800          43.500
 109161080.497 7  85060585.83846  20772657.423    20772657.0664   20772658.1524
        47.400          39.3004
 122121310.212 8                  23238906.338
        48.500
 116517465.993 7  90792849.42947  22172528.366    22172527.9464   22172528.4624
        45.000          42.0004
 130129699.006 6 101212008.832 6  24352003.077    24352003.162    24352011.016
        41.100          38.400
 138265898.974 7                  26311122.785
        42.000
 122939271.423 8                  23394562.319
        48.500
 129507333.127 6 100914819.09144  24644423.379    24644422.5924   24644426.7004
        38.400          28.8004
 121406294.556 7  94602322.56546  23102847.126    23102846.4424   23102849.2344
        42.700          38.5004
 123129446.314 7  95945030.68747  23430752.037    23430751.5774   23430755.5544
        45.200          42.0004
 102597365.408 8  79797993.492 8  19219935.747    19219936.328    19219942.072
        51.700          48.200
 111560049.186 8  86768966.877 7  20847660.284    20847660.502    20847667.707
        49.700          46.100
 104613532.803 8  81366117.134 8  19542680.900    19542681.109    19542686.572
        52.200          48.600
 25  1  1  9  6  0.0000000  0 28G10G24E08R04S31S35G13R12E13S48S33R02
                                R13E29G23R19G18E07G15R11E33E26G08G27
                                G32R18R17R03
 117097041.969 7  91244464.10847  22282823.047    22282822.4534   22282825.0854
        47.800          46.6004
 112796942.980 7  87893758.87847  21464537.208    21464536.8114   21464539.5674
        46.200          46.5004
 134845672.217 7                  25660269.215
        44.600
 115303937.902 8  89680888.487 7  21532198.661    21532198.340    21532205.419
        48.100          45.700
 198974482.694 7                  37863578.268
        45.600
 200954053.589 7                  38240286.708
        44.000
 132932453.972 6 103583748.25242  25296199.943    25296199.1924   25296200.8894
        37.300          15.9004
 125672040.489 7  97744950.833 7  23526067.397    23526067.582    23526075.640
        44.300          42.400
 129285177.093 7                  24602132.828
        46.200
 412741773.592 5                  78542194.036
        32.400
 202096741.520 7                  38457702.975
        45.000
 115360091.798 8  89724558.935 7  21618427.090    21618427.415    21618432.998
        50.000          46.200
 129667206.668 6                  24282499.971    24282501.217
        37.600
 134265284.182 7                  25549831.167
        43.900
 107397577.841 8  83686433.97946  20437074.073    20437073.6844   20437073.9554
        48.300          40.3004
 112949509.515 6  87849643.432 7  21114710.721    21114710.461    21114716.430
        38.500          43.500
 109186051.919 7  85080044.08146  20777409.484    20777409.1184   20777410.0254
        47.400          39.3004
 122121040.853 8                  23238855.093
        48.600
 116564714.285 7  90829666.28747  22181519.276    22181518.8434   22181519.4604
        44.900          42.0004
 130145768.598 6 101224507.505 6  24355011.157    24355010.821    24355017.569
        40.800          37.200
 138227425.548 7                  26303801.558
        42.400
 122929200.185 8                  23392645.737
        48.600
 129484909.658 6 100897346.28944  24640156.354    24640155.5944   24640159.7224
        38.200          28.2004
 121408663.971 6  94604168.88746  23103298.332    23103297.6484   23103300.1664
        41.600          38.9004
 123085244.109 7  95910587.44546  23422341.010    23422340.5504   23422344.0304
        45.300          41.9004
 102598821.091 8  79799125.663 8  19220208.766    19220209.030    19220214.810
        51.900          48.100
 111614537.832 8  86811346.876 7  20857842.767    20857842.860    20857850.008
        49.400          46.000
 104618076.441 8  81369651.081 8  19543529.780    19543529.943    19543535.349
        52.300          48.700
 25  1  1  9  6 15.0000000  0 28G10G24E08R04S31S35G13R12E13S48S33R02
                                R13E29G23R19G18E07G15R11E33E26G08G27
                                G32R18R17R03
 117068116.799 8  91221925.02647  22277318.667    22277318.0644   22277320.7184
        48.600          46.7004
 112782100.912 7  87882193.66047  21461712.530    21461712.1334   21461715.2004
        46.500          46.6004
 134880330.338 7                  25666864.100
        44.600
 115267056.802 8  89652203.206 7  21525311.202    21525311.473    21525317.993
        49.100          45.600
 198974477.335 7                  37863578.903
        45.800
 200954052.734 7                  38240291.291
        44.300
 132988917.679 5 103627745.95442  25306945.632    25306944.8684   25306945.5944
        35.600          15.0004
 125642460.050 7  97721943.924 7  23520529.345    23520529.603    23520538.711
        44.600          43.000
 129314209.747 7                  24607657.432
        46.000
 412741576.500 5                  78542175.139
        33.000
 202096714.791 7                  38457694.586
        45.300
 115405181.869 8  89759629.003 7  21626877.159    21626877.248    21626883.126
        50.600          46.300
 129616086.127 6                  24272928.387    24272927.402
        36.600
 134229682.556 7                  25543056.506
        44.200
 107394857.656 8  83684314.36146  20436556.423    20436556.0344   20436556.3204
        48.800          40.3004
 112902113.056 6  87812779.561 7  21105851.551    21105850.464    21105856.353
        38.700          43.400
 109211143.554 7  85099595.99346  20782184.348    20782183.9864   20782184.7964
        47.600          39.2004
 122120851.389 8                  23238818.991
        48.500
 116612006.134 7  90866517.08146  22190518.837    22190518.4084   22190518.8194
        44.900          41.9004
 130162001.381 6 101237133.086 6  24358047.930    24358047.638    24358055.375
        40.300          38.100
 138188968.750 7                  26296483.067
        42.400
 122919203.194 8                  23390743.480
        48.600
 129462603.310 6 100879964.76344  24635911.988    24635911.2194   24635914.5204
        38.000          28.4004
 121411171.861 7  94606123.11546  23103775.553    23103774.8744   23103777.4674
        42.700          38.9004
 123041096.011 7  95876186.36747  23413939.919    23413939.4544   23413942.7864
        45.500          42.0004
 102600473.506 8  79800410.882 8  19220518.141    19220518.533    19220524.300
        52.000          48.200
 111669140.519 8  86853815.623 7  20868047.040    20868047.067    20868054.058
        49.800          45.900
 104622718.749 8  81373261.792 8  19544396.726    19544397.076    19544402.517
        52.500          48.500
 25  1  1  9  6 30.0000000  0 28G10G24E08R04S31S35G13R12E13S48S33R02
                                R13E29G23R19G18E07G15R11E33E26G08G27
                                G32R18R17R03
 117039221.152 8  91199408.96347  22271819.705    22271819.0934   22271822.0404
        48.800          46.7004
 112767419.344 7  87870753.51347  21458918.788    21458918.3774   21458921.3574
        46.500          46.5004
 134915028.442 7                  25673467.006
        44.700
 115230266.380 8  89623588.462 7  21518440.763    21518440.803    21518447.341
        48.900          45.500
 198974476.932 7                  37863577.660
        45.800
 200954056.547 7                  38240288.948
        44.300
 133045384.373 6 103671745.95242  25317690.644    25317689.9254   25317690.7254
        38.000          15.0004
 125613015.883 7  97699043.004 7  23515017.677    23515017.621    23515026.529
        44.400          42.900
 129343316.352 7                  24613196.426
        46.200
 412741384.111 5                  78542144.857
        32.000
 202096694.127 7                  38457691.622
        45.100
 115450299.355 8  89794720.381 7  21635331.478    21635332.058    21635337.922
        50.200          46.300
 129564986.204 6                  24263358.747    24263357.181
        36.600
 134194138.501 7                  25536292.439
        44.100
 107392200.210 8  83682243.63446  20436050.956    20436050.5634   20436050.6194
        48.700          40.3004
 112854845.416 6  87776015.882 7  21097013.854    21097014.002    21097020.132
        38.800          43.600
 109236364.562 7  85119248.72146  20786983.488    20786983.1134   20786984.2164
        47.800          39.0004
 122120751.034 8                  23238799.978
        48.800
 116659350.630 7  90903408.90446  22199528.000    22199527.5714   22199528.1194
        44.800          41.7004
 130178406.789 6 101249892.899 6  24361118.276    24361118.310    24361125.484
        41.000          37.900
 138150537.961 7                  26289170.104
        42.600
 122909289.881 8                  23388856.809
        48.700
 129440423.382 6 100862681.70244  24631691.020    24631690.2564   24631693.1784
        40.100          28.6004
 121413827.441 7  94608192.42346  23104280.311    23104279.6184   23104282.6984
        42.700          38.8004
 122997011.439 7  95841834.78647  23405550.849    23405550.3804   23405553.6644
        45.800          42.0004
 102602332.086 8  79801856.435 8  19220866.584    19220866.783    19220872.460
        52.100          48.200
 111723866.092 8  86896379.933 7  20878274.005    20878273.775    20878280.462
        49.600          45.600
 104627468.751 8  81376956.263 8  19545283.984    19545284.304    19545289.804
        52.400          48.600
 25  1  1  9  6 45.0000000  0 28G10G24E08R04S31S35G13R12E13S48S33R02
                                R13E29G23R19G18E07G15R11E33E26G08G27
                                G32R18R17R03
 117010347.209 8  91176909.81747  22266325.325    22266324.7084   22266327.5124
        48.400          46.8004
 112752890.626 7  87859432.47247  21456154.221    21456153.8154   21456156.5624
        46.700          46.6004
 134949758.423 7                  25680076.026
        44.900
 115193558.730 8  89595038.094 7  21511586.047    21511586.132    21511592.348
        48.400          45.200
 198974473.963 7                  37863579.207
        45.900
 200954057.871 7                  38240289.158
        44.300
 133101846.060 6 103715742.10442  25328434.535    25328433.8424   25328435.0454
        37.600          14.3004
 125583700.311 7  97676242.107 7  23509529.808    23509530.283    23509538.533
        45.400          43.000
 129372488.978 7                  24618747.644
        46.400
 412741188.796 5                  78542129.631
        32.700
 202096669.937 7                  38457687.302
        45.000
 115495436.124 8  89829826.757 7  21643790.065    21643790.476    21643796.394
        49.700          46.100
 129513899.511 6                  24253791.810    24253791.178
        36.600
 134158644.248 7                  25529537.986
        44.500
 107389597.698 8  83680215.71246  20435555.522    20435555.1294   20435555.4144
        48.800          40.4004
 112807698.921 6  87739346.376 7  21088201.108    21088200.595    21088206.850
        38.500          43.400
 109261706.979 7  85138996.04646  20791805.834    20791805.4594   20791806.7404
        47.600          39.2004
 122120731.818 8                  23238796.414
        49.000
 116706739.469 7  90940335.27646  22208545.748    22208545.3514   22208545.9114
        44.600          41.7004
 130194977.760 6 101262781.912 6  24364218.674    24364218.571    24364226.545
        40.600          38.200
 138112125.513 7                  26281860.147
        42.500
 122899452.479 8                  23386984.816
        48.900
 129418362.270 6 100845491.24844  24627492.348    24627491.5884   24627495.5104
        39.900          29.2004
 121416622.673 7  94610370.54746  23104812.910    23104812.2264   23104814.5304
        43.500          38.9004
 122952982.677 7  95807526.69047  23397172.573    23397172.1044   23397175.2974
        45.800          42.1004
 102604388.945 8  79803456.210 8  19221251.860    19221252.090    19221257.901
        52.100          48.200
 111778706.012 8  86939033.163 7  20888521.603    20888522.073    20888528.880
        50.200          45.500
 104632318.563 8  81380728.343 8  19546189.957    19546190.286    19546195.920
        52.300          48.600
 25  1  1  9  7  0.0000000  0 28G10G24E08R04S31S35G13R12E13S48S33R02
                                R13E29G23R19G18E07G15R11E33E26G08G27
                                G32R18R17R03
 116981501.249 8  91154432.49247  22260836.095    22260835.4784   22260838.2734
        48.100          46.9004
 112738521.165 7  87848235.52647  21453419.223    21453418.8034   21453422.0944
        46.500          46.7004
 134984526.363 7                  25686691.855
        44.700
 115156940.277 8  89566557.129 7  21504747.286    21504747.358    21504754.445
        48.700          45.800
 198974474.073 7                  37863577.128
        46.000
 200954062.513 7                  38240286.229
        44.400
 133158308.588 6 103759738.89142  25339178.345    25339177.6174   25339179.6844
        37.200          13.9004
 125554520.188 7  97653546.566 7  23504066.050    23504066.251    23504075.159
        43.800          42.700
 129401733.807 7                  24624312.698
        46.100
 412740997.642 5                  78542098.947
        32.900
 202096650.029 7                  38457684.588
        45.300
 115540597.672 8  89864952.425 7  21652253.842    21652254.359    21652259.794
        50.500          46.200
 129462832.751 6                  24244228.087    24244228.126
        37.100
 134123206.124 7                  25522794.482
        44.400
 107387056.391 8  83678235.48746  20435072.005    20435071.6084   20435071.8174
        48.600          40.6004
 112760680.182 6  87702776.288 7  21079410.958    21079410.708    21079416.346
        38.000          43.400
 109287176.986 7  85158842.78946  20796653.005    20796652.6254   20796653.6034
        47.800          39.5004
 122120799.896 8                  23238809.194
        48.800
 116754178.637 7  90977300.86546  22217573.510    22217573.1354   22217573.3474
        44.700          41.7004
 130211718.586 6 101275802.568 6  24367351.831    24367351.958    24367358.510
        41.600          38.100
 138073737.848 7                  26274555.769
        42.600
 122889697.408 8                  23385128.346
        48.500
 129396426.355 6 100828398.34744  24623318.603    24623317.8214   24623321.4964
        39.700          29.4004
 121419563.789 7  94612662.34146  23105372.128    23105371.4264   23105374.1364
        42.600          38.8004
 122909016.121 7  95773267.07547  23388805.921    23388805.4524   23388808.8014
        45.500          42.5004
 102606650.443 8  79805215.167 8  19221675.096    19221675.718    19221681.480
        52.100          48.200
 111833666.360 8  86981780.084 7  20898792.167    20898792.638    20898799.155
        50.000          45.800
 104637273.990 8  81384582.597 8  19547115.871    19547116.060    19547121.541
        52.500          48.600
 25  1  1  9  7 15.0000000  0 28G10G24E08R04S31S35G13R12E13S48S33R02
                                R13E29G23R19G18E07G15R11E33E26G08G27
                                G32R18R17R03
 116952675.156 8  91131970.66447  22255350.823    22255350.2154   22255352.8084
        48.100          47.0004
 112724303.056 7  87837156.51447  21450713.929    21450713.5184   21450716.4714
        45.800          46.7004
 135019323.954 7                  25693313.744
        44.500
 115120402.796 8  89538139.109 7  21497923.923    21497924.699    21497931.080
        49.200          45.400
 198974469.484 7                  37863578.670
        46.000
 200954062.221 7                  38240287.656
        44.200
 133214763.441 6 103803729.70442  25349921.661    25349920.9554   25349922.9094
        36.700          14.6004
 125525467.561 7  97630950.211 7  23498626.131    23498626.952    23498636.829
        44.600          42.700
 129431042.695 7                  24629889.853
        46.100
 412740803.247 5                  78542079.795
        32.600
 202096624.832 7                  38457676.016
        45.200
 115585775.760 8  89900090.941 7  21660719.945    21660720.156    21660726.181
        50.400          46.100
 129411778.414 6                  24234668.001    24234666.205
        36.900
 134087816.090 7                  25516059.944
        44.000
 107384568.220 8  83676296.66846  20434598.416    20434598.0274   20434598.2954
        48.400          40.6004
 112713781.760 6  87666299.774 7  21070643.946    21070643.614    21070649.498
        38.300          43.500
 109312766.355 7  85178782.54446  20801522.558    20801522.1694   20801523.0884
        47.200          39.2004
 122120947.079 8                  23238837.411
        48.700
 116801659.718 7  91014299.11446  22226608.560    22226608.1854   22226608.5924
        44.500          41.7004
 130228621.578 6 101288949.322 6  24370515.238    24370514.929    24370522.389
        40.500          38.700
 138035366.996 7                  26267253.964
        42.000
 122880016.661 8                  23383286.270
        48.300
 129374607.682 6 100811396.82044  24619167.094    24619166.3124   24619169.2194
        39.300          28.9004
 121422642.518 7  94615061.37946  23105957.537    23105956.8274   23105959.9994
        42.300          38.9004
 122865103.784 7  95739049.71247  23380449.948    23380449.4754   23380452.5424
        45.200          42.4004
 102609108.542 8  79807127.048 8  19222135.463    19222136.219    19222141.874
        51.700          48.300
 111888738.454 8  87024613.927 7  20909083.758    20909084.270    20909090.818
        49.700          45.800
 104642326.631 8  81388512.454 8  19548059.560    19548059.894    19548065.376
        52.300          48.400
 25  1  1  9  7 30.0000000  0 28G10G24E08R04S31S35G13R12E13S48S33R02
                                R13E29G23R19G18E07G15R11E33E26G08G27
                                G32R18R17R03
 116923877.656 8  91109531.09347  22249870.714    22249870.1114   22249872.7414
        48.300          46.9004
 112710245.232 7  87826202.40147  21448039.032    21448038.6264   21448041.3954
        46.600          46.5004
 135054159.748 7                  25699942.966
        44.300
 115083954.993 8  89509790.834 7  21491117.860    21491118.433    21491124.681
        49.200          45.800
 198974469.516 7                  37863577.928
        45.800
 200954066.530 7                  38240289.145
        44.400
 133271219.251 6 103847721.23742  25360664.970    25360664.2464   25360666.2414
        36.600          14.2004
 125496551.946 7  97608460.361 7  23493215.023    23493215.345    23493223.233
        45.000          42.300
 129460424.273 7                  24635481.383
        45.800
 412740613.151 5                  78542057.043
        32.900
 202096604.159 7                  38457675.439
        45.300
 115630979.254 8  89935249.224 7  21669191.748    21669191.877    21669197.124
        50.800          45.900
 129360745.707 6                  24225110.735    24225109.712
        36.300
 134052482.943 7                  25509335.947
        43.900
 107382141.954 8  83674406.08146  20434136.705    20434136.3164   20434136.5954
        48.500          40.4004
 112667012.912 6  87629924.018 7  21061901.842    21061900.814    21061906.626
        39.000          43.700
 109338483.727 7  85198822.04146  20806416.145    20806415.7524   20806416.9494
        47.200          38.9004
 122121181.994 8                  23238881.909
        48.600
 116849191.256 7  91051336.68346  22235653.421    22235653.0414   22235653.5134
        45.200          41.4004
 130245695.540 6 101302228.890 6  24373710.294    24373710.556    24373716.827
        40.700          38.400
 137997021.901 7                  26259957.248
        42.300
 122870419.137 8                  23381459.939
        48.200
 129352915.010 6 100794493.44044  24615038.783    24615037.9884   24615040.6824
        40.000          28.3004
 121425867.528 7  94617574.39746  23106571.305    23106570.5904   23106573.7204
        42.200          38.9004
 122821254.527 7  95704881.49647  23372105.470    23372104.9924   23372108.1904
        45.900          42.2004
 102611772.031 8  79809198.666 8  19222634.804    19222635.078    19222640.871
        51.700          48.200
 111943930.548 8  87067541.072 7  20919398.252    20919398.233    20919405.237
        50.000          45.600
 104647485.248 8  81392524.723 8  19549023.675    19549023.654    19549029.086
        52.700          48.600
 25  1  1  9  7 45.0000000  0 28G10G24E08R04S31S35G13R12E13S48S33R02
                                R13E29G23R19G18E07G15R11E33E26G08G27
                                G32R18R17R03
 116895103.199 8  91087109.44147  22244395.318    22244394.7154   22244397.0654
        48.700          46.8004
 112696342.265 7  87815368.95347  21445393.034    21445392.6234   21445395.7234
        46.400          46.3004
 135089027.973 7                  25706578.268
        44.600
 115047591.369 8  89481508.049 7  21484327.013    21484327.657    21484333.578
        48.500          45.600
 198974468.159 7                  37863578.965
        45.900
 200954069.317 7                  38240288.165
        44.200
 133327670.189 6 103891708.92042  25371407.895    25371407.1584   25371408.5014
        40.300          16.3004
 125467768.063 7  97586073.037 7  23487824.950    23487825.721    23487834.928
        43.100          42.500
 129489872.954 7                  24641085.014
        45.700
 412740421.274 5                  78542035.248
        33.100
 202096582.256 7                  38457670.663
        45.200
 115676202.103 8  89970422.562 7  21677665.405    21677666.165    21677671.882
        50.100          46.000
 129309729.480 6                  24215557.407    24215557.133
        37.500
 134017201.229 7                  25502622.522
        44.100
 107379772.075 8  83672559.43046  20433685.883    20433685.5034   20433685.6054
        48.600          40.3004
 112620368.624 6  87593645.153 7  21053181.337    21053181.333    21053187.159
        38.700          43.800
 109364323.422 7  85218956.85746  20811333.655    20811333.2664   20811334.0654
        47.400          38.8004
 122121498.963 8                  23238942.254
        48.800
 116896767.236 7  91088408.88446  22244706.816    22244706.4324   22244706.9524
        44.300          41.2004
 130262934.462 6 101315636.791 6  24376935.939    24376935.982    24376943.684
        40.700          38.900
 137958697.203 7                  26252663.625
        42.500
 122860899.402 8                  23379648.394
        48.400
 129331343.080 6 100777684.15944  24610933.249    24610932.4364   24610935.8574
        39.600          28.0004
 121429233.109 7  94620196.95846  23107212.181    23107211.4844   23107214.2004
        43.000          38.9004
 122777462.902 7  95670758.18447  23363772.058    23363771.5764   23363774.7854
        45.900          42.2004
 102614635.384 8  79811425.729 8  19223171.351    19223171.422    19223177.157
        52.000          48.400
 111999236.610 8  87110556.865 7  20929733.342    20929733.619    20929740.293
        50.000          45.600
 104652744.138 8  81396614.986 8  19550005.793    19550006.038    19550011.439
        52.700          48.500
 25  1  1  9  8  0.0000000  0 28G10G24E08R04S31S35G13R12E13S48S33R02
                                R13E29G23R19G18E07G15R11E33E26G08G27
                                G32R18R17R03
 116866349.537 8  91064703.99147  22238923.488    22238922.8764   22238925.3914
        48.400          46.8004
 112682592.038 7  87804654.52147  21442776.378    21442775.9634   21442779.0374
        46.100          46.3004
 135123926.126 7                  25713218.971
        45.000
 115011309.602 8  89453288.930 7  21477551.967    21477552.228    21477558.887
        49.000          45.700
 198974462.262 7                  37863576.300
        46.100
 200954067.693 7                  38240289.301
        44.400
 133384113.702 6 103935690.91842  25382148.093    25382147.3564   25382149.1594
        36.000          14.5004
 125439113.760 7  97563786.474 7  23482461.203    23482461.643    23482470.259
        44.100          42.100
 129519386.294 7                  24646701.148
        46.200
 412740224.980 5                  78542013.212
        33.100
 202096556.505 7                  38457666.080
        45.400
 115721441.496 8  90005608.751 7  21686143.617    21686143.906    21686149.520
        50.200          46.000
 129258728.077 6                  24206005.235    24206004.817
        36.400
 133981968.682 7                  25495917.564
        44.500
 107377456.290 8  83670754.92846  20433245.096    20433244.7164   20433244.9404
        48.700          40.3004
 112573847.122 6  87557461.785 7  21044484.165    21044484.215    21044490.770
        38.400          43.800
 109390283.031 7  85239185.10746  20816273.481    20816273.1014   20816274.0284
        47.500          38.7004
 122121895.555 8                  23239017.662
        49.200
 116944384.731 7  91125513.43546  22253768.446    22253768.0714   22253768.2614
        45.200          41.2004
 130280336.305 6 101329171.419 6  24380193.318    24380193.774    24380200.474
        41.200          38.100
 137920390.682 7                  26245374.262
        42.900
 122851455.218 8                  23377851.195
        48.600
 129309889.633 6 100760967.22444  24606850.869    24606850.0744   24606853.9374
        39.000          28.4004
 121432736.840 7  94622927.16746  23107878.312    23107877.6104   23107880.7494
        43.200          39.0004
 122733726.763 7  95636678.11047  23355449.361    23355448.8884   23355452.1564
        46.000          42.3004
 102617696.208 8  79813806.384 8  19223744.645    19223744.997    19223750.612
        52.200          48.400
 112054653.896 8  87153659.174 7  20940089.315    20940089.602    20940096.369
        49.900          45.500
 104658100.250 8  81400780.862 8  19551006.130    19551006.640    19551011.826
        52.700          48.600
 25  1  1  9  8 15.0000000  0 28G10G24E08R04S31S35G13R12E13S48S33R02
                                R13E29G23R19G18E07G15R11E33E26G08G27
                                G32R18R17R03
 116837627.418 8  91042323.12847  22233458.017    22233457.4094   22233459.7894
        48.700          46.9004
 112669005.424 7  87794067.58347  21440191.121    21440190.7104   21440193.5144
        46.800          46.4004
 135158864.695 7                  25719867.577
        44.800
 114975120.553 8  89425141.919 7  21470794.017    21470794.041    21470800.758
        48.800          45.600
 198974463.902 7                  37863576.841
        46.000
 200954073.590 7                  38240289.529
        44.300
 133440560.404 6 103979675.32041  25392889.047    25392888.3054   25392890.3014
        37.500          11.3004
 125410600.502 7  97541609.593 7  23477123.823    23477123.456    23477132.721
        43.200          42.400
 129548974.978 7                  24652331.892
        46.100
 412740035.603 5                  78541986.901
        32.800
 202096536.836 7                  38457660.866
        45.200
 115766708.054 8  90040816.073 7  21694626.718    21694626.873    21694632.501
        49.200          46.000
 129207752.756 6                  24196461.817    24196460.089
        36.200
 133946796.061 7                  25489224.632
        44.300
 107375205.345 8  83669000.95746  20432816.735    20432816.3604   20432816.5814
        48.800          40.4004
 112527459.607 6  87521382.630 7  21035812.875    21035812.889    21035818.514
        38.800          43.600
 109416373.150 7  85259515.06946  20821238.237    20821237.8534   20821238.8264
        47.700          39.0004
 122122382.356 8                  23239110.231
        48.900
 116992054.742 7  91162658.90646  22262839.354    22262838.9614   22262839.6014
        45.000          41.2004
 130297910.789 6 101342839.994 6  24383481.509    24383481.646    24383489.276
        40.100          38.200
 137882113.240 7                  26238090.370
        42.500
 122842097.457 8                  23376070.407
        48.400
 129288565.540 6 100744351.07044  24602792.951    24602792.1604   24602796.5614
        39.500          28.5004
 121436389.301 7  94625773.26046  23108573.486    23108572.7714   23108575.6354
        42.700          38.9004
 122690056.907 7  95602649.68547  23347139.432    23347138.9634   23347142.0444
        45.700          42.3004
 102620965.398 8  79816349.072 8  19224357.054    19224357.292    19224363.094
        52.000          48.400
 112110192.676 8  87196855.970 7  20950467.920    20950468.100    20950475.198
        49.800          45.400
 104663564.512 8  81405030.858 8  19552026.976    19552027.270    19552032.657
        52.500          48.500
 25  1  1  9  8 30.0000000  0 28G10G24E08R04S31S35G13R12E13S48S33R02
                                R13E29G23R19G18E07G15R11E33E26G08G27
                                G32R18R17R03
 116808929.846 8  91019961.40847  22227996.690    22227996.0824   22227998.8694
        48.800          47.0004
 112655575.578 7  87783602.80247  21437634.914    21437634.4994   21437637.8794
        46.500          46.4004
 135193836.481 7                  25726522.335
        44.600
 114939017.062 8  89397061.476 7  21464052.263    21464052.046    21464058.799
        49.300          45.600
 198974465.142 7                  37863577.083
        46.100
 200954078.826 7                  38240290.003
        44.400
 133497002.757 6 104023656.36042  25403630.861    25403630.1244   25403631.1474
        36.900          15.7004
 125382221.536 7  97519537.190 7  23471811.269    23471811.991    23471820.218
        44.700          42.400
 129578631.863 7                  24657975.291
        46.200
 412739847.328 5                  78541963.005
        33.200
 202096519.046 7                  38457657.597
        45.200
 115811994.744 8  90076039.062 7  21703113.793    21703113.467    21703118.880
        49.900          45.900
 129156797.038 6                  24186917.686    24186919.176
        37.600
 133911676.438 7                  25482541.688
        44.500
 107373012.268 8  83667292.07746  20432399.440    20432399.0654   20432399.2314
        49.000          40.5004
 112481199.387 6  87485402.510 7  21027164.339    21027164.517    21027170.946
        38.100          43.700
 109442586.612 7  85279941.13346  20826226.604    20826226.2204   20826227.0914
        47.700          38.8004
 122122952.251 8                  23239218.912
        49.000
 117039769.826 7  91199839.49946  22271919.503    22271919.1014   22271919.4314
        45.400          41.3004
 130315652.180 6 101356638.786 6  24386802.032    24386802.117    24386810.060
        40.400          38.400
 137843858.000 7                  26230810.640
        42.500
 122832819.215 8                  23374304.800
        48.700
 129267363.908 6 100727830.35444  24598758.679    24598757.8974   24598761.6594
        39.100          28.6004
 121440183.313 7  94628729.65446  23109295.709    23109294.9814   23109297.7174
        43.100          38.8004
 122646446.467 7  95568667.55647  23338840.327    23338839.8584   23338842.9584
        45.800          42.4004
 102624436.032 8  79819048.463 8  19225007.212    19225007.511    19225013.174
        52.300          48.500
 112165845.532 8  87240141.501 7  20960868.133    20960868.571    20960875.275
        49.800          45.700
 104669129.347 8  81409359.085 8  19553066.664    19553066.868    19553072.243
        52.500          48.600
 25  1  1  9  8 45.0000000  0 28G10G24E08R04S31S35G13R12E13S48S33R02
                                R13E29G23R19G18E07G15R11E33E26G08G27
                                G32R18R17R03
 116780252.910 8  90997615.75247  22222539.942    22222539.3304   22222541.7994
        48.200          47.1004
 112642298.779 7  87773257.27647  21435108.599    21435108.1844   21435111.3814
        46.100          46.5004
 135228837.387 7                  25733182.828
        44.600
 114902995.073 8  89369044.420 7  21457324.624    21457324.955    21457331.645
        48.900          45.500
 198974461.763 7                  37863576.412
        46.000
 200954079.538 7                  38240291.358
        44.200
 133553436.693 6 104067630.78742  25414370.018    25414369.3124   25414370.1294
        36.900          13.9004
 125353973.346 7  97497566.521 7  23466523.854    23466523.631    23466531.903
        44.200          42.100
 129608353.026 7                  24663631.134
        45.700
 412739654.863 5                  78541947.529
        32.700
 202096495.249 7                  38457653.631
        45.100
 115857296.939 8  90111274.116 7  21711603.245    21711603.348    21711608.980
        49.900          46.100
 129105857.486 6                  24177378.171    24177377.708
        36.400
 133876605.986 7                  25475867.682
        44.200
 107370873.188 8  83665625.27146  20431992.270    20431991.8904   20431992.1794
        48.800          40.5004
 112435063.326 6  87449518.947 7  21018540.184    21018539.794    21018546.309
        38.100          43.900
 109468919.456 7  85300460.21946  20831237.625    20831237.2414   20831238.1074
        47.100          38.8004
 122123601.250 8                  23239342.195
        48.700
 117087525.641 7  91237051.82846  22281007.055    22281006.6584   22281007.0434
        44.800          41.2004
 130333556.372 6 101370564.709 6  24390152.848    24390153.450    24390160.409
        41.500          39.500
 137805621.269 7                  26223534.578
        42.400
 122823616.743 8                  23372553.819
        48.300
 129246280.918 6 100711402.05844  24594746.698    24594745.9254   24594749.0674
        39.700          28.7004
 121444114.925 7  94631793.27746  23110043.120    23110042.3784   23110046.0434
        42.200          38.8004
 122602891.640 7  95534728.76947  23330552.316    23330551.8514   23330554.7614
        45.900          42.6004
 102628104.056 8  79821901.375 8  19225694.564    19225694.951    19225700.409
        52.400          48.700
 112221608.100 8  87283512.385 7  20971288.197    20971288.694    20971295.828
        48.900          45.500
 104674790.609 8  81413762.304 8  19554124.236    19554124.479    19554129.880
        52.700          48.700
 25  1  1  9  9  0.0000000  0 28G10G24E08R04S31S35G13R12E13S48S33R02
                                R13E29G23R19G18E07G15R11E33E26G08G27
                                G32R18R17R03
 116751602.142 8  90975290.48047  22217087.810    22217087.1984   22217089.6984
        48.200          47.2004
 112629180.658 7  87763035.39247  21432612.394    21432611.9834   21432615.0534
        46.100          46.4004
 135263872.639 7                  25739849.918
        44.100
 114867060.460 8  89341095.272 7  21450614.280    21450614.843    21450620.513
        49.000          45.300
 198974460.542 7                  37863574.458
        45.800
 200954083.224 7                  38240290.048
        44.200
 133609867.866 6 104111603.22442  25425108.305    25425107.5864   25425108.6324
        39.300          14.1004
 125325861.835 7  97475702.097 6  23461260.074    23461260.115    23461268.701
        42.900          41.700
 129638143.832 7                  24669300.068
        45.900
 412739462.269 5                  78541919.393
        33.000
 202096473.389 7                  38457653.192
        45.400
 115902619.961 8  90146525.344 7  21720096.517    21720096.493    21720102.572
        49.600          46.100
 129054939.874 6                  24167843.867    24167843.731
        38.200
 133841590.243 7                  25469204.680
        44.100
 107368793.592 8  83664004.81946  20431596.812    20431596.4374   20431596.4144
        48.800          40.5004
 112389057.149 6  87413736.372 7  21009939.920    21009939.818    21009945.934
        38.800          44.000
 109495377.006 7  85321076.48746  20836272.109    20836271.7344   20836272.8194
        47.200          38.9004
 122124334.686 8                  23239481.780
        48.500
 117135327.441 7  91274299.99146  22290103.434    22290103.0544   22290103.4054
        44.800          41.1004
 130351626.012 6 101384618.389 6  24393533.686    24393533.850    24393541.842
        39.600          38.800
 137767408.676 7                  26216262.892
        42.400
 122814495.630 8                  23370817.955
        48.300
 129225322.189 6 100695070.58944  24590757.935    24590757.1534   24590760.4654
        38.900          28.2004
 121448189.423 7  94634968.23946  23110819.107    23110818.3654   23110821.3734
        42.300          38.8004
 122559398.043 7  95500837.68647  23322275.580    23322275.1204   23322278.2084
        46.200          42.6004
 102631975.118 8  79824912.193 8  19226419.356    19226419.850    19226425.563
        52.000          48.800
 112277485.242 8  87326972.349 7  20981730.723    20981730.832    20981737.742
        49.200          45.600
 104680553.584 8  81418244.626 8  19555200.837    19555200.999    19555206.450
        52.700          48.600
 25  1  1  9  9 15.0000000  0 28G10G24E08R04S31S35G13R12E13S48S33R02
                                R13E29G23R19G18E07G15R11E33E26G08G27
                                G32R18R17R03
 116722975.838 8  90952984.27247  22211640.495    22211639.8924   22211642.3364
        48.800          47.1004
 112616219.660 7  87752935.94347  21430146.043    21430145.6284   21430148.6004
        46.300          46.3004
 135298940.368 7                  25746523.231
        44.300
 114831211.145 8  89313212.526 7  21443920.356    21443919.974    21443926.329
        49.400          45.200
 198974458.576 7                  37863575.893
        45.900
 200954085.140 7                  38240290.929
        44.300
 133666293.993 6 104155571.63842  25435845.734    25435845.0244   25435845.8924
        36.600          15.4004
 125297885.753 7  97453943.061 6  23456023.313    23456023.099    23456031.384
        44.400          41.700
 129668002.510 7                  24674981.846
        45.600
 412739270.728 5                  78541896.905
        32.800
 202096451.658 7                  38457648.582
        45.400
 115947962.276 8  90181791.614 7  21728593.547    21728593.519    21728599.259
        49.600          45.900
 129004043.563 6                  24158312.052    24158312.485
        37.200
 133806627.576 7                  25462551.439
        43.600
 107366771.825 8  83662429.43246  20431211.842    20431211.4584   20431211.6894
        48.500          40.4004
 112343179.619 6  87378053.882 7  21001363.165    21001363.295    21001369.630
        38.500          44.200
 109521957.429 7  85341788.49146  20841330.246    20841329.8664   20841330.9134
        47.100          38.7004
 122125150.773 8                  23239637.073
        48.600
 117183173.249 7  91311582.44746  22299207.920    22299207.5314   22299208.0894
        44.900          41.1004
 130369861.673 6 101398801.498 6  24396946.277    24396946.610    24396954.857
        40.200          39.400
 137729218.689 7                  26208995.538
        42.400
 122805454.263 8                  23369097.581
        48.300
 129204486.169 6 100678834.75444  24586793.058    24586792.2544   24586795.9514
        39.100          28.5004
 121452405.021 7  94638253.14646  23111621.421    23111620.6844   23111623.5554
        42.300          38.6004
 122515964.092 7  95466993.08747  23314010.456    23314009.9834   23314013.0134
        46.100          42.6004
 102636047.417 8  79828079.546 8  19227182.601    19227182.844    19227188.436
        52.400          48.800
 112333474.764 8  87370519.744 7  20992193.370    20992193.937    20992200.722
        49.100          45.500
 104686416.472 8  81422804.681 8  19556296.195    19556296.274    19556301.514
        52.800          48.500
 25  1  1  9  9 30.0000000  0 28G10G24E08R04S31S35G13R12E13S48S33R02
                                R13E29G23R19G18E07G15R11E33E26G08G27
                                G32R18R17R03
 116694373.390 8  90930696.65547  22206197.535    22206196.9324   22206199.4864
        48.200          47.3004
 112603415.319 7  87742958.57047  21427709.321    21427708.9064   21427711.9954
        46.100          46.4004
 135334039.713 7                  25753202.145
        44.100
 114795446.707 8  89285395.765 7  21437240.998    21437241.754    21437247.156
        49.800          45.300
 198974455.206 7                  37863573.385
        45.800
 200954085.780 7                  38240290.656
        44.400
 133722714.180 6 104199535.42042  25446582.178    25446581.4994   25446582.2584
        38.500          14.9004
 125270044.766 7  97432289.062 6  23450811.045    23450811.543    23450819.279
        43.900          41.200
 129697928.336 7                  24680676.779
        45.400
 412739076.956 5                  78541878.442
        33.100
 202096428.229 7                  38457641.732
        45.200
 115993322.466 8  90217071.761 7  21737094.009    21737094.342    21737100.086
        49.800          46.200
 128953167.864 5                  24148784.563    24148782.867
        35.400
 133771717.401 7                  25455908.067
        43.900
 107364807.262 8  83660898.62346  20430838.216    20430837.8454   20430837.8614
        48.500          40.5004
 112297430.644 6  87342471.381 7  20992810.352    20992810.954    20992817.263
        38.400          44.000
 109548659.987 7  85362595.67146  20846411.548    20846411.1644   20846412.2284
        47.100          38.7004
 122126048.708 8                  23239807.908
        48.400
 117231062.086 7  91348898.43146  22308320.933    22308320.5494   22308320.9664
        45.200          41.3004
 130388260.658 6 101413111.057 6  24400390.633    24400390.868    24400398.641
        40.700          39.000
 137691050.783 7                  26201732.426
        42.100
 122796492.140 8                  23367391.994
        48.100
 129183772.317 6 100662694.06944  24582851.736    24582850.9364   24582854.3864
        40.100          28.5004
 121456760.900 7  94641647.36746  23112449.875    23112449.1244   23112452.4074
        42.600          38.7004
 122472589.239 7  95433194.52947  23305756.428    23305755.9594   23305758.9164
        45.800          42.8004
 102640320.470 8  79831403.037 8  19227982.827    19227983.331    19227989.017
        52.000          48.600
 112389575.845 8  87414153.878 7  21002677.964    21002678.313    21002684.740
        49.800          45.600
 104692378.472 8  81427441.809 8  19557409.711    19557410.048    19557415.293
        52.600          48.600
 25  1  1  9  9 45.0000000  0 27G10G24E08R04S31S35R12E13S48S33R02R13
                                E29G23R19G18E07G15R11E33E26G08G27G32
                                R18R17R03
 116665796.856 8  90908429.24447  22200759.680    22200759.0774   22200761.5144
        48.600          47.2004
 112590769.807 7  87733104.96147  21425303.101    21425302.6864   21425305.6184
        46.200          46.3004
 135369172.500 7                  25759887.853
        44.400
 114759768.983 8  89257646.456 7  21430578.249    21430578.969    21430585.046
        50.200          45.500
 198974453.442 7                  37863573.009
        45.600
 200954089.296 7                  38240291.407
        44.200
 125242341.360 7  97410742.077 6  23445624.694    23445625.516    23445633.391
        44.100          41.800
 129727923.249 7                  24686384.431
        45.800
 412738884.815 5                  78541843.545
        32.900
 202096406.771 7                  38457638.150
        45.100
 116038702.411 8  90252367.276 7  21745598.113    21745598.250    21745604.124
        49.200          45.700
 128902315.499 6                  24139262.532    24139261.083
        36.700
 133736861.775 7                  25449275.415
        44.200
 107362901.954 8  83659413.98546  20430475.327    20430474.9564   20430475.2174
        48.900          40.4004
 112251812.882 6  87306990.922 7  20984282.888    20984283.096    20984288.922
        38.300          44.000
 109575486.546 7  85383499.47346  20851516.515    20851516.1224   20851517.1804
        47.400          38.7004
 122127030.435 8                  23239994.627
        48.800
 117278995.597 7  91386249.22846  22317442.315    22317441.9094   22317442.4674
        45.200          41.2004
 130406828.044 6 101427552.594 6  24403865.438    24403865.614    24403872.698
        40.600          38.200
 137652907.173 7                  26194473.923
        42.500
 122787611.368 8                  23365701.993
        48.400
 129163182.783 6 100646650.29544  24578933.837    24578933.0374   24578936.4974
        39.600          28.3004
 121461258.950 7  94645152.36146  23113305.524    23113304.7554   23113308.2974
        43.000          38.7004
 122429275.622 7  95399443.69347  23297514.226    23297513.7704   23297516.7504
        46.200          42.7004
 102644796.273 8  79834884.217 8  19228821.752    19228821.827    19228827.531
        52.200          48.600
 112445789.734 8  87457875.792 7  21013182.342    21013182.266    21013189.324
        49.000          45.500
 104698440.888 8  81432157.030 8  19558542.585    19558542.554    19558547.745
        52.800          48.700
 25  1  1  9 10  0.0000000  0 27G10G24E08R04S31S35R12E13S48S33R02R13
                                E29G23R19G18E07G15R11E33E26G08G27G32
                                R18R17R03
 116637243.443 8  90886179.87147  22195326.024    22195325.4214   22195327.9564
        48.700          47.2004
 112578280.437 7  87723373.02247  21422926.410    21422926.0044   21422928.9604
        46.100          46.3004
 135404335.663 7                  25766578.956
        44.500
 114724175.240 8  89229962.477 7  21423932.020    21423932.327    21423937.828
        49.300          45.200
 198974450.133 7                  37863571.958
        45.700
 200954089.008 7                  38240292.999
        44.000
 125214773.064 7  97389300.195 6  23440464.113    23440463.592    23440472.347
        43.600          41.600
 129757984.328 7                  24692105.158
        46.000
 412738691.454 5                  78541822.198
        32.400
 202096382.811 7                  38457633.929
        45.000
 116084099.234 8  90287675.931 7  21754105.608    21754105.763    21754111.542
        49.800          46.000
 128851484.225 6                  24129744.186    24129743.521
        36.700
 133702057.956 7                  25442651.996
        44.300
 107361053.088 8  83657973.32946  20430123.471    20430123.0964   20430123.3634
        48.600          40.4004
 112206323.611 6  87271610.391 7  20975779.568    20975779.439    20975785.658
        38.600          44.000
 109602434.182 7  85404497.62246  20856644.566    20856644.1734   20856645.2234
        47.300          38.6004
 122128092.960 8                  23240196.856
        48.900
 117326970.712 7  91423632.44446  22326571.826    22326571.4294   22326571.7504
        45.000          41.0004
 130425558.469 6 101442120.886 6  24407369.363    24407369.452    24407377.704
        40.400          38.400
 137614785.192 7                  26187219.792
        42.500
 122778809.272 8                  23364026.986
        48.400
 129142714.869 6 100630701.29144  24575038.109    24575037.2784   24575041.4104
        39.400          28.4004
 121465896.200 7  94648765.83246  23114188.225    23114187.4524   23114190.7454
        42.700          38.9004
 122386020.570 7  95365738.48647  23289283.247    23289282.7824   23289285.6204
        45.900          42.7004
 102649471.889 8  79838520.803 8  19229697.076    19229697.653    19229703.424
        52.200          48.800
 112502113.375 8  87501683.043 7  21023708.145    21023708.368    21023715.005
        49.300          45.400
 104704601.320 8  81436948.501 8  19559693.182    19559693.411    19559698.445
        52.900          48.600
 25  1  1  9 10 15.0000000  0 27G10G24E08R04S31S35R12E13S48S33R02R13
                                E29G23R19G18E07G15R11E33E26G08G27G32
                                R18R17R03
 116608716.597 8  90863951.19847  22189897.502    22189896.9034   22189899.4694
        48.700          47.3004
 112565950.864 7  87713765.60147  21420580.064    21420579.6584   21420582.6904
        46.100          46.3004
 135439532.535 7                  25773276.757
        44.300
 114688669.035 8  89202346.561 7  21417300.965    21417301.823    21417307.543
        50.000          45.500
 198974447.270 7                  37863573.698
        45.600
 200954091.156 7                  38240291.756
        44.200
 125187343.788 7  97367966.376 6  23435329.173    23435329.673    23435337.431
        44.700          41.500
 129788114.999 7                  24697838.509
        45.500
 412738499.265 5                  78541802.031
        32.800
 202096360.551 7                  38457628.129
        45.200
 116129515.935 8  90323000.033 7  21762616.335    21762616.812    21762622.668
        49.600          46.000
 128800678.011 6                  24120228.487    24120228.320
        37.400
 133667309.473 7                  25436039.735
        44.300
 107359264.185 8  83656579.39446  20429783.151    20429782.7804   20429782.9164
        48.700          40.4004
 112160967.115 6  87236333.135 7  20967301.301    20967301.050    20967306.433
        39.200          44.200
 109629506.224 7  85425592.71546  20861796.151    20861795.7544   20861796.8364
        47.500          38.8004
 122129239.703 8                  23240415.083
        48.800
 117374990.560 7  91461050.51846  22335709.768    22335709.3794   22335709.6674
        44.200          40.9004
 130444455.404 6 101456818.629 6  24410906.253    24410907.177    24410914.449
        40.800          38.500
 137576688.499 7                  26179969.925
        43.100
 122770089.457 8                  23362367.706
        48.300
 129122372.173 6 100614849.84944  24571167.193    24571166.3714   24571169.9384
        39.500          28.6004
 121470676.023 7  94652490.39046  23115097.597    23115096.8194   23115100.2964
        42.700          38.8004
 122342827.643 7  95332081.69547  23281063.612    23281063.1614   23281066.1834
        45.900          42.7004
 102654350.995 8  79842315.659 8  19230611.329    19230611.782    19230617.526
        52.300          48.900
 112558549.493 8  87545577.770 7  21034254.304    21034254.542    21034261.144
        49.600          45.200
 104710862.417 8  81441818.257 8  19560862.765    19560863.022    19560868.128
        52.800          48.700
 25  1  1  9 10 30.0000000  0 27G10G24E08R04S31S35R12E13S48S33R02R13
                                E29G23R19G18E07G15R11E33E26G08G27G32
                                R18R17R03
 116580215.623 8  90841742.66847  22184474.074    22184473.4844   22184475.8834
        48.700          47.4004
 112553780.470 7  87704282.20647  21418264.252    21418263.8464   21418266.7124
        46.100          46.4004
 135474762.134 7                  25779980.650
        44.000
 114653249.610 8  89174798.179 7  21410686.522    21410687.135    21410692.864
        49.600          45.300
 198974445.976 7                  37863574.194
        45.900
 200954094.152 7                  38240293.679
        44.100
 125160053.252 7  97346740.534 6  23430220.212    23430220.504    23430228.007
        45.200          41.000
 129818314.410 7                  24703585.396
        45.300
 412738309.414 5                  78541784.073
        33.000
 202096339.310 7                  38457624.288
        45.100
 116174951.622 8  90358338.931 7  21771130.838    21771131.582    21771137.469
        49.900          46.100
 128749896.770 6                  24110719.381    24110718.752
        38.100
 133632615.688 7                  25429437.722
        43.800
 107357534.522 8  83655231.61946  20429454.093    20429453.7094   20429453.7914
        48.700          40.4004
 112115743.230 6  87201159.046 7  20958845.143    20958846.424    20958852.513
        39.100          44.200
 109656701.822 7  85446784.08346  20866971.118    20866970.7074   20866971.9794
        47.200          38.6004
 122130469.761 8                  23240649.299
        48.700
 117423054.218 7  91498502.72646  22344856.161    22344855.7904   22344855.9284
        45.100          41.0004
 130463519.013 6 101471646.575 6  24414472.857    24414473.032    24414480.836
        39.300          39.300
 137538616.526 7                  26172724.777
        42.400
 122761451.275 8                  23360723.957
        48.100
 129102154.113 6 100599095.54544  24567320.005    24567319.1924   24567322.6304
        39.900          29.2004
 121475597.496 7  94656325.33446  23116034.508    23116033.7264   23116036.8464
        42.300          38.8004
 122299696.227 7  95298472.82747  23272855.976    23272855.5204   23272858.4844
        46.100          42.9004
 102659432.810 8  79846268.191 8  19231563.203    19231563.679    19231569.428
        52.200          48.700
 112615097.330 8  87589559.399 7  21044822.093    21044822.363    21044829.081
        49.800          45.800
 104717223.407 8  81446765.717 8  19562050.917    19562051.315    19562056.537
        53.000          48.700
 25  1  1  9 10 45.0000000  0 27G10G24E08R04S31S35R12E13S48S33R02R13
                                E29G23R19G18E07G15R11E33E26G08G27G32
                                R18R17R03
 116551736.360 8  90819551.05947  22179054.302    22179053.7084   22179056.4154
        48.300          47.6004
 112541765.252 7  87694919.72347  21415977.976    21415977.5654   21415980.2374
        45.800          46.5004
 135510020.121 7                  25786689.993
        43.800
 114617912.705 8  89147313.968 7  21404087.378    21404087.704    21404093.983
        49.200          45.200
 198974441.907 7                  37863570.568
        45.900
 200954093.520 7                  38240293.661
        44.200
 125132897.530 7  97325619.507 6  23425136.481    23425136.287    23425144.457
        43.600          41.400
 129848578.336 7                  24709344.390
        45.500
 412739716.610 5                  78541759.461
        33.200
 202096314.321 7                  38457620.098
        45.100
 116220401.715 8  90393689.008 7  21779647.851    21779648.301    21779654.461
        49.200          45.900
 128699136.751 6                  24101213.814    24101212.803
        37.300
 133597972.447 7                  25422845.546
        44.000
 107355860.000 8  83653926.80746  20429135.240    20429134.8564   20429135.1084
        48.500          40.5004
 112070648.100 6  87166085.098 7  20950415.780    20950415.787    20950422.230
        38.600          44.200
 109684016.678 7  85468068.37746  20872169.184    20872168.7824   20872169.8164
        47.000          38.6004
 122131778.875 8                  23240898.174
        48.500
 117471157.238 7  91535985.60846  22354009.411    22354009.0364   22354009.6134
        44.900          41.1004
 130482742.940 6 101486598.693 6  24418071.364    24418071.503    24418077.796
        41.900          38.300
 137500565.225 7                  26165484.144
        42.100
 122752890.709 8                  23359094.944
        48.000
 129082056.605 6 100583435.17444  24563495.484    24563494.6974   24563498.4934
        39.600          29.0004
 121480656.358 7  94660267.32346  23116997.110    23116996.3234   23116999.4754
        42.600          38.7004
 122256622.269 7  95264908.73247  23264659.385    23264658.9384   23264661.7234
        45.900          43.1004
 102664713.126 8  79850375.100 8  19232552.381    19232552.918    19232558.595
        52.200          48.600
 112671751.623 8  87633623.834 7  21055409.399    21055409.341    21055416.229
        49.900          45.200
 104723679.743 8  81451787.334 8  19563256.878    19563257.312    19563262.583
        52.700          48.700
 25  1  1  9 11  0.0000000  0 27G10G24E08R04S31S35R12E13S48S33R02R13
                                E29G23R19G18E07G15R11E33E26G08G27G32
                                R18R17R03
 116523285.596 8  90797381.67247  22173640.508    22173639.9184   22173642.3534
        48.800          47.5004
 112529912.115 7  87685683.54547  21413722.264    21413721.8584   21413724.5994
        46.400          46.5004
 135545313.039 7                  25793405.994
        44.000
 114582665.152 8  89119899.208 7  21397505.136    21397506.133    21397511.933
        50.000          45.800
 198974439.595 7                  37863569.074
        45.800
 200954095.943 7                  38240292.132
        44.200
 125105883.990 7  97304609.068 6  23420079.449    23420079.302    23420088.228
        43.300          41.500
 129878913.425 7                  24715116.919
        45.300
 412739526.584 5                  78541737.698
        32.800
 202096293.252 7                  38457617.124
        45.400
 116265872.942 8  90429055.524 7  21788169.808    21788169.864    21788175.764
        48.800          45.600
 128648405.159 6                  24091713.401    24091712.233
        37.700
 133563386.577 7                  25416263.957
        43.600
 107354247.352 8  83652670.21146  20428828.425    20428828.0454   20428828.2384
        48.900          40.4004
 112025689.052 6  87131116.965 7  20942012.536    20942011.918    20942017.691
        38.900          44.200
 109711457.414 7  85489450.76046  20877391.250    20877390.8484   20877391.6204
        47.200          38.7004
 122133173.662 8                  23241163.681
        48.600
 117519305.976 7  91573504.11546  22363171.897    22363171.5314   22363171.8554
        45.200          41.0004
 130502133.834 6 101501680.241 6  24421700.136    24421699.675    24421707.148
        41.000          39.200
 137462541.575 7                  26158248.538
        42.200
 122744414.581 8                  23357481.755
        48.100
 129062086.491 6 100567874.08544  24559695.448    24559694.6574   24559698.2224
        40.300          29.0004
 121485859.193 7  94664321.49946  23117987.051    23117986.2564   23117989.4654
        42.400          38.8004
 122213612.624 7  95231394.74247  23256474.840    23256474.3934   23256477.2674
        45.700          43.0004
 102670198.818 8  79854641.742 8  19233580.273    19233580.470    19233586.192
        52.100          48.600
 112728519.195 8  87677776.387 7  21066017.332    21066017.608    21066024.264
        49.100          44.800
 104730238.138 8  81456888.318 8  19564482.162    19564482.452    19564487.777
        52.700          48.600
 25  1  1  9 11 15.0000000  0 27G10G24E08R04S31S35R12E13S48S33R02R13
                                E29G23R19G18E07G15R11E33E26G08G27G32
                                R18R17R03
 116494860.673 8  90775232.42347  22168231.397    22168230.8034   22168233.2064
        48.900          47.5004
 112518218.544 7  87676571.70747  21411496.876    21411496.4614   21411499.3274
        46.200          46.4004
 135580637.934 7                  25800127.919
        44.000
 114547504.408 8  89092552.020 7  21390938.946    21390939.341    21390945.624
        49.200          45.300
 198974439.056 7                  37863568.386
        45.900
 200954099.902 7                  38240296.585
        44.400
 125079010.245 7  97283707.354 6  23415048.539    23415048.928    23415056.396
        44.700          41.200
 129909316.919 7                  24720902.713
        45.600
 412739337.054 5                  78541709.813
        33.200
 202096272.655 7                  38457612.080
        45.300
 116311362.210 8  90464436.067 7  21796694.067    21796694.212    21796700.675
        48.700          45.900
 128597699.827 6                  24082217.322    24082216.621
        36.900
 133528855.441 7                  25409692.834
        43.900
 107352693.957 8  83651459.78546  20428532.910    20428532.5264   20428532.6374
        48.800          40.3004
 111980863.800 6  87096252.904 7  20933631.288    20933631.910    20933638.317
        38.600          44.300
 109739021.191 7  85510929.02346  20882636.186    20882635.7844   20882636.8604
        47.400          38.7004
 122134651.330 8                  23241444.807
        48.500
 117567497.321 7  91611055.82846  22372342.954    22372342.5974   22372342.2464
        44.400          40.8004
 130521689.994 6 101516890.625 6  24425359.007    24425359.032    24425366.845
        39.700          38.300
 137424543.020 7                  26151017.494
        42.600
 122736020.340 8                  23355884.639
        48.100
 129042241.233 6 100552410.29544  24555918.855    24555918.0464   24555921.2674
        39.600          28.9004
 121491203.161 7  94668485.65446  23119004.266    23119003.4754   23119006.3034
        43.100          39.0004
 122170664.747 7  95197928.88747  23248302.046    23248301.6084   23248304.6264
        46.200          43.1004
 102675887.069 8  79859065.956 8  19234645.494    19234646.013    19234651.731
        51.200          48.700
 112785396.681 8  87722014.425 7  21076646.242    21076646.414    21076653.391
        49.400          45.400
 104736895.483 8  81462066.281 8  19565725.992    19565726.090    19565731.393
        52.400          48.700
 25  1  1  9 11 30.0000000  0 27G10G24E08R04S31S35R12E13S48S33R02R13
                                E29G23R19G18E07G15R11E33E26G08G27G32
                                R18R17R03
 116466459.713 8  90753101.83547  22162826.679    22162826.0764   22162828.6784
        48.900          47.6004
 112506682.792 7  87667582.84747  21409301.692    21409301.2724   21409304.1234
        46.300          46.5004
 135615992.784 7                  25806855.779
        44.100
 114512428.235 8  89065270.587 7  21384388.989    21384390.109    21384395.104
        50.100          45.300
 198974437.322 7                  37863569.714
        45.500
 200954101.646 7                  38240296.478
        44.100
 125052274.870 7  97262913.263 6  23410044.289    23410044.382    23410051.760
        45.000          41.400
 129939786.857 7                  24726700.845
        45.500
 412739147.469 5                  78541689.909
        32.800
 202096251.211 7                  38457606.701
        44.900
 116356867.443 8  90499829.028 7  21805221.672    21805222.258    21805228.243
        49.200          45.900
 128547019.442 6                  24072727.251    24072726.926
        37.600
 133494377.272 7                  25403131.890
        44.000
 107351197.979 8  83650294.10346  20428248.446    20428248.0624   20428247.9074
        48.900          40.4004
 111936171.041 6  87061491.909 7  20925276.831    20925277.434    20925283.099
        38.400          44.100
 109766706.051 7  85532501.63646  20887904.391    20887903.9894   20887905.1204
        47.400          38.6004
 122136209.881 8                  23241741.388
        48.500
 117615729.331 7  91648639.22746  22381521.216    22381520.8724   22381520.6224
        44.700          40.8004
 130541407.861 6 101532226.129 6  24429051.105    24429051.157    24429057.347
        41.200          38.900
 137386567.855 7                  26143790.937
        42.400
 122727706.253 8                  23354302.449
        48.200
 129022519.059 6 100537042.40144  24552165.898    24552165.0854   24552168.2614
        39.700          29.3004
 121496686.279 7  94672758.23846  23120047.614    23120046.8194   23120049.7524
        42.500          38.9004
 122127776.864 7  95164509.77747  23240140.579    23240140.1104   23240143.3024
        46.500          43.1004
 102681776.102 8  79863646.305 8  19235749.313    19235749.413    19235755.054
        52.200          48.600
 112842381.663 8  87766336.054 7  21087295.578    21087295.543    21087302.229
        49.500          45.200
 104743649.881 8  81467319.724 8  19566987.487    19566987.777    19566993.276
        52.200          48.700
 25  1  1  9 11 45.0000000  0 27G10G24E08R04S31S35R12E13S48S33R02R13
                                E29G23R19G18E07G15R11E33E26G08G27G32
                                R18R17R03
 116438082.628 8  90730989.82647  22157427.005    22157426.3974   22157428.6794
        48.900          47.4004
 112495304.907 7  87658717.00347  21407136.404    21407135.9844   21407138.9544
        46.500          46.4004
 135651377.311 7                  25813589.374
        43.700
 114477436.700 8  89038055.017 7  21377854.271    21377854.859    21377860.856
        49.100          45.400
 198974433.735 7                  37863568.815
        45.600
 200954103.186 7                  38240295.038
        44.100
 125025678.059 7  97242227.006 6  23405063.674    23405064.171    23405072.345
        44.000          40.900
 129970323.092 7                  24732511.831
        45.400
 412738955.845 5                  78541671.840
        32.500
 202096228.493 7                  38457604.541
        45.000
 116402388.243 8  90535234.105 7  21813752.850    21813753.206    21813758.641
        49.800          45.800
 128496364.437 6                  24063242.031    24063240.486
        38.200
 133459952.043 7                  25396580.723
        44.000
 107349759.351 8  83649173.11246  20427974.159    20427973.7704   20427974.1054
        48.700          40.2004
 111891610.975 6  87026834.097 7  20916947.162    20916947.669    20916953.200
        39.300          44.000
 109794511.773 7  85554168.43046  20893195.751    20893195.3544   20893196.4144
        47.600          38.3004
 122137849.137 8                  23242053.181
        48.600
 117664001.604 7  91686253.99946  22390706.898    22390706.5684   22390706.5334
        44.600          40.5004
 130561289.361 6 101547689.524 6  24432770.142    24432770.308    24432777.473
        39.800          38.800
 137348616.185 7                  26136569.104
        42.800
 122719472.346 8                  23352735.630
        48.300
 129002919.991 6 100521770.44544  24548436.706    24548435.9024   24548438.8514
        39.800          29.3004
 121502308.298 7  94677139.05146  23121117.339    23121116.5444   23121119.7264
        42.600          38.9004
 122084949.037 7  95131137.47047  23231990.561    23231990.1104   23231993.3184
        46.100          43.0004
 102687865.749 8  79868382.714 8  19236890.147    19236890.321    19236895.909
        51.900          48.700
 112899473.611 8  87810740.886 7  21097964.140    21097964.861    21097971.476
        49.800          45.600
 104750501.024 8  81472648.417 8  19568267.575    19568267.725    19568273.036
        52.500          48.600
 25  1  1  9 12  0.0000000  0 27G10G24E08R04S31S35R12E13S48S33R02R13
                                E29G23R19G18E07G15R11E33E26G08G27G32
                                R18R17R03
 116409731.412 8  90708897.96447  22152031.592    22152030.9754   22152033.6224
        48.600          47.3004
 112484086.960 7  87649975.78547  21405001.568    21405001.1534   21405004.2334
        46.100          46.3004
 135686793.251 7                  25820328.856
        43.900
 114442531.835 8  89010906.822 7  21371335.835    21371336.629    21371343.109
        48.800          45.700
 198974430.636 7                  37863568.229
        45.700
 200954104.203 7                  38240297.592
        44.300
 124999222.225 7  97221650.344 6  23400112.343    23400111.657    23400120.255
        43.800          41.400
 130000927.453 7                  24738335.621
        45.400
 412738765.569 5                  78541650.608
        33.000
 202096206.168 7                  38457599.157
        45.100
 116447926.201 8  90570652.516 7  21822286.684    21822287.060    21822292.661
        49.900          46.000
 128445737.121 6                  24053759.823    24053758.638
        37.100
 133425581.687 7                  25390040.632
        44.300
 107348380.026 8  83648098.32646  20427711.881    20427711.4884   20427711.6124
        48.500          40.1004
 111847186.205 6  86992281.507 7  20908642.824    20908642.256    20908648.310
        38.600          44.000
 109822440.127 7  85575930.78246  20898510.094    20898509.6884   20898510.9774
        47.100          38.4004
 122139570.856 8                  23242380.960
        48.800
 117712315.684 7  91723901.34846  22399900.799    22399900.4734   22399900.3864
        44.400          40.4004
 130581333.460 6 101563278.534 6  24436522.477    24436522.634    24436529.361
        41.500          40.100
 137310690.125 7                  26129351.948
        43.000
 122711320.638 8                  23351184.404
        48.500
 128983446.014 6 100506595.92344  24544730.670    24544729.8754   24544733.2094
        39.200          29.5004
 121508070.969 7  94681629.47046  23122214.059    23122213.2724   23122216.4144
        42.300          38.8004
 122042183.300 7  95097813.53747  23223852.410    23223851.9544   23223855.3724
        46.400          43.0004
 102694158.004 8  79873276.688 8  19238068.852    19238068.746    19238074.584
        52.100          48.800
 112956674.115 8  87855230.167 7  21108652.805    21108653.515    21108661.020
        48.200          45.600
 104757450.364 8  81478053.473 8  19569565.672    19569565.828    19569571.157
        52.400          48.600
 25  1  1  9 12 15.0000000  0 27G10G24E08R04S31S35R12E13S48S33R02R13
                                E29G23R19G18E07G15R11E33E26G08G27G32
                                R18R17R03
 116381406.615 8  90686826.71547  22146641.722    22146641.1054   22146643.5774
        48.900          47.4004
 112473029.587 7  87641359.68547  21402897.490    21402897.0664   21402900.0354
        46.400          46.3004
 135722240.829 7                  25827074.530
        43.500
 114407714.121 8  88983826.394 7  21364834.736    21364834.979    21364840.757
        49.500          45.800
 198974429.552 7                  37863570.738
        46.000
 200954106.891 7                  38240296.572
        44.400
 124972908.260 7  97201184.007 6  23395185.109    23395185.436    23395193.945
        45.000          41.200
 130031600.326 7                  24744172.425
        45.600
 412738576.270 5                  78541630.508
        33.200
 202096184.714 7                  38457593.984
        45.300
 116493481.783 8  90606084.642 7  21830823.596    21830824.385    21830829.699
        50.000          46.200
 128395138.883 6                  24044284.158    24044284.084
        38.500
 133391266.763 7                  25383510.423
        43.600
 107347060.551 8  83647070.18446  20427460.615    20427460.2224   20427460.4904
        49.200          40.2004
 111802897.806 6  86957835.001 7  20900363.449    20900363.620    20900368.954
        39.800          44.000
 109850491.481 7  85597788.97546  20903848.252    20903847.8464   20903848.9194
        47.400          38.3004
 122141375.429 8                  23242724.088
        48.600
 117760671.926 7  91761581.55146  22409102.549    22409102.2234   22409102.0604
        45.000          40.4004
 130601543.425 6 101578997.312 6  24440304.131    24440304.026    24440311.875
        40.600          38.800
 137272790.239 7                  26122139.723
        42.800
 122703251.770 8                  23349648.857
        48.300
 128964097.802 6 100491519.42444  24541048.835    24541048.0404   24541051.8654
        39.100          29.1004
 121513974.676 7  94686229.78546  23123337.500    23123336.7224   23123339.6864
        42.800          38.6004
 121999480.233 7  95064538.45247  23215726.377    23215725.9354   23215729.1954
        46.200          43.0004
 102700653.410 8  79878328.683 8  19239285.233    19239285.586    19239291.370
        52.100          48.700
 113013983.021 8  87899803.742 7  21119363.672    21119363.663    21119370.028
        49.400          45.300
 104764497.968 8  81483534.956 8  19570882.123    19570882.363    19570887.594
        52.400          48.700
 25  1  1  9 12 30.0000000  0 27G10G24E08R04S31S35R12E13S48S33R02R13
                                E29G23R19G18E07G15R11E33E26G08G27G32
                                R18R17R03
 116353107.426 8  90664775.44947  22141256.558    22141255.9374   22141258.3484
        49.000          47.5004
 112462132.055 7  87632868.13447  21400823.701    21400823.2774   21400826.2664
        46.500          46.4004
 135757719.022 7                  25833825.901
        43.300
 114372982.568 8  88956813.026 7  21358348.807    21358349.271    21358354.717
        49.400          45.600
 198974427.496 7                  37863568.801
        46.000
 200954109.519 7                  38240297.122
        44.500
 124946735.431 7  97180827.473 6  23390285.433    23390286.013    23390293.950
        43.700          40.800
 130062340.760 7                  24750022.014
        45.400
 412738387.819 5                  78541609.384
        33.000
 202096164.149 7                  38457589.704
        45.200
 116539053.584 8  90641529.378 7  21839363.512    21839364.254    21839369.358
        49.700          45.900
 128344569.124 6                  24034813.569    24034813.966
        38.700
 133357006.481 7                  25376991.011
        44.000
 107345800.050 8  83646087.98746  20427220.735    20427220.3384   20427220.5784
        48.900          40.1004
 111758745.091 6  86923494.043 7  20892108.859    20892109.742    20892115.295
        39.500          43.900
 109878664.808 7  85619742.21646  20909209.548    20909209.1424   20909210.1264
        47.600          38.2004
 122143261.853 8                  23243083.378
        48.600
 117809069.115 7  91799293.66146  22418312.368    22418312.0474   22418311.6934
        44.300          40.2004
 130621917.065 6 101594843.531 6  24444116.653    24444116.576    24444123.983
        39.800          38.300
 137234915.908 7                  26114932.383
        42.300
 122695264.951 8                  23348129.087
        48.200
 128944874.594 6 100476540.31744  24537390.887    24537390.0784   24537394.0914
        40.000          29.8004
 121520018.358 7  94690939.16846  23124487.671    23124486.8984   23124489.5144
        42.500          38.8004
 121956839.073 7  95031311.60547  23207612.174    23207611.7454   23207614.6094
        46.200          42.9004
 102707350.976 8  79883537.922 8  19240539.756    19240540.194    19240545.991
        51.900          48.700
 113071399.061 8  87944460.693 7  21130092.349    21130092.687    21130099.744
        48.700          45.300
 104771643.194 8  81489092.388 8  19572217.007    19572217.129    19572222.427
        52.500          48.500
 25  1  1  9 12 45.0000000  0 27G10G24E08R04S31S35R12E13S48S33R02R13
                                E29G23R19G18E07G15R11E33E26G08G27G32
                                R18R17R03
 116324833.438 8  90642743.83447  22135876.408    22135875.7914   22135877.9894
        48.800          47.6004
 112451394.109 7  87624500.93947  21398780.425    21398780.0104   21398782.8604
        46.200          46.5004
 135793227.255 7                  25840582.725
        43.800
 114338336.783 8  88929866.357 7  21351878.144    21351878.967    21351885.089
        50.000          45.900
 198974425.556 7                  37863568.077
        45.900
 200954112.005 7                  38240298.808
        44.300
 124920704.065 7  97160580.933 6  23385413.096    23385413.152    23385420.463
        45.600          40.900
 130093148.319 7                  24755884.655
        45.600
 412738199.622 5                  78541579.317
        32.700
 202096142.364 7                  38457585.076
        45.000
 116584641.274 8  90676986.483 7  21847907.076    21847906.967    21847912.925
        50.000          46.000
 128294028.073 6                  24025350.175    24025348.873
        38.600
 133322800.546 7                  25370481.664
        44.300
 107344598.202 8  83645151.50746  20426992.213    20426991.8114   20426991.8554
        48.800          40.2004
 111714728.475 6  86889258.927 7  20883880.423    20883881.134    20883886.933
        40.100          44.200
 109906959.620 7  85641790.11746  20914593.936    20914593.5344   20914594.4204
        47.100          38.5004
 122145229.648 8                  23243457.752
        48.900
 117857506.523 7  91837037.10446  22427529.410    22427529.0574   22427529.1294
        45.000          40.4004
 130642453.084 6 101610815.844 6  24447959.537    24447960.097    24447967.678
        41.900          38.100
 137197066.860 7                  26107730.139
        42.900
 122687359.938 8                  23346624.654
        48.400
 128925776.049 6 100461658.35744  24533756.535    24533755.7444   24533759.3784
        39.700          29.6004
 121526201.524 7  94695757.24446  23125664.349    23125663.5624   23125666.1234
        42.700          39.0004
 121914259.566 7  94998132.78847  23199509.430    23199509.0104   23199512.0294
        45.700          43.1004
 102714250.314 8  79888904.073 8  19241832.441    19241832.734    19241838.514
        52.400          48.600
 113128921.397 8  87989200.294 7  21140842.170    21140841.966    21140849.386
        49.300          45.400
 104778884.985 8  81494724.911 8  19573569.784    19573569.898    19573575.321
        53.000          48.600
 25  1  1  9 13  0.0000000  0 27G10G24E08R04S31S35R12E13S48S33R02R13
                                E29G23R19G18E07G15R11E33E26G08G27G32
                                R18R17R03
 116296583.142 8  90620730.67247  22130500.265    22130499.6484   22130502.0484
        48.900          47.8004
 112440814.381 7  87616257.03147  21396767.154    21396766.7524   21396769.5934
        46.500          46.7004
 135828763.831 7                  25847345.081
        43.900
 114303775.165 8  88902985.128 7  21345424.597    21345424.770    21345430.302
        49.800          45.600
 198974422.496 7                  37863567.125
        45.700
 200954112.712 7                  38240295.687
        44.300
 124894812.883 7  97140443.434 6  23380566.560    23380567.518    23380573.962
        45.600          40.900
 130124021.378 7                  24761759.567
        46.000
 412738009.744 5                  78541554.951
        32.900
 202096119.196 7                  38457583.994
        45.300
 116630242.781 8  90712454.311 7  21856452.958    21856452.882    21856458.768
        50.400          46.200
 128243514.578 6                  24015889.276    24015888.802
        38.300
 133288647.462 7                  25363982.305
        44.700
 107343453.506 8  83644259.54946  20426774.470    20426774.0644   20426774.0064
        48.700          40.3004
 111670846.721 6  86855128.683 7  20875677.762    20875677.996    20875683.522
        40.000          44.300
 109935374.250 7  85663931.38446  20920001.049    20920000.6524   20920001.5064
        47.500          38.6004
 122147277.175 8                  23243847.303
        49.100
 117905982.255 7  91874810.41846  22436753.887    22436753.5074   22436753.7784
        44.800          40.5004
 130663149.455 6 101626912.538 6  24451833.228    24451833.354    24451839.955
        40.800          37.900
 137159241.810 7                  26100531.927
        43.100
 122679535.319 8                  23345135.887
        48.800
 128906800.813 6 100446872.47144  24530145.596    24530144.8014   24530148.2834
        39.800          29.7004
 121532522.461 7  94700682.66846  23126867.187    23126866.4274   23126868.9994
        42.200          38.8004
 121871740.298 7  94965000.91047  23191418.447    23191418.0364   23191421.0084
        45.700          43.4004
 102721349.883 8  79894425.961 8  19243162.365    19243162.706    19243168.424
        52.200          48.600
 113186548.008 8  88034020.948 7  21151610.920    21151611.395    21151617.863
        49.500          45.300
 104786221.908 8  81500431.425 8  19574940.244    19574940.486    19574945.762
        52.500          48.400
 25  1  1  9 13 15.0000000  0 27G10G24E08R04S31S35R12E13S48S33R02R13
                                E29G23R19G18E07G15R11E33E26G08G27G32
                                R18R17R03
 116268360.043 8  90598738.67847  22125129.394    22125128.7684   22125131.2944
        48.800          47.9004
 112430396.507 7  87608139.24447  21394784.702    21394784.3054   21394787.1354
        46.300          46.8004
 135864332.004 7                  25854113.397
        43.800
 114269301.449 8  88876172.295 7  21338986.577    21338986.845    21338993.254
        49.600          45.600
 198974420.096 7                  37863566.731
        45.700
 200954115.179 7                  38240298.477
        44.400
 124869065.880 7  97120418.135 6  23375745.551    23375745.875    23375753.396
        43.800          40.800
 130154963.349 7                  24767647.598
        45.600
 412737820.686 5                  78541534.614
        32.800
 202096098.812 7                  38457576.450
        45.000
 116675861.556 8  90747935.588 7  21865001.576    21865001.658    21865007.509
        50.200          46.200
 128193032.816 6                  24006435.842    24006435.909
        38.200
 133254550.779 7                  25357494.182
        44.200
 107342369.516 8  83643414.89846  20426568.013    20426567.6114   20426567.7264
        48.600          40.4004
 111627103.685 6  86821106.361 7  20867499.803    20867500.311    20867506.306
        40.100          44.300
 109963912.081 7  85686168.65646  20925431.474    20925431.0724   20925432.0144
        47.200          38.4004
 122149407.796 8                  23244252.832
        48.800
 117954499.616 7  91912616.17246  22445986.266    22445985.8914   22445986.2034
        44.200          40.3004
 130684011.719 6 101643139.035 6  24455737.172    24455736.915    24455745.448
        40.400          39.700
 137121444.405 7                  26093339.340
        42.700
 122671794.727 8                  23343662.623
        48.400
 128887952.545 6 100432185.52845  24526559.073    24526558.2784   24526561.5684
        39.500          30.1004
 121538984.562 7  94705718.09646  23128096.740    23128095.9624   23128098.5564
        42.900          39.1004
 121829284.887 7  94931918.78747  23183339.339    23183338.9374   23183341.8954
        46.300          43.4004
 102728653.336 8  79900106.436 8  19244530.645    19244530.782    19244536.561
        52.300          48.600
 113244282.054 8  88078925.208 7  21162399.677    21162400.204    21162407.226
        49.600          45.600
 104793657.097 8  81506214.364 8  19576329.480    19576329.417    19576334.585
        52.800          48.600
 25  1  1  9 13 30.0000000  0 27G10G24E08R04S31S35R12E13S48S33R02R13
                                E29G23R19G18E07G15R11E33E26G08G27G32
                                R18R17R03
 116240161.615 8  90576765.90347  22119763.785    22119763.1554   22119765.2534
        48.600          47.6004
 112420138.080 7  87600145.70247  21392832.468    21392832.0664   21392834.9994
        46.600          46.5004
 135899929.026 7                  25860887.180
        43.600
 114234912.818 8  88849425.632 7  21332565.003    21332565.345    21332571.145
        49.900          45.800
 198974417.679 7                  37863566.414
        45.500
 200954116.143 7                  38240298.696
        44.300
 124843460.719 7  97100503.144 6  23370952.192    23370953.490    23370960.277
        45.600          41.000
 130185971.586 7                  24773548.247
        45.500
 412737630.686 5                  78541510.356
        32.500
 202096076.456 7                  38457573.897
        45.000
 116721494.727 8  90783428.066 7  21873553.098    21873553.547    21873558.942
        50.200          46.200
 128142580.909 6                  23996988.259    23996987.562
        38.000
 133220508.010 7                  25351015.928
        44.000
 107341343.700 8  83642615.58046  20426372.818    20426372.4214   20426372.5404
        48.400          40.1004
 111583497.484 6  86787190.446 7  20859348.487    20859349.097    20859354.217
        40.000          44.100
 109992570.378 7  85708499.79446  20930885.020    20930884.6274   20930885.4854
        47.400          38.4004
 122151618.839 8                  23244673.459
        48.700
 118003055.714 7  91950452.10946  22455226.751    22455226.3764   22455226.1094
        44.800          40.1004
 130705034.494 6 101659489.947 6  24459670.992    24459671.527    24459678.593
        41.400          39.500
 137083672.228 7                  26086151.672
        42.400
 122664135.704 8                  23342205.340
        48.200
 128869228.671 6 100417595.50545  24522995.769    24522994.9694   24522998.6734
        39.900          30.2004
 121545585.074 7  94710861.38646  23129353.102    23129352.3204   23129354.3764
        42.000          38.4004
 121786890.909 7  94898884.54047  23175272.083    23175271.6904   23175274.5834
        46.300          43.2004
 102736157.878 8  79905943.320 8  19245936.538    19245936.767    19245942.408
        52.200          48.500
 113302120.226 8  88123910.446 7  21173208.340    21173208.854    21173215.375
        49.500          45.300
 104801187.638 8  81512071.482 8  19577735.799    19577736.198    19577741.407
        52.700          48.500
 25  1  1  9 13 45.0000000  0 27G10G24E08R04S31S35R12E13S48S33R02R13
                                E29G23R19G18E07G15R11E33E26G08G27G32
                                R18R17R03
 116211987.605 8  90554812.16147  22114402.294    22114401.6734   22114403.8674
        48.800          47.6004
 112410038.854 7  87592276.21747  21390910.455    21390910.0444   21390913.1494
        46.100          46.5004
 135935554.365 7                  25867666.519
        43.500
 114200609.023 8  88822744.935 7  21326158.753    21326159.321    21326164.902
        49.500          45.900
 198974413.846 7                  37863563.744
        46.000
 200954116.719 7                  38240296.934
        44.200
 124817997.679 7  97080698.666 6  23366186.087    23366186.829    23366193.631
        45.100          41.600
 130217045.675 7                  24779461.380
        45.700
 412737438.978 5                  78541490.404
        32.800
 202096053.307 7                  38457568.916
        45.200
 116767141.764 8  90818931.291 7  21882107.276    21882107.689    21882113.330
        49.900          46.200
 128092158.725 6                  23987544.868    23987544.725
        38.200
 133186518.898 7                  25344547.933
        44.500
 107340375.784 8  83641861.37346  20426188.603    20426188.2064   20426188.3274
        48.200          40.0004
 111540028.159 6  86753380.988 7  20851221.761    20851222.223    20851228.536
        39.700          44.100
 110021348.715 7  85730924.47446  20936361.303    20936360.9064   20936361.7744
        46.800          38.1004
 122153909.878 8                  23245109.480
        48.900
 118051649.964 7  91988317.77146  22464473.316    22464472.8964   22464473.3934
        44.300          40.1004
 130726217.608 6 101675965.255 6  24463636.241    24463636.273    24463643.832
        40.900          39.300
 137045925.148 7                  26078968.615
        42.400
 122656558.035 8                  23340763.250
        48.600
 128850629.073 6 100403102.32844  24519456.244    24519455.4574   24519459.1874
        39.500          29.9004
 121552323.542 6  94716112.16046  23130635.000    23130634.2134   23130636.5564
        41.900          38.5004
 121744558.128 7  94865897.97347  23167216.382    23167215.9764   23167218.9594
        45.800          43.2004
 102743863.308 8  79911936.417 8  19247380.046    19247380.328    19247386.103
        52.400          48.500
 113360061.907 8  88168976.201 7  21184035.714    21184035.927    21184043.329
        48.700          45.300
 104808813.031 8  81518002.354 8  19579160.639    19579160.607    19579165.994
        52.600          48.500
 25  1  1  9 14  0.0000000  0 27G10G24E08R04S31S35R12E13S48S33R02R13
                                E29G23R19G18E07G15R11E33E26G08G27G32
                                R18R17R03
 116183838.113 8  90532877.52447  22109045.432    22109044.7934   22109047.1994
        48.800          47.7004
 112400099.052 7  87584530.96147  21389019.040    21389018.6254   21389021.5814
        46.300          46.6004
 135971207.898 7                  25874451.078
        43.400
 114166390.137 8  88796130.296 7  21319768.439    21319768.992    21319774.528
        50.200          45.700
 198974408.585 7                  37863564.316
        45.800
 200954115.867 7                  38240297.726
        44.200
 124792676.987 7  97061004.951 6  23361445.501    23361445.850    23361453.916
        44.500          41.800
 130248185.629 7                  24785387.322
        45.300
 412737247.457 5                  78541471.386
        32.900
 202096029.417 7                  38457564.382
        45.100
 116812802.471 8  90854445.185 7  21890664.527    21890664.832    21890670.258
        50.300          46.200
 128041767.061 6                  23978108.781    23978108.233
        38.700
 133152583.542 7                  25338090.130
        44.100
 107339465.814 8  83641152.31946  20426015.398    20426015.0014   20426015.1014
        48.400          40.0004
 111496696.209 6  86719678.394 7  20843122.672    20843122.397    20843127.539
        40.100          44.100
 110050246.998 7  85753442.61546  20941860.710    20941860.3214   20941860.8634
        47.500          38.2004
 122156280.830 8                  23245560.680
        48.800
 118100282.124 7  92026212.97546  22473727.773    22473727.3404   22473727.7964
        44.800          40.1004
 130747560.943 6 101692564.861 6  24467630.467    24467630.693    24467638.444
        41.000          38.700
 137008203.409 7                  26071790.768
        42.700
 122649061.898 8                  23339336.796
        48.300
 128832153.890 6 100388706.10745  24515940.170    24515939.3834   24515943.4724
        39.200          30.6004
 121559199.843 7  94721470.34546  23131943.668    23131942.8774   23131945.1134
        42.800          38.6004
 121702286.737 7  94832959.24847  23159172.458    23159172.0524   23159174.9304
        46.400          43.1004
 102751769.533 8  79918085.708 8  19248860.753    19248861.155    19248867.087
        51.900          48.600
 113418106.552 8  88214122.066 7  21194883.275    21194883.775    21194890.430
        49.200          45.400
 104816532.837 8  81524006.660 8  19580602.365    19580602.785    19580608.160
        52.900          48.500
 25  1  1  9 14 15.0000000  0 27G10G24E08R04S31S35R12E13S48S33R02R13
                                E29G23R19G18E07G15R11E33E26G08G27G32
                                R18R17R03
 116155717.915 8  90510965.71847  22103694.394    22103693.7644   22103696.1114
        48.000          47.7004
 112390323.588 7  87576913.75247  21387159.001    21387158.5864   21387161.2974
        46.100          46.6004
 136006894.237 7                  25881241.856
        43.700
 114132260.970 8  88769585.441 7  21313395.636    21313395.213    21313401.505
        48.800          45.900
 198974407.320 7                  37863564.339
        46.200
 200954118.662 7                  38240298.097
        44.200
 124767503.868 7  97041425.971 6  23356733.666    23356734.083    23356740.366
        45.500          41.200
 130279396.113 7                  24791326.215
        45.500
 412737059.082 5                  78541448.786
        33.100
 202096008.727 7                  38457559.208
        45.300
 116858481.366 8  90889973.216 7  21899224.141    21899224.202    21899230.124
        49.700          46.000
 127991411.151 6                  23968678.091    23968678.149
        38.700
 133118706.826 7                  25331643.384
        44.600
 107338618.663 7  83640492.21746  20425854.380    20425853.9834   20425853.8724
        47.800          40.0004
 111453507.378 6  86686087.089 7  20835049.315    20835048.324    20835053.890
        40.000          44.200
 110079269.858 7  85776057.82946  20947383.351    20947382.9584   20947383.7554
        47.300          38.4004
 122158736.348 8                  23246027.979
        49.000
 118148956.721 7  92064141.25046  22482990.525    22482990.0874   22482990.1454
        43.800          40.1004
 130769068.682 6 101709291.746 6  24471654.848    24471656.491    24471664.899
        41.000          38.500
 136970511.967 7                  26064617.949
        43.200
 122641652.210 8                  23337926.923
        48.400
 128813808.017 6 100374410.65345  24512449.857    24512449.0844   24512452.4814
        39.500          30.3004
 121566218.606 7  94726939.53746  23133279.137    23133278.3374   23133280.8684
        42.100          38.9004
 121660081.611 7  94800072.15947  23151140.848    23151140.4464   23151143.4764
        46.200          43.2004
 102759881.514 8  79924395.018 8  19250380.327    19250380.769    19250386.736
        51.700          48.700
 113476258.793 8  88259351.638 7  21205750.221    21205750.470    21205757.465
        49.200          45.900
 104824352.249 8  81530088.451 8  19582063.187    19582063.530    19582068.842
        52.500          48.400
 25  1  1  9 14 30.0000000  0 27G10G24E08R04S31S35R12E13S48S33R02R13
                                E29G23R19G18E07G15R11E33E26G08G27G32
                                R18R17R03
 116127623.717 8  90489074.17447  22098348.313    22098347.6794   22098349.9464
        48.700          47.8004
 112380709.218 7  87569422.07147  21385329.271    21385328.8564   21385331.7064
        46.100          46.7004
 136042609.832 7                  25888038.356
        43.400
 114098218.214 8  88743107.816 7  21307037.553    21307037.773    21307044.190
        49.100          46.000
 198974406.340 7                  37863564.057
        46.100
 200954120.841 7                  38240297.484
        44.400
 124742475.260 7  97021959.402 6  23352046.987    23352048.082    23352055.322
        44.100          41.200
 130310673.684 7                  24797278.340
        45.800
 412736871.112 5                  78541424.926
        33.000
 202095988.360 7                  38457555.604
        45.400
 116904174.835 8  90925512.589 7  21907787.467    21907787.793    21907793.299
        50.100          46.200
 127941088.316 6                  23959256.472    23959255.488
        39.800
 133084885.415 7                  25325207.652
        44.400
 107337830.997 8  83639878.46646  20425704.164    20425703.7624   20425703.9344
        48.300          40.0004
 111410458.392 6  86652604.603 7  20827000.177    20827001.022    20827006.562
        40.400          44.300
 110108413.803 7  85798767.39846  20952929.192    20952928.7954   20952929.6234
        47.000          38.5004
 122161272.986 8                  23246510.613
        49.000
 118197670.178 7  92102099.79846  22492260.427    22492259.9854   22492259.9354
        44.600          40.1004
 130790737.501 6 101726143.738 5  24475712.162    24475712.373    24475720.991
        39.100          35.600
 136932847.642 7                  26057450.537
        43.000
 122634325.708 8                  23336532.590
        48.500
 128795588.179 6 100360213.39945  24508982.592    24508981.8234   24508984.9934
        39.600          30.4004
 121573376.342 7  94732517.01546  23134641.529    23134640.7424   23134642.9864
        42.200          38.8004
 121617939.517 7  94767234.18947  23143121.375    23143120.9644   23143124.1444
        46.200          43.3004
 102768195.691 8  79930861.608 8  19251938.070    19251938.306    19251944.296
        51.600          48.600
 113534514.507 8  88304661.687 7  21216636.587    21216636.537    21216643.666
        48.800          45.100
 104832267.341 8  81536244.665 8  19583541.731    19583542.059    19583547.478
        52.800          48.500
 25  1  1  9 14 45.0000000  0 27G10G24E08R04S31S35R12E13S48S33R02R13
                                E29G23R19G18E07G15R11E33E26G08G27G32
                                R18R17R03
 116099558.537 8  90467205.23747  22093007.099    22093006.4604   22093009.3004
        48.700          47.7004
 112371259.099 7  87562058.38547  21383531.218    21383530.7854   21383533.4164
        46.400          46.6004
 136078357.445 7                  25894840.814
        43.300
 114064264.863 8  88716699.665 7  21300697.870    21300697.875    21300703.353
        50.100          46.000
 198974408.428 7                  37863564.388
        46.000
 200954127.292 7                  38240296.554
        44.200
 124717594.874 7  97002608.115 6  23347389.656    23347389.895    23347398.078
        44.200          41.600
 130342021.274 7                  24803243.309
        45.500
 412736687.004 5                  78541404.946
        33.300
 202095971.177 7                  38457552.845
        45.200
 116949885.686 8  90961065.469 7  21916353.652    21916353.861    21916359.345
        50.000          46.100
 127890801.913 6                  23949837.628    23949838.153
        38.700
 133051122.392 7                  25318782.426
        44.200
 107337105.867 8  83639313.44846  20425566.260    20425565.8584   20425565.9354
        48.200          39.9004
 111367553.052 6  86619233.818 7  20818979.953    20818979.933    20818985.660
        40.000          44.200
 110137681.708 7  85821573.56146  20958498.692    20958498.2954   20958499.1584
        47.700          38.1004
 122163893.611 8                  23247009.156
        48.800
 118246425.006 7  92140090.58946  22501537.785    22501537.3294   22501537.7244
        44.300          40.0004
 130812574.554 6 101743128.395 6  24479798.641    24479799.132    24479807.482
        40.900          40.300
 136895213.608 7                  26050288.963
        42.900
 122627085.532 8                  23335154.885
        48.400
 128777497.478 6 100346116.79045  24505539.671    24505538.8984   24505542.4964
        39.200          30.2004
 121580675.855 7  94738204.97746  23136029.795    23136029.0044   23136032.0474
        42.900          38.7004
 121575863.629 7  94734447.82447  23135114.588    23135114.1684   23135117.3914
        46.700          43.2004
 102776715.237 8  79937487.930 8  19253534.212    19253534.358    19253540.219
        51.600          48.700
 113592876.316 8  88350054.217 7  21227543.007    21227543.173    21227550.070
        48.600          45.100
 104840280.695 8  81542477.300 8  19585038.761    19585038.997    19585044.363
        52.500          48.500
 25  1  1  9 15  0.0000000  0 27G10G24E08R04S31S35R12E13S48S33R02R13
                                E29G23R19G18E07G15R11E33E26G08G27G32
                                R18R17R03
 116071513.401 8  90445351.93047  22087670.633    22087669.9994   22087672.4274
        48.300          47.8004
 112361964.287 7  87554815.71247  21381762.355    21381761.9314   21381764.6614
        46.100          46.7004
 136114127.886 7                  25901647.839
        43.700
 114030391.627 8  88690353.875 7  21294371.754    21294372.001    21294378.038
        49.600          46.000
 198974404.826 7                  37863563.060
        46.300
 200954127.922 7                  38240296.599
        44.500
 124692853.697 7  96983365.102 6  23342758.433    23342758.599    23342765.718
        44.600          41.300
 130373429.746 7                  24809220.184
        45.300
 412736496.483 5                  78541378.121
        33.000
 202095948.386 7                  38457548.252
        45.400
 116995604.542 8  90996624.572 7  21924921.338    21924921.651    21924927.014
        50.300          46.100
 127840543.511 6                  23940426.002    23940425.468
        38.400
 133017408.785 7                  25312367.008
        44.400
 107336434.256 8  83638790.13546  20425438.533    20425438.1364   20425438.1454
        48.200          40.0004
 111324782.276 6  86585967.675 7  20810985.957    20810984.667    20810990.171
        40.300          44.200
 110167064.381 7  85844469.14946  20964090.112    20964089.7154   20964090.4534
        47.300          38.4004
 122166589.048 8                  23247522.056
        48.900
 118295211.925 7  92178106.37946  22510821.644    22510821.2114   22510821.6764
        44.500          40.2004
 130834564.812 6 101760231.267 6  24483914.656    24483914.711    24483923.575
        39.800          37.000
 136857601.032 7                  26043131.820
        43.400
 122619922.752 8                  23333791.763
        48.600
 128759526.975 6 100332113.82645  24502120.428    24502119.6554   24502122.8144
        39.800          30.5004
 121588107.977 7  94743996.26446  23137444.459    23137443.6554   23137446.3184
        42.300          39.0004
 121533844.909 7  94701705.98647  23127118.877    23127118.4484   23127121.3164
        46.300          43.3004
 102785430.817 8  79944266.712 8  19255166.952    19255167.265    19255172.844
        51.700          48.700
 113651334.383 8  88395521.585 7  21238467.567    21238467.754    21238474.503
        49.100          45.000
 104848383.104 8  81548779.195 8  19586552.360    19586552.440    19586557.855
        52.500          48.400
 25  1  1  9 15 15.0000000  0 27G10G24E08R04S31S35R12E13S48S33R02R13
                                E29G23R19G18E07G15R11E33E26G08G27G32
                                R18R17R03
 116043496.432 8  90423520.57647  22082339.331    22082338.7194   22082340.9164
        48.600          47.8004
 112352833.062 7  87547700.50947  21380024.704    21380024.2894   21380027.0244
        46.500          46.7004
 136149929.076 7                  25908460.459
        43.400
 113996606.699 8  88664076.760 7  21288062.211    21288062.738    21288068.663
        49.500          45.900
 198974402.803 7                  37863563.936
        46.200
 200954129.998 7                  38240299.286
        44.400
 124668260.402 7  96964237.103 6  23338153.966    23338154.040    23338161.901
        45.100          41.400
 130404907.147 7                  24815210.489
        45.000
 412736309.400 5                  78541352.150
        33.100
 202095928.183 7                  38457544.961
        45.300
 117041339.495 8  91032196.190 7  21933491.746    21933491.887    21933498.046
        49.600          46.300
 127790321.922 6                  23931021.451    23931021.180
        39.200
 132983752.758 7                  25305962.602
        44.400
 107335824.354 8  83638314.90146  20425322.438    20425322.0414   20425322.0574
        48.500          40.0004
 111282154.811 6  86552813.015 7  20803015.340    20803015.650    20803021.244
        39.800          44.100
 110196569.840 7  85867460.41946  20969704.980    20969704.5874   20969705.1204
        47.200          38.3004
 122169367.333 8                  23248050.774
        49.000
 118344038.898 7  92216153.38546  22520113.180    22520112.7474   22520113.0054
        44.200          40.1004
 130856720.087 6 101777463.364 6  24488059.867    24488060.084    24488068.984
        38.700          38.000
 136820018.177 7                  26035979.644
        43.400
 122612845.607 8                  23332445.036
        48.600
 128741684.912 6 100318210.95645  24498725.043    24498724.2744   24498727.2204
        40.700          30.6004
 121595680.684 7  94749897.09446  23138885.247    23138884.4654   23138887.3614
        42.400          39.0004
 121491891.668 7  94669015.18247  23119135.371    23119134.9384   23119137.8564
        45.700          43.2004
 102794350.695 8  79951204.403 8  19256838.043    19256838.150    19256843.871
        51.800          48.600
 113709896.639 8  88441070.019 7  21249410.617    21249410.861    21249417.767
        48.200          45.500
 104856582.487 8  81555156.504 8  19588084.295    19588084.257    19588089.573
        52.500          48.500
 25  1  1  9 15 30.0000000  0 27G10G24E08R04S31S35R12E13S48S33R02R13
                                E29G23R19G18E07G15R11E33E26G08G27G32
                                R18R17R03
 116015504.513 8  90401708.72947  22077012.398    22077011.7774   22077014.1854
        48.900          47.8004
 112343862.334 7  87540710.36647  21378317.315    21378316.8954   21378319.9204
        46.200          46.7004
 136185757.633 7                  25915278.389
        43.400
 113962906.963 8  88637865.885 7  21281768.952    21281769.743    21281775.472
        49.700          46.000
 198974400.759 7                  37863566.405
        46.000
 200954131.930 7                  38240298.866
        44.100
 124643812.050 7  96945221.820 6  23333576.945    23333576.346    23333584.341
        44.200          41.400
 130436450.227 7                  24821212.927
        44.900
 412736122.321 5                  78541329.094
        32.900
 202095906.958 7                  38457538.956
        45.100
 117087086.783 8  91067777.407 7  21942064.922    21942065.414    21942070.826
        50.000          46.200
 127740134.176 6                  23921622.936    23921622.192
        39.000
 132950151.215 7                  25299568.208
        44.100
 107335273.018 8  83637885.30546  20425217.321    20425216.9154   20425217.1224
        48.000          39.8004
 111239667.932 6  86519767.677 7  20795073.791    20795073.534    20795078.953
        40.700          44.300
 110226194.762 7  85890544.77546  20975342.243    20975341.8464   20975342.5584
        47.500          38.3004
 122172225.179 8                  23248594.505
        48.600
 118392902.669 7  92254229.07246  22529412.146    22529411.7264   22529411.4224
        44.400          40.1004
 130879036.242 6 101794821.174 6  24492234.691    24492235.327    24492244.209
        39.600          37.900
 136782462.083 7                  26028833.084
        42.700
 122605851.050 8                  23331113.946
        48.500
 128723968.194 6 100304405.74545  24495353.021    24495352.2344   24495355.3044
        40.400          30.5004
 121603390.593 7  94755904.83846  23140352.558    23140351.7714   23140354.5454
        43.200          38.8004
 121450000.858 7  94636373.02747  23111164.114    23111163.6854   23111166.2364
        45.800          43.2004
 102803471.572 8  79958298.427 8  19258546.740    19258546.886    19258552.671
        52.000          48.800
 113768559.600 8  88486696.756 7  21260374.595    21260374.492    21260381.125
        49.600          45.700
 104864875.506 8  81561606.646 8  19589633.214    19589633.308    19589638.874
        52.500          48.400
 25  1  1  9 15 45.0000000  0 27G10G24E08R04S31S35R12E13S48S33R02R13
                                E29G23R19G18E07G15R11E33E26G08G27G32
                                R18R17R03
 115987539.283 8  90379917.68147  22071690.489    22071689.8554   22071692.5344
        48.700          47.6004
 112335053.879 7  87533846.66647  21376641.210    21376640.7904   21376643.6974
        46.600          46.6004
 136221615.016 7                  25922101.686
        43.100
 113929294.088 8  88611722.567 7  21275492.205    21275492.819    21275498.637
        49.800          46.100
 198974399.942 7                  37863563.632
        46.000
 200954134.491 7                  38240301.612
        44.200
 124619510.906 7  96926321.077 6  23329027.532    23329028.219    23329035.498
        44.800          41.500
 130468060.499 7                  24827227.932
        45.000
 412735935.969 5                  78541310.358
        33.300
 202095886.288 7                  38457536.170
        45.100
 117132848.105 8  91103369.545 7  21950640.678    21950640.492    21950646.571
        49.900          46.300
 127689982.560 6                  23912230.137    23912230.076
        38.400
 132916605.815 7                  25293184.760
        44.000
 107334781.881 8  83637502.61346  20425124.043    20425123.6374   20425123.5984
        48.500          39.7004
 111197324.325 6  86486833.806 7  20787157.402    20787157.341    20787163.269
        39.600          44.400
 110255940.585 7  85913723.34046  20981002.980    20981002.5744   20981003.0014
        47.600          38.2004
 122175164.050 8                  23249153.882
        48.500
 118441804.441 7  92292334.36646  22538717.129    22538716.7004   22538717.2044
        44.400          40.0004
 130901511.803 6 101812302.091 6  24496442.844    24496441.962    24496450.508
        39.100          37.400
 136744934.552 7                  26021691.902
        42.900
 122598940.814 8                  23329798.939
        48.400
 128706378.555 6 100290699.55645  24492006.524    24492005.7374   24492008.3574
        40.100          31.0004
 121611239.204 7  94762020.66346  23141845.604    23141844.8174   23141848.1304
        42.400          38.7004
 121408174.164 7  94603780.84247  23103204.447    23103204.0184   23103206.8864
        46.500          43.2004
 102812795.122 8  79965550.067 8  19260293.061    19260293.373    19260299.090
        51.900          48.600
 113827324.219 8  88532402.582 7  21271355.194    21271355.300    21271362.330
        48.100          45.300
 104873263.537 8  81568130.677 8  19591200.545    19591200.419    19591205.642
        52.700          48.300
 25  1  1  9 16  0.0000000  0 27G10G24E08R04S31S35R12E13S48S33R02R13
                                E29G23R19G18E07G15R11E33E26G08G27G32
                                R18R17R03
 115959596.705 8  90358144.27947  22066373.695    22066373.0654   22066375.1804
        48.500          47.9004
 112326403.730 7  87527106.32647  21374995.148    21374994.7244   21374997.5904
        46.300          46.8004
 136257496.956 7                  25928930.034
        43.200
 113895763.855 8  88585643.536 7  21269230.934    21269231.264    21269236.541
        49.800          45.900
 198974394.273 7                  37863562.555
        46.200
 200954132.797 7                  38240299.107
        44.400
 124595352.944 7  96907531.660 6  23324505.046    23324505.249    23324512.747
        44.700          40.900
 130499733.820 7                  24833255.470
        44.900
 412735746.255 5                  78541287.745
        33.200
 202095862.337 7                  38457533.094
        45.400
 117178619.131 8  91138969.222 7  21959218.627    21959218.745    21959224.274
        50.100          46.300
 127639863.585 6                  23902844.519    23902845.053
        39.500
 132883112.534 7                  25286811.096
        44.300
 107334346.933 8  83637163.70246  20425041.124    20425040.7184   20425040.8154
        48.400          39.9004
 111155119.560 6  86454007.886 7  20779267.949    20779267.789    20779273.391
        40.500          44.600
 110285803.097 7  85936992.83746  20986685.578    20986685.1814   20986685.6244
        47.600          38.4004
 122178179.765 8                  23249727.751
        48.600
 118490739.785 7  92330465.82246  22548029.464    22548029.0354   22548029.2334
        45.200          40.3004
 130924145.770 6 101829907.117 6  24500677.754    24500677.679    24500685.412
        41.700          39.500
 136707431.623 7                  26014555.041
        42.900
 122592110.916 8                  23328499.308
        48.500
 128688912.014 6 100277089.28445  24488682.796    24488682.0094   24488685.2044
        39.500          31.5004
 121619222.243 7  94768241.24746  23143365.006    23143364.2374   23143367.2124
        42.700          38.8004
 121366407.649 7  94571235.54547  23095256.380    23095255.9514   23095259.0204
        46.100          43.3004
 102822317.145 8  79972956.071 8  19262077.243    19262077.246    19262082.860
        51.800          48.600
 113886185.876 8  88578183.901 7  21282354.132    21282354.981    21282361.838
        48.400          45.200
 104881741.745 8  81574724.854 8  19592784.088    19592784.232    19592789.378
        52.900          48.300
 25  1  1  9 16 15.0000000  0 27G10G24E08R04S31S35R12E13S48S33R02R13
                                E29G23R19G18E07G15R11E33E26G08G27G32
                                R18R17R03
 115931683.481 8  90336393.75048  22061061.818    22061061.1924   22061063.4654
        49.100          48.0004
 112317918.642 7  87520494.59947  21373380.596    21373380.1764   21373382.8824
        46.400          46.9004
 136293409.879 7                  25935763.931
        43.100
 113862323.049 8  88559634.059 7  21262986.029    21262986.558    21262992.663
        50.400          46.400
 198974392.833 7                  37863564.066
        45.800
 200954134.947 7                  38240298.267
        44.200
 124571345.438 7  96888859.281 6  23320010.981    23320011.465    23320018.212
        45.100          41.400
 130531476.742 7                  24839295.814
        44.900
 412737159.586 5                  78541269.376
        32.600
 202095841.816 7                  38457527.960
        45.200
 117224406.060 8  91174581.299 7  21967798.526    21967799.190    21967804.504
        50.000          46.300
 127589784.288 6                  23893467.530    23893466.200
        38.800
 132849678.116 7                  25280448.512
        43.900
 107333974.846 8  83636873.77646  20424970.158    20424969.7474   20424969.9714
        48.300          39.9004
 111113061.568 6  86421296.136 7  20771405.834    20771405.379    20771410.852
        40.100          44.300
 110315788.811 7  85960358.32946  20992391.298    20992390.9144   20992391.7324
        47.400          38.4004
 122181278.868 8                  23250317.366
        48.800
 118539715.009 7  92368628.34646  22557349.204    22557348.7574   22557348.8774
        44.700          40.4004
 130946941.505 6 101847637.268 6  24504942.399    24504942.091    24504951.179
        40.100          39.200
 136669960.173 7                  26007424.735
        42.800
 122585368.147 8                  23327216.168
        48.600
 128671575.287 6 100263580.15045  24485383.637    24485382.8464   24485386.4744
        40.200          31.0004
 121627346.217 7  94774571.63746  23144910.978    23144910.2054   23144912.8954
        42.300          39.0004
 121324708.085 7  94538742.43147  23087321.264    23087320.8494   23087323.7774
        46.500          43.4004
 102832044.382 8  79980521.704 8  19263899.079    19263899.370    19263905.136
        51.800          48.500
 113945150.840 7  88624045.569 7  21293373.470    21293374.007    21293381.137
        47.900          45.500
 104890317.249 8  81581394.711 8  19594385.715    19594386.093    19594391.431
        52.900          48.700
 25  1  1  9 16 30.0000000  0 27G10G24E08R04S31S35R12E13S48S33R02R13
                                E29G23R19G18E07G15R11E33E26G08G27G32
                                R18R17R03
 115903796.470 8  90314663.65147  22055754.838    22055754.2084   22055756.7534
        48.500          47.8004
 112309595.561 7  87514009.11247  21371796.491    21371796.0714   21371799.0024
        46.300          46.8004
 136329350.413 7                  25942603.206
        42.800
 113828968.440 8  88533691.605 7  21256756.658    21256757.584    21256763.285
        49.800          46.100
 198974391.590 7                  37863562.170
        45.900
 200954136.936 7                  38240300.646
        44.200
 124547485.444 7  96870301.602 6  23315544.657    23315545.570    23315551.213
        45.500          41.000
 130563286.008 7                  24845348.641
        45.000
 412736972.422 5                  78541249.249
        32.800
 202095821.994 7                  38457526.775
        45.500
 117270205.831 8  91210203.333 7  21976381.354    21976381.513    21976387.386
        49.500          46.300
 127539742.329 6                  23884097.182    23884095.039
        39.000
 132816299.427 7                  25274096.971
        44.300
 107333662.516 8  83636630.40946  20424910.931    20424910.5164   20424910.5434
        48.100          39.7004
 111071146.868 6  86388695.839 7  20763569.793    20763569.626    20763575.532
        40.100          44.500
 110345894.404 7  85983817.22746  20998120.353    20998119.9694   20998120.6234
        47.300          38.1004
 122184458.040 8                  23250922.388
        49.000
 118588726.619 7  92406819.22846  22566675.786    22566675.3394   22566675.4974
        44.500          40.2004
 130969898.659 6 101865493.848 6  24509238.744    24509238.753    24509245.994
        39.000          36.100
 136632517.225 7                  26000299.771
        43.000
 122578709.438 8                  23325948.942
        48.800
 128654365.376 6 100250169.85145  24482108.599    24482107.7994   24482111.7444
        39.900          31.8004
 121635607.781 7  94781009.24646  23146483.192    23146482.4234   23146484.9124
        42.500          38.8004
 121283072.382 7  94506299.07947  23079397.936    23079397.5074   23079400.5674
        46.200          43.2004
 102841973.496 8  79988244.332 8  19265759.159    19265759.372    19265765.318
        51.500          48.300
 114004215.431 8  88669984.649 7  21304411.641    21304411.774    21304418.447
        48.500          45.100
 104898986.204 8  81588137.244 8  19596005.136    19596005.513    19596010.820
        52.700          48.500
 25  1  1  9 16 45.0000000  0 27G10G24E08R04S31S35R12E13S48S33R02R13
                                E29G23R19G18E07G15R11E33E26G08G27G32
                                R18R17R03
 115875936.505 8  90292954.62747  22050453.404    22050452.7834   22050455.1484
        48.600          47.7004
 112301435.415 7  87507650.59247  21370243.965    21370243.5414   21370246.1294
        46.800          46.6004
 136365319.165 7                  25949448.059
        43.200
 113795700.737 8  88507816.763 7  21250544.282    21250544.653    21250550.547
        49.500          46.100
 198974390.842 7                  37863560.019
        45.800
 200954140.145 7                  38240299.479
        44.200
 124523774.177 7  96851859.626 6  23311105.098    23311105.625    23311112.480
        45.000          41.500
 130595162.326 7                  24851414.831
        45.200
 412736787.356 5                  78541226.341
        32.900
 202095801.487 7                  38457521.293
        45.200
 117316018.579 8  91245835.475 7  21984966.868    21984966.818    21984972.664
        49.700          46.100
 127489738.848 6                  23874731.542    23874730.321
        38.000
 132782977.346 7                  25267755.838
        44.200
 107333410.795 8  83636434.27846  20424863.114    20424862.7084   20424862.6474
        48.300          39.6004
 111029377.317 6  86356208.432 7  20755760.316    20755761.323    20755767.091
        40.500          44.600
 110376120.523 7  86007370.04846  21003872.278    21003871.8944   21003872.4854
        47.500          38.2004
 122187717.970 8                  23251542.705
        49.000
 118637775.243 7  92445038.94946  22576009.181    22576008.7254   22576009.1464
        44.900          40.1004
 130993015.484 6 101883474.200 6  24513563.705    24513563.885    24513571.349
        40.600          38.900
 136595103.682 7                  25993180.110
        43.000
 122572135.701 8                  23324698.004
        48.800
 128637283.062 6 100236858.95845  24478857.736    24478856.9324   24478860.6294
        40.000          30.9004
 121644007.554 7  94787554.55346  23148081.854    23148081.0994   23148083.4554
        42.400          38.6004
 121241501.491 7  94473906.23147  23071487.374    23071486.9364   23071489.9094
        46.400          43.2004
 102852105.291 8  79996124.621 8  19267657.222    19267657.576    19267663.396
        52.000          48.400
 114063379.944 8  88716001.489 7  21315467.800    21315467.780    21315474.735
        48.300          45.400
 104907749.394 8  81594953.073 8  19597642.663    19597642.574    19597647.810
        53.000          48.500
 25  1  1  9 17  0.0000000  0 27G10G24E08R04S31S35R12E13S48S33R02R13
                                E29G23R19G18E07G15R11E33E26G08G27G32
                                R18R17R03
 115848100.083 8  90271263.94747  22045156.361    22045155.7274   22045157.9664
        49.000          47.8004
 112293434.727 7  87501416.31847  21368721.208    21368720.7794   21368723.5774
        46.300          46.8004
 136401312.466 7                  25956297.014
        43.500
 113762516.395 8  88482006.720 7  21244347.936    21244347.838    21244353.683
        50.200          46.000
 198974387.108 7                  37863561.276
        46.100
 200954140.077 7                  38240302.957
        44.600
 124500208.386 7  96833530.815 6  23306693.960    23306693.716    23306700.531
        45.000          41.500
 130627102.034 7                  24857492.347
        45.100
 412736599.812 5                  78541197.316
        33.000
 202095779.269 7                  38457517.546
        45.600
 117361840.791 8  91281474.987 7  21993553.877    21993554.256    21993559.521
        49.800          46.000
 127439770.874 6                  23865373.991    23865373.978
        39.400
 132749708.309 7                  25261425.032
        44.500
 107333216.126 8  83636282.60146  20424826.133    20424825.7224   20424825.5604
        48.700          39.8004
 110987749.418 6  86323831.216 7  20747979.102    20747979.734    20747985.144
        39.800          44.500
 110406463.459 7  86031013.89146  21009646.399    21009646.0154   21009646.5794
        47.800          38.1004
 122191054.949 8                  23252177.636
        48.800
 118686857.027 7  92483284.50846  22585349.312    22585348.8524   22585349.1134
        45.400          40.3004
 131016285.524 6 101901572.144 6  24517918.312    24517919.111    24517926.598
        38.900          37.300
 136557716.216 7                  25986065.348
        43.000
 122565643.492 8                  23323462.667
        48.600
 128620324.973 6 100223644.89245  24475630.972    24475630.1774   24475633.4054
        40.500          31.5004
 121652541.789 7  94794204.63646  23149704.882    23149704.1314   23149707.5434
        43.100          38.6004
 121199991.919 7  94441561.17147  23063588.264    23063587.8264   23063590.8644
        46.600          43.3004
 102862436.087 8  80004159.695 8  19269592.660    19269592.841    19269598.674
        52.200          48.500
 114122640.368 8  88762092.916 7  21326542.370    21326542.250    21326549.469
        48.600          45.600
 104916602.834 8  81601839.094 8  19599296.463    19599296.462    19599301.631
        52.700          48.500
 25  1  1  9 17 15.0000000  0 27G10G24E08R04S31S35R12E13S48S33R02R13
                                E29G23R19G18E07G15R11E33E26G08G27G32
                                R18R17R03
 115820290.803 8  90249594.42347  22039864.337    22039863.6944   22039865.9624
        49.000          47.7004
 112285597.245 7  87495309.22747  21367229.716    21367229.2964   21367232.1434
        46.200          46.7004
 136437333.645 7                  25963151.579
        43.600
 113729419.087 8  88456264.414 7  21238166.680    21238167.269    21238173.172
        50.100          46.100
 198974385.026 7                  37863561.741
        46.200
 200954141.054 7                  38240301.759
        44.500
 124476792.099 7  96815318.265 6  23302310.071    23302309.617    23302317.084
        44.900          41.900
 130659108.681 7                  24863583.135
        44.900
 412736412.809 5                  78541177.555
        33.000
 202095758.487 7                  38457511.214
        45.500
 117407675.684 8  91317124.369 7  22002143.363    22002143.304    22002149.249
        49.700          46.300
 127389842.611 6                  23856024.653    23856024.406
        39.800
 132716496.034 7                  25255104.924
        44.600
 107333082.195 8  83636178.25446  20424800.394    20424799.9744   20424800.0454
        48.100          39.6004
 110946267.596 6  86291567.587 7  20740225.328    20740224.608    20740230.783
        40.200          44.800
 110436926.699 7  86054751.47746  21015443.198    21015442.8094   21015443.5774
        47.600          38.1004
 122194472.505 8                  23252828.032
        48.900
 118735975.091 7  92521558.34346  22594696.167    22594695.6984   22594695.8874
        45.300          40.2004
 131039718.444 6 101919798.256 6  24522304.473    24522303.426    24522311.118
        38.200          36.400
 136520358.583 7                  25978956.162
        43.500
 122559236.550 8                  23322243.402
        48.600
 128603494.757 6 100210530.44045  24472428.298    24472427.4944   24472430.5164
        39.900          31.2004
 121661213.936 7  94800962.18746  23151355.826    23151355.0714   23151357.7114
        43.200          38.7004
 121158547.368 7  94409266.77747  23055701.946    23055701.5174   23055704.1114
        46.700          43.1004
 102872969.448 8  80012352.314 8  19271566.271    19271566.190    19271571.939
        51.900          48.600
 114181999.890 7  88808261.447 7  21337634.383    21337634.776    21337642.312
        47.700          45.300
 104925549.930 8  81608797.956 8  19600968.128    19600967.932    19600973.065
        53.200          48.400
 25  1  1  9 17 30.0000000  0 27G10G24E08R04S31S35R12E13S48S33R02R13
                                E29G23R19G18E07G15R11E33E26G08G27G32
                                R18R17R03
 115792507.030 8  90227944.76547  22034577.110    22034576.4714   22034578.8894
        48.700          47.7004
 112277921.333 7  87489328.02547  21365769.233    21365768.8134   21365771.4344
        46.700          46.6004
 136473380.795 7                  25970011.099
        43.400
 113696406.971 8  88430588.368 7  21232002.374    21232002.525    21232007.981
        50.400          46.100
 198974381.882 7                  37863559.161
        45.800
 200954141.473 7                  38240303.463
        44.500
 124453523.930 7  96797220.915 6  23297954.296    23297954.167    23297961.505
        44.100          41.800
 130691180.414 7                  24869686.525
        45.200
 412736226.551 5                  78541152.228
        32.900
 202095735.645 7                  38457509.506
        45.500
 117453521.591 8  91352782.276 7  22010735.297    22010735.383    22010740.496
        49.900          46.000
 127339952.835 6                  23846682.083    23846680.848
        38.700
 132683338.827 7                  25248795.113
        44.100
 107333007.308 8  83636119.91546  20424786.174    20424785.7594   20424785.7854
        48.400          39.6004
 110904930.555 6  86259416.587 7  20732498.081    20732497.514    20732502.790
        40.800          44.400
 110467508.324 7  86078581.31346  21021262.763    21021262.3794   21021263.0684
        47.200          38.1004
 122197968.756 8                  23253493.297
        49.000
 118785127.922 7  92559859.26546  22604049.296    22604048.8234   22604049.4614
        45.000          40.4004
 131063309.254 6 101938147.202 6  24526717.098    24526717.892    24526725.651
        39.700          37.300
 136483029.247 7                  25971852.573
        42.900
 122552913.226 8                  23321040.190
        48.700
 128586790.788 6 100197514.36845  24469249.573    24469248.7784   24469251.7874
        40.100          31.6004
 121670022.108 7  94807825.72046  23153031.927    23153031.1764   23153033.8094
        42.900          38.4004
 121117166.246 7  94377021.81747  23047827.024    23047826.6004   23047829.3784
        46.500          43.2004
 102883703.787 8  80020701.269 8  19273577.177    19273577.021    19273582.778
        52.100          48.700
 114241456.239 8  88854505.297 7  21348746.167    21348746.186    21348752.447
        48.400          44.900
 104934588.796 8  81615828.201 8  19602656.384    19602656.466    19602661.617
        53.000          48.400
 25  1  1  9 17 45.0000000  0 27G10G24E08R04S31S35R12E13S48S33R02R13
                                E29G23R19G18E07G15R11E33E26G08G27G32
                                R18R17R03
 115764754.529 8  90206319.47947  22029296.148    22029295.5054   22029297.7694
        48.800          47.8004
 112270412.832 7  87483477.28047  21364339.856    21364339.4324   21364342.6174
        46.800          46.7004
 136509459.510 7                  25976876.860
        43.600
 113663485.832 8  88404983.058 7  21225854.393    21225854.656    21225860.085
        50.200          46.000
 198974383.121 7                  37863560.453
        45.900
 200954146.327 7                  38240300.775
        44.200
 124430410.141 7  96779243.632 6  23293627.078    23293627.094    23293634.021
        45.100          41.000
 130723322.931 7                  24875802.772
        45.200
 412736044.685 5                  78541134.610
        33.300
 202095718.516 7                  38457504.046
        45.200
 117499383.687 8  91388452.806 7  22019329.360    22019329.502    22019335.357
        49.300          46.100
 127290107.860 6                  23837347.669    23837347.324
        39.100
 132650242.505 7                  25242497.608
        44.100
 107332997.229 8  83636112.07546  20424783.974    20424783.5594   20424783.8224
        48.000          39.6004
 110863744.378 6  86227382.925 7  20724797.586    20724798.007    20724803.573
        40.300          44.500
 110498213.973 7  86102507.79446  21027106.191    21027105.8074   21027106.2584
        47.300          38.1004
 122201549.347 8                  23254174.494
        49.000
 118834320.707 7  92598191.31546  22613410.667    22613410.1854   22613410.4814
        44.800          40.3004
 131087062.323 6 101956621.835 6  24531162.989    24531163.150    24531171.303
        40.000          37.600
 136445734.191 7                  25964755.716
        42.900
 122546679.396 8                  23319853.903
        49.000
 128570218.900 6 100184601.21645  24466095.717    24466094.9224   24466098.3364
        40.700          32.2004
 121678971.861 7  94814799.58546  23154734.943    23154734.1834   23154736.8134
        42.400          38.6004
 121075854.445 7  94344830.87247  23039965.876    23039965.4384   23039967.8194
        47.300          43.2004
 102894644.683 8  80029210.877 8  19275626.561    19275626.638    19275632.199
        52.300          48.500
 114301014.725 8  88900828.576 7  21359874.894    21359875.240    21359882.875
        48.100          45.300
 104943724.950 8  81622934.111 8  19604362.867    19604363.182    19604368.176
        52.800          48.400
 25  1  1  9 18  0.0000000  0 27G10G24E08R04S31S35R12E13S48S33R02R13
                                E29G23R19G18E07G15R11E33E26G08G27G32
                                R18R17R03
 115737024.281 8  90184711.53047  22024018.916    22024018.2684   22024020.8654
        48.500          47.8004
 112263062.799 7  87477750.00947  21362941.451    21362941.0094   21362943.9384
        46.200          46.7004
 136545560.549 7                  25983746.362
        43.300
 113630646.398 8  88379441.310 7  21219721.923    21219722.077    21219727.921
        49.900          46.100
 198974380.383 7                  37863557.891
        46.100
 200954147.152 7                  38240304.066
        44.200
 124407441.769 7  96761379.459 7  23289327.460    23289327.924    23289335.302
        46.000          42.300
 130755527.045 7                  24881931.016
        45.000
 412735859.112 5                  78541116.410
        33.100
 202095697.095 7                  38457502.056
        45.300
 117545252.845 8  91424128.815 7  22027925.128    22027925.570    22027931.019
        49.700          46.200
 127240299.256 6                  23828019.299    23828018.920
        38.800
 132617198.078 7                  25236209.175
        44.200
 107333042.956 7  83636147.72446  20424792.658    20424792.2564   20424792.4794
        47.800          39.6004
 110822700.640 6  86195460.034 7  20717125.166    20717125.230    20717131.101
        40.200          44.600
 110529034.406 7  86126523.72146  21032970.829    21032970.4454   21032971.1444
        47.300          38.0004
 122205205.079 8                  23254870.277
        48.700
 118883544.079 7  92636547.21046  22622777.683    22622777.2104   22622777.1714
        44.400          40.2004
 131110970.073 6 101975217.071 6  24535636.974    24535636.981    24535644.625
        40.000          36.900
 136408464.477 7                  25957663.531
        43.200
 122540526.114 8                  23318682.720
        48.600
 128553770.123 6 100171783.98445  24462965.751    24462964.9694   24462968.7194
        39.700          32.3004
 121688053.935 7  94821876.55046  23156463.205    23156462.4414   23156464.9484
        42.600          38.6004
 121034602.941 7  94312686.91447  23032115.743    23032115.2924   23032117.8404
        46.300          43.1004
 102905782.890 8  80037873.959 8  19277712.956    19277713.004    19277718.734
        52.300          48.300
 114360665.646 7  88947223.718 7  21371022.632    21371022.615    21371029.906
        47.400          45.200
 104952948.958 8  81630108.356 8  19606086.058    19606086.201    19606091.423
        53.100          48.400
 25  1  1  9 18 15.0000000  0 27G10G24E08R04S31S35R12E13S48S33R02R13
                                E29G23R19G18E07G15R11E33E26G08G27G32
                                R18R17R03
 115709320.341 8  90163124.08047  22018747.016    22018746.3644   22018748.9214
        48.600          47.8004
 112255875.353 7  87472149.43547  21361573.779    21361573.3504   21361576.1854
        46.000          46.7004
 136581687.683 7                  25990621.254
        42.900
 113597892.826 8  88353966.342 7  21213604.489    21213605.501    21213611.734
        49.500          46.200
 198974378.058 7                  37863560.967
        46.100
 200954147.185 7                  38240302.586
        44.400
 124384623.343 7  96743631.919 6  23285055.936    23285055.960    23285062.640
        45.500          41.600
 130787796.691 7                  24888071.625
        45.000
 412735672.938 5                  78541097.236
        33.300
 202095675.705 7                  38457498.474
        45.300
 117591133.009 8  91459813.400 7  22036523.196    22036522.998    22036528.961
        49.200          46.000
 127190531.152 6                  23818698.304    23818697.331
        37.300
 132584209.600 7                  25229931.445
        44.100
 107333148.537 8  83636230.00646  20424812.928    20424812.5314   20424812.5654
        48.100          39.6004
 110781803.801 6  86163651.410 7  20709479.919    20709480.718    20709485.538
        40.500          44.500
 110559973.466 7  86150632.07746  21038858.325    21038857.9414   21038858.6304
        47.500          38.2004
 122208939.840 8                  23255581.011
        48.600
 118932801.854 7  92674929.90746  22632151.086    22632150.6214   22632150.7704
        45.100          40.4004
 131135035.376 6 101993934.792 6  24540139.834    24540140.053    24540148.193
        38.400          36.900
 136371224.256 7                  25950576.835
        42.700
 122534457.503 8                  23317528.170
        48.500
 128537448.554 6 100159065.87545  24459859.347    24459858.5784   24459862.8384
        40.100          31.5004
 121697272.183 7  94829059.62846  23158217.518    23158216.7544   23158219.2644
        42.900          38.5004
 120993415.870 7  94280593.15347  23024278.161    23024277.7144   23024280.2444
        46.300          43.2004
 102917122.431 8  80046693.618 8  19279837.051    19279837.404    19279843.055
        52.500          48.400
 114420412.689 8  88993693.641 7  21382188.433    21382188.413    21382195.176
        48.500          45.300
 104962264.497 8  81637353.798 8  19607826.258    19607826.561    19607831.555
        52.800          48.500
 25  1  1  9 18 30.0000000  0 27G10G24E08R04S31S35R12E13S48S33R02R13
                                E29G23R19G18E07G15R11E33E26G08G27G32
                                R18R17R03
 115681645.143 8  90141559.02547  22013480.809    22013480.1614   22013482.4584
        48.900          47.6004
 112248853.013 7  87466677.51947  21360237.601    21360237.1814   21360239.8364
        46.600          46.6004
 136617843.172 7                  25997501.500
        43.300
 113565227.622 8  88328560.084 7  21207505.092    21207505.586    21207511.243
        49.900          46.000
 198974376.603 7                  37863558.977
        45.900
 200954150.314 7                  38240302.694
        44.000
 124361957.594 7  96726003.127 7  23280812.524    23280812.994    23280820.063
        46.000          42.400
 130820134.177 7                  24894225.189
        44.900
 412735488.737 5                  78541070.089
        33.100
 202095655.928 7                  38457493.336
        45.200
 117637026.059 8  91495508.009 7  22045123.935    22045123.726    22045129.157
        50.100          46.400
 127140806.943 6                  23809388.782    23809387.033
        38.700
 132551279.530 7                  25223665.045
        44.200
 107333316.448 8  83636360.86146  20424844.611    20424844.2144   20424844.4974
        48.000          39.4004
 110741056.467 6  86131959.062 7  20701862.752    20701862.755    20701868.214
        40.100          44.500
 110591033.419 7  86174834.64246  21044768.915    21044768.5264   21044769.1714
        47.500          38.0004
 122212755.916 8                  23256307.143
        48.800
 118982096.182 7  92713341.09346  22641531.330    22641530.8704   22641531.1654
        44.800          40.3004
 131159261.141 6 102012777.556 6  24544673.375    24544673.599    24544681.515
        39.600          37.000
 136334016.181 7                  25943496.565
        43.300
 122528476.081 8                  23316389.853
        48.700
 128521256.704 6 100146448.84645  24456778.695    24456777.9494   24456781.6844
        39.200          31.3004
 121706628.843 7  94836350.55346  23159997.654    23159996.8724   23159999.9444
        42.600          38.6004
 120952295.781 7  94248551.59547  23016453.078    23016452.6404   23016455.1514
        46.400          43.0004
 102928665.686 8  80055671.728 8  19281999.624    19281999.752    19282005.469
        52.500          48.400
 114480257.817 8  89040239.858 7  21393371.240    21393371.275    21393378.579
        48.200          44.900
 104971674.157 8  81644672.431 8  19609583.828    19609584.284    19609589.368
        52.900          48.300
 25  1  1  9 18 45.0000000  0 27G10G24E08R04S31S35R12E13S48S33R02R13
                                E29G23R19G18E07G15R11E33E26G08G27G32
                                R18R17R03
 115653993.052 8  90120011.96847  22008218.355    22008217.7034   22008220.4234
        48.500          47.5004
 112241990.150 7  87461329.86747  21358931.689    21358931.2654   21358933.8504
        46.600          46.5004
 136654021.097 7                  26004385.936
        43.800
 113532644.980 8  88303218.066 7  21201420.584    21201421.107    21201426.603
        50.000          45.900
 198974372.451 7                  37863557.296
        45.900
 200954149.106 7                  38240301.840
        44.200
 124339439.163 7  96708488.887 7  23276597.122    23276597.604    23276603.779
        45.600          42.000
 130852533.743 7                  24900390.704
        45.200
 412735301.924 5                  78541046.246
        33.300
 202095633.162 7                  38457488.333
        45.200
 117682925.919 8  91531207.901 7  22053724.486    22053724.767    22053731.105
        49.200          46.000
 127091121.344 6                  23800082.890    23800083.276
        39.700
 132518402.258 7                  25217408.785
        44.300
 107333541.030 8  83636535.87846  20424887.717    20424887.3284   20424887.2644
        48.200          39.3004
 110700453.819 6  86100379.239 7  20694272.801    20694272.448    20694278.203
        40.300          44.700
 110622208.425 7  86199126.85846  21050701.396    21050701.0124   21050701.6334
        47.800          38.0004
 122216647.504 8                  23257047.731
        49.000
 119031421.069 7  92751776.08546  22650917.917    22650917.4444   22650917.2984
        45.300          40.2004
 131183640.959 6 102031740.202 6  24549234.431    24549235.405    24549242.073
        40.500          36.800
 136296834.766 7                  25936421.077
        43.400
 122522576.266 8                  23315266.937
        48.800
 128505188.943 6 100133928.51845  24453721.295    24453720.5494   24453724.0424
        39.900          31.4004
 121716118.026 7  94843744.74346  23161803.814    23161803.0324   23161805.6394
        42.600          38.3004
 120911237.046 7  94216557.84147  23008639.777    23008639.3394   23008641.9034
        46.800          43.0004
 102940406.862 8  80064803.763 8  19284199.297    19284199.320    19284205.047
        52.500          48.300
 114540194.627 8  89086857.382 7  21404571.902    21404571.970    21404579.113
        48.200          45.300
 104981171.473 8  81652059.244 8  19611358.488    19611358.387    19611363.426
        53.200          48.200
 25  1  1  9 19  0.0000000  0 27G10G24E08R04S31S35R12E13S48S33R02R13
                                E29G23R19G18E07G15R11E33E26G08G27G32
                                R18R17R03
 115626370.865 8  90098488.21747  22002962.455    22002961.8034   22002964.0714
        49.000          47.5004
 112235293.671 7  87456111.86747  21357657.312    21357656.8834   21357659.5224
        46.600          46.4004
 136690228.052 7                  26011275.770
        43.500
 113500151.675 8  88277945.541 7  21195352.771    21195353.227    21195358.853
        49.900          46.000
 198974371.921 7                  37863557.292
        46.300
 200954152.160 7                  38240301.902
        44.400
 124317075.219 7  96691094.834 6  23272409.753    23272410.498    23272417.124
        46.300          41.900
 130885002.045 7                  24906569.417
        45.100
 412735117.980 5                  78541021.921
        33.000
 202095613.439 7                  38457485.735
        45.600
 117728839.565 8  91566918.535 7  22062329.230    22062329.850    22062334.950
        49.900          45.800
 127041481.546 6                  23790786.103    23790785.449
        38.800
 132485584.578 7                  25211163.616
        44.300
 107333829.087 8  83636760.35746  20424942.468    20424942.0934   20424942.0644
        48.300          39.3004
 110660002.735 6  86068917.335 7  20686709.571    20686710.640    20686716.014
        40.300          44.600
 110653505.083 7  86223513.87446  21056656.728    21056656.3484   21056657.2214
        47.300          37.9004
 122220621.222 8                  23257803.833
        48.900
 119080783.065 7  92790239.99646  22660311.010    22660310.5504   22660310.5184
        44.800          40.1004
 131208179.875 6 102050825.896 6  24553828.142    24553827.922    24553835.257
        40.700          37.100
 136259686.893 7                  25929352.077
        43.100
 122516764.934 8                  23314161.354
        48.700
 128489252.106 6 100121510.20345  24450688.225    24450687.4654   24450691.2274
        40.200          31.7004
 121725746.315 7  94851247.32846  23163635.985    23163635.2074   23163637.8064
        43.100          38.2004
 120870246.553 7  94184617.26047  23000839.545    23000839.1034   23000841.7124
        46.300          42.8004
 102952352.583 8  80074094.877 8  19286436.758    19286437.224    19286442.942
        52.600          48.300
 114600229.628 7  89133551.306 7  21415790.624    21415791.146    21415797.944
        47.900          45.300
 104990763.473 8  81659519.712 8  19613150.170    19613150.242    19613155.098
        52.800          48.300
 25  1  1  9 19 15.0000000  0 27G10G24E08R04S31S35R12E13S48S33R02R13
                                E29G23R19G18E07G15R11E33E26G08G27G32
                                R18R17R03
 115598776.385 8  90076986.05847  21997711.207    21997710.5414   21997712.9824
        48.400          47.8004
 112228761.362 7  87451021.78447  21356414.226    21356413.7974   21356416.4334
        46.500          46.8004
 136726461.583 7                  26018170.835
        42.500
 113467745.278 8  88252740.587 7  21189301.499    21189301.391    21189307.142
        50.600          46.100
 198974371.586 7                  37863557.600
        46.100
 200954155.004 7                  38240305.417
        44.300
 124294863.875 7  96673819.441 7  23268251.610    23268252.765    23268258.802
        46.100          42.400
 130917536.747 7                  24912760.581
        44.600
 412734935.579 5                  78540999.254
        33.100
 202095595.484 7                  38457481.965
        45.300
 117774764.453 8  91602637.891 7  22070935.385    22070935.282    22070941.110
        49.400          45.700
 126991885.997 6                  23781499.112    23781498.560
        38.600
 132452824.264 7                  25204929.605
        43.800
 107334178.400 8  83637032.56346  20425009.110    20425008.7304   20425008.5344
        48.400          39.6004
 110619701.801 6  86037572.162 7  20679176.530    20679176.796    20679182.506
        40.200          44.900
 110684920.984 7  86247993.80046  21062635.151    21062634.7804   21062635.4634
        47.600          38.2004
 122224674.701 8                  23258575.273
        48.800
 119130179.528 7  92828730.76446  22669710.778    22669710.3224   22669710.3474
        44.500          40.3004
 131232877.488 6 102070035.281 6  24558450.108    24558450.382    24558456.339
        40.500          36.300
 136222570.497 7                  25922289.181
        42.900
 122511039.925 8                  23313071.835
        48.400
 128473444.010 6 100109192.19245  24447680.417    24447679.6714   24447683.2294
        39.800          32.1004
 121735511.274 7  94858856.41346  23165493.805    23165493.0184   23165495.9224
        42.600          38.5004
 120829322.191 7  94152728.22147  22993051.619    22993051.1814   22993053.9874
        46.500          43.1004
 102964500.567 8  80083543.308 8  19288712.613    19288712.811    19288718.479
        52.700          48.300
 114660360.032 8  89180319.409 7  21427027.689    21427027.958    21427034.796
        48.500          45.300
 105000447.002 8  81667051.351 8  19614959.071    19614959.201    19614964.173
        52.900          48.200
 25  1  1  9 19 30.0000000  0 27G10G24E08R04S31S35R12E13S48S33R02R13
                                E29G23R19G18E07G15R11E33E26G08G27G32
                                R18R17R03
 115571202.337 8  90055499.82147  21992464.107    21992463.4464   21992465.7924
        48.700          47.8004
 112222386.052 7  87446054.03847  21355200.786    21355200.3484   21355203.2024
        46.800          46.8004
 136762714.240 7                  26025069.713
        43.200
 113435418.487 8  88227597.574 7  21183264.078    21183264.683    21183270.264
        50.200          46.300
 198974365.190 7                  37863556.191
        45.800
 200954151.439 7                  38240302.492
        44.000
 124272797.973 7  96656657.201 7  23264120.496    23264120.794    23264128.319
        45.400          42.400
 130950130.416 7                  24918963.022
        44.900
 412734746.469 5                  78540986.318
        33.000
 202095569.400 7                  38457479.895
        45.200
 117820692.857 8  91638359.996 7  22079542.658    22079542.842    22079548.425
        49.100          45.800
 126942327.796 6                  23772219.428    23772217.976
        39.400
 132420114.093 7                  25198704.884
        44.200
 107334581.694 8  83637346.83246  20425085.641    20425085.2524   20425085.2274
        48.200          39.6004
 110579543.984 6  86006338.345 7  20671670.322    20671669.765    20671675.568
        40.400          45.000
 110716448.637 7  86272560.80746  21068634.430    21068634.0504   21068634.9774
        47.800          38.3004
 122228800.504 8                  23259360.264
        49.000
 119179602.933 7  92867242.52046  22679115.840    22679115.3934   22679115.4214
        44.400          40.5004
 131257724.097 6 102089360.058 6  24563098.773    24563098.419    24563107.430
        38.700          36.700
 136185478.459 7                  25915230.888
        43.200
 122505394.070 8                  23311997.205
        48.500
 128457757.468 6 100096968.90645  24444695.252    24444694.4974   24444698.5424
        40.400          32.4004
 121745405.399 7  94866566.14946  23167376.815    23167376.0334   23167378.5824
        42.300          38.3004
 120788456.677 7  94120885.03047  22985275.296    22985274.8544   22985277.3574
        46.400          43.1004
 102976843.403 8  80093143.310 8  19291024.996    19291025.226    19291030.737
        52.800          48.600
 114720577.952 7  89227155.631 7  21438280.147    21438280.796    21438288.216
        47.700          45.700
 105010215.120 8  81674648.798 8  19616783.858    19616784.066    19616789.029
        52.800          48.300
 25  1  1  9 19 45.0000000  0 27G10G24E08R04S31S35R12E13S48S33R02R13
                                E29G23R19G18E07G15R11E33E26G08G27G32
                                R18R17R03
 115543658.346 8  90034037.01847  21987222.452    21987221.7774   21987224.3224
        48.400          47.9004
 112216177.348 7  87441216.11647  21354019.450    21354019.0034   21354021.7014
        46.400          46.8004
 136798995.360 7                  26031973.763
        43.600
 113403180.899 8  88202523.960 7  21177243.882    21177244.019    21177249.917
        49.400          46.000
 198974362.500 7                  37863554.635
        45.900
 200954151.966 7                  38240301.710
        44.300
 124250887.619 7  96639615.905 7  23260019.427    23260020.280    23260027.452
        46.600          43.000
 130982792.549 7                  24925178.221
        45.300
 412734561.485 5                  78540954.591
        33.000
 202095548.493 7                  38457474.708
        45.300
 117866634.195 8  91674092.150 7  22088151.604    22088151.512    22088157.868
        48.600          45.600
 126892817.129 6                  23762945.561    23762946.554
        38.600
 132387463.674 7                  25192492.007
        44.200
 107335048.591 8  83637710.66546  20425174.425    20425174.0364   20425174.0514
        48.600          39.7004
 110539539.196 6  85975223.559 7  20664191.216    20664191.517    20664196.503
        40.000          44.900
 110748097.481 7  86297222.24546  21074656.916    21074656.5324   21074657.5464
        47.400          38.3004
 122233008.049 8                  23260160.853
        49.100
 119229062.549 7  92905782.50446  22688527.714    22688527.2944   22688527.2034
        44.800          40.5004
 131282731.340 6 102108810.182 6  24567779.293    24567778.535    24567786.536
        38.700          36.500
 136148420.574 7                  25908178.694
        43.800
 122499837.000 8                  23310939.839
        48.600
 128442202.103 6 100084847.82645  24441734.600    24441733.8364   24441738.1274
        39.600          32.2004
 121755438.085 7  94874383.84346  23169285.914    23169285.1324   23169287.7024
        42.100          38.3004
 120747659.711 7  94089095.24047  22977511.937    22977511.4954   22977513.8114
        46.500          43.1004
 102989390.599 8  80102902.268 8  19293375.482    19293375.654    19293381.134
        52.400          48.500
 114780892.574 7  89274067.028 7  21449551.720    21449552.281    21449559.236
        47.900          45.100
 105020076.923 8  81682319.102 8  19618626.211    19618626.343    19618631.373
        52.500          48.300
 25  1  1  9 20  0.0000000  0 27G10G24E08R04S31S35R12E13S48S33R02R13
                                E29G23R19G18E07G15R11E33E26G08G27G32
                                R18R17R03
 115516144.210 8  90012597.47347  21981986.883    21981986.2134   21981988.5354
        48.200          47.9004
 112210135.191 7  87436507.97947  21352869.838    21352869.4144   21352871.8994
        46.700          46.9004
 136835304.579 7                  26038882.999
        42.900
 113371032.444 8  88177519.634 7  21171240.259    21171240.589    21171246.594
        50.300          46.000
 198974362.207 7                  37863555.320
        45.900
 200954154.994 7                  38240300.972
        44.200
 124229132.992 7  96622695.733 7  23255947.759    23255947.696    23255954.274
        46.800          42.900
 131015522.842 7                  24931406.588
        45.100
 412734379.275 5                  78540931.205
        32.300
 202095529.707 7                  38457469.583
        45.300
 117912588.249 8  91709834.194 7  22096764.011    22096764.322    22096769.372
        49.200          45.500
 126843354.448 6                  23753682.891    23753682.421
        38.400
 132354872.877 7                  25186289.900
        44.200
 107335578.941 8  83638123.94546  20425275.264    20425274.8624   20425274.9674
        48.400          39.8004
 110499687.889 6  85944228.103 7  20656741.393    20656741.700    20656746.999
        39.500          45.100
 110779867.093 7  86321977.79446  21080702.495    21080702.1024   21080703.0994
        47.400          38.3004
 122237297.026 8                  23260977.235
        48.800
 119278557.924 7  92944350.34346  22697946.244    22697945.8204   22697945.7954
        44.500          40.4004
 131307897.235 6 102128383.383 6  24572487.801    24572488.612    24572495.821
        38.900          37.400
 136111396.770 7                  25901133.227
        43.300
 122494368.656 8                  23309899.343
        48.500
 128426777.818 6 100072828.90845  24438799.726    24438798.9804   24438803.1064
        39.400          32.1004
 121765608.923 7  94882309.19646  23171221.785    23171221.0214   23171223.1184
        42.400          38.3004
 120706931.192 7  94057358.79347  22969761.543    22969761.0964   22969763.5064
        45.900          43.2004
 103002142.070 8  80112820.091 8  19295764.055    19295764.372    19295770.000
        52.600          48.400
 114841303.178 8  89321053.061 7  21460841.246    21460841.397    21460848.692
        48.300          45.300
 105030032.115 8  81690062.050 8  19620486.136    19620486.181    19620491.157
        53.000          48.200
 25  1  1  9 20 15.0000000  0 27G10G24E08R04S31S35R12E13S48S33R02R13
                                E29G23R19G18E07G15R11E33E26G08G27G32
                                R18R17R03
 115488657.491 8  89991179.28048  21976756.263    21976755.6024   21976757.9214
        48.300          48.1004
 112204257.103 7  87431927.67547  21351750.925    21351750.4874   21351753.3184
        46.200          47.0004
 136871639.160 7                  26045797.216
        43.100
 113338970.351 8  88152582.469 7  21165253.291    21165253.587    21165258.980
        50.200          45.900
 198974362.664 7                  37863556.370
        45.800
 200954158.296 7                  38240302.676
        44.100
 124207531.799 7  96605894.932 7  23251902.724    23251903.029    23251910.559
        45.900          42.900
 131048318.645 7                  24937647.369
        45.300
 412734197.302 5                  78540914.763
        32.900
 202095511.476 7                  38457468.443
        45.300
 117958552.023 8  91745583.805 7  22105377.008    22105376.980    22105382.625
        48.500          45.400
 126793937.644 6                  23744430.212    23744429.247
        39.300
 132322339.172 7                  25180098.832
        44.300
 107336170.240 8  83638584.71346  20425387.887    20425387.4764   20425387.4954
        48.500          39.9004
 110459987.868 6  85913350.355 7  20649319.422    20649319.272    20649325.684
        39.200          44.900
 110811754.821 7  86346825.37346  21086770.646    21086770.2534   21086771.1224
        47.100          38.4004
 122241664.771 8                  23261808.034
        48.900
 119328085.984 7  92982943.66246  22707371.169    22707370.7494   22707370.7374
        44.400          40.6004
 131333219.137 6 102148077.798 5  24577227.726    24577228.129    24577234.856
        40.300          35.200
 136074404.669 7                  25894094.012
        43.300
 122488986.589 8                  23308875.108
        48.500
 128411482.065 6 100060910.12845  24435888.986    24435888.2354   24435892.5584
        39.400          32.3004
 121775915.188 6  94890340.06146  23173182.654    23173181.8814   23173184.3764
        41.900          38.4004
 120666268.692 7  94025673.79047  22962023.719    22962023.2814   22962025.7124
        46.500          43.3004
 103015094.963 8  80122894.579 8  19298190.733    19298190.885    19298196.647
        52.600          48.600
 114901806.846 7  89368111.492 7  21472147.179    21472147.627    21472154.756
        47.900          45.100
 105040077.591 8  81697875.210 8  19622362.400    19622362.715    19622367.758
        52.900          48.200
 25  1  1  9 20 30.0000000  0 27G10G24E08R04S31S35R12E13S48S33R02R13
                                E29G23R19G18E07G15R11E33E26G08G27G32
                                R18R17R03
 115461192.528 8  89969778.05248  21971529.720    21971529.0594   21971531.4804
        48.600          48.0004
 112198537.515 7  87427470.89147  21350662.615    21350662.1864   21350664.8674
        46.700          46.9004
 136907993.240 7                  26052715.024
        43.300
 113306988.997 8  88127708.106 7  21159280.870    21159281.064    21159287.092
        49.900          46.000
 198974357.669 7                  37863553.634
        45.800
 200954156.237 7                  38240301.808
        44.100
 124186078.703 7  96589209.260 7  23247887.129    23247887.677    23247894.746
        46.400          42.900
 131081174.235 7                  24943899.606
        44.900
 412734010.441 5                  78540890.567
        32.800
 202095487.750 7                  38457461.883
        45.400
 118004519.746 8  91781336.479 7  22113991.730    22113991.731    22113997.340
        49.000          45.500
 126744561.533 6                  23735181.948    23735182.285
        39.000
 132289856.984 7                  25173917.978
        44.300
 107336816.879 8  83639088.60046  20425510.991    20425510.5764   20425510.5324
        48.000          39.8004
 110420433.869 6  85882586.150 7  20641926.302    20641925.842    20641931.149
        40.000          44.800
 110843754.862 7  86371760.47646  21092860.166    21092859.7734   21092860.5514
        47.600          38.5004
 122246105.474 8                  23262653.298
        48.900
 119377641.114 7  93021558.06746  22716801.215    22716800.7774   22716800.8124
        45.100          40.5004
 131358692.368 6 102167890.415 6  24581993.888    24581994.575    24582002.598
        39.000          36.900
 136037438.857 7                  25887059.718
        43.500
 122483685.255 8                  23307866.253
        48.600
 128396309.375 6 100049087.23845  24433001.586    24433000.8404   24433005.6024
        38.500          31.8004
 121786351.021 6  94898471.89646  23175168.684    23175167.9114   23175170.3544
        41.800          38.3004
 120625666.674 7  93994035.90847  22954297.230    22954296.7834   22954299.3114
        46.400          43.2004
 103028243.482 8  80133121.229 8  19300653.873    19300653.971    19300659.621
        52.400          48.500
 114962396.981 7  89415237.159 7  21483470.856    21483470.405    21483477.696
        47.100          45.300
 105050207.567 8  81705754.098 8  19624254.696    19624254.945    19624260.001
        53.100          48.200
 25  1  1  9 20 45.0000000  0 27G10G24E08R04S31S35R12E13S48S33R02R13
                                E29G23R19G18E07G15R11E33E26G08G27G32
                                R18R17R03
 115433758.302 8  89948400.76848  21966308.854    21966308.1884   21966310.8964
        48.800          48.3004
 112192985.452 7  87423144.64247  21349605.699    21349605.2664   21349608.3034
        46.600          47.1004
 136944375.574 7                  26059638.456
        42.900
 113275097.226 8  88102903.413 7  21153324.967    21153325.628    21153331.137
        50.300          45.700
 198974356.183 7                  37863555.302
        46.000
 200954158.059 7                  38240304.379
        44.300
 124164783.186 7  96572646.189 7  23243900.834    23243900.510    23243907.173
        45.900          42.800
 131114098.434 7                  24950165.007
        44.700
 412733828.947 5                  78540869.277
        32.600
 202095468.288 7                  38457457.148
        45.300
 118050500.035 8  91817098.940 7  22122607.806    22122608.225    22122613.598
        48.800          45.300
 126695235.639 6                  23725944.543    23725943.958
        37.300
 132257435.299 7                  25167748.026
        44.200
 107337527.825 8  83639642.59846  20425646.290    20425645.8704   20425645.8124
        48.500          40.0004
 110381035.366 6  85851942.909 7  20634559.719    20634560.722    20634566.374
        39.900          44.700
 110875875.920 7  86396789.87346  21098972.477    21098972.0844   21098973.0184
        47.600          38.6004
 122250627.962 8                  23263513.819
        48.800
 119427232.007 7  93060200.34046  22726237.619    22726237.1774   22726237.6524
        44.600          40.7004
 131384325.432 6 102187827.617 6  24586791.860    24586791.736    24586798.659
        40.600          37.500
 136000508.446 7                  25880031.754
        43.600
 122478473.691 8                  23306874.502
        48.500
 128381268.703 6 100037367.24645  24430140.135    24430139.3934   24430143.4604
        38.800          32.0004
 121796925.170 7  94906711.50546  23177181.193    23177180.4294   23177182.5034
        42.000          38.3004
 120585134.128 7  93962452.15347  22946584.219    22946583.7724   22946586.0844
        46.500          43.3004
 103041596.632 8  80143507.023 8  19303155.543    19303155.656    19303161.042
        52.400          48.400
 115023082.507 7  89462437.014 7  21494811.068    21494811.098    21494817.950
        47.800          45.500
 105060430.747 8  81713705.479 8  19626164.331    19626164.788    19626169.809
        52.700          48.200
 25  1  1  9 21  0.0000000  0 27G10G24E08R04S31S35R12E13S48S33R02R13
                                E29G23R19G18E07G15R11E33E26G08G27G32
                                R18R17R03
 115406351.191 8  89927044.62348  21961093.838    21961093.1774   21961095.4374
        48.800          48.2004
 112187597.284 7  87418946.10647  21348580.967    21348580.5294   21348582.9114
        46.800          47.0004
 136980782.234 7                  26066566.537
        43.400
 113243291.594 8  88078165.738 7  21147385.361    21147386.275    21147391.897
        50.100          46.000
 198974355.437 7                  37863556.522
        46.400
 200954159.641 7                  38240301.933
        44.500
 124143641.629 7  96556202.846 7  23239942.785    23239942.445    23239949.899
        46.800          42.800
 131147087.439 7                  24956442.449
        44.800
 412733649.112 5                  78540855.107
        33.200
 202095448.825 7                  38457453.780
        45.600
 118096488.931 8  91852868.091 7  22131226.060    22131225.990    22131232.011
        48.200          45.100
 126645956.857 6                  23716717.210    23716716.563
        38.200
 132225070.433 7                  25161589.660
        44.500
 107338299.411 8  83640243.84546  20425793.093    20425792.6784   20425792.6334
        48.500          40.0004
 110341789.309 6  85821418.209 7  20627223.865    20627223.952    20627229.474
        40.200          44.800
 110908114.158 8  86421910.58346  21105107.179    21105106.7774   21105107.7264
        48.200          38.6004
 122255228.392 8                  23264389.015
        49.100
 119476854.449 7  93098867.19746  22735680.724    22735680.2864   22735680.4274
        44.700          40.7004
 131410112.610 6 102207884.252 6  24591617.047    24591617.542    24591624.895
        39.100          37.400
 135963609.845 7                  25873010.265
        43.700
 122473348.301 8                  23305899.230
        48.600
 128366356.394 6 100025747.27945  24427302.352    24427301.6284   24427305.5674
        37.600          31.5004
 121807633.744 6  94915055.86446  23179218.294    23179217.5254   23179220.0524
        41.900          38.3004
 120544667.477 7  93930919.75347  22938883.522    22938883.0754   22938885.3914
        46.700          43.2004
 103055150.624 8  80154049.033 8  19305694.376    19305694.598    19305700.061
        52.300          48.400
 115083859.047 7  89509707.634 7  21506168.591    21506168.438    21506175.960
        47.600          45.100
 105070743.166 8  81721726.253 8  19628091.032    19628091.221    19628096.327
        52.900          48.200
 25  1  1  9 21 15.0000000  0 27G10G24E08R04S31S35R12E13S48S33R02R13
                                E29G23R19G18E07G15R11E33E26G08G27G32
                                R18R17R03
 115378971.465 8  89905709.80647  21955883.523    21955882.8574   21955885.1744
        48.900          47.9004
 112182373.337 7  87414875.53647  21347586.575    21347586.1374   21347588.7944
        46.400          46.7004
 137017213.349 7                  26073499.043
        43.000
 113211572.080 8  88053495.069 7  21141461.838    21141462.909    21141468.414
        50.400          46.100
 198974354.213 7                  37863555.852
        46.300
 200954161.653 7                  38240307.608
        44.400
 124122654.711 7  96539879.798 7  23236013.822    23236013.391    23236020.733
        45.700          42.800
 131180141.415 7                  24962732.698
        44.800
 412733468.235 5                  78540827.772
        33.200
 202095428.263 7                  38457449.993
        45.500
 118142486.802 8  91888644.214 7  22139846.714    22139846.818    22139852.069
        48.700          44.900
 126596725.960 6                  23707496.586    23707496.248
        37.600
 132192762.718 7                  25155441.332
        44.400
 107339131.990 8  83640892.62546  20425951.378    20425950.9584   20425951.0504
        48.600          39.6004
 110302696.361 6  85791012.613 7  20619915.684    20619915.617    20619920.974
        40.100          44.700
 110940469.683 7  86447122.68846  21111264.088    21111263.6824   21111264.7974
        47.800          38.5004
 122259906.910 8                  23265279.529
        48.900
 119526508.689 7  93137558.82546  22745129.751    22745129.3274   22745129.3054
        44.300          40.2004
 131436054.511 6 102228060.962 6  24596470.603    24596471.390    24596479.288
        38.400          36.800
 135926743.589 7                  25865994.922
        43.400
 122468309.460 8                  23304940.324
        48.500
 128351572.828 6 100014227.62945  24424488.433    24424487.7314   24424492.0584
        38.700          32.0004
 121818476.808 7  94923505.01446  23181281.643    23181280.8744   23181283.2414
        42.500          38.0004
 120504267.111 7  93899439.00447  22931195.412    22931194.9614   22931197.4164
        46.400          43.0004
 103068905.427 8  80164747.226 8  19308271.001    19308271.223    19308276.807
        52.200          48.600
 115144726.421 7  89557048.940 7  21517543.523    21517543.279    21517550.592
        47.600          45.100
 105081144.757 8  81729816.398 8  19630034.199    19630034.311    19630039.305
        52.800          48.200
 25  1  1  9 21 30.0000000  0 27G10G24E08R04S31S35R12E13S48S33R02R13
                                E29G23R19G18E07G15R11E33E26G08G27G32
                                R18R17R03
 115351616.378 8  89884394.19148  21950677.747    21950677.0724   21950679.6384
        49.100          48.0004
 112177310.886 7  87410930.80447  21346623.307    21346622.8784   21346625.3784
        46.700          46.8004
 137053665.911 7                  26080435.598
        43.000
 113179935.918 8  88028889.237 7  21135554.359    21135554.845    21135560.265
        50.100          45.700
 198974350.315 7                  37863552.708
        46.000
 200954160.832 7                  38240308.100
        44.300
 124101819.944 7  96523675.073 7  23232113.004    23232113.488    23232119.971
        46.300          42.800
 131213257.457 7                  24969034.275
        44.500
 412733284.179 5                  78540803.781
        33.100
 202095406.606 7                  38457445.468
        45.200
 118188490.098 8  91924424.579 7  22148467.534    22148467.399    22148473.080
        48.100          45.400
 126547540.562 6                  23698287.196    23698286.606
        38.700
 132160509.426 7                  25149303.812
        44.400
 107340022.754 8  83641586.73846  20426121.033    20426120.6004   20426120.5644
        48.700          39.8004
 110263753.864 6  85760724.038 7  20612636.467    20612635.704    20612641.396
        40.400          44.900
 110972939.503 8  86472423.85146  21117442.945    21117442.5434   21117443.5694
        48.100          38.4004
 122264660.556 8                  23266184.133
        48.700
 119576191.668 7  93176272.85446  22754584.188    22754583.7774   22754583.6174
        45.100          40.4004
 131462149.917 6 102248357.966 6  24601355.009    24601355.695    24601361.929
        40.700          36.400
 135889906.979 7                  25858985.044
        43.600
 122463354.467 8                  23303997.306
        48.300
 128336915.217 6 100002806.13045  24421699.250    24421698.5624   24421702.6334
        38.800          31.8004
 121829451.338 7  94932056.61046  23183370.299    23183369.5264   23183371.6184
        43.100          38.0004
 120463930.276 7  93868007.76547  22923519.590    22923519.1524   22923521.4734
        46.700          43.0004
 103082858.200 8  80175599.403 8  19310885.073    19310885.097    19310890.609
        52.300          48.300
 115205681.226 7  89604458.243 7  21528934.188    21528934.532    21528941.362
        47.800          44.800
 105091632.683 8  81737973.704 8  19631993.095    19631993.570    19631998.417
        53.100          48.300
 25  1  1  9 21 45.0000000  0 27G10G24E08R04S31S35R12E13S48S33R02R13
                                E29G23R19G18E07G15R11E33E26G08G27G32
                                R18R17R03
 115324293.995 8  89863104.06648  21945478.519    21945477.8444   21945480.3664
        48.600          48.2004
 112172418.053 7  87407118.24247  21345692.191    21345691.7584   21345694.2344
        46.900          46.9004
 137090147.758 7                  26087377.830
        42.500
 113148390.924 8  88004354.282 7  21129663.398    21129663.912    21129669.578
        50.000          46.000
 198974351.964 7                  37863552.386
        45.800
 200954165.274 7                  38240307.340
        44.400
 124081145.863 7  96507595.321 7  23228243.634    23228243.388    23228250.077
        46.400          43.000
 131246443.499 7                  24975349.376
        44.400
 412733104.735 5                  78540781.754
        32.700
 202095389.900 7                  38457444.462
        45.000
 118234507.069 8  91960215.561 7  22157091.673    22157091.594    22157096.779
        48.900          45.100
 126498409.570 6                  23689085.121    23689085.500
        38.700
 132128318.608 7                  25143177.729
        44.100
 107340979.794 8  83642332.49846  20426303.101    20426302.6684   20426302.6944
        48.300          39.9004
 110224970.561 6  85730559.264 7  20605385.718    20605385.478    20605391.433
        39.700          44.700
 111005531.469 7  86497820.19146  21123645.018    21123644.6124   21123645.5404
        47.700          38.5004
 122269497.247 8                  23267104.502
        48.600
 119625910.990 7  93215015.19446  22764045.160    22764044.7314   22764044.9804
        44.300          40.4004
 131488404.898 6 102268778.840 6  24606267.688    24606267.446    24606275.514
        38.100          37.300
 135853108.256 7                  25851982.581
        43.000
 122458491.445 8                  23303071.958
        48.200
 128322391.739 6  99991489.16945  24418936.057    24418935.3784   24418939.2554
        39.900          32.4004
 121840565.184 7  94940716.76146  23185484.812    23185484.0344   23185486.4634
        42.100          38.1004
 120423665.095 7  93836632.34347  22915857.343    22915856.8964   22915859.1064
        46.100          43.2004
 103097016.957 8  80186611.772 8  19313537.401    19313537.471    19313543.144
        52.100          48.500
 115266731.278 8  89651941.616 7  21540343.067    21540342.876    21540349.325
        48.100          45.200
 105102215.003 8  81746204.407 8  19633970.175    19633970.381    19633975.290
        53.000          48.300
 25  1  1  9 22  0.0000000  0 27G10G24E08R04S31S35R12E13S48S33R02R13
                                E29G23R19G18E07G15R11E33E26G08G27G32
                                R18R17R03
 115296994.580 8  89841831.83148  21940283.782    21940283.1124   21940285.4454
        48.800          48.2004
 112167685.126 7  87403430.28747  21344791.499    21344791.0614   21344793.5654
        46.500          47.0004
 137126648.942 7                  26094324.089
        42.700
 113116927.425 8  87979882.717 7  21123787.721    21123788.226    21123793.906
        49.900          45.900
 198974349.222 7                  37863552.221
        45.800
 200954165.314 7                  38240307.425
        44.500
 124060622.683 7  96491632.956 7  23224400.765    23224401.321    23224408.421
        46.600          43.400
 131279689.657 7                  24981676.037
        44.900
 412732920.651 5                  78540759.468
        32.800
 202095368.614 7                  38457441.528
        45.400
 118280527.671 8  91996009.383 7  22165715.147    22165715.499    22165721.023
        48.600          45.600
 126449323.366 6                  23679892.909    23679893.109
        39.100
 132096180.584 7                  25137062.306
        44.500
 107341993.402 8  83643122.33546  20426495.965    20426495.5274   20426495.5554
        48.500          40.0004
 110186337.065 6  85700511.012 7  20598163.573    20598163.669    20598169.132
        40.100          45.000
 111038235.663 7  86523303.99046  21129868.562    21129868.1514   21129868.9384
        47.800          38.6004
 122274407.083 8                  23268038.648
        48.700
 119675656.637 7  93253778.05646  22773511.619    22773511.1814   22773511.3694
        44.600          40.5004
 131514809.910 6 102289316.670 6  24611209.175    24611209.380    24611216.102
        39.800          36.600
 135816337.826 7                  25844985.299
        43.600
 122453710.716 8                  23302162.218
        48.200
 128307992.515 6  99980269.01345  24416194.982    24416194.2894   24416199.1844
        39.100          32.2004
 121851808.368 7  94949477.69346  23187624.552    23187623.7794   23187625.9654
        43.100          38.2004
 120383461.911 7  93805305.23147  22908207.071    22908206.6114   22908208.7554
        47.100          43.3004
 103111371.781 8  80197776.636 8  19316226.413    19316226.705    19316232.186
        52.400          48.400
 115327866.019 7  89699490.889 7  21551766.386    21551766.950    21551774.375
        46.900          45.100
 105112881.126 8  81754500.294 8  19635962.776    19635962.963    19635967.854
        53.000          48.400
 25  1  1  9 22 15.0000000  0 27G10G24E08R04S31S35R12E13S48S33R02R13
                                E29G23R19G18E07G15R11E33E26G08G27G32
                                R18R17R03
 115269723.279 8  89820581.50748  21935093.935    21935093.2604   21935095.8674
        49.000          48.2004
 112163117.262 7  87399870.94347  21343921.939    21343921.5064   21343924.2904
        47.000          46.9004
 137163174.368 7                  26101274.528
        42.900
 113085550.545 8  87955478.533 7  21117928.145    21117928.939    21117934.551
        50.200          46.200
 198974347.538 7                  37863550.074
        46.000
 200954165.986 7                  38240308.100
        44.400
 124040256.024 7  96475792.310 7  23220587.244    23220587.894    23220594.574
        46.100          42.600
 131313000.933 7                  24988014.470
        44.900
 412734337.756 5                  78540744.094
        33.000
 202095348.095 7                  38457434.217
        45.200
 118326556.401 8  92031809.503 7  22174340.974    22174341.375    22174346.814
        49.400          45.300
 126400287.929 6                  23670710.151    23670710.480
        38.800
 132064100.413 7                  25130957.705
        44.200
 107343068.671 8  83643960.22946  20426700.650    20426700.2214   20426700.1724
        48.200          40.0004
 110147858.902 6  85670583.569 7  20590970.677    20590970.147    20590976.134
        40.200          45.000
 111071056.974 8  86548879.05146  21136114.165    21136113.7594   21136114.6234
        48.100          38.5004
 122279394.999 8                  23268987.942
        48.800
 119725433.458 7  93292565.20546  22782983.373    22782982.9404   22782983.4284
        44.800          40.4004
 131541367.917 6 102309972.780 6  24616179.061    24616179.226    24616185.922
        40.500          36.800
 135779600.983 7                  25837994.234
        43.400
 122449017.470 8                  23301269.026
        48.200
 128293722.816 6  99969149.76845  24413479.982    24413479.3034   24413483.5944
        38.900          31.7004
 121863185.761 7  94958343.20246  23189789.029    23189788.2474   23189791.0134
        42.900          37.9004
 120343325.909 7  93774030.46947  22900569.193    22900568.7374   22900571.0404
        46.700          43.3004
 103125927.679 8  80209097.902 8  19318953.312    19318953.523    19318959.048
        52.500          48.300
 115389090.276 7  89747109.777 7  21563208.327    21563208.598    21563215.549
        47.600          45.100
 105123635.616 8  81762864.923 8  19637971.772    19637971.964    19637976.838
        53.100          48.400
 25  1  1  9 22 30.0000000  0 27G10G24E08R04S31S35R12E13S48S33R02R13
                                E29G23R19G18E07G15R11E33E26G08G27G32
                                R18R17R03
 115242476.531 8  89799350.30248  21929909.133    21929908.4674   21929910.9144
        49.400          48.2004
 112158710.909 7  87396437.46247  21343083.479    21343083.0464   21343085.7544
        46.600          47.0004
 137199720.239 7                  26108228.753
        42.900
 113054256.571 8  87931138.842 7  21112084.729    21112084.957    21112090.467
        50.000          45.900
 198974342.595 7                  37863548.952
        45.600
 200954163.991 7                  38240303.767
        44.000
 124020042.641 7  96460070.862 7  23216804.936    23216805.429    23216810.661
        47.900          42.800
 131346373.639 7                  24994365.275
        44.700
 412734152.333 5                  78540723.780
        32.900
 202095324.643 7                  38457427.103
        44.800
 118372589.681 8  92067613.164 7  22182967.283    22182967.899    22182973.102
        49.500          44.900
 126351299.670 6                  23661535.886    23661535.900
        38.800
 132032074.547 7                  25124863.208
        44.400
 107344202.067 8  83644843.41246  20426916.452    20426916.0234   20426915.8254
        48.600          40.0004
 110109532.901 6  85640774.511 7  20583805.304    20583805.781    20583811.504
        40.400          44.800
 111103991.640 7  86574542.44446  21142381.603    21142381.2014   21142381.9024
        47.900          38.5004
 122284457.264 8                  23269951.296
        49.000
 119775237.553 7  93331373.61046  22792460.955    22792460.5174   22792460.8854
        44.600          40.3004
 131568076.866 6 102330746.514 5  24621177.637    24621177.508    24621184.404
        38.700          35.400
 135742894.234 7                  25831009.763
        43.200
 122444408.223 8                  23300391.941
        48.400
 128279579.099 6  99958128.71045  24410788.507    24410787.8284   24410791.4944
        39.000          31.6004
 121874693.559 7  94967310.31946  23191979.406    23191978.6194   23191980.9414
        43.100          38.0004
 120303253.570 7  93742805.31547  22892943.593    22892943.1374   22892945.5334
        46.900          43.3004
 103140680.813 8  80220572.578 8  19321717.007    19321717.084    19321722.735
        52.000          48.600
 115450399.666 7  89794794.832 7  21574665.265    21574665.248    21574672.329
        47.400          45.100
 105134475.259 8  81771295.773 8  19639996.554    19639996.890    19640001.857
        52.900          48.600
 25  1  1  9 22 45.0000000  0 27G10G24E08R04S31S35R12E13S48S33R02R13
                                E29G23R19G18E07G15R11E33E26G08G27G32
                                R18R17R03
 115215261.102 8  89778143.50448  21924730.279    21924729.6094   21924731.9524
        49.000          48.3004
 112154472.869 7  87393135.12847  21342277.323    21342276.8994   21342279.2344
        46.600          47.0004
 137236293.061 7                  26115188.482
        42.800
 113023052.196 8  87906868.802 7  21106257.335    21106257.615    21106262.691
        49.600          45.800
 198974341.696 7                  37863551.595
        45.700
 200954165.709 7                  38240303.861
        44.300
 123999989.467 7  96444474.051 7  23213050.033    23213050.406    23213057.422
        47.000          43.100
 131379814.287 7                  25000728.923
        44.700
 412733970.251 5                  78540696.100
        32.600
 202095305.228 7                  38457426.454
        45.300
 118418634.285 8  92103425.613 7  22191595.576    22191596.181    22191601.929
        48.200          45.000
 126302366.343 6                  23652371.776    23652371.337
        38.100
 132000109.772 7                  25118780.660
        44.300
 107345400.327 8  83645777.14346  20427144.247    20427143.8274   20427143.8514
        48.400          40.0004
 110071366.446 6  85611089.492 7  20576670.255    20576670.837    20576676.086
        40.200          44.800
 111137046.166 8  86600299.23246  21148671.352    21148670.9554   21148671.9504
        48.200          38.6004
 122289600.451 8                  23270929.824
        49.000
 119825075.387 7  93370208.30846  22801944.442    22801944.0044   22801944.9324
        45.000          40.5004
 131594942.766 6 102351642.203 5  24626204.113    24626204.577    24626210.946
        39.300          35.400
 135706224.505 7                  25824031.411
        43.500
 122439889.769 8                  23299531.997
        48.200
 128265568.117 6  99947211.07345  24408122.211    24408121.5594   24408125.0214
        38.900          31.7004
 121886338.250 7  94976384.10746  23194195.202    23194194.4204   23194196.9564
        42.600          38.1004
 120263251.720 7  93711635.08847  22885331.789    22885331.3384   22885333.4104
        47.300          43.5004
 103155637.943 8  80232205.900 8  19324518.811    19324519.151    19324524.707
        52.000          48.700
 115511800.505 7  89842551.016 7  21586138.591    21586139.244    21586146.915
        46.900          44.700
 105145406.392 8  81779797.778 8  19642038.510    19642038.852    19642043.984
        52.800          48.500
 25  1  1  9 23  0.0000000  0 27G10G24E08R04S31S35R12E13S48S33R02R13
                                E29G23R19G18E07G15R11E33E26G08G27G32
                                R18R17R03
 115188070.581 8  89756956.11648  21919556.268    21919555.6024   21919557.7394
        49.200          48.4004
 112150396.769 7  87389958.98347  21341501.720    21341501.2964   21341503.5514
        47.100          47.0004
 137272886.263 7                  26122151.859
        43.000
 112991930.929 8  87882663.393 7  21100445.311    21100445.936    21100451.357
        49.300          45.800
 198974337.507 7                  37863551.317
        46.000
 200954164.407 7                  38240307.389
        44.500
 123980090.512 7  96428997.192 7  23209325.479    23209325.214    23209332.547
        47.500          43.400
 131413316.448 7                  25007104.124
        44.800
 412733787.040 5                  78540679.886
        33.200
 202095283.314 7                  38457421.996
        45.200
 118464683.083 8  92139241.366 7  22200225.582    22200226.109    22200231.418
        48.800          45.200
 126253481.926 6                  23643217.413    23643217.782
        38.900
 131968199.712 7                  25112708.235
        45.200
 107346657.085 8  83646756.45746  20427383.628    20427383.2084   20427382.9534
        48.800          40.2004
 110033353.120 6  85581523.589 7  20569565.081    20569564.575    20569570.191
        40.200          44.900
 111170213.956 8  86626144.26346  21154983.231    21154982.8424   21154983.4934
        48.300          38.6004
 122294818.010 8                  23271922.681
        49.300
 119874940.258 7  93409064.07346  22811433.681    22811433.2214   22811433.6214
        44.800          40.4004
 131621959.072 6 102372654.958 6  24631260.805    24631260.739    24631266.947
        40.200          37.200
 135669585.602 7                  25817059.461
        43.800
 122435455.794 8                  23298688.388
        48.500
 128251683.478 6  99936391.88845  24405480.218    24405479.5704   24405483.4234
        38.100          31.8004
 121898113.258 7  94985559.44646  23196435.729    23196434.9424   23196437.8024
        42.700          38.2004
 120223314.026 7  93680514.85247  22877731.718    22877731.2624   22877733.5474
        46.800          43.6004
 103170792.372 8  80243992.687 8  19327358.067    19327358.184    19327363.771
        52.100          48.500
 115573285.919 7  89890372.955 7  21597630.673    21597630.496    21597636.843
        47.700          44.600
 105156422.233 8  81788365.671 8  19644096.603    19644096.661    19644101.677
        53.000          48.600
 25  1  1  9 23 15.0000000  0 27G10G24E08R04S31S35R12E13S48S33R02R13
                                E29G23R19G18E07G15R11E33E26G08G27G32
                                R18R17R03
 115160909.292 8  89735791.50748  21914387.495    21914386.8294   21914389.0764
        49.200          48.4004
 112146486.884 7  87386912.35647  21340757.368    21340756.9354   21340759.4954
        47.200          47.0004
 137309503.888 7                  26129119.672
        42.400
 112960897.121 8  87858526.028 7  21094649.735    21094650.110    21094656.138
        49.500          45.900
 198974335.658 7                  37863550.539
        45.800
 200954164.436 7                  38240303.718
        44.100
 123960350.326 7  96413643.815 7  23205629.657    23205630.116    23205635.928
        47.000          42.700
 131446884.196 7                  25013491.845
        44.600
 412733606.511 5                  78540649.001
        32.600
 202095262.273 7                  38457416.326
        45.000
 118510740.410 8  92175063.749 7  22208856.988    22208857.319    22208862.415
        49.100          45.000
 126204651.010 6                  23634071.162    23634071.910
        37.500
 131936348.592 7                  25106647.114
        44.400
 107347976.574 8  83647784.64346  20427634.413    20427633.9894   20427633.9994
        48.300          40.1004
 109995498.292 6  85552080.994 7  20562487.978    20562488.197    20562493.839
        40.400          45.200
 111203499.047 8  86652080.69946  21161317.042    21161316.6534   21161317.4354
        48.000          38.5004
 122300114.025 8                  23272930.533
        49.000
 119924836.147 7  93447944.00646  22820928.647    22820928.1744   22820928.3034
        44.600          40.2004
 131649129.519 6 102393787.572 6  24636344.304    24636344.451    24636352.103
        38.700          37.500
 135632981.886 7                  25810093.631
        43.500
 122431110.606 8                  23297861.450
        48.400
 128237929.512 6  99925674.53145  24402862.850    24402862.2164   24402866.5764
        38.700          32.1004
 121910022.546 7  94994839.41846  23198702.373    23198701.5824   23198704.1014
        42.800          38.0004
 120183444.794 7  93649447.96247  22870144.763    22870144.3034   22870146.6794
        47.100          43.6004
 103186148.387 8  80255936.266 8  19330234.727    19330234.783    19330240.559
        52.500          48.500
 115634859.513 7  89938263.500 7  21609135.857    21609136.043    21609143.445
        46.700          44.600
 105167526.876 8  81797002.643 8  19646170.885    19646171.136    19646176.112
        52.800          48.800
 25  1  1  9 23 30.0000000  0 27G10G24E08R04S31S35R12E13S48S33R02R13
                                E29G23R19G18E07G15R11E33E26G08G27G32
                                R18R17R03
 115133777.781 8  89714650.10148  21909224.242    21909223.5814   21909226.0874
        48.800          48.3004
 112142743.840 7  87383995.73047  21340045.079    21340044.6374   21340047.1614
        46.800          46.9004
 137346146.242 7                  26136092.674
        42.500
 112929951.302 8  87834457.064 7  21088870.812    21088871.526    21088877.116
        49.900          45.700
 198974335.450 7                  37863550.660
        45.800
 200954166.743 7                  38240305.649
        44.100
 123940769.797 7  96398414.590 7  23201963.931    23201964.570    23201970.799
        47.200          42.900
 131480518.010 7                  25019891.978
        44.700
 412733429.412 5                  78540629.603
        32.700
 202095243.441 7                  38457415.342
        45.300
 118556806.682 8  92210893.064 7  22217489.365    22217489.917    22217495.320
        49.000          45.000
 126155875.182 6                  23624939.139    23624938.894
        38.000
 131904557.076 7                  25100597.422
        44.300
 107349359.439 8  83648862.21446  20427897.696    20427897.2764   20427897.1404
        48.200          39.9004
 109957802.441 6  85522761.995 7  20555441.157    20555441.304    20555446.665
        41.000          44.800
 111236901.828 7  86678108.84146  21167673.562    21167673.1874   21167673.7974
        47.900          38.4004
 122305488.905 8                  23273953.382
        49.100
 119974763.276 7  93486848.27746  22830429.631    22830429.1714   22830429.4274
        44.300          40.2004
 131676454.577 6 102415040.511 6  24641457.596    24641458.065    24641465.091
        39.300          36.100
 135596414.081 7                  25803135.028
        43.800
 122426854.868 8                  23297051.654
        48.300
 128224306.770 6  99915059.41845  24400270.526    24400269.8964   24400274.5464
        38.200          31.6004
 121922066.454 6  95004224.27746  23200994.728    23200993.9414   23200995.7594
        41.600          37.6004
 120143644.651 7  93618434.89747  22862570.829    22862570.3564   22862572.8824
        46.700          43.6004
 103201706.402 8  80268036.946 8  19333149.033    19333149.311    19333154.961
        52.100          48.500
 115696521.787 7  89986223.012 7  21620659.015    21620659.321    21620666.508
        47.600          44.600
 105178720.488 8  81805708.796 8  19648261.881    19648262.125    19648267.119
        52.700          48.600
 25  1  1  9 23 45.0000000  0 27G10G24E08R04S31S35R12E13S48S33R02R13
                                E29G23R19G18E07G15R11E33E26G08G27G32
                                R18R17R03
 115106676.008 8  89693531.85948  21904067.173    21904066.5164   21904068.7904
        48.800          48.4004
 112139167.609 7  87381209.09047  21339364.625    21339364.1834   21339366.5764
        46.900          47.0004
 137382813.034 7                  26143070.012
        42.300
 112899093.077 8  87810456.266 7  21083108.559    21083108.848    21083114.393
        49.900          45.700
 198974336.678 7                  37863551.648
        46.000
 200954170.634 7                  38240304.898
        44.400
 123921348.976 7  96383309.597 7  23198328.230    23198328.466    23198334.735
        46.200          43.200
 131514217.682 7                  25026304.930
        44.500
 412733253.628 5                  78540606.064
        32.700
 202095226.993 7                  38457410.325
        45.400
 118602881.515 8  92246729.062 7  22226123.903    22226124.226    22226129.554
        48.600          45.000
 126107154.340 6                  23615814.726    23615814.011
        38.200
 131872825.035 7                  25094558.909
        44.500
 107350805.598 8  83649989.10946  20428172.844    20428172.4244   20428172.3104
        48.300          40.0004
 109920265.786 6  85493566.874 7  20548423.648    20548424.152    20548429.813
        40.700          45.100
 111270422.018 8  86704228.47246  21174052.105    21174051.7304   21174052.4694
        48.100          38.5004
 122310942.448 8                  23274991.161
        49.100
 120024721.300 7  93525776.62146  22839936.070    22839935.6104   22839936.2944
        44.700          40.1004
 131703933.527 6 102436413.085 5  24646599.810    24646600.395    24646606.938
        39.800          34.900
 135559882.325 7                  25796183.194
        43.100
 122422688.579 8                  23296258.669
        48.300
 128210815.253 6  99904546.56345  24397703.419    24397702.7714   24397707.1064
        40.000          32.0004
 121934244.712 7  95013713.83946  23203311.803    23203311.0164   23203312.9094
        42.400          37.7004
 120103913.653 7  93587475.73247  22855010.557    22855010.0974   22855012.2314
        46.300          43.6004
 103217466.031 8  80280294.470 8  19336101.209    19336101.561    19336107.180
        52.000          48.600
 115758271.725 7  90034250.740 7  21632198.254    21632199.054    21632205.843
        47.100          44.700
 105190003.008 8  81814484.120 8  19650369.766    19650369.869    19650374.756
        52.800          48.600
 25  1  1  9 24  0.0000000  0 27G10G24E08R04S31S35R12E13S48S33R02R13
                                E29G23R19G18E07G15R11E33E26G08G27G32
                                R18R17R03
 115079599.532 8  89672433.33548  21898914.620    21898913.9634   21898916.2914
        49.300          48.7004
 112135753.694 7  87378548.93447  21338714.789    21338714.3514   21338716.9074
        46.700          47.1004
 137419499.567 7                  26150051.350
        42.200
 112868318.037 8  87786520.146 7  21077361.352    21077361.753    21077367.777
        49.800          46.000
 198974335.760 7                  37863548.822
        46.000
 200954172.193 7                  38240306.351
        44.200
 123902083.755 7  96368325.612 7  23194721.947    23194722.764    23194728.631
        47.700          43.100
 131547978.544 7                  25032729.255
        44.100
 412733074.957 5                  78540590.320
        32.700
 202095207.738 7                  38457408.545
        45.200
 118648959.925 8  92282567.809 7  22234759.551    22234759.555    22234764.874
        49.400          45.300
 126058484.610 6                  23606700.630    23606700.415
        38.200
 131841148.035 7                  25088530.990
        44.300
 107352310.564 8  83651161.82846  20428459.173    20428458.7534   20428458.7224
        48.400          40.2004
 109882884.884 6  85464492.850 7  20541436.642    20541436.504    20541441.767
        41.000          45.400
 111304054.918 8  86730435.92346  21180452.429    21180452.0634   21180452.5994
        48.100          38.6004
 122316469.961 8                  23276043.007
        48.800
 120074705.560 7  93564725.41246  22849448.088    22849447.6234   22849447.7304
        44.200          40.1004
 131731561.242 6 102457901.171 5  24651771.614    24651771.066    24651777.408
        39.200          34.600
 135523382.257 7                  25789237.381
        43.200
 122418607.308 8                  23295482.254
        48.300
 128197450.445 6  99894132.44745  24395159.491    24395158.8344   24395163.4334
        38.400          31.9004
 121946552.528 7  95023304.34146  23205653.491    23205652.6874   23205654.8594
        42.900          37.9004
 120064247.285 7  93556566.91347  22847462.460    22847462.0094   22847463.9894
        46.700          44.1004
 103233422.708 8  80292705.233 8  19339090.606    19339090.769    19339096.326
        52.100          48.600
 115820104.427 7  90082342.783 7  21643753.396    21643753.990    21643760.753
        47.400          44.500
 105201369.187 8  81823324.494 8  19652492.778    19652493.004    19652498.155
        52.500          48.700
 25  1  1  9 24 15.0000000  0 27G10G24E08R04S31S35R12E13S48S33R02R13
                                E29G23R19G18E07G15R11E33E26G08G27G32
                                R18R17R03
 115052553.616 8  89651358.61948  21893767.873    21893767.2214   21893769.5974
        49.200          48.8004
 112132507.408 7  87376019.39747  21338097.107    21338096.6694   21338099.1214
        47.000          47.3004
 137456210.942 7                  26157037.355
        42.500
 112837631.301 8  87762652.734 7  21071631.253    21071631.190    21071637.227
        49.500          46.100
 198974337.996 7                  37863550.472
        45.700
 200954176.875 7                  38240307.912
        44.100
 123882979.575 7  96353466.876 7  23191145.369    23191145.640    23191152.406
        47.400          43.400
 131581805.775 7                  25039166.264
        44.300
 412732898.444 5                  78540563.329
        32.500
 202095191.369 7                  38457405.424
        45.100
 118695047.214 8  92318413.475 7  22243395.903    22243396.038    22243401.733
        49.100          45.200
 126009872.083 6                  23597596.285    23597596.322
        38.100
 131809531.374 7                  25082514.404
        44.500
 107353879.674 8  83652384.53246  20428757.853    20428757.4384   20428757.2704
        48.400          40.3004
 109845665.118 6  85435544.176 7  20534478.465    20534478.409    20534483.793
        41.000          45.300
 111337805.607 8  86756735.15646  21186874.796    21186874.4304   21186875.1464
        48.000          38.7004
 122322076.574 8                  23277109.955
        49.100
 120124720.914 7  93603698.43146  22858965.497    22858965.0374   22858965.1674
        45.000          40.3004
 131759343.727 6 102479509.862 6  24656969.405    24656969.918    24656977.507
        39.100          37.400
 135486919.296 7                  25782298.826
        43.500
 122414616.410 8                  23294722.625
        48.400
 128184217.696 6  99883821.21945  24392642.220    24392641.5684   24392644.7694
        38.400          31.1004
 121958994.970 7  95032999.74646  23208021.377    23208020.5824   23208022.4314
        42.300          37.9004
 120024650.946 7  93525712.64947  22839927.370    22839926.9284   22839929.0424
        47.000          44.2004
 103249581.626 8  80305273.312 8  19342117.692    19342117.892    19342123.516
        52.200          48.500
 115882024.603 7  90130502.902 7  21655324.635    21655324.913    21655332.217
        47.500          44.400
 105212824.506 8  81832234.205 8  19654632.686    19654632.926    19654638.090
        52.800          48.700
 25  1  1  9 24 30.0000000  0 27G10G24E08R04S31S35R12E13S48S33R02R13
                                E29G23R19G18E07G15R11E33E26G08G27G32
                                R18R17R03
 115025533.401 8  89630303.93248  21888625.877    21888625.2114   21888627.7944
        49.300          48.8004
 112129423.909 7  87373616.70447  21337510.249    21337509.8204   21337512.3374
        46.900          47.2004
 137492942.042 7                  26164027.052
        42.400
 112807028.106 8  87738850.282 7  21065916.334    21065916.438    21065921.876
        50.000          46.100
 198974336.710 7                  37863551.040
        45.700
 200954178.584 7                  38240305.149
        44.100
 123864032.034 7  96338729.985 7  23187598.468    23187598.700    23187604.647
        46.800          43.100
 131615694.313 7                  25045615.348
        44.200
 412732719.452 5                  78540545.854
        32.100
 202095171.988 7                  38457401.887
        45.200
 118741138.104 8  92354261.975 7  22252033.599    22252033.755    22252039.168
        49.400          45.100
 125961312.082 6                  23588502.317    23588502.624
        37.900
 131777970.132 7                  25076508.810
        44.600
 107355507.992 8  83653653.36646  20429067.649    20429067.2294   20429067.1314
        48.300          40.3004
 109808601.787 6  85406717.191 7  20527549.560    20527549.957    20527555.411
        41.000          45.300
 111371668.959 8  86783122.18346  21193318.672    21193318.3014   21193319.1164
        48.200          38.6004
 122327757.223 8                  23278190.797
        49.000
 120174762.208 7  93642691.66846  22868487.759    22868487.2904   22868487.7024
        44.200          40.1004
 131787275.035 6 102501234.232 6  24662196.858    24662196.949    24662204.056
        36.000          36.100
 135450488.729 7                  25775366.232
        43.300
 122410711.045 8                  23293979.405
        48.200
 128171112.147 6  99873609.13245  24390147.358    24390146.6834   24390150.7134
        38.200          31.2004
 121971566.896 7  95042796.04846  23210413.524    23210412.7334   23210414.7854
        42.700          38.0004
 119985119.759 7  93494909.16447  22832404.762    22832404.3154   22832406.3684
        47.000          44.2004
 103265937.596 8  80317994.650 8  19345182.261    19345182.116    19345187.481
        52.300          48.600
 115944027.004 7  90178727.016 7  21666910.629    21666911.911    21666919.242
        46.900          44.500
 105224363.453 8  81841208.972 8  19656788.276    19656788.544    19656793.627
        52.600          48.700
 25  1  1  9 24 45.0000000  0 27G10G24E08R04S31S35R12E13S48S33R02R13
                                E29G23R19G18E07G15R11E33E26G08G27G32
                                R18R17R03
 114998541.199 8  89609271.07648  21883489.852    21883489.1864   21883491.2954
        49.400          48.9004
 112126505.483 7  87371342.64547  21336954.984    21336954.5514   21336956.9534
        46.500          47.3004
 137529694.962 7                  26171020.754
        42.400
 112776510.348 8  87715114.278 7  21060216.310    21060217.391    21060222.869
        50.000          45.900
 198974336.324 7                  37863551.420
        46.100
 200954179.968 7                  38240306.132
        44.100
 123845243.748 8  96324116.995 7  23184081.257    23184081.461    23184087.399
        48.000          43.000
 131649646.371 7                  25052076.047
        44.400
 412732540.064 5                  78540523.831
        32.800
 202095153.972 7                  38457396.857
        45.200
 118787234.738 8  92390114.901 7  22260672.023    22260672.300    22260677.690
        49.000          45.200
 125912807.480 6                  23579418.287    23579417.955
        37.200
 131746466.682 7                  25070513.893
        44.800
 107357197.868 8  83654970.17246  20429389.248    20429388.8334   20429388.7224
        48.300          40.3004
 109771697.836 6  85378014.143 7  20520650.669    20520650.972    20520656.494
        41.300          45.400
 111405647.089 8  86809598.66146  21199784.559    21199784.1884   21199784.9084
        48.400          38.7004
 122333514.044 8                  23279286.402
        49.100
 120224831.558 7  93681706.75946  22878015.620    22878015.1604   22878015.5724
        44.100          39.9004
 131815357.049 6 102523075.722 6  24667451.991    24667452.099    24667459.246
        38.800          36.100
 135414093.015 7                  25768440.744
        43.400
 122406893.604 8                  23293253.131
        48.300
 128158136.062 6  99863497.91945  24387678.353    24387677.6384   24387681.8544
        37.400          31.0004
 121984270.367 7  95052694.86146  23212830.732    23212829.9504   23212832.4664
        42.600          38.2004
 119945656.140 7  93464158.33147  22824895.241    22824894.7944   22824896.8604
        46.900          44.3004
 103282492.827 8  80330870.971 8  19348282.947    19348283.316    19348288.725
        52.200          48.800
 116006113.234 7  90227016.312 7  21678513.808    21678513.773    21678520.974
        47.300          44.300
 105235988.247 8  81850250.488 8  19658959.985    19658960.048    19658965.221
        52.900          48.800
 25  1  1  9 25  0.0000000  0 27G10G24E08R04S31S35R12E13S48S33R02R13
                                E29G23R19G18E07G15R11E33E26G08G27G32
                                R18R17R03
 114971573.965 8  89588257.67148  21878358.032    21878357.3664   21878359.5364
        49.500          48.7004
 112123749.082 7  87369194.83947  21336430.633    21336430.2044   21336432.3824
        46.500          47.1004
 137566466.400 6                  26178018.169
        41.800
 112746075.020 8  87691442.369 7  21054532.965    21054533.610    21054539.562
        49.400          46.300
 198974332.802 7                  37863549.457
        45.800
 200954178.785 7                  38240308.158
        44.200
 123826611.622 7  96309625.441 7  23180592.407    23180593.300    23180599.511
        47.000          43.200
 131683658.696 7                  25058548.686
        44.000
 412732358.986 5                  78540504.111
        32.700
 202095131.941 7                  38457392.725
        45.100
 118833333.706 8  92425969.648 7  22269310.311    22269310.714    22269316.753
        48.700          44.900
 125864355.827 6                  23570346.770    23570346.218
        38.300
 131715017.926 7                  25064529.076
        44.400
 107358946.239 8  83656332.56046  20429722.019    20429721.6044   20429721.4244
        48.500          40.1004
 109734950.338 6  85349432.771 7  20513781.369    20513781.446    20513786.776
        41.200          45.600
 111439736.686 7  86836161.99346  21206271.549    21206271.1744   21206271.9584
        47.800          38.5004
 122339343.795 8                  23280395.833
        48.800
 120274925.464 7  93720740.98446  22887548.530    22887548.0614   22887548.1274
        44.400          39.6004
 131843586.766 6 102545032.155 6  24672735.304    24672735.035    24672741.855
        39.000          36.500
 135377729.191 7                  25761520.452
        43.100
 122403161.048 8                  23292542.834
        48.100
 128145286.389 6  99853485.22145  24385233.732    24385233.0174   24385236.6634
        38.000          31.2004
 121997102.060 6  95062693.58446  23215272.956    23215272.2014   23215274.4644
        41.800          37.9004
 119906257.038 7  93433457.76947  22817397.456    22817397.0184   22817399.5584
        47.400          44.2004
 103299243.917 8  80343899.596 8  19351420.961    19351421.403    19351426.892
        52.200          48.600
 116068279.664 7  90275367.984 7  21690131.005    21690131.692    21690138.249
        46.900          44.300
 105247695.232 8  81859355.933 8  19661146.735    19661147.168    19661152.127
        52.500          48.800
 25  1  1  9 25 15.0000000  0 27G10G24E08R04S31S35R12E13S48S33R02R13
                                E29G23R19G18E07G15R11E33E26G08G27G32
                                R18R17R03
 114944638.652 8  89567269.14048  21873232.353    21873231.6784   21873233.9164
        49.200          48.8004
 112121161.698 7  87367178.72647  21335938.102    21335937.6824   21335939.9454
        46.500          47.1004
 137603263.067 7                  26185020.284
        42.100
 112715729.222 8  87667840.114 7  21048866.382    21048866.656    21048872.250
        49.600          45.900
 198974332.865 7                  37863550.580
        45.900
 200954180.610 7                  38240308.104
        44.200
 123808143.239 7  96295261.269 7  23177135.302    23177136.083    23177142.307
        47.200          43.100
 131717738.115 7                  25065033.666
        44.100
 412732181.888 5                  78540477.456
        32.200
 202095113.120 7                  38457388.155
        45.100
 118879441.928 8  92461831.617 7  22277951.634    22277951.687    22277956.742
        48.900          44.500
 125815964.589 6                  23561284.239    23561283.107
        38.400
 131683630.830 7                  25058556.308
        44.700
 107360760.078 8  83657745.95946  20430066.722    20430066.2984   20430066.5704
        48.300          40.2004
 109698366.865 6  85320979.014 7  20506941.822    20506942.913    20506948.100
        40.900          45.700
 111473944.475 7  86862817.42146  21212781.195    21212780.8204   21212781.4294
        47.700          38.5004
 122345253.263 8                  23281520.220
        49.000
 120325050.625 7  93759799.56246  22897086.574    22897086.1094   22897086.5414
        43.800          39.7004
 131871970.602 6 102567108.540 5  24678045.673    24678046.097    24678053.606
        39.200          35.700
 135341404.373 7                  25754608.114
        43.300
 122399520.422 8                  23291849.889
        48.300
 128132570.172 6  99843576.51745  24382813.557    24382812.8514   24382816.5904
        37.300          30.9004
 122010068.659 7  95072797.42746  23217740.682    23217739.9544   23217741.8604
        42.000          37.9004
 119866929.489 7  93402812.96147  22809913.390    22809912.9484   22809915.7974
        46.900          44.3004
 103316197.803 8  80357085.976 8  19354597.225    19354597.440    19354602.737
        52.200          48.700
 116130532.880 7  90323787.203 7  21701764.145    21701764.583    21701772.083
        47.100          44.600
 105259491.254 8  81868530.647 8  19663350.616    19663350.761    19663355.644
        52.700          48.700
 25  1  1  9 25 30.0000000  0 26G10G24E08R04S31S35R12E13S48S33R02R13
                                E29G23R19G18E07G15E33E26G08G27G32R18
                                R17R03
 114917727.740 8  89546299.62648  21868111.491    21868110.8304   21868112.9524
        48.700          48.8004
 112118735.746 7  87365288.40647  21335476.111    21335475.6964   21335478.2504
        46.500          47.0004
 137640077.191 7                  26192025.969
        42.300
 112685465.108 8  87644301.382 7  21043214.162    21043215.209    21043220.754
        49.400          46.300
 198974328.498 7                  37863547.432
        45.600
 200954179.186 7                  38240307.814
        44.100
 123789830.944 7  96281018.464 7  23173707.421    23173707.744    23173713.981
        47.500          43.200
 131751876.932 7                  25071530.169
        44.300
 412732001.917 5                  78540461.354
        32.500
 202095091.644 7                  38457384.019
        45.000
 118925551.252 8  92497694.422 7  22286592.278    22286592.037    22286598.090
        49.400          45.100
 125767626.566 6                  23552232.247    23552231.805
        39.200
 131652297.806 7                  25052594.092
        44.800
 107362631.811 8  83659204.46946  20430423.084    20430422.6644   20430422.7044
        48.000          40.1004
 109661940.408 6  85292647.347 7  20500133.216    20500132.941    20500138.235
        41.100          45.500
 111508262.663 8  86889558.87446  21219311.479    21219311.1044   21219312.0414
        48.300          38.5004
 122351234.690 8                  23282658.431
        49.100
 120375199.120 7  93798876.32346  22906629.562    22906629.1244   22906629.3644
        43.300          39.2004
 135305111.153 7                  25747701.668
        43.500
 122395964.227 8                  23291173.326
        48.400
 128119979.768 6  99833765.83745  24380417.497    24380416.8004   24380420.5434
        37.900          30.8004
 122023162.337 7  95083000.29846  23220232.414    23220231.6904   23220233.6004
        42.900          37.9004
 119827665.957 7  93372218.02947  22802442.204    22802441.7624   22802444.1014
        47.000          44.2004
 103333346.661 8  80370423.976 8  19357809.300    19357809.934    19357815.334
        52.100          48.700
 116192864.614 7  90372267.435 7  21713412.507    21713412.802    21713419.573
        47.500          44.200
 105271368.734 8  81877768.696 8  19665569.119    19665569.433    19665574.521
        52.900          48.900
 25  1  1  9 25 45.0000000  0 26G10G24E08R04S31S35R12E13S48S33R02R13
                                E29G23R19G18E07G15E33E26G08G27G32R18
                                R17R03
 114890848.445 8  89525354.74848  21862996.472    21862995.8204   21862997.9704
        49.500          49.0004
 112116478.438 7  87363529.50247  21335046.897    21335046.4824   21335048.6664
        46.800          47.2004
 137676915.812 7                  26199035.835
        42.500
 112655290.003 8  87620831.885 7  21037579.917    21037579.999    21037585.705
        49.100          46.300
 198974328.158 7                  37863547.892
        45.800
 200954181.086 7                  38240304.370
        44.200
 123771682.520 7  96266903.104 7  23170309.409    23170310.160    23170316.939
        46.900          43.800
 131786082.206 7                  25078039.043
        44.400
 412731824.834 5                  78540440.140
        32.700
 202095072.222 7                  38457382.668
        45.200
 118971669.013 8  92533563.774 7  22295234.172    22295234.530    22295240.533
        48.600          45.400
 125719349.566 6                  23543190.724    23543189.978
        38.500
 131621026.087 7                  25046642.967
        44.900
 107364568.687 8  83660713.74446  20430791.861    20430791.4504   20430791.2644
        48.400          40.2004
 109625678.150 6  85264443.395 7  20493353.737    20493354.252    20493359.367
        41.300          45.900
 111542698.262 8  86916391.81846  21225864.556    21225864.1814   21225864.9584
        48.000          38.6004
 122357295.141 8                  23283811.805
        49.100
 120425377.927 7  93837976.70146  22916178.970    22916178.5594   22916178.0264
        43.600          39.4004
 135268856.902 7                  25740802.686
        43.800
 122392499.703 8                  23290513.876
        48.600
 128107522.418 6  99824058.83045  24378046.919    24378046.2444   24378050.1134
        38.600          31.5004
 122036390.084 7  95093307.63146  23222749.062    23222748.3384   23222750.8064
        42.700          38.1004
 119788473.700 7  93341678.64547  22794983.867    22794983.4164   22794986.0154
        47.300          44.4004
 103350697.631 8  80383919.172 8  19361060.451    19361060.437    19361065.891
        52.500          48.800
 116255281.697 7  90420814.064 7  21725076.159    21725076.832    21725084.489
        46.600          44.400
 105283334.180 8  81887075.158 8  19667804.577    19667804.726    19667809.662
        53.100          48.900
 25  1  1  9 26  0.0000000  0 26G10G24E08R04S31S35R12E13S48S33R02R13
                                E29G23R19G18E07G15E33E26G08G27G32R18
                                R17R03
 114863998.523 8  89504432.75648  21857886.902    21857886.2454   21857888.5734
        49.600          49.1004
 112114387.562 7  87361900.27947  21334648.827    21334648.4074   21334650.7504
        47.300          47.4004
 137713776.421 7                  26206050.437
        42.600
 112625201.361 8  87597429.617 7  21031960.457    21031961.450    21031967.026
        50.000          46.200
 198974328.904 7                  37863547.754
        46.000
 200954183.039 7                  38240309.303
        44.400
 123753695.776 7  96252913.519 7  23166942.859    23166942.532    23166949.248
        46.300          43.300
 131820351.560 7                  25084560.457
        44.300
 412731647.390 5                  78540412.063
        32.700
 202095054.562 7                  38457376.193
        45.100
 119017792.551 8  92569437.622 7  22303878.534    22303878.512    22303883.849
        49.600          44.900
 125671131.793 6                  23534161.538    23534160.426
        37.000
 131589813.458 7                  25040703.737
        45.000
 107366568.469 8  83662272.02946  20431172.237    20431171.8264   20431171.7904
        48.200          40.3004
 109589578.691 6  85236366.070 7  20486606.019    20486605.876    20486610.825
        40.900          45.600
 111577248.794 7  86943314.31946  21232439.359    21232438.9884   21232439.7424
        47.500          38.7004
 122363432.199 8                  23284979.551
        49.200
 120475584.455 7  93877098.68346  22925732.762    22925732.3604   22925732.0594
        44.400          39.3004
 135232639.538 7                  25733910.685
        44.100
 122389124.685 8                  23289871.703
        48.700
 128095195.926 6  99814453.80745  24375702.386    24375701.6894   24375704.5774
        37.400          31.1004
 122049749.367 7  95103717.46546  23225291.073    23225290.3494   23225292.9424
        43.100          38.2004
 119749350.600 7  93311193.15247  22787538.916    22787538.4694   22787541.1044
        46.700          44.5004
 103368248.258 8  80397569.676 8  19364348.179    19364348.162    19364353.629
        52.400          48.600
 116317781.248 7  90469424.838 7  21736755.582    21736756.375    21736763.889
        46.200          44.300
 105295385.373 8  81896448.339 8  19670055.558    19670055.951    19670060.998
        53.300          48.700
 25  1  1  9 26 15.0000000  0 26G10G24E08R04S31S35R12E13S48S33R02R13
                                E29G23R19G18E07G15E33E26G08G27G32R18
                                R17R03
 114837171.659 8  89483528.73548  21852781.815    21852781.1584   21852783.5504
        49.900          49.0004
 112112456.734 7  87360395.76347  21334281.051    21334280.6184   21334283.2944
        47.100          47.2004
 137750652.478 7                  26213067.514
        42.500
 112595192.850 8  87574089.688 7  21026356.741    21026357.304    21026363.395
        49.100          46.400
 198974323.680 7                  37863547.789
        45.800
 200954180.724 7                  38240307.979
        44.200
 123735864.565 7  96239044.863 7  23163604.844    23163604.582    23163610.958
        46.800          43.400
 131854678.503 7                  25091092.350
        44.500
 412731466.393 5                  78540396.081
        32.900
 202095032.017 7                  38457371.874
        45.000
 119063915.283 8  92605310.857 7  22312520.828    22312521.890    22312526.820
        48.800          44.600
 125622967.425 6                  23525141.125    23525140.645
        38.300
 131558653.566 7                  25034774.167
        45.200
 107368624.774 8  83663874.36946  20431563.613    20431563.2074   20431563.0934
        48.300          40.2004
 109553635.737 6  85208410.462 7  20479887.068    20479886.713    20479891.940
        41.300          45.600
 111611907.669 8  86970321.24646  21239034.870    21239034.5134   21239035.0724
        48.600          38.6004
 122369639.315 8                  23286160.633
        49.500
 120525812.121 7  93916237.13846  22935290.254    22935289.8524   22935290.1304
        43.800          39.1004
 135196452.805 7                  25727024.332
        44.300
 122385832.868 8                  23289245.087
        48.700
 128082993.810 6  99804945.69345  24373379.347    24373378.6454   24373382.6654
        38.100          31.3004
 122063233.579 7  95114224.64346  23227856.925    23227856.1974   23227858.8444
        43.200          38.1004
 119710290.242 7  93280756.55147  22780106.189    22780105.7514   22780108.1134
        46.500          44.4004
 103385991.896 8  80411370.294 8  19367671.923    19367672.254    19367677.533
        52.300          48.700
 116380356.222 7  90518094.257 7  21748448.829    21748449.628    21748457.133
        46.600          44.200
 105307515.276 8  81905882.718 8  19672321.689    19672321.901    19672326.935
        52.700          48.800
 25  1  1  9 26 30.0000000  0 26G10G24E08R04S31S35R12E13S48S33R02R13
                                E29G23R19G18E07G15E33E26G08G27G32R18
                                R17R03
 114810382.006 8  89462653.70148  21847683.959    21847683.2984   21847685.6184
        49.800          49.1004
 112110700.188 7  87359027.05847  21333947.007    21333946.5784   21333949.0224
        46.800          47.3004
 137787557.940 7                  26220090.209
        42.800
 112565278.570 8  87550823.046 7  21020770.965    21020771.340    21020776.612
        49.700          46.200
 198974326.956 7                  37863545.665
        45.900
 200954186.285 7                  38240308.958
        44.100
 123718203.552 7  96225308.554 7  23160297.901    23160298.515    23160305.168
        46.900          43.500
 131889077.069 7                  25097638.173
        44.600
 412731294.793 5                  78540375.480
        32.800
 202095017.004 7                  38457369.768
        45.000
 119110051.378 8  92641194.476 7  22321167.299    22321167.723    22321173.154
        49.000          45.000
 125574871.327 6                  23516133.403    23516133.550
        38.900
 131527560.569 7                  25028857.294
        45.700
 107370751.825 8  83665531.82846  20431968.463    20431968.0574   20431967.8104
        48.300          40.2004
 109517864.372 6  85180588.327 7  20473199.131    20473199.285    20473204.749
        41.200          45.600
 111646688.859 7  86997423.48546  21245653.331    21245652.9744   21245653.7314
        47.700          38.6004
 122375930.515 8                  23287357.938
        49.700
 120576074.855 7  93955402.92046  22944855.613    22944855.2114   22944854.7164
        43.600          38.9004
 135160311.063 7                  25720146.863
        44.100
 122382638.490 8                  23288637.279
        48.900
 128070930.356 6  99795545.59045  24371084.093    24371083.4054   24371087.1894
        38.900          31.5004
 122076856.631 7  95124840.00046  23230449.636    23230448.9034   23230450.9094
        43.000          38.1004
 119671306.941 7  93250379.99947  22772687.864    22772687.4314   22772689.8214
        47.400          44.5004
 103403942.715 8  80425332.052 8  19371034.635    19371034.950    19371040.234
        52.300          48.600
 116443020.724 7  90566833.318 7  21760159.539    21760160.159    21760166.922
        46.400          44.000
 105319738.182 8  81915389.428 8  19674604.775    19674605.295    19674610.217
        52.900          48.800
 25  1  1  9 26 45.0000000  0 26G10G24E08R04S31S35R12E13S48S33R02R13
                                E29G23R19G18E07G15E33E26G08G27G32R18
                                R17R03
 114783614.773 8  89441796.14348  21842590.265    21842589.5994   21842591.9574
        49.300          49.1004
 112109103.027 7  87357782.55347  21333643.336    21333642.9074   21333645.0864
        46.700          47.2004
 137824477.659 7                  26227115.926
        42.900
 112535443.361 8  87527617.906 7  21015199.261    21015199.559    21015205.360
        49.500          46.300
 198974324.718 7                  37863547.861
        45.600
 200954185.384 7                  38240308.784
        44.300
 123700698.030 7  96211693.231 7  23157021.084    23157021.544    23157027.733
        47.300          43.200
 131923532.207 7                  25104195.126
        44.800
 412731117.883 5                  78540352.201
        32.800
 202094996.357 7                  38457366.052
        45.200
 119156185.237 8  92677076.368 7  22329812.939    22329813.498    22329819.000
        49.500          44.700
 125526828.891 6                  23507137.213    23507136.135
        37.200
 131496519.634 7                  25022950.549
        45.700
 107372934.735 8  83667232.81646  20432383.624    20432383.2134   20432383.2294
        48.200          40.1004
 109482249.606 6  85152887.962 7  20466540.989    20466541.603    20466546.888
        41.400          45.500
 111681577.224 8  87024609.22546  21252292.570    21252292.2174   21252292.7804
        48.000          38.5004
 122382290.727 8                  23288568.152
        49.500
 120626357.431 7  93994584.15946  22954423.728    22954423.3264   22954423.2014
        43.900          38.7004
 135124199.586 7                  25713275.318
        44.100
 122379526.721 8                  23288045.291
        48.700
 128058990.734 6  99786242.01545  24368811.778    24368811.0364   24368815.3454
        37.500          31.3004
 122090603.366 7  95135551.74646  23233065.933    23233065.1824   23233066.5544
        42.800          38.0004
 119632385.833 7  93220051.90247  22765281.136    22765280.7074   22765283.3974
        46.500          44.4004
 103422085.531 8  80439443.142 8  19374433.776    19374433.679    19374439.079
        52.300          48.500
 116505758.977 7  90615629.726 7  21771884.297    21771884.127    21771892.160
        45.900          44.400
 105332038.814 8  81924956.599 8  19676902.827    19676903.136    19676908.014
        52.900          48.700
 25  1  1  9 27  0.0000000  0 26G10G24E08R04S31S35R12E13S48S33R02R13
                                E29G23R19G18E07G15E33E26G08G27G32R18
                                R17R03
 114756875.412 8  89420960.29448  21837502.254    21837501.6064   21837503.5774
        49.100          49.0004
 112107670.743 7  87356666.51847  21333370.497    21333370.0774   21333372.4924
        46.700          47.1004
 137861416.975 7                  26234145.018
        42.700
 112505692.908 8  87504478.680 7  21009643.471    21009643.881    21009649.409
        49.400          46.200
 198974321.463 7                  37863547.825
        45.600
 200954183.981 7                  38240306.629
        44.100
 123683353.820 7  96198203.441 7  23153774.462    23153774.230    23153781.237
        46.600          43.700
 131958049.306 7                  25110763.159
        44.700
 412730939.315 5                  78540330.085
        32.700
 202094975.134 7                  38457363.856
        45.000
 119202322.581 8  92712960.958 7  22338459.051    22338459.291    22338464.923
        49.000          44.500
 125478846.147 6                  23498151.143    23498150.911
        38.000
 131465536.268 7                  25017054.663
        45.500
 107375179.070 8  83668981.66346  20432810.905    20432810.4994   20432810.3134
        48.100          40.0004
 109446797.627 6  85125314.207 7  20459913.874    20459913.862    20459919.344
        41.300          45.500
 111716578.063 7  87051882.60346  21258952.769    21258952.4214   21258953.1954
        47.900          38.4004
 122388725.316 8                  23289792.437
        49.400
 120676665.007 7  94033784.89046  22963996.538    22963996.1274   22963996.2704
        43.600          38.6004
 135088124.035 7                  25706410.194
        44.000
 122376503.147 8                  23287469.754
        48.800
 128047180.395 6  99777039.17445  24366564.981    24366564.2484   24366567.7924
        37.600          31.2004
 122104479.105 7  95146364.02046  23235706.368    23235705.6174   23235706.9494
        43.000          37.9004
 119593532.497 7  93189776.62347  22757887.932    22757887.5034   22757889.7614
        46.700          44.3004
 103440425.603 8  80453707.638 8  19377868.983    19377869.495    19377874.886
        52.200          48.400
 116568575.904 7  90664487.317 7  21783623.027    21783623.187    21783630.482
        46.900          44.100
 105344422.223 8  81934588.152 8  19679216.185    19679216.463    19679221.305
        52.900          48.700
 25  1  1  9 27 15.0000000  0 26G10G24E08R04S31S35R12E13S48S33R02R13
                                E29G23R19G18E07G15E33E26G08G27G32R18
                                R17R03
 114730168.994 8  89400150.12248  21832419.930    21832419.2914   21832421.4754
        50.000          49.1004
 112106408.294 7  87355682.82147  21333130.150    21333129.7264   21333132.2324
        46.800          47.2004
 137898380.605 7                  26241179.431
        42.000
 112476032.103 8  87481409.191 7  21004104.766    21004105.030    21004110.531
        49.700          46.400
 198974322.014 7                  37863545.102
        46.100
 200954187.000 7                  38240308.162
        44.400
 123666176.266 7  96184843.219 7  23150558.487    23150558.959    23150565.434
        47.200          43.600
 131992633.216 7                  25117344.351
        44.600
 412730764.069 5                  78540309.162
        32.900
 202094958.255 7                  38457359.255
        45.300
 119248468.046 8  92748851.865 7  22347106.475    22347106.693    22347112.786
        48.800          44.600
 125430928.793 6                  23489177.904    23489176.547
        36.500
 131434615.431 7                  25011170.289
        45.700
 107377489.770 8  83670782.22846  20433250.596    20433250.1904   20433249.9634
        48.200          40.1004
 109411513.482 6  85097871.000 7  20453319.043    20453318.340    20453323.379
        41.600          45.500
 111751696.127 7  87079247.32946  21265635.479    21265635.1354   21265635.9594
        47.900          38.5004
 122395239.066 8                  23291032.254
        49.400
 120727002.287 7  94073008.76146  22973575.515    22973575.1134   22973575.1344
        43.800          38.5004
 135052089.536 7                  25699552.971
        44.300
 122373572.806 8                  23286912.228
        48.800
 128035504.303 6  99767940.94845  24364342.529    24364341.7654   24364345.8024
        39.200          31.4004
 122118488.513 7  95157280.44746  23238371.793    23238371.0474   23238372.9124
        42.200          38.1004
 119554751.929 7  93159558.02647  22750508.302    22750507.8694   22750509.9924
        46.500          44.4004
 103458967.852 8  80468129.402 8  19381342.895    19381343.087    19381348.563
        52.200          48.400
 116631476.220 7  90713409.809 7  21795377.222    21795377.549    21795384.992
        46.200          44.000
 105356893.312 8  81944287.907 8  19681545.722    19681546.049    19681551.056
        52.500          48.500
