     2.11           OBSERVATION DATA    M (MIXED)           RINEX VERSION / TYPE
teqc  2019Feb25                         20260317 16:20:09UTCPGM / RUN BY / DATE
Linux 2.4.21-27.ELsmp|Opteron|gcc -static|Linux 64|=+       COMMENT
BIT 2 OF LLI FLAGS DATA COLLECTED UNDER A/S CONDITION       COMMENT
-Unknown-                                                   MARKER NAME
-Unknown-           -Unknown-                               OBSERVER / AGENCY
-Unknown-           -Unknown-           -Unknown-           REC # / TYPE / VERS
-Unknown-           -Unknown-                               ANT # / TYPE
        0.0000        0.0000        0.0000                  APPROX POSITION XYZ
        0.0000        0.0000        0.0000                  ANTENNA: DELTA H/E/N
     1     1                                                WAVELENGTH FACT L1/2
     7    L1    L2    C1    P1    P2    S1    S2            # / TYPES OF OBSERV
 SNR is mapped to RINEX snr flag value [0-9]                COMMENT
  L1 & L2: min(max(int(snr_dBHz/6), 0), 9)                  COMMENT
  2025     1     1    17     0    0.0000000     GPS         TIME OF FIRST OBS
    18                                                      LEAP SECONDS
                                                            END OF HEADER
 25  1  1 17  0  0.0000000  0 28G09G26E19R18G08S31S35G07G03R06S48S33
                                E29E04E31G16G27E21G04E06R07R17R08R10
                                R16G31R09E09
 110020501.160 8  85730273.58548  20936202.821    20936202.2094   20936204.8844
        48.800          50.1004
 117733092.867 7  91740099.46347  22403859.026    22403858.3334   22403863.6604
        44.600          43.0004
 126233020.514 7                  24021350.967
        42.700
 126067121.761 7  98052416.757 7  23616561.395    23616561.547    23616574.893
        43.100          42.900
 122266961.377 6  95273050.61345  23266612.586    23266611.8084   23266627.1944
        41.000          34.1004
 198980457.315 7                  37864725.968
        45.800
 200918530.369 7                  38233532.407
        43.500
 125032679.589 7  97428105.69846  23792911.103    23792910.4554   23792912.5064
        43.500          37.0004
 122970557.775 7  95821193.35246  23400542.186    23400541.9584   23400553.5464
        42.000          38.1004
 109102193.497 6                  20445712.801    20445712.191
        39.600
 412807446.832 5                  78554457.282
        33.300
 202116032.300 7                  38461387.042
        45.600
 148282536.507 6                  28217284.950
        36.400
 124203890.386 8                  23635215.157
        48.500
 137488808.697 7                  26163212.283
        42.000
 106496600.009 8  82984434.33846  20265604.625    20265603.6194   20265604.4634
        48.800          40.4004
 115544647.988 7  90034943.40547  21987362.046    21987361.3184   21987368.9664
        44.700          44.3004
 131199207.259 7                  24966370.702
        46.400
 105027961.215 8  81839974.06847  19986156.571    19986156.1744   19986157.9764
        49.400          43.0004
 131889627.164 7                  25097760.125
        44.600
 103641883.144 8  80610377.012 8  19361169.813    19361170.029    19361176.611
        53.100          48.700
 128397075.561 7  99864433.154 6  23994068.909    23994068.686    23994082.581
        42.800          40.200
 119794913.176 7  93173839.287 7  22370853.975    22370853.997    22370860.285
        46.700          42.600
 113766668.247 7                  21342294.404    21342293.440
        44.400
 115732202.412 8  90013976.295 7  21665308.082    21665308.567    21665315.333
        49.600          45.000
 124185222.205 7  96767690.59646  23631674.213    23631673.7404   23631677.6004
        42.800          38.5004
 103879298.768 8  80795104.143 8  19453232.510    19453232.556    19453237.564
        52.500          50.100
 143649736.927 6                  27335634.407
        39.700
 25  1  1 17  0 15.0000000  0 28G09G26E19R18G08S31S35G07G03R06S48S33
                                E29E04E31G16G27E21G04E06R07R17R08R10
                                R16G31R09E09
 109989711.895 8  85706281.95548  20930343.805    20930343.1844   20930345.8874
        48.800          49.7004
 117779345.529 7  91776140.45247  22412661.291    22412660.5814   22412665.1864
        44.600          42.7004
 126259978.748 7                  24026481.144
        43.100
 126034224.275 7  98026830.149 7  23610398.495    23610398.744    23610411.871
        42.900          42.800
 122212523.773 6  95230631.95845  23256253.546    23256252.7774   23256267.9334
        41.200          34.1004
 198980454.839 7                  37864724.099
        45.400
 200918495.042 7                  38233525.802
        43.500
 124999051.377 7  97401901.92946  23786511.815    23786511.1544   23786513.2304
        43.500          36.6004
 123021256.054 6  95860698.23246  23410190.489    23410190.2664   23410201.4744
        41.100          37.4004
 109150432.250 6                  20454751.487    20454752.045
        39.200
 412808058.971 5                  78554490.198
        33.100
 202116049.940 7                  38461395.292
        45.000
 148324248.029 6                  28225222.069
        37.200
 124187927.527 8                  23632177.152
        48.600
 137450114.594 7                  26155848.786
        42.100
 106519744.449 8  83002468.97646  20270008.699    20270007.6934   20270008.7384
        48.900          40.1004
 115505598.708 7  90004515.48747  21979931.157    21979930.4424   21979938.0414
        45.000          44.0004
 131228788.970 7                  24971999.779
        46.500
 105022847.389 8  81835989.25247  19985183.299    19985182.8934   19985184.8984
        49.800          42.6004
 131857855.970 7                  25091714.489
        44.900
 103631289.114 8  80602137.208 8  19359190.549    19359190.880    19359197.600
        53.100          48.700
 128401836.295 7  99868135.453 6  23994959.576    23994958.883    23994973.029
        43.500          41.900
 119737802.317 7  93129419.763 7  22360188.715    22360189.562    22360195.501
        46.900          43.000
 113731295.777 7                  21335657.948    21335657.279
        44.500
 115778548.924 8  90050023.404 7  21673983.889    21673984.503    21673991.823
        49.400          45.200
 124226095.362 7  96799539.65546  23639452.256    23639451.7834   23639455.6754
        43.500          38.2004
 103882029.069 8  80797227.714 8  19453743.288    19453743.766    19453748.961
        52.500          50.200
 143609758.751 6                  27328026.591
        39.200
 25  1  1 17  0 30.0000000  0 28G09G26E19R18G08S31S35G07G03R06S48S33
                                E29E04E31G16G27E21G04E06R07R17R08R10
                                R16G31R09E09
 109959022.857 8  85682368.41848  20924503.816    20924503.1954   20924505.9574
        48.800          49.6004
 117825642.047 7  91812215.64247  22421471.067    22421470.3704   22421475.2404
        44.600          42.5004
 126287003.129 7                  24031623.653
        42.900
 126001449.825 7  98001339.218 7  23604259.506    23604260.212    23604271.591
        44.900          42.700
 122158109.057 6  95188231.13845  23245899.010    23245898.2594   23245912.9574
        41.100          33.8004
 198980449.985 7                  37864722.270
        45.600
 200918456.611 7                  38233522.931
        44.000
 124965427.603 7  97375701.61946  23780113.614    23780112.9574   23780114.8214
        43.400          36.6004
 123071979.253 7  95900222.51846  23419842.802    23419842.5884   23419854.2224
        42.000          37.5004
 109198806.688 6                  20463818.052    20463817.768
        39.600
 412807069.138 5                  78554515.708
        33.300
 202116065.798 7                  38461391.670
        45.300
 148365978.250 6                  28233163.350
        37.000
 124172032.016 8                  23629152.478
        48.500
 137411462.980 7                  26148493.806
        42.300
 106543015.460 8  83020602.22846  20274437.271    20274436.2704   20274437.0354
        49.000          40.1004
 115466651.341 7  89974166.98547  21972519.390    21972518.6804   21972526.5194
        45.100          43.9004
 131258418.360 7                  24977637.867
        46.500
 105017860.735 8  81832103.52247  19984234.412    19984233.9924   19984235.9794
        49.900          42.6004
 131826123.060 7                  25085675.978
        44.100
 103620888.990 8  80594048.215 8  19357247.939    19357248.072    19357254.694
        53.400          48.700
 128406771.313 7  99871973.163 7  23995881.905    23995882.815    23995896.186
        45.000          42.800
 119680767.734 7  93085059.461 7  22349538.444    22349539.221    22349544.158
        47.700          42.700
 113696011.560 7                  21329039.142    21329038.035
        44.400
 115824914.086 8  90086085.156 7  21682663.476    21682664.026    21682671.824
        48.900          45.300
 124266982.023 7  96831399.24946  23647232.598    23647232.1204   23647236.2754
        43.300          38.2004
 103884860.403 8  80799429.874 8  19454273.602    19454274.051    19454279.206
        52.200          50.100
 143569788.432 6                  27320421.138
        38.800
 25  1  1 17  0 45.0000000  0 29G09G26E19R18G08S31S35G07G03R06S48S33
                                R19E29E04E31G16G27E21G04E06R07R17R08
                                R10R16G31R09E09
 109928435.907 8  85658534.43148  20918683.328    20918682.7164   20918685.4564
        48.900          49.5004
 117871983.624 7  91848325.92847  22430289.787    22430289.0904   22430293.8254
        44.500          42.5004
 126314095.285 7                  24036779.236
        42.900
 125968800.374 7  97975945.528 7  23598142.253    23598142.053    23598154.509
        43.000          42.400
 122103719.122 6  95145849.60845  23235548.502    23235547.7604   23235562.4924
        41.000          33.9004
 198980444.145 7                  37864720.902
        45.600
 200918417.282 7                  38233509.499
        43.700
 124931809.798 7  97349505.96046  23773716.597    23773715.9454   23773717.4134
        43.400          36.5004
 123122728.561 7  95939767.14846  23429500.284    23429500.0834   23429511.8094
        42.300          37.4004
 109247317.994 6                  20472908.523    20472909.051
        39.700
 412807678.969 5                  78554544.447
        32.500
 202116079.674 7                  38461397.260
        45.500
 132288344.802 5 102891061.329 5  24729908.682                    24729939.560
        30.500          34.900
 148407728.583 6                  28241108.171
        37.000
 124156205.552 8                  23626140.613
        48.600
 137372855.500 7                  26141146.779
        42.300
 106566414.328 8  83038835.10546  20278889.945    20278888.9484   20278889.6854
        49.100          40.0004
 115427807.804 7  89943899.38647  21965127.821    21965127.1114   21965134.8024
        44.800          43.9004
 131288096.650 7                  24983285.829
        46.500
 105013002.968 8  81828318.23147  19983310.177    19983309.7624   19983311.5834
        50.000          42.6004
 131794430.099 7                  25079644.934
        44.400
 103610684.356 8  80586111.272 8  19355341.436    19355341.685    19355348.481
        53.300          48.700
 128411881.492 7  99875946.595 7  23996837.392    23996837.426    23996851.732
        44.100          42.800
 119623811.445 7  93040760.134 7  22338901.852    22338901.938    22338908.744
        46.300          43.400
 113660816.651 7                  21322436.644    21322435.747
        44.500
 115871298.848 8  90122162.119 7  21691347.412    21691347.505    21691354.646
        48.600          45.100
 124307883.598 7  96863270.46346  23655016.523    23655016.0504   23655019.6494
        43.700          38.0004
 103887793.778 8  80801711.387 8  19454822.885    19454823.381    19454828.585
        52.300          50.200
 143529827.774 6                  27312816.773
        39.400
 25  1  1 17  1  0.0000000  0 29G09G26E19R18G08S31S35G07G03R06S48S33
                                R19E29E04E31G16G27E21G04E06R07R17R08
                                R10R16G31R09E09
 109897953.066 8  85634781.57648  20912882.913    20912882.3054   20912884.7784
        48.500          49.3004
 117918371.763 7  91884472.50247  22439116.850    22439116.1574   22439121.2374
        44.600          42.3004
 126341257.070 7                  24041947.867
        42.800
 125936278.205 7  97950650.831 7  23592050.135    23592050.492    23592061.275
        43.900          42.200
 122049356.095 6  95103489.06245  23225203.644    23225202.9024   23225217.6444
        41.600          33.9004
 198980438.351 7                  37864720.517
        45.300
 200918379.098 7                  38233506.122
        44.000
 124898199.656 7  97323316.27946  23767320.530    23767319.8824   23767321.6384
        42.700          36.6004
 123173505.310 6  95979333.17046  23439163.001    23439162.7964   23439174.4454
        41.700          36.9004
 109295967.486 6                  20482026.233    20482025.634
        39.700
 412808289.751 5                  78554581.589
        33.500
 202116094.773 7                  38461401.570
        45.500
 132236755.475 4 102850936.314 5  24720262.112    24720266.377    24720295.433
        28.900          34.900
 148449500.647 6                  28249056.993
        36.600
 124140450.005 8                  23623142.729
        48.300
 137334293.997 6                  26133808.635
        41.900
 106589942.186 8  83057168.50246  20283367.025    20283366.0244   20283366.8664
        48.900          39.9004
 115389070.215 7  89913714.34247  21957756.092    21957755.3774   21957763.1314
        44.700          43.7004
 131317825.376 7                  24988942.927
        46.200
 105008275.973 8  81824634.85047  19982410.742    19982410.3224   19982412.1304
        49.400          42.5004
 131762779.063 7                  25073621.991
        44.300
 103600677.233 8  80578327.944 8  19353472.028    19353472.368    19353479.084
        53.200          48.700
 128417169.514 7  99880058.365 6  23997826.055    23997826.620    23997841.101
        44.300          41.700
 119566935.808 7  92996523.472 7  22328281.087    22328281.530    22328286.923
        46.900          42.900
 113625713.011 7                  21315850.472    21315850.473
        44.400
 115917705.256 8  90158255.934 7  21700034.569    21700034.822    21700042.602
        49.500          45.300
 124348802.033 7  96895154.81446  23662802.453    23662801.9934   23662806.2734
        43.200          37.9004
 103890831.154 8  80804073.801 8  19455391.860    19455391.988    19455397.430
        52.400          50.200
 143489878.511 6                  27305214.248
        38.900
 25  1  1 17  1 15.0000000  0 29G09G26E19R18G08S31S35G07G03R06S48S33
                                R19E29E04E31G16G27E21G04E06R07R17R08
                                R10R16G31R09E09
 109867575.833 8  85611110.99548  20907102.214    20907101.5974   20907104.2004
        48.900          49.5004
 117964807.391 7  91920656.09047  22447953.389    22447952.7104   22447957.6914
        44.400          42.5004
 126368489.490 7                  24047130.060
        42.600
 125903885.136 7  97925456.503 7  23585980.738    23585981.686    23585993.918
        43.600          42.900
 121995021.636 7  95061150.76245  23214863.821    23214863.0844   23214877.8174
        42.000          34.1004
 198980435.461 7                  37864719.614
        45.500
 200918342.489 7                  38233497.734
        44.200
 124864598.292 7  97297133.43246  23760926.604    23760925.9614   23760927.4424
        43.200          36.5004
 123224310.278 7  96018921.18246  23448831.028    23448830.8274   23448842.6074
        42.300          37.2004
 109344756.039 6                  20491169.610    20491168.917
        39.900
 412808902.308 5                  78554623.836
        32.800
 202116111.807 7                  38461402.621
        45.400
 132185177.847 5 102810820.193 5  24710625.804    24710623.524    24710653.358
        32.600          34.200
 148491295.586 6                  28257010.401
        36.900
 124124766.737 8                  23620158.093
        48.400
 137295779.757 7                  26126479.628
        42.400
 106613600.042 8  83075603.19046  20287868.909    20287867.9084   20287868.7974
        49.100          40.0004
 115350440.285 7  89883613.19747  21950405.276    21950404.5574   21950411.8954
        45.600          43.9004
 131347605.794 7                  24994609.963
        46.200
 105003681.083 8  81821054.40147  19981536.193    19981535.7694   19981537.7754
        49.800          42.7004
 131731171.322 7                  25067607.197
        44.300
 103590869.313 8  80570699.538 8  19351639.895    19351640.412    19351646.890
        53.100          48.900
 128422637.407 7  99884310.319 6  23998848.572    23998849.455    23998863.926
        44.900          41.900
 119510142.674 7  92952351.015 7  22317675.636    22317676.397    22317682.211
        47.400          43.600
 113590701.847 7                  21309283.137    21309282.514
        44.500
 115964133.892 8  90194367.026 7  21708725.961    21708726.109    21708734.153
        48.700          45.300
 124389738.359 7  96927053.09246  23670592.608    23670592.1434   23670596.2824
        43.800          38.0004
 103893973.204 8  80806517.614 8  19455980.207    19455980.494    19455985.859
        52.500          50.200
 143449942.186 6                  27297615.258
        39.300
 25  1  1 17  1 30.0000000  0 29G09G26E19R18G08S31S35G07G03R06S48S33
                                R19E29E04E31G16G27E21G04E06R07R17R08
                                R10R16G31R09E09
 109837301.684 8  85587520.73848  20901341.051    20901340.4304   20901343.2304
        48.800          49.6004
 118011287.431 7  91956874.29947  22456798.393    22456797.7094   22456802.5834
        44.800          42.5004
 126395789.853 7                  24052325.147
        42.800
 125871618.582 7  97900360.593 7  23579936.459    23579936.795    23579949.179
        43.300          43.000
 121940713.300 6  95018832.80945  23204528.609    23204527.8544   23204542.7974
        41.700          34.1004
 198980431.252 7                  37864720.486
        45.700
 200918305.199 7                  38233494.988
        44.100
 124831002.804 7  97270955.16746  23754533.040    23754532.3884   23754534.3404
        43.300          36.6004
 123275140.303 7  96058528.71146  23458503.543    23458503.3334   23458515.2364
        42.000          37.1004
 109393680.327 6                  20500337.327    20500336.960
        39.800
 412807914.223 5                  78554658.402
        32.700
 202116127.615 7                  38461404.455
        45.200
 132133609.409 4 102770711.429 5  24700984.743                    24701014.042
        29.100          33.100
 148533110.447 6                  28264967.798
        36.700
 124109153.134 8                  23617186.938
        48.300
 137257310.130 7                  26119158.888
        42.200
 106637384.805 8  83094136.76946  20292395.136    20292394.1304   20292394.8974
        49.100          40.0004
 115311915.520 7  89853593.99447  21943073.943    21943073.2284   21943080.7554
        44.900          43.9004
 131377434.772 7                  25000286.202
        46.300
 104999215.651 8  81817574.82747  19980686.533    19980686.1134   19980688.0204
        49.800          42.8004
 131699604.287 7                  25061600.170
        44.400
 103581257.724 8  80563223.857 8  19349844.508    19349844.796    19349851.212
        53.500          48.800
 128428282.548 7  99888700.779 6  23999904.610    23999904.740    23999918.984
        44.800          41.400
 119453429.622 7  92908240.854 7  22307084.362    22307085.368    22307090.507
        47.300          43.000
 113555780.398 7                  21302731.549    21302730.840
        43.900
 116010582.130 8  90230493.630 7  21717421.433    21717421.577    21717429.192
        48.800          45.200
 124430689.730 7  96958963.10446  23678385.415    23678384.9464   23678389.1674
        44.100          38.1004
 103897217.253 8  80809040.783 8  19456587.712    19456587.857    19456593.244
        52.500          50.100
 143410016.130 6                  27290017.376
        39.500
 25  1  1 17  1 45.0000000  0 29G09G26E19R18G08S31S35G07G03R06S48S33
                                R19E29E04E31G16G27E21G04E06R07R17R08
                                R10R16G31R09E09
 109807130.922 8  85564011.03848  20895599.893    20895599.2724   20895601.9484
        48.900          49.7004
 118057811.573 7  91993126.89247  22465651.487    22465650.7994   22465655.8144
        44.200          42.6004
 126423157.833 7                  24057533.218
        42.500
 125839479.048 7  97875363.452 7  23573915.219    23573916.305    23573927.285
        44.200          42.500
 121886431.446 7  94976535.49745  23194199.349    23194198.6034   23194213.2194
        42.000          34.6004
 198980426.174 7                  37864722.623
        45.800
 200918267.010 7                  38233488.021
        44.200
 124797413.333 7  97244781.58646  23748141.569    23748140.9124   23748142.3974
        43.500          36.6004
 123325994.956 7  96098155.44246  23468181.651    23468181.4464   23468192.8294
        42.100          37.4004
 109442739.929 6                  20509531.017    20509530.773
        39.500
 412808525.169 5                  78554694.578
        32.800
 202116143.323 7                  38461407.191
        45.600
 132082051.214 5 102730610.586 6  24691345.475    24691346.422    24691375.442
        32.300          36.700
 148574945.054 6                  28272929.087
        36.000
 124093609.287 8                  23614229.152
        48.100
 137218885.187 7                  26111846.585
        42.200
 106661296.398 8  83112769.16146  20296945.343    20296944.3374   20296945.1364
        49.200          40.1004
 115273496.287 7  89823657.03047  21935763.106    21935762.3874   21935769.6524
        45.300          44.1004
 131407312.087 7                  25005971.907
        46.100
 104994879.801 8  81814196.23347  19979861.388    19979860.9684   19979862.9384
        49.900          43.0004
 131668078.111 7                  25055601.058
        44.200
 103571842.535 8  80555900.922 8  19348085.607    19348085.892    19348092.469
        53.000          48.700
 128434104.177 7  99893228.517 6  24000992.138    24000992.216    24001007.157
        45.400          40.800
 119396796.981 7  92864193.278 7  22296508.770    22296509.462    22296515.298
        47.600          43.000
 113520948.839 7                  21296197.292    21296196.789
        44.900
 116057048.815 8  90266634.408 7  21726120.004    21726119.978    21726127.629
        49.100          45.400
 124471656.141 7  96990884.83346  23686181.396    23686180.9234   23686185.0164
        43.400          38.2004
 103900562.703 8  80811642.803 8  19457214.151    19457214.371    19457219.763
        52.400          50.300
 143370100.451 6                  27282421.445
        38.600
 25  1  1 17  2  0.0000000  0 29G09G26E19R18G08S31S35G07G03R06S48S33
                                R19E29E04E31G16G27E21G04E06R07R17R08
                                R10R16G31R09E09
 109777062.564 8  85540581.12848  20889878.086    20889877.4744   20889880.1494
        48.700          49.7004
 118104378.219 7  92029412.58747  22474512.690    22474512.0024   22474517.1304
        44.800          42.6004
 126450592.282 7                  24062753.801
        42.400
 125807465.853 7  97850464.586 7  23567917.988    23567918.840    23567930.249
        43.800          42.700
 121832175.296 6  94934258.20745  23183874.315    23183873.5644   23183888.5384
        41.500          34.5004
 198980419.123 7                  37864718.125
        45.700
 200918226.858 7                  38233477.616
        43.900
 124763828.835 7  97218611.88346  23741750.226    23741749.5694   23741751.3984
        43.200          36.9004
 123376872.570 7  96137800.04946  23477862.995    23477862.7904   23477874.9474
        42.400          37.3004
 109491933.173 6                  20518750.128    20518749.979
        39.800
 412809134.172 5                  78554738.878
        33.400
 202116156.352 7                  38461405.639
        44.800
 132030502.261 5 102690516.872 5  24681710.288    24681709.105    24681738.465
        30.000          32.400
 148616798.167 6                  28280892.778
        36.500
 124078134.131 8                  23611284.307
        48.100
 137180503.736 7                  26104542.746
        42.200
 106685333.131 8  83131499.08246  20301519.491    20301518.4854   20301519.1674
        49.000          40.1004
 115235181.785 7  89793801.65947  21928471.656    21928470.9324   21928478.5734
        45.200          44.2004
 131437236.400 7                  25011666.125
        46.000
 104990672.411 8  81810917.72347  19979060.905    19979060.4854   19979062.3344
        49.600          43.0004
 131636591.701 7                  25049609.544
        44.300
 103562623.036 8  80548730.200 8  19346363.337    19346363.615    19346370.170
        53.000          48.800
 128440101.369 7  99897893.236 7  24002112.204    24002112.939    24002126.919
        45.600          42.400
 119340244.078 8  92820207.629 7  22285948.182    22285948.563    22285954.439
        48.000          43.000
 113486205.328 7                  21289679.472    21289678.822
        44.200
 116103532.528 8  90302788.194 7  21734822.789    21734822.288    21734830.077
        49.100          45.600
 124512636.231 7  97022817.21146  23693980.049    23693979.5584   23693983.5344
        43.500          38.2004
 103904008.189 8  80814322.640 8  19457859.447    19457859.716    19457865.045
        52.900          50.300
 143330194.010 6                  27274827.449
        39.300
 25  1  1 17  2 15.0000000  0 29G09G26E19R18G08S31S35G07G03R06S48S33
                                R19E29E04E31G16G27E21G04E06R07R17R08
                                R10R16G31R09E09
 109747103.304 8  85517236.22948  20884176.833    20884176.2164   20884179.1304
        48.900          49.7004
 118150993.482 7  92065736.15347  22483383.168    22483382.4714   22483387.6404
        44.400          42.6004
 126478099.694 7                  24067988.409
        42.400
 125775585.860 7  97825669.326 7  23561945.051    23561944.917    23561958.384
        42.800          42.900
 121777951.598 7  94892006.20745  23173556.247    23173555.4964   23173569.7464
        42.200          34.6004
 198980416.055 7                  37864713.255
        44.900
 200918190.720 7                  38233471.494
        43.700
 124730255.548 7  97192450.90446  23735362.001    23735361.3404   23735362.5994
        43.000          36.8004
 123427779.155 6  96177467.22646  23487550.614    23487550.4094   23487562.5484
        41.600          37.1004
 109541266.104 6                  20527995.237    20527994.894
        40.100
 412808047.114 5                  78554769.759
        33.300
 202116173.942 7                  38461415.061
        45.400
 131978969.616 5 102650435.777 6  24672075.466    24672075.835    24672105.700
        32.800          37.900
 148658675.980 5                  28288861.805
        35.500
 124062734.205 8                  23608353.611
        48.000
 137142172.339 7                  26097248.570
        42.100
 106709501.058 8  83150331.23746  20306118.400    20306117.3944   20306118.1334
        49.100          40.1004
 115196978.831 7  89764033.22747  21921202.243    21921201.5244   21921208.7614
        44.800          44.1004
 131467213.700 7                  25017370.660
        46.000
 104986600.053 8  81807744.44547  19978285.847    19978285.4324   19978287.4164
        49.800          43.0004
 131605151.651 7                  25043626.493
        44.100
 103553605.675 8  80541716.663 8  19344678.893    19344679.236    19344685.688
        53.100          48.800
 128446280.112 7  99902699.201 6  24003266.856    24003267.601    24003281.765
        46.000          41.800
 119283777.733 7  92776289.325 7  22275402.901    22275403.614    22275409.517
        47.700          43.200
 113451557.050 7                  21283178.468    21283178.903
        44.500
 116150039.892 8  90338960.431 7  21743528.476    21743528.854    21743535.977
        49.300          45.800
 124553636.423 7  97054765.24546  23701782.275    23701781.7884   23701785.7874
        43.900          38.2004
 103907559.990 8  80817085.147 8  19458524.309    19458524.727    19458530.070
        52.300          50.400
 143290303.406 6                  27267236.789
        39.900
 25  1  1 17  2 30.0000000  0 29G09G26E19R18G08S31S35G07G03R06S48S33
                                R19E29E04E31G16G27E21G04E06R07R17R08
                                R10R16G31R09E09
 109717243.471 8  85493968.83148  20878494.524    20878493.9074   20878496.9864
        48.700          49.6004
 118197647.115 7  92102089.61847  22492261.424    22492260.7274   22492265.5954
        44.200          42.4004
 126505669.799 7                  24073235.002
        42.200
 125743829.409 7  97800970.126 7  23555997.237    23555997.011    23556008.510
        42.900          42.800
 121723750.737 6  94849771.99845  23163241.909    23163241.1494   23163255.4124
        41.700          34.5004
 198980407.478 7                  37864714.860
        45.700
 200918148.516 7                  38233464.478
        43.900
 124696683.411 7  97166290.83046  23728972.947    23728972.2954   23728974.1354
        43.300          36.7004
 123478704.286 7  96217148.86246  23497241.748    23497241.5524   23497253.2784
        42.100          36.9004
 109590728.225 6                  20537265.327    20537264.424
        39.600
 412808655.181 5                  78554797.823
        32.100
 202116185.850 7                  38461418.576
        45.300
 131927443.404 4 102610359.812 5  24662442.400    24662443.320    24662473.517
        29.500          34.400
 148700568.396 6                  28296834.398
        36.200
 124047399.657 8                  23605435.822
        48.100
 137103881.028 7                  26089962.057
        42.100
 106733789.898 8  83169257.60846  20310740.310    20310739.3094   20310740.1764
        49.200          40.0004
 115158877.751 7  89734344.17647  21913951.545    21913950.8264   21913958.2224
        45.400          44.1004
 131497234.108 7                  25023083.263
        45.800
 104982652.801 8  81804668.64147  19977534.892    19977534.4814   19977536.2904
        49.800          43.0004
 131573748.083 7                  25037650.597
        44.100
 103544780.530 8  80534852.645 8  19343030.511    19343030.647    19343037.072
        53.100          48.800
 128452629.350 7  99907637.458 6  24004453.032    24004454.178    24004468.439
        45.600          41.200
 119227388.848 7  92732431.281 7  22264873.410    22264873.399    22264879.660
        47.300          43.300
 113416993.805 7                  21276695.032    21276694.634
        44.200
 116196561.141 8  90375143.786 7  21752236.367    21752236.883    21752244.856
        48.900          45.600
 124594646.668 7  97086721.12946  23709586.265    23709585.7964   23709589.8374
        43.600          38.0004
 103911207.873 8  80819922.387 8  19459207.531    19459207.910    19459213.114
        52.300          50.300
 143250418.646 6                  27259646.439
        39.600
 25  1  1 17  2 45.0000000  0 29G09G26E19R18G08S31S35G07G03R06S48S33
                                R19E29E04E31G16G27E21G04E06R07R17R08
                                R10R16G31R09E09
 109687497.720 8  85470790.31648  20872834.180    20872833.5634   20872836.5424
        48.500          49.5004
 118244353.199 7  92138483.94747  22501148.960    22501148.2634   22501153.4954
        44.200          42.2004
 126533317.045 7                  24078495.948
        42.500
 125712211.532 7  97776378.705 7  23550073.083    23550073.301    23550084.509
        43.800          42.200
 121669587.514 6  94807567.11745  23152935.003    23152934.2664   23152948.1884
        41.100          34.7004
 198980407.686 7                  37864713.805
        45.700
 200918115.947 7                  38233457.198
        43.700
 124663126.875 7  97140142.91246  23722586.949    23722586.3194   23722588.4474
        43.700          36.7004
 123529661.997 7  96256855.89046  23506938.625    23506938.4334   23506950.4924
        42.400          36.8004
 109640333.719 6                  20546560.821    20546560.266
        39.800
 412809273.299 5                  78554836.355
        32.800
 202116206.176 7                  38461415.316
        45.300
 131875939.031 5 102570300.749 5  24652815.428    24652815.358    24652845.223
        31.600          34.900
 148742489.675 6                  28304811.206
        36.300
 124032145.056 8                  23602532.733
        48.100
 137065644.337 6                  26082685.724
        41.900
 106758213.774 8  83188289.19646  20315388.295    20315387.2854   20315387.9144
        48.800          39.8004
 115120893.367 7  89704746.04747  21906722.997    21906722.2824   21906729.8354
        45.100          43.9004
 131527311.441 7                  25028806.817
        45.800
 104978845.260 8  81801701.71847  19976810.347    19976809.9364   19976811.7404
        49.700          42.9004
 131542395.654 7                  25031684.235
        44.200
 103536162.528 8  80528149.740 8  19341420.714    19341420.765    19341427.181
        53.100          49.000
 128459164.740 7  99912720.650 6  24005675.409    24005676.210    24005688.839
        44.300          39.800
 119171092.168 8  92688645.050 7  22254360.083    22254360.896    22254366.526
        48.000          43.500
 113382529.693 7                  21270230.052    21270229.406
        43.600
 116243109.121 8  90411347.586 7  21760951.200    21760951.476    21760958.962
        49.300          45.800
 124635681.128 7  97118695.87846  23717394.981    23717394.5084   23717398.3684
        43.000          37.8004
 103914966.100 8  80822845.459 8  19459911.640    19459911.757    19459917.024
        53.000          50.300
 143210554.449 6                  27252060.459
        39.600
 25  1  1 17  3  0.0000000  0 29G09G26E19R18G08S31S35G07G03R06S48S33
                                R19E29E04E31G16G27E21G04E06R07R17R08
                                R10R16G31R09E09
 109657852.787 8  85447690.35448  20867192.958    20867192.3414   20867195.3174
        48.400          49.6004
 118291097.958 7  92174908.40547  22510044.324    22510043.6314   22510048.6884
        44.000          42.2004
 126561027.764 7                  24083769.276
        42.800
 125680719.126 7  97751884.870 7  23544173.009    23544173.160    23544185.276
        43.100          42.400
 121615448.843 7  94765381.37045  23142632.466    23142631.7334   23142645.7574
        42.200          34.8004
 198980402.852 7                  37864713.608
        45.700
 200918077.889 7                  38233447.866
        43.800
 124629572.379 7  97113996.57446  23716201.467    23716200.8504   23716203.2214
        42.500          36.6004
 123580638.374 6  96296577.46046  23516639.377    23516639.1994   23516651.3694
        41.800          36.9004
 109690068.351 6                  20555881.285    20555880.612
        39.900
 412809886.026 5                  78554874.927
        33.400
 202116221.583 7                  38461419.899
        45.100
 131824443.592 5 102530248.702 6  24643187.982    24643188.921    24643218.455
        31.600          36.300
 148784426.268 6                  28312791.391
        36.700
 124016957.085 8                  23599642.697
        48.300
 137027448.866 7                  26075417.563
        42.500
 106782758.902 8  83207415.26446  20320058.907    20320057.8974   20320058.6674
        49.100          39.7004
 115083012.594 7  89675228.65647  21899514.816    21899514.1014   21899521.2494
        44.500          44.0004
 131557432.279 7                  25034538.847
        46.400
 104975164.068 8  81798833.25647  19976109.880    19976109.4744   19976111.2524
        50.000          43.1004
 131511081.086 7                  25025725.246
        44.600
 103527738.190 8  80521597.492 8  19339846.632    19339846.865    19339853.366
        53.300          48.800
 128465871.711 7  99917937.006 6  24006928.608    24006929.163    24006943.478
        45.400          40.300
 119114874.388 7  92644920.197 7  22243861.885    22243862.390    22243868.480
        47.900          43.500
 113348151.460 7                  21263780.745    21263780.079
        43.800
 116289671.101 8  90447562.413 7  21769667.930    21769667.666    21769675.567
        49.400          45.800
 124676726.502 7  97150679.12246  23725206.113    23725205.6624   23725209.3984
        42.800          37.8004
 103918820.912 8  80825843.652 8  19460633.129    19460633.741    19460638.771
        52.700          50.200
 143170697.207 6                  27244476.336
        39.700
 25  1  1 17  3 15.0000000  0 29G09G26E19R18G08S31S35G07G03R06S48S33
                                R19E29E04E31G16G27E21G04E06R07R17R08
                                R10R16G31R09E09
 109628314.841 8  85424673.75948  20861572.394    20861571.7954   20861574.4704
        48.700          49.6004
 118337886.920 7  92211367.30947  22518948.133    22518947.4544   22518952.2744
        44.300          42.0004
 126588807.791 7                  24089055.706
        42.800
 125649358.366 7  97727493.426 7  23538298.966    23538299.796    23538309.752
        44.100          42.300
 121561340.877 7  94723219.53945  23132335.783    23132335.0504   23132349.2244
        42.200          34.9004
 198980399.031 7                  37864715.621
        45.700
 200918040.817 7                  38233443.296
        44.000
 124596025.821 6  97087856.42246  23709818.828    23709818.2204   23709819.3404
        41.900          36.6004
 123631638.822 6  96336317.79146  23526344.538    23526344.3644   23526356.6104
        41.600          36.7004
 109739937.678 6                  20565225.870    20565225.842
        39.200
 412808899.458 5                  78554911.536
        33.100
 202116237.934 7                  38461425.256
        45.400
 131772962.749 5 102490207.874 5  24633565.931    24633565.828    24633594.414
        32.800          34.500
 148826383.764 6                  28320775.814
        36.900
 124001841.609 8                  23596766.347
        48.500
 136989300.481 7                  26068157.820
        42.400
 106807430.766 8  83226640.09246  20324753.798    20324752.7924   20324753.5354
        48.900          39.6004
 115045241.590 7  89645796.80547  21892327.405    21892326.6954   21892333.5634
        44.800          43.9004
 131587602.225 7                  25040279.779
        46.200
 104971615.122 8  81796067.83047  19975434.411    19975433.9964   19975435.9474
        50.200          43.0004
 131479810.222 7                  25019774.560
        44.200
 103519513.311 8  80515200.353 8  19338310.239    19338310.478    19338316.966
        53.200          48.800
 128472755.689 7  99923290.628 6  24008215.080    24008215.501    24008230.697
        44.600          39.700
 119058742.143 8  92601261.875 7  22233379.419    22233380.222    22233385.298
        48.300          43.400
 113313865.035 7                  21257348.586    21257347.967
        44.200
 116336252.001 8  90483791.881 7  21778387.522    21778388.358    21778395.862
        49.100          46.100
 124717788.515 7  97182675.34146  23733020.230    23733019.7924   23733023.5454
        43.600          37.8004
 103922777.986 8  80828921.383 8  19461374.238    19461374.693    19461379.719
        52.700          50.200
 143130853.286 6                  27236894.356
        39.700
 25  1  1 17  3 30.0000000  0 29G09G26E19R18G08S31S35G07G03R06S48S33
                                R19E29E04E31G16G27E21G04E06R07R17R08
                                R10R16G31R09E09
 109598880.845 8  85401738.17648  20855971.053    20855970.4504   20855973.3924
        48.600          49.5004
 118384716.516 7  92247857.88646  22527859.274    22527858.5994   22527863.7354
        44.200          41.9004
 126616653.709 7                  24094354.731
        42.600
 125618126.487 7  97703202.245 7  23532446.167    23532446.741    23532459.108
        42.900          42.500
 121507260.753 6  94681079.40945  23122044.478    23122043.7594   23122058.0714
        41.900          35.0004
 198980392.935 7                  37864711.301
        45.900
 200918001.921 7                  38233431.071
        43.900
 124562483.849 7  97061719.83546  23703436.309    23703435.7064   23703436.4434
        43.000          36.6004
 123682659.635 7  96376074.00046  23536054.026    23536053.8614   23536065.7504
        42.500          36.7004
 109789937.968 6                  20574596.026    20574596.557
        39.400
 412809510.857 5                  78554944.246
        33.400
 202116252.100 7                  38461430.533
        45.600
 131721494.173 5 102450176.681 5  24623942.657    24623944.551    24623973.401
        32.000          35.100
 148868358.805 6                  28328763.086
        36.800
 123986795.535 8                  23593903.133
        48.200
 136951196.014 7                  26060906.616
        42.200
 106832225.739 8  83245960.83846  20329472.178    20329471.1724   20329471.8264
        49.000          39.5004
 115007577.485 7  89616448.26147  21885159.755    21885159.0364   21885166.2004
        44.700          44.0004
 131617817.647 7                  25046029.787
        45.900
 104968195.260 8  81793402.99047  19974783.830    19974783.4154   19974785.1874
        50.000          43.1004
 131448580.058 7                  25013831.925
        44.500
 103511484.909 8  80508956.026 8  19336810.252    19336810.531    19336817.175
        53.300          48.900
 128479816.055 7  99928782.317 6  24009534.578    24009534.536    24009549.607
        44.000          41.300
 119002692.236 8  92557667.516 7  22222912.775    22222912.959    22222919.291
        48.200          43.500
 113279666.934 7                  21250932.816    21250932.173
        44.000
 116382848.612 8  90520033.550 7  21787111.040    21787110.951    21787118.768
        49.300          45.900
 124758863.839 7  97214681.93346  23740836.002    23740835.5694   23740840.0044
        43.700          37.7004
 103926833.529 8  80832075.687 8  19462134.017    19462134.153    19462139.237
        52.900          50.000
 143091019.446 6                  27229313.940
        39.700
 25  1  1 17  3 45.0000000  0 29G09G26E19R18G08S31S35G07G03R06S48S33
                                R19E29E04E31G16G27E21G04E06R07R17R08
                                R10R16G31R09E09
 109569555.563 8  85378887.29648  20850390.715    20850390.1124   20850392.9774
        48.500          49.4004
 118431590.908 7  92284383.35246  22536779.234    22536778.5594   22536783.6384
        44.000          41.7004
 126644570.134 7                  24099667.118
        42.500
 125587028.419 7  97679015.096 7  23526621.391    23526620.969    23526632.910
        43.200          42.300
 121453213.380 6  94638964.79145  23111759.210    23111758.4914   23111772.7224
        41.800          34.9004
 198980388.979 7                  37864714.355
        45.500
 200917964.292 7                  38233427.757
        44.100
 124528950.954 7  97035590.33746  23697054.531    23697053.9284   23697055.4074
        43.900          36.7004
 123733704.922 6  96415849.25346  23545767.241    23545767.0674   23545779.9524
        41.800          36.5004
 109840073.141 6                  20583991.835    20583991.628
        39.800
 412810125.198 5                  78554977.815
        32.900
 202116267.779 7                  38461433.717
        45.200
 131670042.666 5 102410158.699 5  24614325.519    24614325.241    24614355.728
        32.100          35.300
 148910355.783 6                  28336755.094
        36.600
 123971823.529 8                  23591053.970
        48.200
 136913140.070 7                  26053664.793
        42.400
 106857148.392 8  83265381.07846  20334214.710    20334213.7044   20334214.4384
        48.900          39.4004
 114970025.148 7  89587186.81447  21878013.541    21878012.8224   21878020.1274
        45.000          43.9004
 131648082.953 7                  25051789.018
        46.200
 104964909.135 8  81790842.36247  19974158.451    19974158.0364   19974159.8764
        50.000          43.0004
 131417395.216 7                  25007897.607
        44.500
 103503657.799 8  80502868.265 8  19335348.050    19335348.467    19335355.098
        53.300          49.000
 128487054.379 7  99934411.718 6  24010887.247    24010887.667    24010902.707
        44.800          41.800
 118946729.950 7  92514141.311 7  22212461.803    22212462.593    22212468.541
        47.900          43.800
 113245561.782 7                  21244535.312    21244534.716
        44.200
 116429465.541 8  90556291.129 7  21795837.830    21795838.128    21795845.814
        48.900          45.700
 124799956.911 7  97246702.33946  23748655.919    23748655.4774   23748659.9154
        43.100          37.5004
 103930991.978 8  80835310.035 8  19462912.487    19462912.873    19462918.006
        52.600          50.200
 143051200.252 6                  27221736.910
        39.900
 25  1  1 17  4  0.0000000  0 29G09G26E19R18G08S31S35G07G03R06S48S33
                                R19E29E04E31G16G27E21G04E06R07R17R08
                                R10R16G31R09E09
 109540334.087 8  85356117.31348  20844830.093    20844829.4944   20844832.3084
        48.700          49.4004
 118478504.670 7  92320939.51646  22545706.855    22545706.1804   22545711.0764
        44.000          41.6004
 126672551.668 7                  24104991.755
        42.800
 125556059.350 7  97654928.294 7  23520820.476    23520819.624    23520830.806
        42.500          42.000
 121399193.881 7  94596871.89245  23101479.303    23101478.5704   23101492.8654
        42.100          34.9004
 198980381.811 7                  37864704.012
        45.400
 200917924.010 7                  38233423.008
        43.900
 124495421.951 7  97009463.85946  23690674.081    23690673.4694   23690674.9334
        43.000          36.6004
 123784769.031 6  96455639.17246  23555485.245    23555485.0894   23555497.6874
        41.100          36.4004
 109890337.607 6                  20593411.512    20593410.949
        38.900
 412810737.720 5                  78555009.831
        33.600
 202116281.161 7                  38461437.075
        45.400
 131618603.592 5 102370150.402 5  24604707.268    24604709.692    24604739.731
        31.200          35.100
 148952369.360 5                  28344749.823
        35.600
 123956920.489 8                  23588218.149
        48.500
 136875127.464 7                  26046431.278
        42.700
 106882192.738 8  83284896.14646  20338980.665    20338979.6594   20338980.2214
        48.900          39.4004
 114932579.727 7  89558008.67647  21870887.963    21870887.2394   21870894.3914
        44.800          43.8004
 131678392.752 7                  25057556.853
        46.300
 104961751.621 8  81788381.96047  19973557.371    19973556.9564   19973559.0024
        50.200          43.0004
 131386250.677 7                  25001970.944
        44.700
 103496026.602 8  80496932.875 8  19333922.569    19333922.905    19333929.553
        53.200          48.900
 128494467.831 7  99940178.129 6  24012272.569    24012273.557    24012287.519
        45.400          40.500
 118890850.707 8  92470679.750 7  22202027.407    22202027.664    22202033.366
        48.100          43.600
 113211544.215 7                  21238152.787    21238152.128
        43.600
 116476096.878 8  90592559.982 7  21804567.617    21804567.468    21804574.985
        48.900          45.200
 124841062.265 7  97278732.30946  23756478.006    23756477.5644   23756482.2184
        43.800          37.5004
 103935248.086 8  80838620.361 8  19463709.521    19463709.886    19463715.073
        52.700          50.300
 143011390.640 6                  27214161.135
        40.100
 25  1  1 17  4 15.0000000  0 29G09G26E19R18G08S31S35G07G03R06S48S33
                                R19E29E04E31G16G27E21G04E06R07R17R08
                                R10R16G31R09E09
 109511224.060 8  85333434.17148  20839290.704    20839290.1054   20839292.8404
        48.900          49.5004
 118525464.788 7  92357531.80046  22554643.198    22554642.5194   22554647.3324
        44.100          41.6004
 126700605.615 7                  24110330.310
        42.800
 125525227.279 7  97630948.059 7  23515043.856    23515043.625    23515054.999
        43.400          42.200
 121345210.087 6  94554806.82045  23091206.890    23091206.1664   23091220.3314
        41.400          35.0004
 198980378.924 7                  37864710.143
        45.800
 200917888.110 7                  38233410.720
        43.800
 124461904.226 7  96983346.16746  23684295.781    23684295.1644   23684296.7454
        43.300          36.7004
 123835858.965 7  96495449.22146  23565207.136    23565206.9894   23565219.5044
        42.000          36.1004
 109940738.505 6                  20602856.647    20602856.840
        39.500
 412809755.158 5                  78555054.248
        34.000
 202116298.477 7                  38461442.678
        45.400
 131567184.785 5 102330157.848 5  24595097.680    24595097.304    24595127.326
        30.800          34.500
 148994406.705 5                  28352750.079
        35.400
 123942093.947 8                  23585396.794
        48.700
 136837165.733 7                  26039207.201
        42.500
 106907366.050 8  83304511.71446  20343770.665    20343769.6594   20343770.5594
        48.700          39.4004
 114895248.977 7  89528919.87647  21863784.253    21863783.5344   21863790.4724
        45.100          43.9004
 131708754.211 7                  25063334.287
        46.400
 104958730.239 8  81786027.62547  19972982.606    19972982.1954   19972984.0584
        50.100          43.0004
 131355153.928 7                  24996053.671
        44.800
 103488599.309 8  80491156.086 8  19332534.991    19332535.414    19332542.036
        53.200          48.800
 128502061.918 7  99946084.833 6  24013690.927    24013691.231    24013706.418
        44.400          40.700
 118835062.098 8  92427288.581 7  22191608.647    22191609.530    22191615.134
        48.400          43.500
 113177622.106 7                  21231789.999    21231789.398
        44.800
 116522749.951 8  90628845.751 7  21813300.484    21813300.780    21813308.430
        49.000          45.800
 124882187.299 7  97310777.62446  23764303.794    23764303.3474   23764308.2244
        43.500          37.5004
 103939608.868 8  80842012.111 8  19464526.129    19464526.624    19464531.636
        52.900          50.400
 142971598.205 6                  27206588.674
        39.600
 25  1  1 17  4 30.0000000  0 29G09G26E19R18G08S31S35G07G03R06S48S33
                                R19E29E04E31G16G27E21G04E06R07R17R08
                                R10R16G31R09E09
 109482219.869 8  85310833.48548  20833771.532    20833770.9334   20833773.5304
        48.300          49.4004
 118572465.207 7  92394155.49346  22563587.048    22563586.3734   22563591.1724
        43.300          41.4004
 126728726.007 7                  24115681.483
        43.100
 125494526.591 7  97607069.969 6  23509291.918    23509292.832    23509303.231
        43.800          41.600
 121291256.413 7  94512765.21545  23080939.421    23080938.6884   23080952.7704
        42.700          35.1004
 198980374.530 7                  37864708.399
        45.700
 200917850.354 7                  38233407.572
        44.300
 124428391.852 7  96957232.64546  23677918.567    23677917.9594   23677919.7734
        43.100          36.7004
 123886968.381 7  96535274.44546  23574933.218    23574933.0664   23574945.5654
        42.100          36.3004
 109991269.306 6                  20612326.572    20612326.042
        39.000
 412810370.535 5                  78555088.067
        33.400
 202116313.464 7                  38461442.150
        45.300
 131515781.494 5 102290177.374 5  24585486.806    24585487.483    24585518.556
        31.300          35.100
 149036461.910 5                  28360752.180
        35.500
 123927338.142 8                  23582588.722
        48.700
 136799249.023 7                  26031991.687
        43.000
 106932662.082 8  83324222.90846  20348584.476    20348583.4754   20348584.2344
        48.600          39.3004
 114858027.381 7  89499916.13147  21856701.187    21856700.4544   21856707.3824
        45.300          43.9004
 131739161.142 7                  25069120.502
        46.500
 104955839.222 8  81783774.86947  19972432.365    19972431.9454   19972433.9104
        50.100          43.1004
 131324099.333 7                  24990143.899
        45.100
 103481369.839 8  80485533.138 8  19331184.584    19331184.966    19331191.601
        53.200          48.900
 128509829.702 7  99952125.857 6  24015143.796    24015143.789    24015158.582
        45.100          41.100
 118779358.795 7  92383963.754 7  22181206.394    22181206.868    22181213.089
        47.400          43.600
 113143788.878 7                  21225442.287    21225442.068
        44.800
 116569418.229 8  90665143.276 7  21822037.219    21822037.297    21822044.818
        49.100          45.600
 124923326.199 7  97342833.74146  23772132.520    23772132.0734   23772136.7074
        43.600          37.2004
 103944068.230 8  80845480.508 8  19465361.279    19465361.574    19465366.863
        52.700          50.400
 142931817.184 6                  27199018.653
        40.000
 25  1  1 17  4 45.0000000  0 29G09G26E19R18G08S31S35G07G03R06S48S33
                                R19E29E04E31G16G27E21G04E06R07R17R08
                                R10R16G31R09E09
 109453323.059 8  85288316.50148  20828272.522    20828271.9284   20828274.6554
        48.400          49.5004
 118619506.801 7  92430811.28046  22572538.932    22572538.2804   22572542.9764
        43.000          41.4004
 126756914.171 7                  24121045.454
        42.900
 125463959.034 7  97583295.408 7  23503565.134    23503565.582    23503576.952
        42.700          42.100
 121237334.616 7  94470748.45145  23070678.060    23070677.3184   23070691.7434
        42.100          35.3004
 198980370.049 7                  37864708.077
        45.600
 200917812.572 7                  38233403.673
        44.300
 124394886.019 7  96931124.22446  23671542.972    23671542.3644   23671543.7224
        43.300          36.8004
 123938098.235 6  96575115.60346  23584662.996    23584662.8404   23584675.2794
        41.100          36.0004
 110041930.830 6                  20621821.056    20621820.281
        39.100
 412810984.864 5                  78555122.950
        33.300
 202116329.498 7                  38461443.206
        45.400
 131464394.917 5 102250209.889 5  24575882.834    24575883.180    24575911.753
        33.300          35.400
 149078536.070 6                  28368759.133
        36.200
 123912654.497 8                  23579794.571
        48.700
 136761378.723 7                  26024785.146
        42.800
 106958081.755 8  83344030.44046  20353421.859    20353420.8584   20353421.3984
        48.700          39.4004
 114820916.622 7  89470998.75847  21849638.960    21849638.2234   21849645.2774
        44.900          44.0004
 131769614.622 7                  25074915.748
        46.600
 104953079.961 8  81781624.78647  19971907.293    19971906.8734   19971908.8394
        50.000          43.2004
 131293088.369 7                  24984242.775
        45.000
 103474339.677 8  80480065.205 8  19329871.305    19329871.637    19329878.326
        52.900          48.800
 128517775.648 7  99958306.338 6  24016627.969    24016629.092    24016642.759
        45.400          40.600
 118723742.615 7  92340706.762 7  22170820.752    22170821.145    22170826.945
        47.800          43.600
 113110046.417 7                  21219112.432    21219112.080
        45.100
 116616103.037 8  90701453.678 7  21830776.551    21830776.663    21830784.582
        48.800          45.300
 124964480.168 7  97374901.60546  23779963.954    23779963.4894   23779968.2084
        43.400          37.1004
 103948627.202 8  80849026.385 8  19466215.118    19466215.372    19466220.563
        52.800          50.100
 142892048.837 6                  27191451.138
        39.900
 25  1  1 17  5  0.0000000  0 29G09G26E19R18G08S31S35G07G03R06S48S33
                                R19E29E04E31G16G27E21G04E06R07R17R08
                                R10R16G31R09E09
 109424533.707 8  85265883.23448  20822793.846    20822793.2524   20822796.2114
        48.600          49.6004
 118666589.160 7  92467498.84046  22581498.115    22581497.4634   22581502.3374
        43.400          41.3004
 126785169.765 7                  24126422.667
        42.800
 125433524.814 7  97559624.563 6  23497863.595    23497864.367    23497875.083
        43.000          41.500
 121183444.814 6  94428756.62445  23060423.576    23060422.8344   23060436.7474
        41.300          35.6004
 198980364.303 7                  37864704.611
        45.500
 200917774.131 7                  38233392.820
        44.100
 124361386.620 7  96905020.81346  23665167.956    23665167.3484   23665168.7624
        43.800          36.8004
 123989247.831 7  96614972.12546  23594397.032    23594396.8804   23594409.0714
        42.200          36.2004
 110092722.539 6                  20631337.821    20631338.612
        39.000
 412811599.378 5                  78555158.347
        33.000
 202116344.196 7                  38461447.476
        45.000
 131413025.319 5 102210255.612 5  24566278.791    24566279.566    24566308.841
        33.300          35.000
 149120628.915 6                  28376769.011
        36.000
 123898042.984 8                  23577014.125
        48.800
 136723554.727 7                  26017587.605
        43.000
 106983624.666 8  83363934.00146  20358282.489    20358281.4924   20358282.0834
        48.700          39.3004
 114783916.907 7  89442167.91647  21842598.000    21842597.2724   21842604.3984
        44.900          44.2004
 131800114.297 7                  25080719.663
        46.500
 104950452.372 8  81779577.29947  19971407.342    19971406.9224   19971408.8444
        50.000          43.3004
 131262120.952 7                  24978349.728
        45.200
 103467509.010 8  80474752.449 8  19328595.487    19328595.660    19328602.241
        52.900          48.600
 128525897.163 7  99964623.078 6  24018145.341    24018145.647    24018161.054
        44.000          40.700
 118668213.774 8  92297517.620 7  22160451.177    22160451.627    22160457.038
        48.300          43.200
 113076393.899 7                  21212799.331    21212798.650
        44.500
 116662803.784 8  90737776.397 7  21839519.185    21839519.374    21839526.971
        48.300          45.500
 125005649.040 7  97406981.07346  23787798.347    23787797.8694   23787802.6794
        43.700          37.2004
 103953285.468 8  80852649.472 8  19467087.570    19467087.813    19467092.856
        52.700          50.100
 142852293.319 6                  27183885.983
        40.800
 25  1  1 17  5 15.0000000  0 29G09G26E19R18G08S31S35G07G03R06S48S33
                                R19E29E04E31G16G27E21G04E06R07R17R08
                                R10R16G31R09E09
 109395853.395 8  85243534.93848  20817336.094    20817335.4914   20817338.5194
        48.800          49.7004
 118713713.136 7  92504218.77946  22590465.360    22590464.7084   22590469.7694
        43.900          41.3004
 126813493.960 7                  24131812.552
        43.100
 125403225.852 7  97536058.925 6  23492187.435    23492187.753    23492198.175
        42.600          41.300
 121129588.771 7  94386791.09145  23050174.303    23050173.5704   23050188.3164
        42.300          35.7004
 198980360.092 7                  37864708.828
        45.900
 200917736.285 7                  38233382.594
        44.000
 124327894.991 7  96878923.44746  23658794.724    23658794.1034   23658795.4044
        43.900          37.0004
 124040418.104 6  96654844.76846  23604134.189    23604134.0114   23604147.0354
        40.900          36.1004
 110143645.135 6                  20640882.709    20640881.726
        39.500
 412810613.891 5                  78555196.128
        33.400
 202116360.363 7                  38461449.949
        45.300
 131361674.645 5 102170316.106 5  24556677.524    24556680.539    24556710.427
        32.400          34.800
 149162741.557 6                  28384782.615
        36.600
 123883505.019 8                  23574247.531
        48.700
 136685778.399 7                  26010398.678
        43.300
 107009291.733 8  83383934.31446  20363166.652    20363165.6554   20363166.4104
        48.800          39.3004
 114747029.905 7  89413424.90847  21835578.992    21835578.2644   21835584.9484
        45.100          44.1004
 131830661.325 7                  25086532.577
        46.300
 104947957.883 8  81777633.53147  19970932.591    19970932.1674   19970934.1824
        50.200          43.2004
 131231198.514 7                  24972465.512
        45.400
 103460879.230 8  80469595.957 8  19327357.055    19327357.159    19327363.861
        53.200          48.700
 128534194.422 7  99971075.715 6  24019697.427    24019697.895    24019711.960
        44.500          40.600
 118612774.143 8  92254397.893 7  22150098.340    22150098.649    22150104.324
        48.100          43.500
 113042833.012 7                  21206503.656    21206503.021
        45.100
 116709521.496 8  90774112.363 7  21848265.019    21848265.005    21848272.959
        48.800          45.600
 125046834.070 7  97439073.12746  23795635.956    23795635.4874   23795640.1324
        43.500          37.1004
 103958044.243 8  80856350.767 8  19467978.542    19467978.962    19467984.015
        52.600          50.000
 142812552.027 6                  27176323.157
        40.400
 25  1  1 17  5 30.0000000  0 29G09G26E19R18G08S31S35G07G03R06S48S33
                                R19E29E04E31G16G27E21G04E06R07R17R08
                                R10R16G31R09E09
 109367280.552 8  85221270.38248  20811899.018    20811898.4104   20811901.2864
        48.200          49.4004
 118760876.746 7  92540969.63946  22599440.408    22599439.7514   22599444.7584
        43.100          41.1004
 126841885.050 7                  24137215.297
        42.800
 125373060.575 7  97512597.263 7  23486535.971    23486536.597    23486548.365
        43.000          42.400
 121075764.950 7  94344850.66845  23039932.285    23039931.5664   23039945.5554
        42.000          35.3004
 198980354.394 7                  37864706.007
        45.900
 200917697.666 7                  38233375.211
        44.100
 124294409.226 7  96852830.65946  23652422.580    23652421.9414   23652423.4224
        43.200          36.8004
 124091606.845 6  96694731.79745  23613875.330    23613875.1564   23613888.3224
        41.200          35.8004
 110194696.522 6                  20650448.617    20650448.248
        39.200
 412811226.983 5                  78555232.169
        33.000
 202116374.387 7                  38461455.878
        45.600
 131310341.841 5 102130390.435 5  24547082.621    24547084.330    24547113.216
        31.800          35.000
 149204872.056 6                  28392799.908
        36.400
 123869038.905 8                  23571494.815
        48.600
 136648047.989 7                  26003219.079
        42.900
 107035080.823 8  83404029.70746  20368074.042    20368073.0364   20368073.9314
        48.600          39.1004
 114710254.120 7  89384768.57347  21828580.527    21828579.7854   21828586.5464
        44.800          44.0004
 131861253.638 7                  25092354.121
        46.000
 104945594.751 8  81775792.12247  19970482.828    19970482.4044   19970484.4984
        50.000          43.1004
 131200319.399 7                  24966589.232
        44.900
 103454448.481 8  80464594.241 8  19326155.622    19326155.925    19326162.529
        53.300          48.800
 128542664.160 7  99977661.009 6  24021280.868    24021281.484    24021296.859
        44.600          39.200
 118557422.605 8  92211346.774 7  22139762.121    22139762.127    22139767.846
        48.100          43.700
 113009361.797 7                  21200223.872    21200223.624
        44.200
 116756254.358 8  90810460.181 7  21857013.524    21857013.712    21857021.327
        49.500          45.900
 125088033.161 7  97471176.14946  23803476.200    23803475.7444   23803480.2374
        42.600          36.8004
 103962901.011 8  80860128.240 8  19468888.002    19468888.544    19468893.525
        52.400          50.000
 142772823.378 6                  27168763.340
        40.300
 25  1  1 17  5 45.0000000  0 29G09G26E19R18G08S31S35G07G03R06S48S33
                                R19E29E04E31G16G27E21G04E06R07R17R08
                                R10R16G31R09E09
 109338814.580 8  85199089.09948  20806482.179    20806481.5674   20806484.3804
        48.600          49.4004
 118808078.807 7  92577750.43946  22608422.748    22608422.0914   22608426.9694
        43.000          41.0004
 126870341.890 7                  24142630.244
        42.300
 125343028.430 7  97489239.104 6  23480910.540    23480910.787    23480921.847
        42.700          41.500
 121021972.922 6  94302935.00845  23029695.625    23029694.8974   23029708.9064
        41.700          35.6004
 198980346.729 7                  37864703.807
        45.500
 200917657.048 7                  38233364.842
        43.800
 124260928.533 7  96826741.81446  23646051.683    23646051.0444   23646052.3664
        43.000          36.9004
 124142812.766 6  96734632.23445  23623620.145    23623619.9804   23623632.7434
        41.200          35.9004
 110245875.374 6                  20660039.262    20660039.968
        39.100
 412811837.888 5                  78555259.513
        32.500
 202116386.914 7                  38461455.990
        45.200
 131259026.301 5 102090478.208 5  24537490.820    24537491.483    24537521.089
        33.000          35.600
 149247019.404 5                  28400819.990
        35.700
 123854643.914 8                  23568755.627
        48.400
 136610362.734 7                  25996047.821
        42.800
 107060990.841 8  83424219.31746  20373004.744    20373003.7434   20373004.4404
        48.300          39.1004
 114673589.067 7  89356198.50747  21821603.256    21821602.5234   21821609.2544
        44.400          44.0004
 131891890.130 7                  25098184.037
        46.200
 104943362.258 8  81774052.50147  19970058.255    19970057.8264   19970059.6764
        49.800          43.1004
 131169482.994 7                  24960721.553
        44.800
 103448216.019 8  80459746.762 8  19324991.389    19324991.675    19324998.395
        53.600          48.700
 128551306.685 7  99984379.726 6  24022899.636    24022899.514    24022914.496
        46.100          41.700
 118502158.437 8  92168363.549 7  22129441.380    22129441.868    22129447.780
        48.300          43.600
 112975979.820 7                  21193962.258    21193961.582
        45.200
 116803001.122 8  90846818.803 7  21865764.663    21865765.080    21865772.355
        49.200          45.600
 125129245.501 7  97503289.48846  23811318.400    23811317.9444   23811322.7874
        42.900          36.7004
 103967854.985 8  80863981.339 8  19469815.968    19469816.267    19469821.226
        52.300          49.900
 142733106.484 6                  27161205.146
        39.700
 25  1  1 17  6  0.0000000  0 29G09G26E19R18G08S31S35G07G03R06S48S33
                                R19E29E04E31G16G27E21G04E06R07R17R08
                                R10R16G31R09E09
 109310463.542 8  85176997.36448  20801086.995    20801086.3744   20801089.3724
        48.500          49.5004
 118855326.798 7  92614567.02146  22617413.592    22617412.9314   22617417.9714
        42.900          41.0004
 126898872.387 7                  24148059.447
        42.700
 125313137.913 6  97465991.100 6  23475310.232    23475310.357    23475321.256
        41.400          41.000
 120968220.873 6  94261050.50145  23019466.380    23019465.6524   23019479.9804
        41.600          35.7004
 198980344.082 7                  37864703.301
        45.600
 200917621.742 7                  38233361.711
        44.000
 124227460.573 7  96800662.89346  23639683.128    23639682.4944   23639683.7744
        44.400          37.1004
 124194043.209 6  96774551.77245  23633369.541    23633369.3724   23633381.9364
        41.500          35.9004
 110297189.060 6                  20669656.633    20669655.839
        39.400
 412812455.365 5                  78555302.969
        33.200
 202116405.544 7                  38461455.024
        45.300
 131207736.543 5 102050586.035 5  24527899.945    24527902.979    24527933.322
        31.700          34.600
 149289191.309 5                  28408845.190
        35.500
 123840327.947 8                  23566031.374
        48.500
 136572730.508 7                  25988886.455
        43.200
 107087029.223 8  83444508.95546  20377959.625    20377958.6154   20377959.4094
        48.400          39.2004
 114637042.902 7  89327721.08747  21814648.891    21814648.1634   21814654.7414
        45.000          44.1004
 131922578.418 7                  25104023.839
        46.300
 104941268.287 8  81772420.82347  19969659.878    19969659.4494   19969661.2364
        50.000          43.1004
 131138697.207 7                  24954863.353
        45.200
 103442190.028 8  80455059.865 8  19323865.584    19323865.846    19323872.620
        53.100          48.900
 128560135.883 7  99991245.886 6  24024549.291    24024550.428    24024565.732
        45.100          40.900
 118446990.165 8  92125454.902 7  22119139.218    22119138.798    22119145.179
        48.200          43.700
 112942694.241 7                  21187716.642    21187717.068
        45.000
 116849769.521 8  90883194.266 7  21874519.945    21874520.078    21874527.318
        49.300          45.700
 125170478.862 7  97535419.20946  23819165.152    23819164.6874   23819169.2734
        42.600          36.6004
 103972913.497 8  80867915.731 8  19470763.173    19470763.393    19470768.494
        52.700          49.700
 142693409.332 6                  27153651.583
        40.500
 25  1  1 17  6 15.0000000  0 29G09G26E19R18G08S31S35G07G03R06S48S33
                                R19E29E04E31G16G27E21G04E06R07R17R08
                                R10R16G31R09E09
 109282221.484 8  85154990.57548  20795712.701    20795712.0754   20795715.0944
        48.600          49.5004
 118902614.058 7  92651414.18346  22626412.394    22626411.7464   22626416.5124
        43.400          40.9004
 126927469.897 7                  24153501.573
        42.400
 125283383.098 7  97442848.644 6  23469735.895    23469737.132    23469748.010
        43.600          41.100
 120914502.867 6  94219192.53145  23009244.745    23009244.0394   23009257.6414
        41.500          35.7004
 198980341.955 7                  37864705.457
        46.000
 200917585.458 7                  38233352.428
        43.900
 124193999.103 7  96774589.03546  23633315.338    23633314.6994   23633316.2324
        43.700          37.0004
 124245291.503 6  96814485.23445  23643121.275    23643121.0974   23643134.1514
        41.500          35.6004
 110348630.505 6                  20679295.863    20679295.651
        38.700
 412811472.651 5                  78555332.432
        33.300
 202116422.743 7                  38461465.273
        45.600
 131156466.567 5 102010709.290 5  24518317.869    24518318.829    24518349.119
        32.300          35.300
 149331381.319 6                  28416873.757
        36.300
 123826084.935 8                  23563320.959
        48.400
 136535145.061 7                  25981734.102
        42.700
 107113189.143 8  83464893.28946  20382937.818    20382936.8124   20382937.4704
        48.400          38.9004
 114600609.723 7  89299331.70747  21807715.572    21807714.8444   21807721.6644
        45.200          44.1004
 131953312.008 7                  25109871.936
        45.900
 104939306.660 8  81770892.27547  19969286.414    19969285.9764   19969287.9594
        50.000          43.0004
 131107955.851 7                  24949013.246
        45.000
 103436364.210 8  80450528.669 8  19322777.563    19322777.619    19322784.200
        53.400          48.900
 128569141.076 7  99998248.932 7  24026233.280    24026233.118    24026250.130
        45.300          44.000
 118391912.013 8  92082616.419 7  22108853.716    22108854.164    22108859.455
        48.600          43.400
 112909499.230 7                  21181490.192    21181489.373
        44.500
 116896552.404 8  90919580.906 7  21883278.160    21883277.997    21883285.375
        49.400          45.900
 125211726.934 7  97567560.38546  23827014.395    23827013.9264   23827018.7684
        42.900          36.4004
 103978070.396 8  80871926.657 8  19471728.618    19471729.066    19471734.141
        52.000          49.900
 142653725.834 6                  27146099.609
        40.300
 25  1  1 17  6 30.0000000  0 29G09G26E19R18G08S31S35G07G03R06S48S33
                                R19E29E04E31G16G27E21G04E06R07R17R08
                                R10R16G31R09E09
 109254086.264 8  85133067.03648  20790358.894    20790358.2644   20790361.1044
        48.100          49.5004
 118949938.080 7  92688289.97546  22635417.290    22635416.6424   22635421.9984
        43.100          41.0004
 126956132.391 7                  24158955.989
        42.500
 125253762.090 7  97419810.226 6  23464187.626    23464187.517    23464198.784
        42.500          41.200
 120860817.017 6  94177359.61946  22999028.049    22999027.3434   22999041.4234
        41.300          36.0004
 198980336.357 7                  37864702.836
        45.700
 200917547.433 7                  38233348.431
        44.000
 124160541.747 7  96748518.37346  23626948.656    23626948.0224   23626949.4604
        43.900          37.1004
 124296554.918 6  96854430.47145  23652876.869    23652876.6914   23652889.2914
        40.800          35.5004
 110400197.344 6                  20688960.034    20688959.686
        39.300
 412812087.419 5                  78555367.043
        33.200
 202116437.269 7                  38461468.886
        45.600
 131105214.847 5 101970846.751 5  24508738.661    24508737.873    24508767.394
        32.400          33.900
 149373586.995 5                  28424905.427
        35.900
 123811912.619 8                  23560624.014
        48.500
 136497604.205 7                  25974590.405
        43.200
 107139468.202 8  83485370.48246  20387938.497    20387937.4964   20387938.2064
        48.400          39.1004
 114564287.564 7  89271028.82847  21800804.084    21800803.3564   21800809.7034
        45.000          44.2004
 131984088.391 7                  25115728.828
        45.800
 104937475.166 8  81769465.13447  19968937.780    19968937.3474   19968939.4274
        50.000          43.2004
 131077256.883 7                  24943171.534
        45.300
 103430736.405 8  80446151.484 8  19321725.885    19321726.349    19321733.029
        53.000          48.700
 128578320.503 7 100005387.966 6  24027949.041    24027950.172    24027965.882
        46.100          41.500
 118336921.743 8  92039846.198 7  22098584.684    22098584.828    22098590.467
        48.000          43.500
 112876392.169 7                  21175279.310    21175278.700
        44.500
 116943347.584 8  90955977.049 7  21892037.735    21892037.982    21892045.659
        49.000          46.000
 125252987.219 7  97599711.09246  23834865.737    23834865.2414   23834870.4144
        42.600          36.4004
 103983323.104 8  80876012.105 8  19472712.247    19472712.698    19472717.871
        52.100          49.700
 142614053.729 6                  27138549.921
        41.200
 25  1  1 17  6 45.0000000  0 29G09G26E19R18G08S31S35G07G03R06S48S33
                                R19E29E04E31G16G27E21G04E06R07R17R08
                                R10R16G31R09E09
 109226060.039 8  85111228.42348  20785025.635    20785025.0094   20785027.8724
        48.300          49.6004
 118997300.445 7  92725195.68446  22644430.577    22644429.9434   22644434.8624
        43.000          41.0004
 126984861.465 7                  24164423.025
        42.500
 125224277.052 7  97396877.567 6  23458664.018    23458664.031    23458674.846
        43.300          41.200
 120807165.506 6  94135553.45845  22988818.855    22988818.1494   22988831.7214
        41.400          35.9004
 198980329.579 7                  37864700.059
        45.500
 200917507.789 7                  38233338.723
        43.900
 124127090.321 7  96722452.32446  23620583.330    23620582.7134   23620583.7074
        43.100          37.1004
 124347834.918 6  96894388.64745  23662635.081    23662634.8854   23662647.6054
        41.700          35.4004
 110451890.672 6                  20698647.307    20698647.389
        39.900
 412812701.068 5                  78555412.980
        33.400
 202116451.262 7                  38461467.393
        45.300
 131053983.584 5 101931000.191 5  24499161.924    24499161.258    24499191.325
        31.800          34.500
 149415810.029 5                  28432939.769
        35.800
 123797813.018 8                  23557941.035
        48.500
 136460109.852 7                  25967455.217
        43.200
 107165867.742 8  83505941.54546  20392962.008    20392961.0024   20392961.9274
        48.400          39.1004
 114528078.633 7  89242814.17647  21793913.625    21793912.8794   21793919.3314
        44.700          44.3004
 132014909.162 7                  25121593.856
        46.200
 104935775.725 8  81768140.87947  19968614.633    19968614.1914   19968616.0534
        50.100          43.2004
 131046602.243 7                  24937338.124
        44.900
 103425308.600 8  80441929.842 8  19320711.764    19320712.284    19320719.075
        52.600          48.500
 128587676.994 7 100012665.545 6  24029698.124    24029698.661    24029713.679
        44.800          40.100
 118282021.789 7  91997146.218 7  22088332.241    22088332.395    22088338.602
        47.900          43.500
 112843374.925 7                  21169085.507    21169084.756
        44.700
 116990156.684 8  90992384.120 7  21900800.519    21900801.079    21900808.345
        49.100          46.000
 125294261.611 7  97631872.78646  23842720.502    23842719.9884   23842724.8194
        43.000          36.3004
 103988672.887 8  80880173.069 8  19473714.077    19473714.623    19473719.819
        52.100          49.900
 142574395.118 6                  27131003.482
        40.400
 25  1  1 17  7  0.0000000  0 29G09G26E19R18G08S31S35G07G03R06S48S33
                                R19E29E04E31G16G27E21G04E06R07R17R08
                                R10R16G31R09E09
 109198140.864 8  85089473.21848  20779712.862    20779712.2364   20779715.0214
        48.400          49.5004
 119044698.653 7  92762129.33046  22653450.029    22653449.3994   22653454.4914
        43.000          40.8004
 127013654.847 7                  24169902.061
        42.400
 125194926.288 6  97374049.383 6  23453165.569    23453164.870    23453176.261
        41.700          41.400
 120753546.592 6  94093772.70745  22978614.918    22978614.2084   22978628.1624
        41.700          35.9004
 198980319.916 7                  37864700.346
        46.000
 200917465.017 7                  38233334.922
        44.100
 124093642.742 7  96696389.28446  23614218.441    23614217.8204   23614218.8274
        43.900          37.1004
 124399128.853 7  96934357.66245  23672395.730    23672395.4984   23672408.9744
        42.100          35.2004
 110503707.980 6                  20708357.752    20708357.200
        38.100
 412811612.061 5                  78555437.430
        33.100
 202116461.999 7                  38461463.001
        45.400
 131002771.320 5 101891168.377 5  24489587.057    24489587.599    24489615.774
        32.300          34.600
 149458048.115 5                  28440977.564
        35.000
 123783784.053 8                  23555271.415
        48.500
 136422659.898 7                  25960328.677
        42.900
 107192385.398 8  83526604.64246  20398008.343    20398007.3374   20398008.1044
        48.500          38.9004
 114491981.179 7  89214686.39747  21787043.838    21787043.0964   21787050.1054
        45.300          44.2004
 132045771.944 7                  25127466.861
        46.000
 104934206.306 8  81766917.93947  19968315.938    19968315.4914   19968317.3754
        50.000          43.1004
 131015989.969 7                  24931512.775
        45.100
 103420078.687 8  80437862.116 8  19319735.055    19319735.377    19319742.102
        52.700          48.600
 128597207.664 7 100020079.220 7  24031477.355    24031477.196    24031494.400
        45.400          44.200
 118227210.751 7  91954515.395 7  22078096.932    22078097.003    22078102.589
        47.600          43.500
 112810445.581 7                  21162907.897    21162907.514
        44.700
 117036976.967 8  91028799.827 7  21909565.359    21909565.758    21909573.203
        48.800          45.700
 125335547.844 7  97664043.69646  23850577.385    23850576.8764   23850581.5724
        42.600          36.2004
 103994117.526 8  80884407.779 8  19474734.050    19474734.189    19474739.246
        52.200          49.700
 142534747.907 6                  27123458.897
        40.000
 25  1  1 17  7 15.0000000  0 29G09G26E19R18G08S31S35G07G03R06S48S33
                                R19E29E04E31G16G27E21G04E06R07R17R08
                                R10R16G31R09E09
 109170342.522 8  85067812.17748  20774423.315    20774422.6944   20774425.1814
        48.100          49.7004
 119092145.851 7  92799101.12546  22662479.237    22662478.6164   22662483.3904
        43.100          41.0004
 127042525.951 7                  24175396.176
        42.400
 125165723.938 7  97351336.591 6  23447694.538    23447695.020    23447704.950
        43.400          40.800
 120699974.109 7  94052028.14046  22968420.147    22968419.4414   22968433.6454
        42.500          36.4004
 198980320.620 7                  37864698.888
        45.600
 200917432.373 7                  38233326.524
        44.000
 124060212.393 7  96670339.67246  23607856.248    23607855.6224   23607857.1034
        44.300          37.3004
 124450449.799 6  96974347.72445  23682162.264    23682162.0144   23682175.4494
        41.400          35.5004
 110555662.441 6                  20718093.999    20718093.872
        39.600
 412812232.377 5                  78555482.866
        33.100
 202116482.608 7                  38461473.823
        45.600
 130951591.890 5 101851362.197 5  24480018.488    24480019.910    24480049.990
        31.500          34.700
 149500314.649 5                  28449020.425
        34.600
 123769839.368 8                  23552617.801
        48.400
 136385267.876 7                  25953213.438
        43.300
 107219034.407 8  83547370.11346  20403079.493    20403078.4874   20403079.2954
        48.400          39.1004
 114456008.995 7  89186656.23647  21780198.723    21780197.9904   21780204.6544
        44.800          44.4004
 132076690.048 7                  25133350.223
        45.900
 104932780.476 8  81765806.89247  19968044.488    19968044.0414   19968046.0864
        49.800          43.2004
 130985433.678 7                  24925697.947
        45.200
 103415060.378 8  80433958.975 8  19318797.662    19318797.964    19318804.698
        52.800          48.600
 128606923.735 7 100027636.585 6  24033293.478    24033294.101    24033309.811
        45.600          40.500
 118172502.811 8  91911964.789 7  22067880.352    22067880.776    22067886.474
        48.200          43.200
 112777617.254 7                  21156749.431    21156749.101
        45.200
 117083822.408 8  91065235.199 7  21918335.456    21918335.294    21918343.128
        49.200          46.100
 125376859.274 7  97696234.24346  23858438.762    23858438.2394   23858443.2394
        42.600          36.3004
 103999670.464 8  80888726.736 8  19475773.568    19475774.020    19475779.090
        52.100          49.700
 142495125.746 6                  27115918.629
        39.500
 25  1  1 17  7 30.0000000  0 29G09G26E19R18G08S31S35G07G03R06S48S33
                                R19E29E04E31G16G27E21G04E06R07R17R08
                                R10R16G31R09E09
 109142646.324 8  85046230.73148  20769152.613    20769152.0014   20769154.7524
        48.700          49.7004
 119139622.862 7  92836096.17046  22671513.676    22671513.0554   22671517.9864
        43.700          40.9004
 127071455.841 7                  24180901.331
        42.400
 125136651.134 7  97328724.572 6  23442248.504    23442248.432    23442258.952
        42.500          41.100
 120646429.500 6  94010305.28146  22958231.061    22958230.3554   22958244.1274
        41.500          36.2004
 198980312.201 7                  37864700.896
        45.900
 200917390.895 7                  38233320.009
        44.100
 124026780.450 7  96644288.81946  23601494.450    23601493.8164   23601495.4064
        43.300          37.5004
 124501778.400 6  97014343.74045  23691930.469    23691930.2154   23691943.2844
        40.700          35.2004
 110607734.497 6                  20727851.777    20727852.254
        38.600
 412812842.756 5                  78555515.487
        33.300
 202116494.321 7                  38461477.928
        45.700
 130900426.833 5 101811567.125 5  24470455.674    24470454.094    24470484.737
        31.700          35.500
 149542590.409 6                  28457065.935
        36.300
 123755960.142 8                  23549976.607
        48.500
 136347914.951 7                  25946105.222
        43.300
 107245795.533 8  83568222.96046  20408171.636    20408170.6264   20408171.7174
        48.700          39.1004
 114420143.488 7  89158709.19947  21773373.512    21773372.7794   21773379.5014
        45.400          44.4004
 132107644.279 7                  25139240.819
        46.100
 104931479.405 8  81764793.06347  19967796.858    19967796.4114   19967798.5194
        50.000          43.3004
 130954914.620 7                  24919890.390
        45.100
 103410234.895 8  80430205.808 8  19317896.194    19317896.458    19317903.210
        52.900          48.500
 128616806.457 7 100035323.239 7  24035139.405    24035139.732    24035156.207
        46.300          42.000
 118117879.019 8  91869479.621 7  22057679.476    22057680.093    22057686.095
        48.000          44.000
 112744871.150 7                  21150605.966    21150605.342
        44.400
 117130673.157 8  91101674.750 7  21927105.573    21927105.595    21927113.036
        48.800          45.500
 125418176.975 7  97728429.67446  23866301.165    23866300.6334   23866305.7424
        42.700          36.3004
 104005312.524 8  80893115.001 8  19476830.233    19476830.629    19476835.610
        52.100          49.800
 142455509.941 6                  27108380.621
        40.800
 25  1  1 17  7 45.0000000  0 29G09G26E19R18G08S31S35G07G03R06S48S33
                                R19E29E04E31G16G27E21G04E06R07R17R08
                                R10R16G31R09E09
 109115062.898 8  85024737.15648  20763903.439    20763902.8184   20763905.8054
        48.700          49.9004
 119187139.759 7  92873122.32146  22680555.852    22680555.2224   22680560.1394
        43.200          40.9004
 127100454.620 7                  24186419.505
        42.500
 125107718.713 7  97306221.668 6  23436828.164    23436827.922    23436839.153
        42.700          41.300
 120592923.540 7  93968612.54746  22948048.888    22948048.1734   22948062.1534
        42.500          36.6004
 198980305.585 7                  37864694.036
        45.600
 200917351.244 7                  38233316.673
        44.300
 123993357.149 7  96618244.70346  23595134.528    23595133.8854   23595135.2384
        43.500          37.4004
 124553124.678 6  97054353.53145  23701701.756    23701701.5064   23701714.4994
        40.700          35.1004
 110659933.981 6                  20737634.523    20737634.304
        39.200
 412813456.298 5                  78555557.502
        33.400
 202116508.183 7                  38461479.511
        45.100
 130849287.032 5 101771791.788 5  24460892.247    24460893.725    24460924.967
        32.300          35.500
 149584885.833 5                  28465113.900
        35.600
 123742156.882 8                  23547350.067
        48.600
 136310611.574 7                  25939006.507
        43.200
 107272678.696 8  83589170.89746  20413287.346    20413286.3364   20413287.3794
        48.500          39.1004
 114384395.468 7  89130853.72647  21766571.037    21766570.3044   21766576.7854
        45.400          44.5004
 132138644.962 7                  25145140.039
        46.000
 104930313.566 8  81763884.61147  19967575.189    19967574.7384   19967576.6604
        49.900          43.2004
 130924443.340 7                  24914092.208
        45.400
 103405612.706 8  80426610.761 8  19317032.934    19317033.042    19317039.695
        53.100          48.700
 128626863.354 7 100043143.573 6  24037019.912    24037020.228    24037037.070
        45.100          40.800
 118063350.357 7  91827068.419 7  22047496.329    22047496.702    22047502.918
        47.100          43.500
 112712217.774 7                  21144480.343    21144480.006
        44.700
 117177539.579 8  91138126.559 7  21935878.789    21935879.097    21935886.520
        48.500          45.400
 125459511.325 7  97760638.07046  23874166.836    23874166.3274   23874171.3844
        42.700          36.2004
 104011053.388 8  80897580.112 8  19477905.317    19477905.701    19477910.807
        51.900          49.800
 142415910.921 6                  27100845.164
        40.600
 25  1  1 17  8  0.0000000  0 29G09G26E19R18G08S31S35G07G03R06S48S33
                                R19E29E04E31G16G27E21G04E06R07R17R08
                                R10R16G31R09E09
 109087593.530 8  85003332.45848  20758676.193    20758675.5674   20758678.5634
        48.400          49.7004
 119234697.181 7  92910180.02546  22689605.770    22689605.1444   22689610.0234
        43.500          40.9004
 127129523.434 7                  24191951.461
        42.600
 125078928.375 7  97283829.317 6  23431435.480    23431434.962    23431445.182
        43.900          41.500
 120539457.629 6  93926951.02346  22937874.675    22937873.9694   22937887.7814
        41.400          36.4004
 198980301.852 7                  37864690.150
        45.000
 200917314.271 7                  38233305.083
        43.700
 123959943.440 7  96592208.06446  23588776.056    23588775.4264   23588776.6314
        44.200          37.3004
 124604489.220 6  97094377.57045  23711475.867    23711475.6174   23711489.1004
        41.400          34.9004
 110712261.702 6                  20747440.495    20747440.738
        38.500
 412812472.085 5                  78555581.497
        33.800
 202116524.231 7                  38461480.499
        45.300
 130798174.165 5 101732037.310 5  24451340.995    24451340.264    24451369.597
        32.400          34.400
 149627201.639 5                  28473166.969
        35.800
 123728430.714 8                  23544738.065
        48.600
 136273358.823 7                  25931917.601
        43.500
 107299684.673 8  83610214.52646  20418426.485    20418425.4794   20418426.4274
        48.200          38.9004
 114348766.226 7  89103090.78747  21759790.801    21759790.0684   21759796.7374
        45.000          44.5004
 132169692.700 7                  25151048.147
        46.200
 104929284.052 8  81763082.38347  19967379.170    19967378.7194   19967380.7404
        49.800          43.1004
 130894020.985 7                  24908302.718
        45.500
 103401194.796 8  80423174.605 8  19316207.422    19316207.831    19316214.399
        52.700          48.600
 128637101.704 7 100051106.429 6  24038934.705    24038935.531    24038950.343
        45.800          37.800
 118008918.728 8  91784732.750 7  22037332.197    22037332.570    22037338.173
        48.200          43.800
 112679657.989 7                  21138372.262    21138371.868
        44.400
 117224422.874 8  91174591.681 7  21944655.397    21944655.502    21944662.942
        48.900          45.200
 125500863.119 7  97792860.05546  23882036.083    23882035.5694   23882040.6894
        42.400          36.0004
 104016894.462 8  80902123.167 8  19478999.459    19478999.509    19479004.745
        52.000          49.800
 142376329.717 6                  27093312.640
        40.500
 25  1  1 17  8 15.0000000  0 29G09G26E19R18G08S31S35G07G03R06S48S33
                                R19E29E04E31G16G27E21G04E06R07R17R08
                                R10R16G31R09E09
 109060236.661 8  84982015.43648  20753470.527    20753469.9064   20753472.7054
        48.600          49.8004
 119282293.035 7  92947267.64946  22698663.003    22698662.3734   22698667.2644
        43.500          40.7004
 127158660.429 7                  24197496.085
        42.800
 125050278.462 7  97261546.148 6  23426066.530    23426066.918    23426077.352
        42.900          40.600
 120486030.305 7  93885319.57046  22927707.661    22927706.9594   22927720.4564
        42.300          36.5004
 198980298.341 7                  37864696.992
        45.700
 200917278.258 7                  38233296.958
        43.900
 123926537.710 7  96566177.64146  23582419.210    23582418.5804   23582419.7914
        43.700          37.6004
 124655869.745 6  97134414.05545  23721253.459    23721253.2004   23721266.7764
        41.000          34.9004
 110764715.162 6                  20757270.502    20757270.656
        39.000
 412813088.347 5                  78555625.587
        33.300
 202116541.128 7                  38461486.200
        45.500
 130747087.074 5 101692302.951 6  24441789.488    24441789.294    24441819.777
        32.200          36.000
 149669535.953 6                  28481222.659
        36.400
 123714779.963 8                  23542140.441
        48.600
 136236154.937 7                  25924837.465
        43.300
 107326811.204 8  83631352.09246  20423588.577    20423587.5674   20423588.4454
        48.600          38.9004
 114313254.349 7  89075419.31747  21753033.012    21753032.2884   21753038.9304
        45.300          44.4004
 132200785.567 7                  25156964.792
        46.400
 104928389.124 8  81762385.02747  19967209.156    19967208.7094   19967210.4484
        49.800          43.0004
 130863645.870 7                  24902522.404
        45.900
 103396979.746 8  80419896.207 8  19315420.342    19315420.342    19315427.058
        52.800          48.700
 128647517.980 7 100059208.418 6  24040880.034    24040880.723    24040896.550
        44.300          38.800
 117954582.366 8  91742471.126 7  22027185.072    22027185.541    22027191.569
        48.000          44.100
 112647189.770 7                  21132281.047    21132280.530
        44.700
 117271320.016 8  91211067.302 7  21953434.817    21953434.987    21953442.195
        49.000          45.700
 125542230.561 7  97825094.22445  23889908.399    23889907.8814   23889913.1064
        42.800          35.9004
 104022833.246 8  80906742.222 8  19480111.341    19480111.646    19480116.878
        52.000          49.800
 142336764.826 6                  27085784.081
        39.900
 25  1  1 17  8 30.0000000  0 29G09G26E19R18G08S31S35G07G03R06S48S33
                                R19E29E04E31G16G27E21G04E06R07R17R08
                                R10R16G31R09E09
 109032992.913 8  84960786.56448  20748286.079    20748285.4534   20748288.3774
        48.700          49.9004
 119329927.365 7  92984385.22146  22707727.369    22707726.7354   22707731.9044
        42.900          40.8004
 127187865.624 7                  24203053.497
        42.400
 125021769.904 7  97239372.943 6  23420726.621    23420727.389    23420737.627
        43.600          41.200
 120432642.319 7  93843718.77146  22917548.036    22917547.3344   22917560.8184
        42.000          36.7004
 198980295.965 7                  37864694.752
        45.400
 200917242.530 7                  38233292.330
        43.800
 123893140.237 7  96540153.66346  23576063.682    23576063.0564   23576064.6984
        44.300          37.6004
 124707266.225 6  97174462.96345  23731034.458    23731034.1954   23731047.6234
        41.400          35.0004
 110817294.345 6                  20767124.335    20767124.024
        38.800
 412813705.863 5                  78555656.370
        32.900
 202116559.590 7                  38461486.929
        45.400
 130696026.467 5 101652589.217 5  24432244.090    24432244.142    24432274.088
        31.200          35.300
 149711888.933 6                  28489282.202
        36.100
 123701205.074 8                  23539557.206
        48.500
 136199000.334 7                  25917767.159
        43.500
 107354058.315 8  83652583.60746  20428773.326    20428772.3114   20428773.3724
        48.300          38.9004
 114277860.540 7  89047839.85047  21746297.506    21746296.7694   21746303.5584
        45.300          44.4004
 132231923.750 7                  25162890.440
        46.200
 104927629.259 8  81761792.91047  19967064.302    19967063.8554   19967065.8674
        49.600          43.1004
 130833318.534 7                  24896751.718
        45.500
 103392968.006 8  80416775.964 8  19314670.616    19314671.015    19314677.659
        53.000          48.700
 128658112.216 7 100067449.205 7  24042858.969    24042859.112    24042875.806
        44.900          42.000
 117900342.150 7  91700284.289 7  22017056.553    22017056.583    22017062.267
        47.800          43.600
 112614813.526 7                  21126207.718    21126207.445
        45.000
 117318231.731 8  91247554.389 7  21962216.917    21962217.133    21962223.746
        49.500          45.400
 125583614.008 7  97857340.86846  23897783.451    23897782.9374   23897788.2504
        43.000          36.0004
 104028870.035 8  80911437.521 8  19481241.980    19481242.099    19481247.241
        52.000          49.900
 142297216.750 6                  27078258.151
        40.200
 25  1  1 17  8 45.0000000  0 29G09G26E19R18G08S31S35G07G03R06S48S33
                                R19E29E04E31G16G27E21G04E06R07R17R08
                                R10R16G31R09E09
 109005856.758 8  84939641.52348  20743122.270    20743121.6404   20743124.4984
        48.700          49.7004
 119377594.202 7  93021528.16046  22716798.396    22716797.7794   22716802.5514
        43.300          40.6004
 127217133.358 7                  24208623.148
        42.500
 124993397.205 7  97217305.400 6  23415411.575    23415411.725    23415422.630
        43.500          41.200
 120379288.285 6  93802144.42946  22907394.595    22907393.9114   22907407.6504
        41.600          36.4004
 198980289.224 7                  37864693.048
        45.600
 200917202.876 7                  38233287.465
        44.100
 123859745.118 7  96514131.50146  23569708.510    23569707.8934   23569709.6464
        44.200          37.6004
 124758672.502 6  97214519.50945  23740816.681    23740816.4184   23740830.0274
        41.400          34.3004
 110869992.820 6                  20776999.600    20777000.005
        38.700
 412814319.501 5                  78555700.053
        32.600
 202116572.535 7                  38461490.028
        45.500
 130644987.094 5 101612891.902 5  24422701.265    24422702.339    24422733.112
        31.000          35.900
 149754254.803 5                  28497344.530
        34.400
 123687700.488 8                  23536987.456
        48.500
 136161889.372 7                  25910705.460
        43.300
 107381419.937 8  83673904.34246  20433980.283    20433979.2734   20433980.1124
        48.300          38.8004
 114242579.411 7  89020348.19747  21739583.759    21739583.0354   21739589.6584
        45.500          44.4004
 132263101.275 7                  25168823.215
        45.900
 104926998.774 8  81761301.61447  19966944.354    19966943.9074   19966945.8974
        50.000          42.9004
 130803033.403 7                  24890988.473
        45.700
 103389153.733 8  80413809.283 8  19313958.315    19313958.480    19313965.097
        53.100          48.900
 128668876.972 7 100075822.419 6  24044870.701    24044871.217    24044887.147
        45.700          40.800
 117846192.701 7  91658168.057 7  22006944.123    22006944.523    22006950.175
        47.900          43.900
 112582523.827 7                  21120150.024    21120149.810
        45.000
 117365151.154 8  91284047.144 7  21970999.632    21970999.878    21971007.560
        48.900          45.800
 125625007.546 7  97889595.37645  23905660.089    23905659.5754   23905665.2734
        42.900          35.9004
 104034998.812 8  80916204.331 8  19482389.611    19482389.920    19482394.937
        51.900          50.000
 142257679.804 6                  27070734.406
        40.500
 25  1  1 17  9  0.0000000  0 29G09G26E19R18G08S31S35G07G03R06S48S33
                                R19E29E04E31G16G27E21G04E06R07R17R08
                                R10R16G31R09E09
 108978835.619 8  84918586.08448  20737980.527    20737979.8934   20737982.5304
        48.600          49.9004
 119425300.524 7  93058701.88046  22725876.642    22725876.0434   22725880.7494
        42.700          40.6004
 127246470.641 7                  24214205.731
        42.500
 124965168.146 7  97195349.534 6  23410122.489    23410123.035    23410133.456
        42.100          40.700
 120325975.825 6  93760602.47846  22897249.466    22897248.7644   22897262.5314
        41.600          36.8004
 198980284.816 7                  37864692.534
        45.700
 200917165.189 7                  38233272.418
        43.900
 123826359.612 7  96488116.83046  23563355.808    23563355.2004   23563356.5174
        44.500          37.7004
 124810095.369 7  97254588.99845  23750601.832    23750601.5694   23750615.5784
        42.000          34.8004
 110922817.621 6                  20786899.574    20786898.881
        38.600
 412813335.646 5                  78555736.984
        33.400
 202116588.479 7                  38461494.182
        45.100
 130593976.462 5 101573217.005 6  24413165.423    24413166.984    24413197.766
        32.500          36.700
 149796640.482 5                  28505410.043
        34.500
 123674273.499 8                  23534432.385
        48.700
 136124829.297 7                  25903652.730
        43.400
 107408903.004 8  83695319.71246  20439210.195    20439209.1804   20439209.9874
        48.300          38.9004
 114207418.471 7  88992950.17947  21732892.844    21732892.1204   21732898.6574
        45.300          44.5004
 132294324.972 7                  25174764.744
        46.200
 104926504.991 8  81760916.83647  19966850.415    19966849.9684   19966851.9314
        49.800          43.0004
 130772797.807 7                  24885234.602
        46.000
 103385544.165 8  80411001.837 8  19313283.746    19313284.351    19313290.821
        53.000          48.700
 128679818.586 7 100084332.469 6  24046915.277    24046915.701    24046931.617
        45.400          41.900
 117792142.210 8  91616128.773 7  21996850.680    21996851.158    21996857.428
        48.700          44.600
 112550327.350 7                  21114109.916    21114109.305
        44.700
 117412086.040 8  91320551.958 7  21979786.042    21979786.049    21979793.843
        48.600          45.400
 125666418.321 7  97921863.30345  23913541.192    23913540.6744   23913545.7564
        43.000          35.9004
 104041226.664 8  80921048.210 8  19483556.147    19483556.213    19483561.368
        52.100          50.200
 142218161.351 6                  27063214.384
        41.000
 25  1  1 17  9 15.0000000  0 29G09G26E19R18G08S31S35G07G03R06S48S33
                                R19E29E04E31G16G27E21G04E06R07R17R08
                                R10R16G31R09E09
 108951925.225 8  84897616.96848  20732859.661    20732859.0224   20732861.6424
        49.200          50.0004
 119473041.224 7  93095902.40446  22734961.584    22734961.0214   22734965.5844
        43.100          40.6004
 127275872.875 7                  24219800.801
        42.500
 124937078.260 7  97173501.932 6  23404861.239    23404861.388    23404870.602
        43.400          40.700
 120272700.635 7  93719089.57846  22887111.867    22887111.1834   22887124.4644
        42.200          36.9004
 198980278.522 7                  37864692.292
        45.600
 200917125.708 7                  38233265.911
        43.800
 123792978.975 7  96462105.95446  23557003.915    23557003.3034   23557004.2464
        44.100          37.8004
 124861529.807 6  97294667.51045  23760390.288    23760390.0074   23760403.4774
        41.500          34.4004
 110975763.462 6                  20796822.273    20796821.626
        38.600
 412813948.678 5                  78555767.807
        33.000
 202116602.205 7                  38461495.676
        45.300
 130542990.805 5 101533561.480 6  24403636.186    24403636.127    24403666.511
        32.000          36.200
 149839041.287 5                  28513478.816
        34.600
 123660919.619 8                  23531891.196
        48.700
 136087815.539 7                  25896609.391
        43.600
 107436502.525 8  83716825.83646  20444462.162    20444461.1474   20444462.0334
        48.500          38.9004
 114172373.432 7  88965642.46247  21726223.775    21726223.0474   21726229.6894
        45.200          44.7004
 132325590.186 7                  25180714.337
        46.200
 104926143.336 8  81760635.01947  19966781.682    19966781.2354   19966783.1394
        49.800          43.0004
 130742607.331 7                  24879489.719
        45.900
 103382135.041 8  80408350.290 8  19312647.035    19312647.463    19312653.905
        52.900          48.700
 128690932.186 7 100092975.573 6  24048993.292    24048993.601    24049009.245
        44.000          39.600
 117738185.929 7  91574162.804 7  21986774.493    21986774.943    21986780.645
        47.900          44.100
 112518219.755 7                  21108086.735    21108085.967
        44.300
 117459031.280 8  91357064.839 7  21988574.810    21988575.336    21988582.142
        49.300          45.400
 125707841.703 7  97954141.05646  23921423.981    23921423.4764   23921428.4984
        43.000          36.0004
 104047548.778 8  80925965.419 8  19484740.188    19484740.160    19484745.329
        51.900          50.200
 142178656.881 6                  27055696.779
        40.300
 25  1  1 17  9 30.0000000  0 29G09G26E19R18G08S31S35G07G03R06S48S33
                                R19E29E04E31G16G27E21G04E06R07R17R08
                                R10R16G31R09E09
 108925128.950 8  84876736.76848  20727760.287    20727759.6354   20727762.4724
        48.600          50.0004
 119520819.347 7  93133132.08246  22744053.362    22744052.7994   22744057.5424
        43.300          40.5004
 127305343.101 7                  24225408.972
        42.300
 124909131.382 7  97151765.571 6  23399624.884    23399625.342    23399635.911
        43.500          40.900
 120219466.329 7  93677608.53746  22876981.035    22876980.3514   22876993.9724
        42.400          37.0004
 198980272.921 7                  37864689.265
        45.900
 200917087.475 7                  38233266.354
        44.000
 123759606.659 7  96436101.56946  23550653.266    23550652.6494   23550653.6974
        44.100          37.7004
 124912978.528 6  97334757.14245  23770180.761    23770180.4574   23770193.8534
        41.800          34.4004
 111028833.162 6                  20806766.956    20806766.707
        38.700
 412814564.066 5                  78555798.196
        32.800
 202116617.295 7                  38461498.269
        45.400
 130492033.736 5 101493928.196 5  24394108.044    24394109.572    24394140.077
        31.300          35.300
 149881460.294 5                  28521550.911
        33.800
 123647642.162 8                  23529364.577
        48.600
 136050851.394 7                  25889575.605
        43.300
 107464221.380 8  83738424.94846  20449736.739    20449735.7204   20449736.7334
        48.600          38.8004
 114137447.853 7  88938427.80747  21719577.697    21719576.9604   21719583.5384
        46.000          44.6004
 132356899.644 7                  25186672.409
        45.900
 104925917.083 8  81760458.70547  19966738.484    19966738.0424   19966740.0784
        49.800          43.0004
 130712465.340 7                  24873753.957
        45.700
 103378929.544 8  80405857.106 8  19312048.175    19312048.592    19312055.119
        53.000          48.600
 128702223.309 7 100101757.366 6  24051102.549    24051102.486    24051120.141
        42.800          38.800
 117684327.975 8  91532273.292 7  21976717.212    21976717.642    21976723.460
        48.500          44.100
 112486204.172 7                  21102080.288    21102080.243
        44.800
 117505990.258 8  91393588.426 7  21997365.310    21997365.781    21997372.909
        49.100          45.200
 125749280.785 7  97986431.05245  23929309.815    23929309.3284   23929313.9944
        42.000          35.5004
 104053967.850 8  80930958.027 8  19485942.239    19485942.155    19485947.422
        52.200          50.300
 142139169.799 6                  27048182.848
        39.700
 25  1  1 17  9 45.0000000  0 29G09G26E19R18G08S31S35G07G03R06S48S33
                                R19E29E04E31G16G27E21G04E06R07R17R08
                                R10R16G31R09E09
 108898449.272 8  84855947.40848  20722683.431    20722682.7794   20722685.5084
        48.900          50.0004
 119568636.719 7  93170392.32646  22753152.509    22753151.9424   22753156.8824
        43.300          40.4004
 127334883.449 7                  24231030.435
        42.300
 124881330.165 7  97130142.483 6  23394416.802    23394416.796    23394427.620
        42.900          41.100
 120166275.509 7  93636161.37646  22866858.954    22866858.2614   22866871.9544
        42.400          37.0004
 198980270.021 7                  37864690.705
        45.600
 200917052.159 7                  38233249.653
        43.600
 123726244.716 7  96410105.26146  23544304.561    23544303.9404   23544305.1874
        44.300          37.9004
 124964443.382 6  97374859.32445  23779974.173    23779973.8524   23779987.8114
        41.700          34.5004
 111082028.371 6                  20816736.245    20816735.975
        39.000
 412815182.667 5                  78555840.824
        32.800
 202116635.010 7                  38461499.029
        45.200
 130441107.968 5 101454319.347 6  24384588.281    24384590.812    24384619.818
        32.400          36.000
 149923899.475 5                  28529626.274
        35.000
 123634443.464 8                  23526852.825
        48.700
 136013939.122 7                  25882551.100
        43.300
 107492061.574 8  83760118.59946  20455034.704    20455033.6854   20455034.5504
        48.100          38.8004
 114102644.308 7  88911308.24547  21712954.658    21712953.9214   21712960.5654
        45.400          44.7004
 132388255.610 7                  25192639.286
        45.800
 104925828.574 8  81760389.72447  19966721.798    19966721.3564   19966723.2424
        49.600          43.0004
 130682374.195 7                  24868027.737
        45.800
 103375929.960 8  80403524.083 8  19311487.587    19311488.297    19311494.816
        52.900          48.600
 128713694.632 7 100110679.944 6  24053246.237    24053246.575    24053262.576
        45.000          38.900
 117630571.074 7  91490462.377 7  21966678.063    21966678.697    21966684.659
        47.900          44.300
 112454282.902 7                  21096093.084    21096091.886
        44.600
 117552964.609 8  91430124.026 7  22006158.978    22006159.008    22006166.824
        48.500          45.500
 125790737.835 7  98018735.04245  23937199.197    23937198.7104   23937203.2824
        42.300          35.6004
 104060486.030 8  80936027.725 8  19487162.420    19487162.832    19487168.041
        51.800          50.100
 142099702.491 6                  27040672.774
        40.700
 25  1  1 17 10  0.0000000  0 29G09G26E19R18G08S31S35G07G03R06S48S33
                                R19E29E04E31G16G27E21G04E06R07R17R08
                                R10R16G31R09E09
 108871880.169 8  84835244.20348  20717627.499    20717626.8424   20717629.5924
        48.400          50.0004
 119616486.907 7  93207678.17946  22762258.115    22762257.5394   22762262.4124
        42.700          40.2004
 127364487.568 7                  24236663.916
        42.400
 124853668.502 7  97108627.945 6  23389234.723    23389235.214    23389245.756
        43.300          40.600
 120113122.261 7  93594743.49446  22856743.865    22856743.1554   22856757.0184
        42.600          37.1004
 198980265.230 7                  37864687.816
        45.400
 200917013.581 7                  38233245.248
        43.200
 123692886.877 7  96384112.14446  23537956.861    23537956.2224   23537957.5264
        44.100          38.0004
 125015917.654 6  97414968.83445  23789769.816    23789769.5174   23789783.5314
        40.200          34.5004
 111135342.492 6                  20826727.833    20826726.961
        38.500
 412814197.369 5                  78555873.306
        32.700
 202116649.446 7                  38461498.484
        44.800
 130390207.859 5 101414730.372 5  24375071.797    24375075.324    24375104.438
        32.300          35.400
 149966352.555 5                  28537705.001
        35.300
 123621317.372 8                  23524355.037
        48.400
 135977072.544 7                  25875535.572
        43.700
 107520016.310 8  83781901.51046  20460354.221    20460353.2024   20460354.1934
        48.000          38.7004
 114067956.930 7  88884279.19447  21706353.715    21706352.9784   21706359.6764
        45.400          44.7004
 132419651.477 7                  25198613.730
        45.700
 104925871.615 8  81760423.25547  19966730.124    19966729.6824   19966731.4394
        49.600          42.9004
 130652327.749 7                  24862310.085
        45.800
 103373130.218 8  80401346.488 8  19310965.068    19310965.301    19310971.842
        53.000          48.500
 128725337.754 7 100119735.971 6  24055421.814    24055422.351    24055439.514
        44.000          38.000
 117576909.076 8  91448725.235 7  21956657.357    21956657.528    21956663.694
        48.000          44.300
 112422449.510 7                  21090120.314    21090119.596
        44.500
 117599947.585 8  91466666.259 7  22014954.319    22014954.810    22014962.242
        48.600          45.200
 125832206.506 7  98051048.08945  23945089.859    23945089.3724   23945094.9854
        42.000          35.6004
 104067096.773 8  80941169.413 8  19488400.708    19488401.055    19488405.987
        52.700          50.100
 142060248.780 6                  27033164.586
        40.600
 25  1  1 17 10 15.0000000  0 29G09G26E19R18G08S31S35G07G03R06S48S33
                                R19E29E04E31G16G27E21G04E06R07R17R08
                                R10R16G31R09E09
 108845423.404 8  84814628.56048  20712593.128    20712592.4714   20712595.0414
        48.100          50.2004
 119664370.866 7  93244990.33446  22771370.258    22771369.6774   22771374.3134
        42.600          40.3004
 127394156.840 7                  24242309.815
        42.300
 124826148.449 7  97087223.581 6  23384080.071    23384080.081    23384090.096
        43.100          41.000
 120060008.395 6  93553356.30146  22846636.840    22846636.1254   22846649.4344
        41.100          37.2004
 198980258.225 7                  37864690.673
        45.400
 200916973.806 7                  38233245.190
        43.600
 123659534.463 7  96358123.26346  23531609.660    23531609.0084   23531610.8814
        43.400          38.1004
 125067402.380 6  97455086.49545  23799567.785    23799567.4864   23799580.8874
        41.900          34.5004
 111188776.269 6                  20836739.692    20836740.480
        38.500
 412814810.941 5                  78555919.816
        32.900
 202116663.360 7                  38461507.852
        45.200
 130339335.266 5 101375162.816 6  24365565.271    24365564.813    24365595.332
        31.900          36.800
 150008820.755 5                  28545786.088
        35.300
 123608265.472 8                  23521871.253
        48.600
 135940253.129 7                  25868528.952
        43.800
 107548086.672 8  83803774.51546  20465695.997    20465694.9734   20465695.7934
        48.000          38.9004
 114033387.439 7  88857342.00447  21699775.605    21699774.8634   21699781.2714
        45.100          45.0004
 132451088.497 7                  25204596.018
        45.700
 104926047.684 8  81760560.44147  19966763.563    19966763.1124   19966764.9674
        49.400          43.1004
 130622327.601 7                  24856601.191
        46.000
 103370531.703 8  80399325.415 8  19310479.872    19310479.786    19310486.381
        53.400          48.500
 128737157.627 7 100128930.155 7  24057629.354    24057628.761    24057645.218
        44.700          42.500
 117523344.223 8  91407063.725 7  21946654.798    21946655.013    21946660.836
        49.000          44.500
 112390705.290 7                  21084164.878    21084164.504
        44.600
 117646940.929 8  91503216.741 7  22023751.596    22023751.636    22023759.095
        48.500          45.400
 125873688.078 7  98083371.17846  23952984.151    23952983.6784   23952988.9244
        42.100          36.0004
 104073801.042 8  80946383.845 8  19489655.815    19489656.267    19489661.587
        52.500          50.100
 142020810.381 6                  27025659.989
        40.500
 25  1  1 17 10 30.0000000  0 29G09G26E19R18G08S31S35G07G03R06S48S33
                                R19E29E04E31G16G27E21G04E06R07R17R08
                                R10R16G31R09E09
 108819082.079 8  84794102.85648  20707580.511    20707579.8634   20707582.4644
        48.100          50.1004
 119712291.333 7  93282330.92646  22780489.181    22780488.6094   22780493.3784
        42.700          40.2004
 127423894.056 7                  24247968.720
        42.300
 124798773.213 7  97065931.807 6  23378951.236    23378952.561    23378960.836
        44.100          41.100
 120006937.211 6  93512002.37046  22836537.688    22836536.9824   22836550.1634
        41.300          37.3004
 198980252.197 7                  37864687.315
        45.400
 200916933.982 7                  38233230.653
        43.900
 123626190.443 7  96332140.92746  23525264.871    23525264.2194   23525265.7164
        43.400          38.1004
 125118900.092 6  97495214.29345  23809366.945    23809366.6374   23809380.7614
        40.400          34.3004
 111242332.280 6                  20846776.774    20846776.854
        38.200
 412815426.962 5                  78555946.574
        33.100
 202116677.688 7                  38461512.122
        45.400
 130288493.661 5 101335619.344 6  24356060.818    24356059.302    24356090.585
        32.700          36.300
 150051306.841 5                  28553871.680
        35.400
 123595290.777 8                  23519402.472
        48.500
 135903483.855 7                  25861532.100
        43.300
 107576275.270 8  83825739.64846  20471059.995    20471058.9714   20471059.8354
        48.100          38.8004
 113998939.105 7  88830499.21947  21693219.842    21693219.1054   21693225.9264
        45.100          45.0004
 132482569.425 7                  25210586.825
        45.800
 104926359.777 8  81760803.61547  19966822.792    19966822.3364   19966824.3644
        49.400          43.0004
 130592376.817 7                  24850901.667
        46.000
 103368137.486 8  80397463.231 8  19310032.139    19310032.494    19310039.017
        52.900          48.400
 128749151.508 7 100138259.472 6  24059870.457    24059870.372    24059885.671
        44.400          38.500
 117469879.665 8  91365480.189 7  21936670.594    21936670.712    21936676.454
        48.400          44.200
 112359053.211 7                  21078226.886    21078226.649
        44.200
 117693946.628 8  91539776.613 7  22032551.380    22032551.450    22032558.966
        48.400          45.000
 125915185.500 7  98115706.61545  23960880.592    23960880.1274   23960885.7734
        42.700          35.9004
 104080601.837 8  80951673.360 8  19490929.438    19490929.821    19490935.267
        52.100          49.900
 141981390.176 6                  27018158.336
        40.700
 25  1  1 17 10 45.0000000  0 29G09G26E19R18G08S31S35G07G03R06S48S33
                                R19E29E04E31G16G27E21G04E06R07R17R08
                                R10R16G31R09E09
 108792853.036 8  84773664.66048  20702589.101    20702588.4584   20702591.2304
        48.500          50.3004
 119760244.619 7  93319697.11846  22789614.380    22789613.7994   22789618.7434
        43.000          40.2004
 127453695.810 7                  24253639.790
        42.600
 124771539.756 7  97044750.346 6  23373849.202    23373850.038    23373860.244
        44.600          41.500
 119953905.712 7  93470679.34846  22826446.232    22826445.5304   22826458.4314
        42.300          37.7004
 198980244.389 7                  37864687.543
        45.800
 200916893.416 7                  38233228.171
        44.200
 123592851.360 7  96306162.43346  23518920.341    23518919.7024   23518921.4454
        43.800          38.4004
 125170406.982 6  97535349.23945  23819169.491    23819169.1924   23819182.7544
        40.700          34.4004
 111296006.545 6                  20856835.808    20856835.174
        38.500
 412814439.513 5                  78555977.956
        32.700
 202116689.714 7                  38461507.923
        45.100
 130237680.162 5 101296097.729 6  24346560.631    24346560.185    24346592.089
        30.900          36.600
 150093807.227 5                  28561958.991
        35.500
 123582389.986 8                  23516947.578
        48.800
 135866761.401 7                  25854544.233
        43.700
 107604578.643 8  83847794.21046  20476446.048    20476445.0204   20476445.7884
        48.100          38.9004
 113964608.900 7  88803748.48447  21686687.247    21686686.5054   21686693.0604
        45.300          45.1004
 132514090.620 7                  25216584.846
        46.100
 104926804.596 8  81761150.21147  19966907.483    19966907.0274   19966909.0434
        49.500          43.0004
 130562472.269 7                  24845211.275
        46.400
 103365944.450 8  80395757.560 8  19309622.571    19309622.893    19309629.372
        53.000          48.500
 128761317.574 7 100147722.360 6  24062143.292    24062143.557    24062159.098
        43.700          40.300
 117416512.454 8  91323972.311 7  21926704.248    21926705.361    21926710.549
        48.900          44.500
 112327490.123 7                  21072305.780    21072305.519
        44.200
 117740961.451 8  91576343.655 7  22041352.274    22041352.931    22041360.238
        48.500          45.400
 125956695.217 7  98148051.62045  23968779.777    23968779.3124   23968784.9714
        42.300          35.7004
 104087495.450 8  80957035.064 8  19492220.425    19492220.832    19492226.166
        52.100          50.000
 141941984.917 6                  27010659.903
        40.800
 25  1  1 17 11  0.0000000  0 29G09G26E19R18G08S31S35G07G03R06S48S33
                                R19E29E04E31G16G27E21G04E06R07R17R08
                                R10R16G31R09E09
 108766742.608 8  84753318.87548  20697620.411    20697619.7634   20697622.5694
        49.000          50.4004
 119808236.503 7  93357093.39846  22798746.616    22798746.0354   22798751.1964
        43.200          40.1004
 127483567.995 7                  24259324.374
        42.800
 124744454.661 7  97023684.268 6  23368774.823    23368775.381    23368786.455
        44.200          41.700
 119900920.321 6  93429392.25446  22816362.731    22816362.0384   22816375.2664
        41.900          37.6004
 198980240.443 7                  37864680.635
        45.500
 200916856.111 7                  38233222.282
        43.800
 123559523.389 7  96280192.59446  23512578.518    23512577.8884   23512579.2354
        44.900          38.4004
 125221928.625 6  97575495.67045  23828973.045    23828972.7464   23828987.4934
        41.600          34.5004
 111349804.899 6                  20866917.675    20866917.324
        38.000
 412815056.100 5                  78556011.533
        33.200
 202116705.263 7                  38461514.921
        45.400
 130186901.317 5 101256603.103 5  24337069.756    24337068.401    24337099.268
        32.300          35.400
 150136327.924 5                  28570050.057
        35.700
 123569569.319 8                  23514507.843
        49.100
 135830091.902 7                  25847565.756
        43.800
 107633002.294 8  83869942.50146  20481854.973    20481853.9494   20481854.6494
        48.400          38.9004
 113930403.252 7  88777094.80047  21680178.100    21680177.3584   21680183.9294
        45.900          45.2004
 132545657.939 7                  25222592.000
        46.100
 104927388.298 8  81761605.03247  19967018.656    19967018.1964   19967020.1544
        49.500          43.1004
 130532620.116 7                  24839530.288
        46.300
 103363958.299 8  80394212.760 8  19309251.420    19309251.847    19309258.303
        53.100          48.600
 128773662.084 7 100157323.910 6  24064449.611    24064449.716    24064465.283
        44.600          40.200
 117363249.646 7  91282545.761 7  21916758.116    21916758.120    21916764.377
        47.700          44.600
 112296021.938 7                  21066402.423    21066402.163
        44.500
 117787991.221 8  91612922.307 7  22050156.670    22050156.939    22050164.205
        48.300          44.900
 125998223.230 7  98180410.88245  23976682.847    23976682.3824   23976687.6964
        42.200          35.9004
 104094487.683 8  80962473.440 8  19493530.015    19493530.297    19493535.529
        52.400          50.000
 141902600.920 6                  27003165.261
        40.500
 25  1  1 17 11 15.0000000  0 29G09G26E19R18G08S31S35G07G03R06S48S33
                                R19E29E04E31G16G27E21G04E06R07R17R08
                                R10R16G31R09E09
 108740748.269 8  84733063.54048  20692673.969    20692673.3264   20692676.0064
        48.800          50.4004
 119856263.934 7  93394517.37546  22807886.290    22807885.6824   22807890.3654
        43.500          39.9004
 127513507.820 7                  24265021.944
        42.500
 124717515.538 7  97002731.766 6  23363728.335    23363728.046    23363738.789
        42.600          41.000
 119847978.684 7  93388139.26146  22806288.708    22806288.0154   22806300.4864
        42.200          37.4004
 198980236.993 7                  37864678.587
        45.300
 200916820.079 7                  38233212.605
        43.900
 123526203.753 7  96254229.25146  23506237.984    23506237.3584   23506238.5414
        44.700          38.3004
 125273461.944 6  97615651.18945  23838780.007    23838779.7174   23838794.0344
        41.000          34.5004
 111403723.972 6                  20877022.255    20877021.827
        38.100
 412815673.860 5                  78556053.311
        32.800
 202116722.985 7                  38461521.191
        45.500
 130136154.990 5 101217133.776 6  24327581.767    24327581.738    24327612.864
        32.200          36.800
 150178866.031 5                  28578144.715
        35.200
 123556826.174 8                  23512082.950
        49.000
 135793472.685 7                  25840597.626
        43.600
 107661542.961 8  83892181.97646  20487285.991    20487284.9674   20487285.7344
        48.500          38.8004
 113896319.742 7  88750536.29047  21673692.033    21673691.3004   21673698.0114
        45.400          45.2004
 132577268.516 7                  25228607.387
        45.800
 104928108.199 8  81762165.97447  19967155.690    19967155.2394   19967157.1284
        49.600          43.0004
 130502817.732 7                  24833859.320
        46.100
 103362176.868 8  80392827.193 8  19308918.829    19308919.114    19308925.561
        53.000          48.500
 128786182.102 7 100167061.696 6  24066788.644    24066788.947    24066805.995
        44.200          40.200
 117310088.550 8  91241198.260 7  21906830.869    21906831.074    21906836.646
        48.300          44.600
 112264645.505 7                  21060516.450    21060516.287
        44.800
 117835032.785 8  91649510.086 7  22058963.495    22058963.169    22058970.538
        48.300          45.300
 126039766.854 7  98212782.31545  23984588.405    23984587.9404   23984593.5834
        42.400          35.7004
 104101575.750 8  80967986.380 8  19494857.450    19494857.515    19494862.805
        52.100          50.200
 141863235.584 6                  26995674.329
        40.500
 25  1  1 17 11 30.0000000  0 29G09G26E19R18G08S31S35G07G03R06S48S33
                                R19E29E04E31G16G27E21G04E06R07R17R08
                                R10R16G31R09E09
 108714866.200 8  84712895.69648  20687748.827    20687748.1794   20687750.8234
        49.200          50.4004
 119904322.423 7  93431965.53446  22817031.650    22817031.0474   22817035.5984
        42.300          39.8004
 127543511.079 7                  24270731.072
        42.400
 124690718.590 7  96981889.775 6  23358708.504    23358708.507    23358719.259
        43.700          41.400
 119795077.062 7  93346917.44246  22796221.109    22796220.4074   22796233.4774
        43.000          37.7004
 198980230.349 7                  37864679.933
        45.200
 200916780.836 7                  38233203.845
        44.100
 123492888.335 7  96228269.19846  23499898.233    23499897.5994   23499898.8134
        44.700          38.5004
 125325002.374 6  97655812.25745  23848588.289    23848588.0034   23848602.2214
        41.100          34.6004
 111457759.109 6                  20887148.674    20887148.071
        38.300
 412816288.712 5                  78556079.193
        33.300
 202116736.832 7                  38461524.298
        45.600
 130085437.692 5 101177686.994 6  24318100.507    24318101.080    24318130.990
        32.500          36.400
 150221417.231 5                  28586241.915
        34.300
 123544156.534 8                  23509671.862
        48.800
 135756899.705 7                  25833637.590
        43.300
 107690196.321 8  83914509.27946  20492738.353    20492737.3294   20492738.2574
        48.900          38.9004
 113862354.569 7  88724069.99647  21667228.866    21667228.1424   21667234.6114
        45.900          45.4004
 132608917.756 7                  25234629.866
        45.900
 104928960.241 8  81762829.89247  19967317.843    19967317.3924   19967319.3014
        49.800          43.1004
 130473061.157 7                  24828196.774
        46.300
 103360595.576 8  80391597.306 8  19308623.335    19308623.660    19308630.193
        53.100          48.500
 128798874.598 7 100176934.178 6  24069161.264    24069161.358    24069177.207
        44.600          40.500
 117257025.653 8  91199927.165 7  21896921.913    21896922.012    21896927.848
        48.300          44.900
 112233357.008 7                  21054646.655    21054646.429
        44.600
 117882082.096 8  91686103.931 7  22067770.849    22067771.461    22067778.382
        48.700          44.500
 126081321.780 7  98245162.53545  23992496.140    23992495.6714   23992501.6794
        42.300          35.7004
 104108754.879 8  80973570.148 8  19496201.955    19496202.007    19496207.180
        52.200          50.000
 141823884.803 6                  26988186.258
        40.800
 25  1  1 17 11 45.0000000  0 29G09G26E19R18G08S31S35G07G03R06S48S33
                                R19E29E04E31G16G27E21G04E06R07R17R08
                                R10R16G31R09E09
 108689103.469 8  84692820.83948  20682846.105    20682845.4574   20682848.3554
        49.300          50.5004
 119952418.593 7  93469443.04746  22826184.192    22826183.5934   22826188.0844
        43.000          39.8004
 127573584.494 6                  24276453.974
        41.800
 124664070.928 7  96961163.825 6  23353716.855    23353716.812    23353727.086
        44.300          41.100
 119742222.669 7  93305732.42446  22786162.890    22786162.1844   22786175.5954
        42.800          37.8004
 198980228.525 7                  37864679.798
        45.300
 200916745.582 7                  38233192.988
        43.700
 123459583.786 7  96202317.61446  23493560.734    23493560.1004   23493561.3084
        44.200          38.5004
 125376556.369 6  97695983.89845  23858399.367    23858399.0904   23858412.9074
        41.500          34.4004
 111511916.746 6                  20897298.103    20897297.326
        38.600
 412815207.852 5                  78556123.614
        33.800
 202116754.544 7                  38461529.964
        45.200
 130034756.604 5 101138268.414 6  24308627.746    24308626.494    24308657.079
        31.600          36.200
 150263988.248 5                  28594342.920
        34.800
 123531567.319 8                  23507276.139
        48.500
 135720379.829 7                  25826688.135
        43.200
 107718968.881 8  83936929.44346  20498213.979    20498212.9554   20498213.5264
        48.400          38.9004
 113828514.953 7  88697701.52847  21660789.149    21660788.4304   21660795.1034
        45.900          45.3004
 132640612.598 7                  25240661.402
        45.500
 104929951.364 8  81763602.18447  19967506.361    19967505.9054   19967507.9054
        49.700          43.0004
 130443357.580 7                  24822544.203
        45.800
 103359222.006 8  80390528.964 8  19308366.843    19308367.087    19308373.682
        53.100          48.700
 128811744.920 7 100186944.585 6  24071566.173    24071566.152    24071582.077
        45.100          41.100
 117204068.365 8  91158738.210 7  21887032.729    21887032.844    21887038.188
        48.600          44.800
 112202163.244 7                  21048794.611    21048794.667
        44.500
 117929145.464 7  91722708.749 7  22076580.442    22076580.807    22076588.543
        47.900          44.700
 126122894.812 7  98277556.86545  24000407.896    24000407.4274   24000412.7974
        42.600          35.7004
 104116032.161 8  80979230.260 8  19497564.855    19497564.940    19497570.028
        52.200          49.900
 141784555.644 6                  26980701.658
        40.300
 25  1  1 17 12  0.0000000  0 29G09G26E19R18G08S31S35G07G03R06S48S33
                                R19E29E04E31G16G27E21G04E06R07R17R08
                                R10R16G31R09E09
 108663453.046 8  84672833.48848  20677965.177    20677964.5254   20677967.2524
        48.900          50.5004
 120000544.873 7  93506944.02946  22835341.946    22835341.3564   22835346.2354
        42.800          39.7004
 127603720.690 7                  24282188.754
        42.000
 124637565.810 7  96940548.747 6  23348751.696    23348751.643    23348761.962
        44.300          41.500
 119689408.655 7  93264578.86546  22776112.600    22776111.9034   22776125.0424
        42.100          37.8004
 198980222.150 7                  37864683.452
        45.400
 200916706.360 7                  38233190.752
        43.800
 123426282.995 7  96176368.95646  23487223.364    23487222.7344   23487224.5544
        44.300          38.7004
 125428116.254 6  97736160.11445  23868211.077    23868210.7964   23868224.8954
        41.400          34.4004
 111566189.094 6                  20907467.901    20907467.826
        38.700
 412815823.552 5                  78556158.099
        33.100
 202116769.004 7                  38461528.377
        45.100
 129984105.151 5 101098872.893 6  24299156.733    24299157.489    24299188.374
        31.000          36.500
 150306571.760 5                  28602446.406
        35.100
 123519051.437 8                  23504894.521
        48.300
 135683905.911 7                  25819747.322
        43.200
 107747853.201 8  83959436.69846  20503710.157    20503709.1384   20503710.0454
        48.800          38.9004
 113794793.974 7  88671425.50447  21654372.455    21654371.7314   21654378.1334
        46.100          45.5004
 132672345.457 7                  25246699.940
        45.200
 104931074.396 8  81764477.25947  19967720.037    19967719.5864   19967721.6224
        49.800          43.0004
 130413699.622 7                  24816900.691
        45.800
 103358048.392 8  80389616.136 8  19308147.678    19308147.857    19308154.542
        53.000          48.500
 128824786.073 7 100197087.873 6  24074003.681    24074003.123    24074018.391
        44.900          40.400
 117151209.704 8  91117625.993 7  21877160.967    21877161.424    21877167.126
        48.300          44.500
 112171057.015 7                  21042959.018    21042958.600
        44.200
 117976215.547 8  91759318.817 7  22085393.160    22085392.904    22085400.685
        48.100          44.900
 126164478.804 7  98309959.73245  24008320.451    24008319.9734   24008325.9914
        43.200          35.7004
 104123399.761 8  80984960.606 8  19498944.396    19498944.659    19498949.675
        52.600          49.900
 141745241.091 6                  26973220.926
        40.300
 25  1  1 17 12 15.0000000  0 29G09G26E19R18G08S31S35G07G03R06S48S33
                                R19E29E04E31G16G27E21G04E06R07R17R08
                                R10R16G31R09E09
 108637918.779 8  84652936.64348  20673106.173    20673105.5304   20673108.2754
        49.200          50.6004
 120048704.602 7  93544471.08446  22844506.501    22844505.9114   22844510.7234
        42.600          39.7004
 127633923.143 6                  24287936.253
        41.900
 124611207.357 7  96920047.840 6  23343814.064    23343814.458    23343823.502
        45.100          41.300
 119636638.942 7  93223459.82746  22766071.034    22766070.3414   22766083.1334
        42.200          37.8004
 198980215.872 7                  37864683.492
        45.100
 200916667.481 7                  38233176.989
        43.300
 123392989.478 7  96150425.96346  23480888.288    23480887.6624   23480888.9764
        44.200          38.7004
 125479685.194 6  97776343.40945  23878023.886    23878023.6144   23878038.2914
        40.600          34.3004
 111620579.239 6                  20917659.821    20917660.796
        38.000
 412816440.055 5                  78556194.986
        33.100
 202116783.177 7                  38461531.221
        45.400
 129933487.277 5 101059503.511 6  24289694.524    24289694.489    24289725.482
        32.200          36.600
 150349171.058 5                  28610552.382
        34.500
 123506612.600 8                  23502527.498
        48.400
 135647481.562 7                  25812816.021
        42.800
 107776852.297 8  83982033.37946  20509228.404    20509227.3804   20509228.4254
        48.700          38.9004
 113761195.523 7  88645244.95547  21647978.543    21647977.8284   21647984.4774
        45.900          45.6004
 132704119.628 7                  25252746.302
        45.200
 104932332.957 8  81765457.94147  19967959.570    19967959.1194   19967961.1494
        49.900          43.0004
 130384091.168 7                  24811266.188
        45.800
 103357078.606 8  80388861.842 8  19307966.439    19307966.685    19307973.213
        53.000          48.500
 128838001.928 7 100207367.181 6  24076472.509    24076472.514    24076487.630
        43.500          39.600
 117098453.922 8  91076593.787 7  21867309.357    21867309.997    21867315.605
        48.700          44.400
 112140041.740 7                  21037141.657    21037140.644
        44.700
 118023295.634 8  91795936.679 7  22094206.291    22094206.258    22094213.274
        48.500          44.800
 126206077.145 7  98342373.78045  24016236.329    24016235.8514   24016242.4534
        43.000          35.9004
 104130861.136 8  80990763.890 8  19500341.727    19500341.996    19500346.861
        52.700          49.900
 141705944.698 6                  26965743.010
        40.400
 25  1  1 17 12 30.0000000  0 29G09G26E19R18G08S31S35G07G03R06S48S33
                                R19E29E04E31G16G27E21G04E06R07R17R08
                                R10R16G31R09E09
 108612500.668 8  84633130.33348  20668269.034    20668268.3864   20668271.3754
        48.800          50.7004
 120096897.094 7  93582023.64246  22853677.090    22853676.4964   22853681.5114
        43.100          39.7004
 127664191.537 7                  24293695.993
        42.100
 124584995.523 7  96899660.937 6  23338902.896    23338903.659    23338913.459
        44.200          41.600
 119583913.663 7  93182375.39946  22756037.365    22756036.6684   22756049.4164
        42.200          37.9004
 198980209.986 7                  37864677.894
        45.300
 200916628.106 7                  38233174.815
        43.800
 123359703.016 7  96124488.47146  23474553.980    23474553.3684   23474554.6004
        44.600          38.7004
 125531262.380 6  97816533.06745  23887839.288    23887839.0074   23887853.5604
        41.900          34.5004
 111675086.383 6                  20927875.077    20927875.221
        38.100
 412817056.477 5                  78556242.305
        33.100
 202116797.316 7                  38461533.743
        45.500
 129882903.504 5 101020160.664 6  24280240.364    24280238.680    24280269.681
        32.700          36.900
 150391785.822 5                  28618661.850
        34.600
 123494250.594 8                  23500174.952
        48.400
 135611106.532 7                  25805894.155
        43.800
 107805965.702 8  84004719.14546  20514768.609    20514767.5814   20514768.5154
        48.900          38.9004
 113727719.669 7  88619159.93747  21641608.472    21641607.7574   21641614.2044
        45.800          45.6004
 132735934.761 7                  25258800.637
        45.400
 104933726.820 8  81766544.05047  19968224.786    19968224.3354   19968226.4014
        49.700          43.1004
 130354532.056 7                  24805641.417
        45.600
 103356312.261 8  80388265.783 8  19307823.438    19307823.660    19307830.108
        52.900          48.400
 128851390.415 7 100217780.098 6  24078975.144    24078975.863    24078989.485
        44.400          38.500
 117045800.929 8  91035641.461 7  21857476.969    21857476.855    21857482.610
        49.200          44.800
 112109116.936 7                  21031339.167    21031338.933
        44.800
 118070385.186 8  91832561.871 7  22103021.542    22103021.632    22103029.314
        48.100          44.900
 126247689.451 7  98374798.70445  24024155.699    24024155.2174   24024161.1784
        42.700          35.5004
 104138415.448 8  80996639.473 8  19501756.440    19501756.648    19501761.628
        52.900          50.000
 141666666.474 6                  26958268.350
        40.600
 25  1  1 17 12 45.0000000  0 29G09G26E19R18G08S31S35G07G03R06S48S33
                                R19E29E04E31G16G27E21G04E06R07R17R08
                                R10R16G31R09E09
 108587200.224 8  84613415.70048  20663454.991    20663454.3524   20663456.8734
        49.000          50.6004
 120145123.459 7  93619602.58946  22862854.422    22862853.8144   22862858.6494
        43.000          39.5004
 127694527.212 7                  24299469.019
        42.000
 124558932.193 7  96879389.605 6  23334021.199    23334021.202    23334030.488
        44.300          41.300
 119531234.477 7  93141326.88946  22746012.800    22746012.1034   22746024.8524
        43.000          38.0004
 198980204.731 7                  37864673.315
        44.900
 200916589.819 7                  38233165.523
        43.700
 123326424.805 7  96098557.39546  23468221.415    23468220.7944   23468221.9514
        44.300          38.6004
 125582848.826 6  97856729.92345  23897656.302    23897656.0304   23897670.4174
        40.000          34.3004
 111729711.377 6                  20938112.143    20938112.482
        38.100
 412816073.812 5                  78556267.645
        32.400
 202116811.574 7                  38461536.233
        45.200
 129832355.661 5 100980845.764 6  24270790.596    24270789.529    24270820.087
        32.200          36.400
 150434417.210 5                  28626774.957
        34.800
 123481966.904 8                  23497837.553
        48.500
 135574782.237 7                  25798981.369
        43.200
 107835194.329 8  84027494.69046  20520330.791    20520329.7594   20520330.5384
        48.400          38.9004
 113694368.068 7  88593171.73647  21635261.685    21635260.9704   21635267.5674
        45.800          45.6004
 132767791.809 7                  25264862.759
        44.900
 104935257.393 8  81767736.68447  19968516.046    19968515.5904   19968517.7054
        49.600          43.0004
 130325023.872 7                  24800026.302
        46.000
 103355751.177 8  80387829.368 8  19307718.656    19307718.747    19307725.271
        53.000          48.300
 128864954.649 7 100228329.991 6  24081509.567    24081509.779    24081524.707
        44.000          36.600
 116993252.805 8  90994770.730 7  21847663.671    21847663.780    21847669.996
        48.600          44.800
 112078283.838 7                  21025554.682    21025554.831
        44.800
 118117485.290 7  91869195.259 7  22111838.654    22111838.733    22111846.384
        47.900          44.600
 126289317.033 7  98407235.51945  24032077.242    24032076.7604   24032082.7024
        42.300          35.3004
 104146064.287 8  81002588.570 8  19503188.379    19503188.971    19503193.974
        52.700          49.900
 141627407.967 6                  26950797.790
        40.600
 25  1  1 17 13  0.0000000  0 29G09G26E19R18G08S31S35G07G03R06S48S33
                                R19E29E04E31G16G27E21G04E06R07R17R08
                                R10R16G31R09E09
 108562016.608 8  84593792.10248  20658662.386    20658661.7384   20658664.5864
        49.200          50.7004
 120193382.309 7  93657206.83846  22872037.786    22872037.1654   22872042.0244
        42.300          39.5004
 127724928.869 6                  24305254.158
        41.900
 124533016.503 7  96859233.068 6  23329164.882    23329165.516    23329175.236
        44.400          41.500
 119478600.695 6  93100313.75846  22735996.528    22735995.8224   22736008.7754
        41.800          38.0004
 198980198.984 7                  37864672.885
        45.300
 200916551.548 7                  38233159.916
        44.000
 123293153.863 7  96072632.00046  23461889.940    23461889.3194   23461890.6664
        44.700          38.7004
 125634443.059 6  97896932.84845  23907474.599    23907474.3404   23907489.0274
        41.700          34.2004
 111784452.835 6                  20948371.505    20948370.970
        38.000
 412816689.967 5                  78556299.693
        33.000
 202116826.623 7                  38461539.256
        45.300
 129781842.997 5 100941558.260 6  24261344.579    24261345.954    24261376.893
        31.800          36.200
 150477064.012 5                  28634889.751
        34.400
 123469760.564 8                  23495514.773
        48.400
 135538507.659 7                  25792078.946
        43.200
 107864536.814 8  84050358.94846  20525914.517    20525913.4894   20525914.2674
        48.600          38.8004
 113661139.991 7  88567279.78647  21628938.667    21628937.9524   21628944.4074
        45.800          45.6004
 132799689.654 7                  25270932.897
        45.300
 104936923.686 8  81769035.07347  19968833.243    19968832.7874   19968834.8104
        49.600          43.0004
 130295565.535 7                  24794420.453
        46.100
 103355393.989 8  80387551.524 8  19307651.646    19307651.928    19307658.518
        53.000          48.400
 128878692.872 7 100239015.220 6  24084076.386    24084077.287    24084092.161
        45.300          39.500
 116940809.031 8  90953981.179 7  21837869.864    21837870.650    21837876.186
        49.200          44.900
 112047541.784 7                  21019787.756    21019787.547
        44.300
 118164594.547 7  91905835.851 7  22120657.407    22120657.595    22120665.143
        47.800          44.300
 126330958.841 7  98439683.41545  24040001.593    24040001.1204   24040007.0034
        42.900          35.4004
 104153806.132 8  81008610.004 8  19504638.574    19504638.778    19504643.849
        52.900          50.000
 141588168.015 6                  26943330.591
        40.800
 25  1  1 17 13 15.0000000  0 29G09G26E19R18G08S31S35G07G03R06S48S33
                                R19E29E04E31G16G27E21G04E06R07R17R08
                                R10R16G31R09E09
 108536951.481 8  84574260.80048  20653892.610    20653891.9674   20653894.8724
        49.300          50.6004
 120241674.765 7  93694837.25946  22881227.636    22881227.0154   22881231.7994
        43.100          39.3004
 127755397.832 7                  24311052.197
        42.100
 124507250.195 7  96839192.725 6  23324338.153    23324338.440    23324348.481
        44.700          41.400
 119426014.182 7  93059337.45046  22725990.034    22725989.3244   22726001.7354
        42.700          37.9004
 198980194.819 7                  37864674.517
        45.500
 200916514.287 7                  38233154.590
        44.100
 123259891.650 7  96046713.39546  23455559.997    23455559.3674   23455561.0124
        44.900          38.6004
 125686046.127 6  97937142.68645  23917294.213    23917293.9274   23917308.7374
        41.100          33.8004
 111839311.579 6                  20958651.823    20958651.708
        37.900
 412817307.331 5                  78556343.256
        32.500
 202116842.698 7                  38461544.524
        45.700
 129731367.666 5 100902299.802 6  24251910.177    24251910.191    24251941.268
        31.100          36.500
 150519727.487 5                  28643008.768
        35.100
 123457633.146 8                  23493207.164
        48.400
 135502284.298 7                  25785185.567
        43.600
 107893994.233 8  84073312.77746  20531520.133    20531519.1054   20531519.8434
        48.300          38.7004
 113628037.214 7  88541485.46947  21622639.276    21622638.5614   21622645.1204
        46.000          45.6004
 132831629.388 7                  25277010.741
        45.200
 104938727.195 8  81770440.38847  19969176.335    19969175.8754   19969178.0344
        49.800          42.9004
 130266158.777 7                  24788824.347
        46.000
 103355242.196 8  80387433.445 8  19307623.864    19307623.783    19307630.298
        53.200          48.300
 128892606.608 7 100249837.108 6  24086676.598    24086676.713    24086692.401
        42.900          36.000
 116888471.409 8  90913274.214 7  21828096.536    21828096.971    21828102.082
        48.600          44.400
 112016891.905 7                  21014038.115    21014037.755
        44.200
 118211714.489 8  91942484.796 7  22129478.574    22129478.573    22129486.622
        48.100          44.700
 126372616.252 7  98472143.46145  24047928.610    24047928.1414   24047934.8324
        42.200          35.4004
 104161642.222 8  81014704.748 8  19506105.622    19506106.258    19506111.520
        52.300          49.900
 141548948.379 6                  26935867.368
        40.300
 25  1  1 17 13 30.0000000  0 29G09G26E19R18G08S31S35G07G03R06S48S33
                                R19E29E04E31G16G27E21G04E06R07R17R08
                                R10R16G31R09E09
 108512004.294 8  84554821.40148  20649145.474    20649144.8264   20649147.6144
        49.200          50.7004
 120289999.752 7  93732493.02846  22890423.484    22890422.8504   22890427.8524
        43.000          39.5004
 127785933.120 6                  24316862.997
        41.900
 124481633.043 7  96819268.391 7  23319539.745    23319539.834    23319549.500
        44.600          42.000
 119373474.390 7  93018397.54646  22715991.502    22715990.7834   22716003.5584
        43.000          37.8004
 198980191.194 7                  37864678.341
        45.900
 200916477.628 7                  38233146.738
        44.400
 123226637.232 7  96020800.87146  23449231.904    23449231.2744   23449232.9464
        44.600          38.6004
 125737656.757 6  97977358.39645  23927116.108    23927115.8184   23927130.4424
        41.100          33.7004
 111894286.262 6                  20968954.702    20968953.670
        38.200
 412817925.583 5                  78556373.158
        32.900
 202116858.975 7                  38461542.131
        45.400
 129680929.083 5 100863069.899 6  24242483.285    24242482.021    24242512.177
        32.000          36.500
 150562406.665 5                  28651129.904
        33.900
 123445583.849 8                  23490914.150
        48.500
 135466111.346 7                  25778302.305
        43.300
 107923565.385 8  84096355.21546  20537147.359    20537146.3444   20537147.0274
        48.400          38.7004
 113595059.188 7  88515788.35847  21616363.718    21616363.0084   21616369.5114
        45.900          45.6004
 132863610.046 7                  25283096.301
        45.100
 104940667.116 8  81771951.99647  19969545.635    19969545.1704   19969547.2384
        49.900          42.9004
 130236802.845 7                  24783238.190
        46.000
 103355295.131 8  80387474.591 8  19307633.013    19307633.474    19307640.109
        52.600          48.300
 128906694.640 7 100260794.557 6  24089309.234    24089309.984    24089325.386
        44.800          40.700
 116836239.516 8  90872649.435 7  21818342.360    21818342.345    21818348.539
        48.500          44.900
 111986333.572 7                  21008305.465    21008304.979
        44.400
 118258843.446 8  91979140.560 7  22138300.940    22138301.236    22138308.784
        48.400          44.300
 126414288.148 6  98504614.78945  24055859.340    24055858.8674   24055865.0854
        41.600          35.2004
 104169571.285 8  81020871.776 8  19507590.905    19507591.100    19507596.193
        52.400          49.900
 141509748.197 6                  26928407.869
        40.800
 25  1  1 17 13 45.0000000  0 29G09G26E19R18G08S31S35G07G03R06S48S33
                                R19E29E04E31G16G27E21G04E06R07R17R08
                                R10R16G31R09E09
 108487174.410 8  84535473.41848  20644420.600    20644419.9524   20644422.6924
        49.000          50.9004
 120338356.137 7  93770173.26646  22899625.507    22899624.8864   22899629.9284
        42.700          39.6004
 127816533.813 7                  24322686.081
        42.000
 124456164.266 7  96799459.399 7  23314768.042    23314768.738    23314778.324
        44.700          42.000
 119320980.944 7  92977493.75146  22706002.135    22706001.3984   22706014.0254
        42.300          38.1004
 198980186.577 7                  37864676.337
        45.700
 200916440.700 7                  38233137.401
        44.000
 123193389.727 7  95994893.73046  23442905.738    23442905.1124   23442906.2494
        44.200          38.9004
 125789273.679 6  98017579.03845  23936938.211    23936937.9254   23936952.9554
        40.500          33.9004
 111949375.359 6                  20979277.423    20979277.564
        38.400
 412816943.959 5                  78556418.321
        33.900
 202116875.560 7                  38461545.463
        45.200
 129630527.191 5 100823868.652 6  24233060.253    24233059.758    24233089.685
        31.700          36.800
 150605100.593 5                  28659254.622
        34.000
 123433611.985 8                  23488636.040
        48.700
 135429988.027 7                  25771428.019
        43.600
 107953248.978 8  84119485.27246  20542796.109    20542795.0944   20542795.6974
        48.800          38.9004
 113562205.428 7  88490188.07947  21610112.312    21610111.6104   21610117.5444
        45.800          45.7004
 132895630.469 7                  25289189.357
        45.100
 104942742.663 8  81773569.28147  19969940.646    19969940.1814   19969942.2164
        49.600          43.0004
 130207497.062 7                  24777661.722
        45.800
 103355551.970 8  80387674.338 8  19307681.199    19307681.490    19307688.125
        52.800          48.300
 128920955.663 7 100271886.398 6  24091974.500    24091974.414    24091989.892
        43.600          38.600
 116784112.901 7  90832106.546 7  21808608.277    21808608.262    21808614.107
        47.800          44.600
 111955865.320 7                  21002589.783    21002589.145
        44.200
 118305980.496 8  92015802.641 7  22147125.445    22147125.442    22147133.299
        48.200          44.600
 126455973.777 7  98537096.81945  24063791.992    24063791.5414   24063797.7794
        42.300          35.2004
 104177592.191 8  81027110.231 8  19509092.682    19509093.029    19509098.251
        52.200          50.000
 141470566.849 6                  26920952.124
        40.900
 25  1  1 17 14  0.0000000  0 29G09G26E19R18G08S31S35G07G03R06S48S33
                                R19E29E04E31G16G27E21G04E06R07R17R08
                                R10R16G31R09E09
 108462457.013 8  84516213.09348  20639716.984    20639716.3454   20639719.1894
        49.100          50.9004
 120386738.451 7  93807873.68646  22908832.883    22908832.2624   22908836.8604
        43.100          39.5004
 127847194.874 7                  24328520.667
        42.100
 124430839.261 7  96779762.262 6  23310024.369    23310024.481    23310034.335
        44.800          41.900
 119268529.094 7  92936622.37546  22696020.914    22696020.1684   22696032.6354
        42.300          38.1004
 198980177.179 7                  37864673.064
        45.900
 200916398.141 7                  38233128.512
        43.600
 123160144.107 7  95968988.06046  23436579.363    23436578.7334   23436579.9404
        44.400          39.2004
 125840891.416 6  98057800.29145  23946761.153    23946760.8764   23946776.2204
        40.300          34.1004
 112004573.565 6                  20989621.213    20989621.657
        37.200
 412817557.363 5                  78556446.899
        33.600
 202116886.036 7                  38461548.199
        45.100
 129580157.321 5 100784692.207 6  24223644.015    24223644.653    24223673.459
        31.900          36.700
 150647803.988 5                  28667380.775
        34.200
 123421712.601 8                  23486371.678
        48.700
 135393909.332 7                  25764562.501
        43.400
 107983039.928 8  84142698.98746  20548464.778    20548463.7634   20548464.7764
        48.600          38.8004
 113529471.187 7  88464680.93047  21603882.666    21603881.9644   21603888.3684
        46.100          45.7004
 132927685.376 7                  25295289.392
        45.300
 104944948.836 8  81775288.36147  19970360.431    19970359.9664   19970362.0754
        49.600          43.0004
 130178236.550 7                  24772093.533
        46.100
 103356007.549 8  80388028.645 8  19307766.350    19307766.657    19307773.390
        52.700          48.300
 128935384.638 7 100283109.028 6  24094670.637    24094670.883    24094686.150
        43.700          37.500
 116732086.864 8  90791641.811 7  21798892.411    21798893.112    21798898.734
        49.500          44.800
 111925482.537 7                  20996890.009    20996889.767
        44.700
 118353120.498 8  92052467.009 7  22155950.553    22155950.306    22155957.554
        48.000          44.400
 126497667.965 7  98569585.51845  24071726.100    24071725.6404   24071732.0564
        42.900          35.3004
 104185700.012 8  81033416.310 8  19510611.657    19510611.583    19510616.658
        52.700          49.800
 141431399.364 6                  26913498.618
        41.100
 25  1  1 17 14 15.0000000  0 29G09G26E19R18G08S31S35G07G03R06S48S33
                                R19E29E04E31G16G27E21G04E06R07R17R08
                                R10R16G31R09E09
 108437865.329 8  84497050.72748  20635037.350    20635036.7114   20635039.5824
        49.200          51.1004
 120435159.551 7  93845604.37246  22918046.530    22918045.9004   22918051.0814
        43.200          39.6004
 127877928.971 7                  24334369.438
        42.000
 124405671.499 7  96760187.428 7  23305308.394    23305308.243    23305319.751
        44.400          42.800
 119216132.198 7  92895793.80846  22686049.862    22686049.1114   22686061.5384
        43.200          38.2004
 198980174.718 7                  37864673.547
        45.800
 200916362.936 7                  38233119.148
        43.700
 123126913.240 7  95943093.88346  23430255.311    23430254.6814   23430256.3734
        45.000          39.3004
 125892522.431 6  98098031.86545  23956586.739    23956586.4764   23956601.4664
        40.900          33.8004
 112059893.271 6                  20999988.972    20999989.257
        38.100
 412818177.301 5                  78556486.621
        33.700
 202116903.493 7                  38461552.152
        45.300
 129529833.050 5 100745551.303 5  24214234.707    24214235.908    24214265.393
        32.400          35.900
 150690529.651 5                  28675511.184
        33.400
 123409898.748 8                  23484123.521
        48.500
 135357888.253 7                  25757707.750
        43.100
 108012950.425 8  84166005.85246  20554156.835    20554155.8254   20554156.5564
        48.800          38.8004
 113496869.735 7  88439277.25047  21597678.851    21597678.1454   21597684.4654
        45.800          45.9004
 132959787.555 7                  25301398.361
        44.800
 104947298.635 8  81777119.35947  19970807.419    19970806.9594   19970809.2514
        49.600          43.1004
 130149034.399 7                  24766536.257
        45.900
 103356675.153 8  80388547.874 8  19307891.083    19307891.348    19307898.063
        52.600          48.200
 128949993.504 7 100294471.021 5  24097401.118    24097401.823    24097416.550
        43.200          33.900
 116680175.184 8  90751266.054 7  21789197.985    21789198.438    21789204.547
        48.600          44.600
 111895198.219 7                  20991208.691    20991207.922
        44.400
 118400276.062 8  92089143.476 7  22164778.024    22164778.067    22164785.507
        48.000          44.500
 126539383.606 7  98602090.92645  24079665.025    24079664.5604   24079670.5814
        42.300          35.4004
 104193907.429 8  81039799.842 8  19512148.509    19512148.609    19512153.626
        53.000          49.900
 141392258.978 6                  26906050.686
        40.200
 25  1  1 17 14 30.0000000  0 29G09G26E19R18G08S31S35G07G03R06S48S33
                                R19E29E04E31G16G27E21G04E06R07R17R08
                                R10R16G31R09E09
 108413389.256 8  84477978.45148  20630379.668    20630379.0344   20630381.9544
        49.700          50.9004
 120483608.780 7  93883356.96346  22927266.887    22927266.2704   22927270.6684
        42.600          39.3004
 127908725.876 7                  24340229.853
        42.000
 124380650.837 7  96740726.949 7  23300621.451    23300621.898    23300632.315
        44.800          42.200
 119163780.333 7  92855000.33346  22676087.559    22676086.7994   22676099.2324
        42.200          38.1004
 198980169.192 7                  37864671.772
        45.500
 200916324.730 7                  38233119.998
        44.200
 123093686.840 7  95917203.19146  23423932.386    23423931.7564   23423933.5344
        45.400          39.0004
 125944156.122 6  98138265.51545  23966412.452    23966412.1934   23966427.5794
        40.400          33.8004
 112115323.804 6                  21010376.697    21010376.684
        37.800
 412818794.677 5                  78556512.109
        32.000
 202116918.389 7                  38461560.536
        45.500
 129479544.640 5 100706438.242 6  24204835.086    24204834.093    24204864.580
        32.200          36.900
 150733267.237 5                  28683643.686
        34.100
 123398160.269 8                  23481889.749
        48.500
 135321914.583 7                  25750862.428
        43.200
 108042970.027 8  84189397.72946  20559869.126    20559868.1114   20559869.0904
        48.800          38.6004
 113464391.138 7  88413969.29447  21591498.711    21591498.0144   21591503.9014
        46.400          45.6004
 132991926.586 7                  25307514.202
        44.900
 104949781.868 8  81779054.32147  19971280.275    19971279.8194   19971281.7894
        49.700          42.9004
 130119880.423 7                  24760988.905
        45.900
 103357544.532 8  80389224.020 8  19308053.617    19308053.757    19308060.522
        52.500          48.200
 128964772.803 7 100305965.571 6  24100164.219    24100164.499    24100179.320
        44.200          36.700
 116628368.069 8  90710971.609 7  21779523.917    21779524.221    21779529.838
        48.200          45.000
 111865001.465 7                  20985544.130    20985543.664
        44.500
 118447436.994 8  92125824.155 7  22173606.435    22173606.973    22173614.194
        48.900          44.400
 126581110.250 7  98634604.87545  24087605.273    24087604.8084   24087611.3024
        42.600          35.0004
 104202203.550 8  81046252.368 8  19513702.200    19513702.288    19513707.220
        53.000          49.900
 141353135.469 6                  26898605.202
        40.900
 25  1  1 17 14 45.0000000  0 29G09G26E19R18G08S31S35G07G03R06S48S33
                                R19E29E04E31G16G27E21G04E06R07R17R08
                                R10R16G31R09E09
 108389033.250 8  84458999.73948  20625745.034    20625744.3914   20625747.1754
        49.500          50.9004
 120532090.025 7  93921134.53846  22936492.311    22936491.6994   22936496.5474
        43.200          39.5004
 127939589.574 7                  24346103.201
        42.200
 124355782.156 7  96721384.743 7  23295963.443    23295963.661    23295973.564
        44.800          42.600
 119111478.045 7  92814245.48546  22666134.708    22666133.9664   22666146.3804
        42.900          38.2004
 198980165.232 7                  37864670.332
        45.900
 200916287.287 7                  38233111.072
        44.000
 123060469.203 7  95891319.31946  23417611.578    23417610.9394   23417612.1764
        45.500          39.1004
 125995796.241 6  98178504.18245  23976239.730    23976239.4674   23976254.6324
        40.500          33.6004
 112170868.608 6                  21020785.338    21020785.669
        37.600
 412817813.698 5                  78556559.191
        33.300
 202116934.400 7                  38461556.718
        45.200
 129429296.795 5 100667356.795 6  24195441.989    24195440.932    24195471.070
        32.800          36.500
 150776020.711 5                  28691779.185
        33.100
 123386501.442 8                  23479671.076
        48.300
 135285992.522 7                  25744026.418
        43.500
 108073102.530 8  84212877.58746  20565603.332    20565602.3174   20565603.1054
        48.900          38.5004
 113432039.867 7  88388760.55347  21585341.936    21585341.2344   21585347.5584
        46.300          45.6004
 133024106.202 7                  25313637.747
        44.700
 104952402.699 8  81781096.50547  19971778.864    19971778.4044   19971780.5414
        49.900          42.9004
 130090779.005 7                  24755450.989
        46.000
 103358619.756 8  80390060.262 8  19308254.598    19308254.591    19308261.343
        52.300          48.200
 128979725.919 7 100317595.124 6  24102958.449    24102957.971    24102974.410
        42.800          38.500
 116576669.949 8  90670762.000 7  21769870.065    21769870.306    21769875.525
        48.600          44.700
 111834896.730 7                  20979896.316    20979896.059
        44.400
 118494606.898 7  92162511.768 7  22182436.404    22182437.050    22182444.517
        47.900          44.100
 126622852.143 7  98667130.69045  24095548.597    24095548.1194   24095554.9564
        42.600          35.1004
 104210592.430 8  81052777.053 8  19515272.753    19515273.196    19515278.168
        53.000          50.000
 141314033.223 6                  26891164.558
        40.600
 25  1  1 17 15  0.0000000  0 29G09G26E19R18G08S31S35G07G03R06S48S33
                                R19E29E04E31G16G27E21G04E06R07R17R08
                                R10R16G31R09E09
 108364791.481 8  84440110.02448  20621132.071    20621131.4324   20621134.1374
        49.600          50.8004
 120580596.988 7  93958932.14246  22945722.528    22945721.9024   22945727.0894
        43.100          39.2004
 127970513.959 6                  24351987.915
        41.900
 124331059.352 7  96702155.897 6  23291331.603    23291331.762    23291341.115
        44.700          41.900
 119059219.718 7  92773524.88246  22656190.002    22656189.2604   22656201.8094
        42.600          38.1004
 198980156.467 7                  37864669.031
        45.200
 200916245.583 7                  38233107.526
        44.100
 123027254.181 7  95865437.48646  23411290.965    23411290.3314   23411291.5474
        44.800          38.9004
 126047436.383 6  98218742.88545  23986066.464    23986066.2014   23986081.3494
        40.300          33.0004
 112226521.363 6                  21031215.792    21031215.098
        37.200
 412818428.044 5                  78556595.818
        33.400
 202116945.646 7                  38461562.880
        45.400
 129379083.812 5 100628302.412 6  24186055.355    24186053.565    24186084.012
        31.400          36.200
 150818783.951 5                  28699916.678
        33.200
 123374916.395 8                  23477466.625
        48.300
 135250116.146 7                  25737199.550
        43.400
 108103341.506 8  84236440.39646  20571357.663    20571356.6394   20571357.4624
        48.700          38.4004
 113399810.270 7  88363646.61447  21579209.040    21579208.3304   21579214.4424
        46.300          45.4004
 133056320.311 7                  25319767.850
        45.000
 104955155.227 8  81783241.30147  19972302.670    19972302.2194   19972304.3564
        49.800          42.7004
 130061724.293 7                  24749921.901
        45.700
 103359894.663 8  80391051.818 8  19308492.811    19308492.853    19308499.573
        52.400          48.300
 128994847.144 7 100329355.299 6  24105785.483    24105785.083    24105800.534
        43.700          39.700
 116525075.337 8  90630632.822 7  21760234.946    21760235.122    21760240.363
        48.600          44.600
 111804878.290 7                  20974264.651    20974264.225
        44.100
 118541779.763 8  92199201.690 7  22191268.743    22191268.406    22191275.681
        49.000          44.300
 126664603.258 7  98699663.68345  24103494.155    24103493.6954   24103500.2024
        42.600          34.8004
 104219067.839 8  81059369.025 8  19516860.163    19516860.367    19516865.392
        52.700          50.000
 141274946.297 6                  26883726.725
        41.200
 25  1  1 17 15 15.0000000  0 29G09G26E19R18G08S31S35G07G03R06S48S33
                                R19E29E04E31G16G27E21G04E06R07R17R08
                                R10R16G31R09E09
 108340674.693 8  84421317.71048  20616542.624    20616541.9854   20616544.8894
        49.700          50.9004
 120629139.839 7  93996757.72046  22954960.065    22954959.4354   22954964.4554
        42.700          39.3004
 128001509.370 7                  24357886.292
        42.100
 124306493.680 7  96683049.293 7  23286730.049    23286730.257    23286739.708
        45.300          42.300
 119007016.167 7  92732846.95546  22646255.904    22646255.1674   22646267.5854
        42.500          38.2004
 198980153.013 7                  37864670.202
        45.700
 200916209.421 7                  38233096.262
        44.000
 122994052.252 7  95839565.85946  23404972.624    23404971.9854   23404973.5644
        44.900          39.0004
 126099086.544 6  98258989.36145  23995895.890    23995895.6274   23995910.9724
        40.300          33.4004
 112282292.026 6                  21041667.528    21041666.662
        37.800
 412819047.929 5                  78556627.580
        32.200
 202116962.395 7                  38461563.421
        45.300
 129328916.713 5 100589283.767 6  24176676.483    24176674.815    24176705.409
        31.000          36.800
 150861567.226 5                  28708058.620
        33.700
 123363415.687 8                  23475278.042
        48.500
 135214295.930 7                  25730383.034
        43.500
 108133697.266 8  84260094.20346  20577134.241    20577133.2174   20577134.0434
        48.400          38.3004
 113367713.114 7  88338635.87347  21573101.354    21573100.6444   21573106.5324
        46.400          45.4004
 133088579.216 7                  25325906.608
        45.000
 104958049.937 8  81785496.89047  19972853.539    19972853.0834   19972855.2604
        49.500          42.7004
 130032726.892 7                  24744404.090
        45.800
 103361380.056 8  80392207.085 8  19308770.245    19308770.380    19308777.086
        52.500          48.500
 129010146.881 7 100341254.350 7  24108644.666    24108644.346    24108661.031
        44.900          42.200
 116473595.299 8  90590592.814 7  21750621.088    21750621.567    21750627.090
        48.200          44.700
 111774955.795 7                  20968651.568    20968651.296
        44.600
 118588965.481 7  92235901.644 7  22200100.818    22200100.987    22200108.723
        47.600          44.100
 126706373.926 7  98732211.91645  24111442.753    24111442.2714   24111449.2494
        42.000          35.0004
 104227640.204 8  81066036.403 8  19518465.111    19518465.688    19518470.777
        52.600          50.000
 141235885.181 6                  26876293.364
        41.500
 25  1  1 17 15 30.0000000  0 29G09G26E19R18G08S31S35G07G03R06S48S33
                                R19E29E04E31G16G27E21G04E06R07R17R08
                                R10R16G31R09E09
 108316676.439 8  84402617.75448  20611975.887    20611975.2484   20611978.1864
        49.600          50.9004
 120677711.578 7  94034605.79746  22964203.071    22964202.4374   22964207.4424
        43.300          39.3004
 128032569.125 6                  24363797.193
        41.900
 124282078.500 7  96664059.695 7  23282155.749    23282156.283    23282166.405
        44.800          42.300
 118954861.138 7  92692206.82846  22636331.222    22636330.4764   22636342.6044
        42.800          38.2004
 198980148.654 7                  37864666.182
        45.700
 200916171.533 7                  38233094.264
        44.200
 122960856.759 7  95813699.24146  23398655.977    23398655.3294   23398656.7224
        45.300          39.0004
 126150739.688 6  98299238.15745  24005725.107    24005724.8394   24005740.5604
        40.400          33.3004
 112338173.233 6                  21052139.283    21052138.960
        37.300
 412818066.770 5                  78556668.343
        33.100
 202116978.986 7                  38461568.746
        45.600
 129278789.888 5 100550296.425 6  24167305.002    24167304.695    24167334.498
        30.800          36.700
 150904363.814 5                  28716202.315
        33.600
 123351992.765 8                  23473104.524
        48.400
 135178525.319 7                  25723576.285
        43.500
 108164162.775 8  84283833.54646  20582931.620    20582930.6014   20582931.4844
        48.900          38.2004
 113335742.050 7  88313723.38547  21567017.267    21567016.5574   21567022.5944
        46.300          45.3004
 133120876.000 7                  25332052.709
        45.000
 104961080.214 8  81787858.11447  19973430.343    19973429.8924   19973431.9344
        49.700          42.7004
 130003780.382 7                  24738895.506
        46.200
 103363069.194 8  80393520.805 8  19309085.878    19309086.049    19309092.506
        52.500          48.400
 129025618.306 7 100353287.009 6  24111536.138    24111536.220    24111552.172
        43.400          39.200
 116422223.823 8  90550637.219 7  21741027.716    21741028.068    21741033.908
        48.200          44.700
 111745123.133 7                  20963054.994    20963054.421
        44.900
 118636157.349 8  92272606.284 7  22208935.960    22208935.899    22208943.554
        48.200          44.700
 126748157.298 7  98764770.02745  24119394.301    24119393.8194   24119400.8274
        42.300          34.6004
 104236302.577 8  81072773.789 8  19520087.449    19520087.939    19520092.889
        52.300          49.900
 141196843.483 6                  26868864.013
        41.200
 25  1  1 17 15 45.0000000  0 29G09G26E19R18G08S31S35G07G03R06S48S33
                                R19E29E04E31G16G27E21G04E06R07R17R08
                                R10R16G31R09E09
 108292798.688 8  84384011.68948  20607432.272    20607431.6384   20607434.4364
        49.600          50.9004
 120726313.703 7  94072477.53846  22973451.744    22973451.1054   22973456.1304
        43.700          39.3004
 128063694.855 7                  24369720.205
        42.200
 124257816.186 7  96645188.977 7  23277610.992    23277610.794    23277620.974
        45.300          42.300
 118902756.749 7  92651606.15746  22626415.955    22626415.2094   22626427.3674
        42.500          38.5004
 198980145.148 7                  37864667.010
        45.700
 200916135.257 7                  38233082.405
        43.900
 122927669.492 7  95787839.02746  23392340.415    23392339.7634   23392341.4234
        44.700          39.1004
 126202397.211 6  98339490.39045  24015555.436    24015555.1734   24015570.4744
        40.200          32.7004
 112394166.560 6                  21062631.839    21062631.936
        37.900
 412818686.739 5                  78556697.592
        32.600
 202116994.692 7                  38461573.218
        45.400
 129228705.265 5 100511341.916 6  24157942.577    24157942.513    24157971.636
        31.600          36.300
 150947175.230 5                  28724348.762
        33.300
 123340649.519 8                  23470945.986
        48.500
 135142806.101 7                  25716779.032
        43.900
 108194739.600 8  84307659.62746  20588749.913    20588748.8854   20588750.0534
        48.800          38.2004
 113303899.177 7  88288910.77447  21560957.466    21560956.7564   21560963.0724
        46.000          45.3004
 133153212.304 7                  25338205.837
        45.000
 104964247.920 8  81790326.42447  19974033.002    19974032.5554   19974034.7664
        49.400          42.7004
 129974886.669 7                  24733397.372
        46.200
 103364963.794 8  80394994.358 8  19309439.770    19309439.925    19309446.600
        52.000          48.600
 129041262.479 7 100365453.774 6  24114460.572    24114461.024    24114477.172
        44.100          37.000
 116370962.752 8  90510767.492 7  21731455.758    21731455.620    21731461.224
        48.200          44.800
 111715382.012 7                  20957476.651    20957475.571
        44.700
 118683357.037 8  92309317.030 7  22217771.610    22217771.695    22217779.712
        48.400          44.600
 126789955.068 7  98797339.34645  24127348.102    24127347.6154   24127354.7484
        42.700          34.6004
 104245056.358 8  81079582.277 8  19521726.561    19521727.183    19521732.172
        52.400          49.800
 141157823.256 6                  26861438.764
        41.100
 25  1  1 17 16  0.0000000  0 29G09G26E19R18G08S31S35G07G03R06S48S33
                                R19E29E04E31G16G27E21G04E06R07R17R08
                                R10R16G31R09E09
 108269038.020 8  84365496.84948  20602910.800    20602910.1704   20602912.9554
        49.500          50.9004
 120774942.341 7  94110369.96246  22982705.368    22982704.7254   22982709.9744
        43.200          39.5004
 128094882.767 7                  24375655.049
        42.100
 124233703.313 7  96626434.533 7  23273093.900    23273094.406    23273103.660
        45.300          42.700
 118850699.747 7  92611042.40646  22616509.551    22616508.8054   22616521.1944
        42.600          38.5004
 198980137.691 7                  37864662.310
        45.700
 200916095.812 7                  38233075.545
        43.800
 122894486.766 7  95761982.35446  23386025.883    23386025.2494   23386027.0274
        44.400          39.1004
 126254054.943 6  98379742.76145  24025386.434    24025386.1754   24025400.9614
        40.400          32.9004
 112450267.525 6                  21073143.845    21073145.400
        37.700
 412819303.690 5                  78556737.564
        33.100
 202117008.365 7                  38461569.229
        45.300
 129178659.601 5 100472417.734 6  24148585.633    24148585.585    24148616.465
        30.900          36.900
 150989997.787 5                  28732497.759
        33.000
 123329382.387 8                  23468801.751
        48.500
 135107134.664 7                  25709990.789
        43.500
 108225423.546 8  84331569.17046  20594589.153    20594588.1294   20594589.0224
        48.600          38.1004
 113272181.150 7  88264195.44647  21554922.216    21554921.5064   21554927.2714
        46.100          45.3004
 133185584.102 7                  25344366.171
        44.800
 104967549.405 8  81792898.97747  19974661.321    19974660.8794   19974663.0434
        49.600          42.7004
 129946042.160 7                  24727908.484
        46.100
 103367060.415 8  80396625.030 8  19309831.861    19309831.719    19309838.368
        52.600          48.600
 129057075.378 7 100377751.435 6  24117415.481    24117415.805    24117433.232
        44.300          39.800
 116319809.009 8  90470981.237 7  21721902.835    21721903.090    21721908.604
        48.800          45.200
 111685728.630 7                  20951913.077    20951912.287
        44.600
 118730560.643 8  92346030.922 7  22226608.971    22226609.124    22226616.139
        48.700          44.300
 126831763.761 7  98829917.15545  24135304.089    24135303.5934   24135311.0524
        42.100          34.7004
 104253897.307 8  81086458.542 8  19523382.761    19523382.917    19523387.894
        52.500          49.700
 141118820.755 6                  26854017.056
        40.600
 25  1  1 17 16 15.0000000  0 29G09G26E19R18G08S31S35G07G03R06S48S33
                                R19E29E04E31G16G27E21G04E06R07R17R08
                                R10R16G31R09E09
 108245401.744 8  84347078.94148  20598412.940    20598412.3104   20598415.1384
        49.400          51.0004
 120823604.127 7  94148288.19046  22991965.360    22991964.7264   22991969.8824
        42.800          39.4004
 128126139.801 7                  24381603.355
        42.000
 124209747.458 7  96607802.188 7  23268605.445    23268606.019    23268616.924
        44.800          42.800
 118798697.538 7  92570521.34846  22606613.714    22606612.9814   22606625.2254
        43.300          38.5004
 198980135.337 7                  37864660.570
        45.500
 200916059.881 7                  38233066.374
        43.900
 122861315.545 7  95736134.64146  23379713.539    23379712.8964   23379714.7234
        45.600          39.1004
 126305719.645 6  98420000.58445  24035217.914    24035217.6424   24035233.3974
        40.200          33.1004
 112506482.923 6                  21083680.164    21083680.740
        38.000
 412819924.584 5                  78556769.303
        32.500
 202117024.637 7                  38461577.019
        45.500
 129128660.646 5 100433529.857 6  24139238.759    24139240.135    24139269.289
        32.600          37.300
 151032838.273 5                  28740649.908
        33.200
 123318198.515 8                  23466673.659
        48.700
 135071518.129 7                  25703213.328
        44.000
 108256221.020 8  84355567.20046  20600449.522    20600448.4944   20600449.5754
        48.300          38.0004
 113240595.339 7  88239583.13747  21548911.361    21548910.6424   21548916.6464
        45.800          45.2004
 133217998.249 7                  25350534.325
        44.700
 104970991.766 8  81795581.29947  19975316.429    19975315.9824   19975318.1454
        49.500          42.6004
 129917254.030 7                  24722430.053
        45.900
 103369366.124 8  80398418.312 8  19310262.350    19310262.431    19310269.240
        52.700          48.500
 129073065.722 7 100390187.629 6  24120405.166    24120405.755    24120422.405
        43.300          37.500
 116268770.082 7  90431284.243 7  21712371.829    21712371.612    21712377.032
        47.700          44.700
 111656170.004 7                  20946367.803    20946367.270
        45.200
 118777774.563 8  92382752.771 7  22235446.913    22235447.111    22235454.565
        48.900          44.100
 126873590.213 6  98862508.78945  24143264.448    24143263.9664   24143270.8894
        41.000          34.5004
 104262832.725 8  81093408.300 8  19525055.547    19525056.104    19525061.134
        52.200          49.600
 141079843.368 6                  26846599.772
        41.500
 25  1  1 17 16 30.0000000  0 29G09G26E19R18G08S31S35G07G03R06S48S33
                                R19E29E04E31G16G27E21G04E06R07R17R08
                                R10R16G31R09E09
 108221884.138 8  84328753.49948  20593937.614    20593936.9844   20593939.9074
        50.000          51.0004
 120872292.914 7  94186227.45946  23001230.916    23001230.2954   23001235.0484
        42.300          39.4004
 128157459.968 7                  24387563.191
        42.000
 124185942.846 7  96589287.488 7  23264146.576    23264146.466    23264156.302
        45.200          42.200
 118746744.546 7  92530038.63346  22596727.123    22596726.3904   22596738.9324
        42.600          38.6004
 198980130.456 7                  37864664.014
        45.400
 200916022.077 7                  38233054.010
        43.600
 122828149.827 7  95710291.22346  23373402.144    23373401.4874   23373403.3374
        44.800          39.2004
 126357384.856 6  98460258.78045  24045049.625    24045049.3534   24045065.9504
        40.400          33.3004
 112562806.262 6                  21094234.484    21094235.338
        37.200
 412818943.467 5                  78556816.184
        33.200
 202117041.015 7                  38461579.697
        45.200
 129078702.616 5 100394673.865 6  24129897.686    24129899.747    24129930.006
        30.500          36.700
 151075690.626 5                  28748804.402
        34.800
 123307092.077 8                  23464560.003
        48.600
 135035950.578 7                  25696445.142
        43.700
 108287125.754 8  84379648.79446  20606330.694    20606329.6664   20606330.5194
        48.100          38.0004
 113209136.106 7  88215069.46447  21542924.655    21542923.9274   21542930.1904
        46.100          45.2004
 133250448.732 7                  25356709.428
        44.800
 104974569.086 8  81798368.78647  19975997.200    19975996.7534   19975998.9184
        49.500          42.6004
 129888516.599 7                  24716961.710
        46.400
 103371874.853 8  80400369.513 8  19310730.454    19310730.918    19310737.764
        52.300          48.600
 129089225.221 7 100402755.010 6  24123425.183    24123425.527    24123442.369
        44.700          39.100
 116217840.785 8  90391672.523 7  21702860.580    21702860.981    21702866.517
        48.200          44.600
 111626699.968 7                  20940838.891    20940838.949
        45.000
 118824993.162 7  92419478.318 7  22244285.926    22244286.405    22244294.306
        47.500          44.000
 126915428.520 6  98895109.64945  24151225.766    24151225.2934   24151233.0874
        41.700          34.7004
 104271856.343 8  81100426.651 8  19526746.015    19526745.935    19526751.113
        52.300          49.700
 141040885.059 6                  26839186.386
        41.200
 25  1  1 17 16 45.0000000  0 29G09G26E19R18G08S31S35G07G03R06S48S33
                                R19E29E04E31G16G27E21G04E06R07R17R08
                                R10R16G31R09E09
 108198488.041 8  84310522.75148  20589485.515    20589484.8634   20589487.8124
        49.700          50.9004
 120921010.950 7  94224189.50146  23010501.538    23010500.9174   23010505.9294
        43.000          39.2004
 128188845.716 6                  24393535.538
        41.900
 124162292.451 7  96570892.721 7  23259715.832    23259716.152    23259726.520
        45.800          42.600
 118694843.767 7  92489596.61046  22586850.846    22586850.1184   22586862.4244
        43.300          38.5004
 198980126.159 7                  37864664.398
        45.400
 200915984.934 7                  38233055.320
        43.800
 122794992.294 7  95684454.17346  23367093.005    23367092.3574   23367093.6584
        44.400          39.0004
 126409052.854 6  98500519.16345  24054882.011    24054881.7434   24054898.3284
        39.300          32.7004
 112619239.647 6                  21104810.817    21104811.070
        37.400
 412819563.398 5                  78556842.830
        32.200
 202117056.194 7                  38461585.189
        45.200
 129028788.916 5 100355852.313 6  24120569.347    24120569.184    24120599.067
        30.400          36.600
 151118557.219 5                  28756961.360
        33.100
 123296065.786 8                  23462461.803
        48.200
 135000434.660 7                  25689686.924
        43.900
 108318140.205 8  84403815.87846  20612232.600    20612231.5764   20612232.3854
        48.300          37.7004
 113177806.391 7  88190656.71347  21536962.598    21536961.8704   21536968.3364
        45.800          45.0004
 133282937.805 7                  25362892.182
        44.700
 104978284.048 8  81801263.52347  19976704.146    19976703.7044   19976705.8814
        49.200          42.4004
 129859832.592 7                  24711503.096
        46.100
 103374589.340 8  80402480.731 8  19311237.829    19311238.032    19311244.998
        52.200          48.600
 129105556.238 7 100415455.190 6  24126477.728    24126478.322    24126496.017
        42.300          38.600
 116167023.923 8  90352148.214 7  21693371.253    21693371.308    21693376.924
        48.200          44.500
 111597321.259 7                  20935327.950    20935327.209
        45.100
 118872218.584 8  92456209.153 7  22253126.957    22253127.093    22253134.905
        48.100          44.200
 126957281.204 6  98927721.70745  24159190.594    24159190.1254   24159197.9734
        41.600          34.6004
 104280970.538 8  81107515.444 8  19528452.695    19528452.834    19528458.021
        52.500          49.800
 141001948.731 6                  26831777.349
        40.900
 25  1  1 17 17  0.0000000  0 29G09G26E19R18G08S31S35G07G03R06S48S33
                                R19E29E04E31G16G27E21G04E06R07R17R08
                                R10R16G31R09E09
 108175208.748 8  84292383.01548  20585055.563    20585054.9114   20585057.9364
        49.800          50.9004
 120969753.046 7  94262170.25846  23019777.008    23019776.3964   23019781.4654
        43.000          39.3004
 128220292.021 6                  24399519.833
        41.600
 124138791.672 7  96552614.333 7  23255313.333    23255314.180    23255323.447
        45.500          42.300
 118642990.654 7  92449191.70546  22576982.955    22576982.2224   22576994.9174
        43.000          38.6004
 198980117.415 7                  37864659.864
        45.600
 200915943.489 7                  38233047.817
        44.200
 122761838.009 7  95658619.65246  23360783.990    23360783.3384   23360784.7134
        45.000          39.1004
 126460718.217 6  98540777.48445  24064714.026    24064713.7724   24064730.0134
        41.300          32.8004
 112675777.674 6                  21115407.321    21115406.651
        36.900
 412820179.558 5                  78556886.026
        33.000
 202117067.437 7                  38461585.645
        45.300
 128978915.239 5 100317061.917 6  24111246.786    24111244.755    24111275.604
        30.200          36.400
 151161433.079 5                  28765120.315
        32.000
 123285114.858 8                  23460378.159
        48.100
 134964965.559 7                  25682937.106
        43.400
 108349259.230 8  84428064.47146  20618154.082    20618153.0504   20618154.1824
        48.300          37.7004
 113146601.582 7  88166341.28347  21531024.812    21531024.0754   21531030.1694
        46.200          45.0004
 133315460.385 7                  25369080.697
        44.400
 104982131.754 8  81804261.69647  19977436.431    19977435.9894   19977438.1104
        49.300          42.4004
 129831197.281 7                  24706054.193
        45.800
 103377504.216 8  80404747.829 8  19311782.648    19311782.783    19311789.597
        52.300          48.700
 129122055.111 7 100428286.173 6  24129562.730    24129563.844    24129581.415
        42.900          36.500
 116116314.991 8  90312707.823 7  21683901.354    21683902.043    21683907.548
        48.300          44.400
 111568028.700 7                  20929832.319    20929832.296
        45.700
 118919445.505 8  92492941.170 7  22261968.173    22261968.403    22261975.808
        48.300          44.100
 126999143.178 7  98960340.98045  24167157.079    24167156.6284   24167164.4274
        42.400          34.4004
 104290169.808 8  81114670.414 8  19530175.312    19530175.536    19530180.758
        52.400          49.900
 140963029.655 6                  26824370.708
        40.500
 25  1  1 17 17 15.0000000  0 29G09G26E19R18G08S31S35G07G03R06S48S33
                                R19E29E04E31G16G27E21G04E06R07R17R08
                                R10R16G31R09E09
 108152056.403 8  84274342.17148  20580649.899    20580649.2474   20580652.2394
        49.500          50.8004
 121018528.908 7  94300177.33446  23029058.698    23029058.0814   23029063.1944
        43.600          39.2004
 128251808.752 6                  24405517.264
        41.600
 124115450.978 7  96534460.388 7  23250940.598    23250941.009    23250951.243
        45.700          42.600
 118591195.524 7  92408831.99046  22567126.763    22567126.0264   22567138.4864
        43.200          38.5004
 198980114.229 7                  37864660.244
        45.400
 200915907.533 7                  38233040.761
        43.900
 122728696.920 7  95632795.41546  23354477.363    23354476.7064   23354478.2454
        44.400          39.1004
 126512390.595 6  98581041.26045  24074547.111    24074546.8574   24074563.1914
        39.400          32.5004
 112732429.647 6                  21126023.565    21126023.781
        37.500
 412820801.065 5                  78556920.770
        33.000
 202117084.659 7                  38461587.147
        45.300
 128929092.440 5 100278311.008 6  24101931.481    24101932.069    24101961.648
        31.000          37.000
 151204328.064 5                  28773282.994
        31.400
 123274249.285 8                  23458310.252
        48.100
 134929553.228 7                  25676198.283
        43.200
 108380492.345 8  84452401.96046  20624097.675    20624096.6474   20624097.6614
        48.200          37.6004
 113115531.937 7  88142131.17747  21525112.375    21525111.6424   21525117.7994
        46.100          44.9004
 133348026.199 7                  25375277.847
        44.600
 104986122.212 8  81807371.10347  19978195.737    19978195.2954   19978197.5344
        49.500          42.3004
 129802620.739 7                  24700616.360
        45.800
 103380630.246 8  80407179.138 8  19312366.805    19312366.696    19312373.497
        52.500          48.700
 129138734.134 7 100441258.773 5  24132679.024    24132679.841    24132698.359
        42.500          31.600
 116065724.840 8  90273359.901 7  21674453.850    21674454.296    21674460.213
        48.300          44.900
 111538832.534 7                  20924355.546    20924355.162
        45.400
 118966684.128 8  92529682.206 7  22270811.556    22270811.394    22270819.264
        48.200          44.000
 127041024.394 6  98992975.22145  24175127.195    24175126.7394   24175134.6744
        41.600          34.4004
 104299464.397 8  81121899.528 8  19531915.757    19531916.271    19531921.449
        52.300          49.700
 140924138.057 6                  26816970.279
        40.800
 25  1  1 17 17 30.0000000  0 29G09G26E19R18G08S31S35G07G03R06S48S33
                                R19E29E04E31G16G27E21G04E06R07R17R08
                                R10R16G31R09E09
 108129026.047 8  84256396.41648  20576267.576    20576266.9284   20576269.7454
        49.800          51.0004
 121067332.951 7  94338206.35246  23038345.755    23038345.1164   23038350.2754
        44.000          39.5004
 128283390.538 6                  24411527.478
        41.600
 124092265.345 7  96516427.074 7  23246598.198    23246598.017    23246607.567
        45.900          42.800
 118539453.499 7  92368513.63246  22557280.720    22557279.9744   22557292.2104
        42.800          38.7004
 198980111.381 7                  37864660.396
        45.600
 200915871.615 7                  38233036.155
        44.100
 122695563.753 7  95606977.35546  23348172.460    23348171.8214   23348173.2394
        44.900          39.3004
 126564064.267 6  98621306.06645  24084380.509    24084380.2594   24084396.9964
        39.400          32.6004
 112789189.911 6                  21136660.573    21136661.002
        37.700
 412819823.073 5                  78556951.329
        33.300
 202117101.942 7                  38461594.230
        45.600
 128879315.384 5 100239595.775 6  24092624.122    24092626.108    24092656.134
        32.200          36.500
 151247236.738 5                  28781448.008
        33.000
 123263463.948 8                  23456258.106
        48.300
 134894192.429 7                  25669469.451
        44.100
 108411833.829 8  84476823.87846  20630061.725    20630060.7064   20630061.7774
        48.500          37.7004
 113084592.530 7  88118022.55047  21519224.788    21519224.0554   21519230.2014
        46.500          45.1004
 133380629.872 7                  25381482.254
        44.400
 104990250.164 8  81810587.64347  19978981.151    19978980.7044   19978983.1054
        49.900          42.4004
 129774097.799 7                  24695188.664
        45.900
 103383961.783 8  80409770.298 8  19312989.416    19312989.150    19312995.951
        52.700          48.800
 129155583.955 7 100454363.691 6  24135828.817    24135829.611    24135847.236
        44.500          39.300
 116015248.412 8  90234100.402 7  21665028.504    21665028.706    21665034.368
        49.000          44.600
 111509727.203 7                  20918896.035    20918895.070
        45.400
 119013928.653 8  92566427.924 7  22279655.218    22279655.692    22279663.798
        48.200          44.200
 127082919.488 7  99025620.26945  24183100.126    24183099.6484   24183107.3144
        42.100          34.2004
 104308848.219 8  81129198.039 8  19533673.094    19533673.494    19533678.685
        52.200          49.700
 140885268.710 6                  26809573.725
        41.600
 25  1  1 17 17 45.0000000  0 29G09G26E19R18G08S31S35G07G03R06S48S33
                                R19E29E04E31G16G27E21G04E06R07R17R08
                                R10R16G31R09E09
 108106113.389 8  84238542.34848  20571907.554    20571906.9114   20571909.6584
        49.700          51.3004
 121116160.427 7  94376253.59646  23047637.347    23047636.6954   23047642.1014
        43.300          39.6004
 128315032.766 6                  24417548.961
        41.700
 124069230.482 7  96498511.012 7  23242282.147    23242282.450    23242292.786
        45.800          42.900
 118487760.503 7  92328233.47346  22547444.249    22547443.5164   22547455.1994
        42.600          39.0004
 198980104.448 7                  37864655.723
        45.400
 200915831.809 7                  38233022.539
        44.100
 122662434.089 7  95581162.02146  23341867.840    23341867.1924   23341869.0884
        44.700          39.6004
 126615734.314 6  98661568.01645  24094213.361    24094213.0844   24094230.0894
        39.500          32.9004
 112846053.417 6                  21147316.071    21147316.400
        37.400
 412820440.713 5                  78556984.907
        33.100
 202117115.197 7                  38461595.813
        45.400
 128829580.012 5 100200912.926 6  24083326.041    24083327.910    24083358.410
        32.300          37.000
 151290154.424 5                  28789615.445
        32.600
 123252754.504 8                  23454220.028
        48.300
 134858878.815 7                  25662749.242
        44.100
 108443278.963 8  84501326.53846  20636045.502    20636044.4834   20636045.5734
        48.200          37.9004
 113053779.187 7  88094012.15647  21513361.192    21513360.4684   21513366.5674
        46.300          45.3004
 133413266.673 7                  25387692.817
        44.800
 104994511.241 8  81813907.91347  19979792.071    19979791.6204   19979794.0204
        49.500          42.7004
 129745624.243 7                  24689770.239
        46.100
 103387494.136 8  80412517.627 8  19313648.480    19313648.947    19313655.775
        52.500          48.800
 129172601.941 7 100467599.828 6  24139008.406    24139009.172    24139028.080
        44.200          41.000
 115964881.680 7  90194926.277 7  21655622.257    21655622.492    21655628.417
        47.700          44.700
 111480708.201 7                  20913451.136    20913451.169
        45.400
 119061174.149 7  92603174.327 7  22288500.067    22288500.033    22288507.966
        47.100          43.900
 127124823.911 6  99058272.57645  24191074.570    24191074.0924   24191081.9114
        41.300          34.5004
 104318317.063 8  81136562.649 8  19535446.388    19535446.608    19535451.790
        52.400          49.700
 140846417.168 6                  26802180.331
        41.400
 25  1  1 17 18  0.0000000  0 29G09G26E19R18G08S31S35G07G03R06S48S33
                                R19E29E04E31G16G27E21G04E06R07R17R08
                                R10R16G31R09E09
 108083326.970 8  84220786.66848  20567571.458    20567570.8154   20567573.5754
        49.800          51.5004
 121165019.414 7  94414325.40846  23056934.919    23056934.2714   23056939.8394
        43.700          39.8004
 128346743.630 6                  24423583.237
        41.600
 124046355.327 7  96480719.210 7  23237996.975    23237997.115    23238007.680
        44.800          42.600
 118436125.184 7  92287998.25846  22537617.922    22537617.1894   22537629.2024
        42.800          39.2004
 198980101.155 7                  37864662.811
        45.100
 200915795.438 7                  38233019.342
        43.900
 122629316.009 7  95555355.71146  23335565.595    23335564.9474   23335566.9534
        45.700          39.8004
 126667408.661 6  98701833.30045  24104046.978    24104046.6924   24104063.9254
        39.600          33.1004
 112903027.959 6                  21157994.374    21157994.528
        38.000
 412821062.921 5                  78557027.562
        32.500
 202117131.867 7                  38461596.028
        45.100
 128779895.391 5 100162269.545 6  24074040.745    24074039.961    24074069.352
        32.000          36.300
 151333089.255 5                  28797784.771
        31.600
 123242129.374 8                  23452198.393
        48.400
 134823620.670 7                  25656040.232
        44.000
 108474835.870 8  84525916.29046  20642050.600    20642049.5814   20642050.7434
        48.300          38.0004
 113023100.488 7  88070106.67447  21507523.249    21507522.5254   21507528.6054
        46.400          45.6004
 133445944.604 7                  25393911.285
        44.600
 104998913.713 8  81817338.36747  19980629.938    19980629.4824   19980631.8284
        49.600          42.8004
 129717208.457 7                  24684362.931
        46.100
 103391235.833 8  80415427.773 8  19314347.968    19314348.050    19314354.877
        52.900          48.700
 129189797.059 6 100480974.798 6  24142221.698    24142221.335    24142239.349
        40.600          36.100
 115914633.747 7  90155844.574 7  21646239.106    21646239.248    21646245.227
        47.400          45.000
 111451783.822 7                  20908026.037    20908025.333
        45.900
 119108428.820 8  92639927.879 7  22297346.679    22297346.620    22297354.449
        48.400          44.000
 127166745.917 7  99090938.56345  24199052.521    24199052.0654   24199059.7564
        42.100          34.6004
 104327878.889 8  81143999.612 8  19537237.125    19537237.176    19537242.546
        52.400          49.800
 140807591.951 6                  26794792.039
        41.300
 25  1  1 17 18 15.0000000  0 29G09G26E19R18G08S31S35G07G03R06S48S33
                                R19E29E04E31G16G27E21G04E06R07R17R08
                                R10R16G31R09E09
 108060662.771 8  84203126.23548  20563258.567    20563257.9244   20563260.7314
        49.900          51.4004
 121213905.353 7  94452418.22146  23066237.849    23066237.2014   23066242.6074
        43.300          39.8004
 128378518.815 6                  24429629.763
        41.600
 124023635.928 7  96463048.504 7  23233740.383    23233741.128    23233750.565
        45.800          42.500
 118384543.691 7  92247804.97546  22527802.223    22527801.5044   22527813.6734
        42.900          39.3004
 198980097.710 7                  37864649.293
        44.600
 200915759.487 7                  38233010.541
        43.300
 122596205.388 7  95529555.19746  23329264.873    23329264.2124   23329266.2444
        44.900          39.9004
 126719082.675 6  98742098.34045  24113880.833    24113880.5614   24113897.2294
        39.400          32.6004
 112960108.950 6                  21168692.083    21168691.069
        37.200
 412821684.937 5                  78557060.245
        33.000
 202117148.362 7                  38461599.712
        45.000
 128730257.519 5 100123662.545 6  24064760.176    24064760.709    24064790.798
        31.300          36.700
 151376036.981 5                  28805957.411
        32.500
 123231584.339 8                  23450191.648
        48.300
 134788413.806 7                  25649340.426
        43.700
 108506499.717 8  84550589.39746  20648075.948    20648074.9204   20648076.1884
        48.200          37.9004
 112992552.536 7  88046303.07047  21501710.119    21501709.3824   21501715.5454
        46.400          45.6004
 133478659.229 7                  25400136.592
        44.700
 105003453.395 8  81820875.73847  19981493.782    19981493.3174   19981495.7504
        49.700          42.7004
 129688846.351 7                  24678966.030
        46.300
 103395182.556 8  80418497.399 8  19315085.161    19315085.362    19315092.266
        52.600          48.800
 129207160.641 7 100494479.620 5  24145467.114    24145466.884    24145484.772
        42.600          34.100
 115864500.580 8  90116852.099 7  21636877.029    21636877.347    21636883.545
        48.300          44.900
 111422949.720 7                  20902616.215    20902615.967
        45.300
 119155688.156 8  92676684.987 7  22306193.698    22306193.882    22306201.863
        48.100          44.300
 127208681.245 6  99123614.90145  24207032.409    24207031.9534   24207040.3014
        41.100          34.5004
 104337529.101 8  81151505.314 8  19539044.358    19539044.404    19539049.671
        52.400          49.800
 140768789.037 6                  26787408.215
        41.800
 25  1  1 17 18 30.0000000  0 29G09G26E19R18G08S31S35G07G03R06S48S33
                                R19E29E04E31G16G27E21G04E06R07R17R08
                                R10R16G31R09E09
 108038116.487 8  84185557.68748  20558968.180    20558967.5324   20558970.3124
        49.900          51.4004
 121262813.403 7  94490528.25246  23075544.807    23075544.1374   23075549.6724
        43.400          39.6004
 128410353.651 6                  24435688.165
        41.500
 124001067.855 7  96445495.497 7  23229513.364    23229513.924    23229523.536
        46.600          42.600
 118333011.823 7  92207650.35746  22517995.977    22517995.2624   22518007.4234
        43.300          39.2004
 198980089.740 7                  37864656.913
        45.400
 200915718.651 7                  38233001.080
        43.700
 122563097.704 7  95503756.96546  23322964.621    23322963.9644   23322965.9344
        44.600          39.7004
 126770751.364 6  98782359.23145  24123713.341    24123713.0694   24123729.3834
        39.000          32.2004
 113017291.136 6                  21179408.744    21179408.051
        37.900
 412820702.030 5                  78557096.492
        33.300
 202117160.301 7                  38461605.052
        45.200
 128680662.575 5 100085088.935 6  24055489.180    24055489.569    24055519.609
        32.200          36.600
 151418992.873 5                  28814132.106
        32.600
 123221115.023 8                  23448199.394
        48.400
 134753253.740 7                  25642649.695
        43.600
 108538265.598 8  84575341.99846  20654121.118    20654120.0944   20654121.0434
        48.200          37.8004
 112962131.080 7  88022598.03247  21495921.278    21495920.5364   21495926.5334
        46.200          45.5004
 133511405.792 7                  25406367.925
        44.600
 105008125.759 8  81824516.49047  19982382.938    19982382.4734   19982384.9104
        49.200          42.6004
 129660533.548 7                  24673578.082
        46.100
 103399329.981 8  80421723.121 8  19315859.821    19315860.058    19315866.921
        52.300          48.700
 129224689.810 7 100508113.202 6  24148741.595    24148742.258    24148761.085
        44.700          38.200
 115814477.818 8  90077945.489 7  21627535.459    21627535.515    21627542.259
        48.200          44.900
 111394201.322 7                  20897223.114    20897222.689
        45.400
 119202947.522 8  92713442.077 7  22315040.698    22315041.081    22315048.418
        48.100          44.000
 127250625.316 6  99156298.05345  24215014.727    24215014.2764   24215022.6074
        40.100          34.1004
 104347262.668 8  81159075.840 8  19540866.962    19540867.534    19540872.341
        52.400          49.900
 140730003.892 6                  26780028.153
        41.200
 25  1  1 17 18 45.0000000  0 29G09G26E19R18G08S31S35G07G03R06S48S33
                                R19E29E04E31G16G27E21G04E06R07R17R08
                                R10R16G31R09E09
 108015694.819 8  84168086.22348  20554701.434    20554700.7954   20554703.6284
        49.800          51.3004
 121311749.879 7  94528660.44246  23084857.253    23084856.5784   23084862.1084
        43.000          39.6004
 128442254.553 6                  24441758.523
        41.200
 123978658.157 7  96428065.667 7  23225315.263    23225315.589    23225325.800
        45.600          42.800
 118281536.554 7  92167539.82546  22508200.467    22508199.7524   22508211.7884
        43.200          39.1004
 198980083.159 7                  37864656.524
        45.900
 200915678.930 7                  38232997.221
        44.000
 122529999.558 7  95477966.19446  23316666.508    23316665.8474   23316667.5154
        44.700          39.8004
 126822420.840 6  98822620.68545  24133546.490    24133546.2274   24133562.3874
        39.200          32.5004
 113074580.732 6                  21190143.957    21190143.831
        37.900
 412821320.577 5                  78557130.847
        33.400
 202117173.286 7                  38461600.061
        44.900
 128631117.997 5 100046554.521 6  24046228.643    24046226.406    24046256.227
        31.500          36.200
 151461963.223 5                  28822308.442
        32.900
 123210728.064 8                  23446222.843
        48.400
 134718147.068 7                  25635968.973
        43.500
 108570139.638 8  84600178.87046  20660186.461    20660185.4424   20660186.5094
        48.100          37.7004
 112931842.954 7  87998996.87747  21490157.680    21490156.9344   21490162.8624
        46.300          45.4004
 133544190.625 7                  25412606.899
        44.500
 105012937.419 8  81828265.78347  19983298.733    19983298.2734   19983300.5324
        49.500          42.5004
 129632276.789 7                  24668201.347
        46.100
 103403684.456 8  80425109.890 8  19316673.365    19316673.491    19316680.618
        52.800          48.700
 129242393.153 7 100521882.981 6  24152050.939    24152050.990    24152068.597
        44.500          40.600
 115764572.799 8  90039130.504 7  21618216.158    21618216.497    21618222.262
        48.000          44.400
 111365544.863 7                  20891847.844    20891847.280
        45.800
 119250213.124 8  92750203.995 7  22323889.248    22323889.067    22323897.227
        48.300          44.100
 127292584.520 6  99188992.96545  24222999.614    24222999.1724   24223007.7054
        40.900          34.1004
 104357086.274 8  81166716.416 8  19542706.495    19542707.066    19542712.145
        52.000          49.800
 140691243.280 6                  26772652.054
        41.900
 25  1  1 17 19  0.0000000  0 29G09G26E19R18G08S31S35G07G03R06S48S33
                                R19E29E04E31G16G27E21G04E06R07R17R08
                                R10R16G31R09E09
 107993394.926 8  84150709.64348  20550457.867    20550457.2334   20550460.1344
        49.700          51.2004
 121360711.396 7  94566812.17446  23094174.057    23094173.3824   23094179.3064
        43.000          39.6004
 128474218.408 6                  24447841.325
        40.900
 123956404.002 7  96410756.787 7  23221146.990    23221146.870    23221157.041
        45.700          43.500
 118230115.127 7  92127471.24646  22498414.890    22498414.1574   22498426.4834
        43.400          39.0004
 198980074.764 7                  37864653.394
        45.700
 200915638.165 7                  38232991.895
        44.000
 122496907.766 7  95452180.34946  23310369.355    23310368.6984   23310370.4284
        45.000          39.8004
 126874087.727 6  98862880.15445  24143378.095    24143377.8634   24143394.9674
        39.000          32.5004
 113131974.163 6                  21200900.082    21200900.091
        38.500
 412821937.999 5                  78557166.388
        32.700
 202117185.486 7                  38461603.223
        45.000
 128581620.620 5 100008056.779 6  24036974.664    24036974.932    24037003.738
        32.100          36.000
 151504944.874 5                  28830487.921
        31.600
 123200420.483 8                  23444261.424
        48.100
 134683090.735 7                  25629298.266
        43.500
 108602118.470 8  84625097.40346  20666271.866    20666270.8474   20666271.9044
        48.100          37.6004
 112901685.396 7  87975497.45747  21484418.848    21484418.0934   21484424.1294
        46.400          45.4004
 133577010.476 7                  25418852.543
        44.300
 105017885.306 8  81832121.22947  19984240.076    19984239.6074   19984242.1534
        49.300          42.4004
 129604073.098 7                  24662834.308
        46.000
 103408242.675 8  80428655.101 8  19317525.173    19317525.187    19317532.207
        52.800          48.900
 129260264.797 7 100535783.247 6  24155390.056    24155389.821    24155407.508
        43.100          38.600
 115714782.887 7  90000404.952 7  21608918.495    21608918.460    21608923.876
        47.600          44.100
 111336977.715 7                  20886488.225    20886487.584
        45.500
 119297482.046 7  92786968.515 7  22332738.193    22332737.961    22332746.649
        47.800          44.100
 127334555.756 6  99221697.22645  24230987.074    24230986.6454   24230995.1584
        41.200          34.2004
 104366996.341 8  81174424.220 8  19544562.911    19544563.017    19544568.128
        52.200          49.900
 140652504.320 6                  26765280.066
        41.200
 25  1  1 17 19 15.0000000  0 29G09G26E19R18G08S31S35G07G03R06S48S33
                                R19E29E04E31G16G27E21G04E06R07R17R08
                                R10R16G31R09E09
 107971225.101 8  84133434.40748  20546239.109    20546238.4754   20546241.3914
        49.900          51.3004
 121409705.731 7  94604989.46646  23103498.204    23103497.5344   23103502.6974
        43.000          39.7004
 128506253.059 6                  24453937.352
        41.300
 123934313.906 7  96393575.484 7  23217008.955    23217009.582    23217018.644
        46.400          43.400
 118178756.042 7  92087451.23746  22488641.889    22488641.1564   22488653.1174
        43.100          39.2004
 198980073.571 7                  37864653.219
        45.900
 200915603.911 7                  38232980.962
        43.700
 122463830.450 7  95426405.81046  23304075.120    23304074.4634   23304076.0474
        44.600          39.7004
 126925759.646 6  98903143.54645  24153211.345    24153211.1094   24153227.9264
        39.300          32.1004
 113189478.838 6                  21211677.675    21211676.580
        38.000
 412820961.854 5                  78557195.337
        33.300
 202117204.427 7                  38461608.097
        45.000
 128532179.241 5  99969602.644 5  24027731.487    24027730.975    24027759.543
        32.100          35.400
 151547945.820 5                  28838670.895
        33.400
 123190200.430 8                  23442316.549
        48.300
 134648092.865 7                  25622638.103
        43.500
 108634209.836 8  84650103.62346  20672378.635    20672377.6164   20672378.7634
        48.100          37.6004
 112871666.769 7  87952106.29147  21478706.478    21478705.7274   21478711.8734
        46.000          45.5004
 133609873.113 7                  25425106.120
        44.600
 105022977.505 8  81836089.12247  19985209.197    19985208.7284   19985211.2394
        49.500          42.5004
 129575930.779 7                  24657478.902
        46.100
 103413013.109 8  80432365.362 8  19318416.253    19318416.480    19318423.307
        52.600          48.800
 129278311.424 7 100549818.660 6  24158764.090    24158763.688    24158782.640
        43.600          39.400
 115665116.760 7  89961775.706 7  21599643.912    21599643.841    21599649.699
        47.800          44.700
 111308507.708 7                  20881146.820    20881146.732
        45.300
 119344762.112 7  92823741.812 7  22341589.299    22341589.010    22341597.689
        47.800          44.300
 127376547.013 6  99254417.07245  24238978.538    24238978.1054   24238986.5114
        41.200          33.7004
 104377000.773 8  81182205.418 8  19546436.193    19546436.479    19546441.675
        52.600          50.000
 140613795.089 6                  26757914.112
        41.200
 25  1  1 17 19 30.0000000  0 28G09G26E19R18G08S31S35G07G03R06S48S33
                                R19E29E04E31G16G27E21G04E06R07R08R10
                                R16G31R09E09
 107949174.720 8  84116252.25348  20542043.205    20542042.5714   20542045.3734
        49.800          51.3004
 121458721.676 7  94643183.57746  23112825.325    23112824.6504   23112830.4084
        42.900          39.8004
 128538347.580 6                  24460045.163
        41.000
 123912377.222 7  96376513.507 7  23212898.963    23212899.418    23212909.442
        45.500          43.400
 118127448.755 7  92047471.58346  22478878.143    22478877.3974   22478889.8214
        42.700          39.3004
 198980068.283 7                  37864655.272
        46.000
 200915565.333 7                  38232976.311
        44.200
 122430756.723 7  95400634.07146  23297781.450    23297780.7844   23297782.4044
        44.900          39.8004
 126977425.169 6  98943401.91545  24163043.474    24163043.2334   24163060.2374
        40.000          32.6004
 113247083.343 6                  21222471.631    21222471.229
        37.700
 412821581.695 5                  78557233.484
        33.500
 202117218.095 7                  38461612.801
        45.300
 128482783.740 5  99931184.167 6  24018498.478    24018498.720    24018525.884
        32.600          36.000
 151590954.869 5                  28846855.256
        31.700
 123180057.159 8                  23440386.480
        48.200
 134613142.622 7                  25615987.588
        43.200
 108666402.622 8  84675188.88346  20678504.908    20678503.8894   20678504.8684
        48.000          37.6004
 112841776.517 7  87928815.15447  21473018.657    21473017.9114   21473023.9824
        46.300          45.5004
 133642767.489 7                  25431365.620
        44.300
 105028203.183 8  81840161.02147  19986203.869    19986203.4044   19986205.7104
        49.300          42.4004
 129547839.053 7                  24652133.399
        46.500
 103417984.516 8  80436231.945 8  19319344.835    19319345.106    19319352.144
        52.800          48.800
 115615563.799 8  89923234.434 7  21590390.434    21590390.453    21590396.571
        48.200          45.000
 111280123.763 7                  20875822.588    20875822.461
        45.900
 119392041.636 8  92860514.555 7  22350440.056    22350440.484    22350448.054
        48.700          43.700
 127418547.367 6  99287143.98345  24246970.760    24246970.3274   24246979.5054
        40.600          33.7004
 104387088.424 8  81190051.329 8  19548325.461    19548325.642    19548330.828
        52.900          50.000
 140575104.997 6                  26750551.773
        41.200
 25  1  1 17 19 45.0000000  0 29G09G26E19R18G08S31S35G07G03R06S48S33
                                R19E29E04E31G16G27E21G04E06R07R17R08
                                R10R16G31R09E09
 107927247.870 8  84099166.35948  20537870.731    20537870.0924   20537872.8754
        50.200          51.3004
 121507763.025 7  94681397.53246  23122157.910    23122157.2314   23122162.7744
        42.900          39.7004
 128570505.687 6                  24466164.636
        41.200
 123890598.189 7  96359574.149 7  23208818.447    23208818.696    23208829.596
        44.300          43.400
 118076197.572 7  92007535.64746  22469125.345    22469124.5904   22469137.0964
        42.900          39.2004
 198980061.375 7                  37864650.335
        46.000
 200915526.574 7                  38232963.733
        43.500
 122397690.439 7  95374868.11346  23291488.826    23291488.1604   23291490.2144
        45.300          39.9004
 127029088.047 6  98983658.23145  24172874.339    24172874.0944   24172892.3294
        39.700          32.6004
 113304791.231 6                  21233286.334    21233286.081
        37.400
 412822201.472 5                  78557270.912
        33.300
 202117232.574 7                  38461618.296
        45.600
 128433438.292 5  99892804.607 5  24009272.108    24009272.430    24009300.864
        32.200          35.500
 151633976.055 5                  28855041.892
        31.900
 123169994.675 8                  23438471.611
        48.400
 134578243.958 7                  25609346.579
        44.000
 108698700.148 8  84700355.74746  20684650.781    20684649.7624   20684650.9304
        48.300          37.5004
 112812018.813 7  87905627.30147  21467355.935    21467355.1894   21467361.3124
        46.700          45.5004
 133675697.299 7                  25437632.138
        44.400
 105033566.275 8  81844339.99847  19987224.407    19987223.9424   19987226.3274
        49.500          42.4004
 129519801.846 7                  24646797.946
        46.600
 103423161.130 8  80440258.144 8  19320312.072    19320312.162    19320319.298
        52.800          48.800
 129314907.097 7 100578429.826 6  24165603.692    24165603.906    24165621.808
        43.100          37.800
 115566128.174 8  89884784.409 7  21581158.572    21581158.838    21581164.745
        48.500          45.000
 111251829.779 7                  20870514.537    20870513.822
        45.200
 119439324.934 8  92897290.387 7  22359291.866    22359292.164    22359299.743
        48.800          43.800
 127460560.631 6  99319880.93045  24254966.550    24254966.1124   24254974.9774
        41.300          33.7004
 104397263.038 8  81197964.895 8  19550230.124    19550230.763    19550236.204
        52.200          50.100
 140536438.035 6                  26743193.518
        41.800
 25  1  1 17 20  0.0000000  0 28G09G26E19R18G08S31S35G07G03R06S48S33
                                R19E04E31G16G27E21G04E06R07R17R08R10
                                R16G31R09E09
 107905447.696 8  84082179.15548  20533722.311    20533721.6774   20533724.4794
        49.900          51.2004
 121556832.254 7  94719633.18546  23131495.460    23131494.7814   23131500.3624
        43.000          39.6004
 128602730.344 6                  24472296.627
        41.200
 123868980.235 7  96342760.063 7  23204770.155    23204770.111    23204779.263
        45.700          42.900
 118025005.806 7  91967646.00646  22459384.157    22459383.3844   22459395.3174
        43.300          39.2004
 198980057.991 7                  37864649.396
        45.300
 200915489.974 7                  38232956.207
        43.300
 122364634.547 7  95349110.26446  23285198.997    23285198.3274   23285199.8124
        44.900          39.9004
 127080750.777 6  99023914.51445  24182705.875    24182705.6304   24182723.5354
        39.200          31.8004
 113362605.014 6                  21244121.210    21244120.773
        37.300
 412822823.902 5                  78557315.221
        32.700
 202117248.698 7                  38461617.022
        44.900
 128384146.546 5  99854466.813 5  24000060.635    24000058.509    24000086.666
        32.900          35.900
 123160016.053 8                  23436572.767
        48.600
 134543399.855 7                  25602715.976
        44.100
 108731105.032 8  84725606.24946  20690817.348    20690816.3334   20690817.4184
        48.300          37.5004
 112782396.945 7  87882545.28947  21461718.910    21461718.1594   21461724.5104
        46.700          45.6004
 133708665.235 7                  25443905.694
        45.100
 105039069.713 8  81848628.33947  19988271.662    19988271.1974   19988273.6524
        49.100          42.3004
 129491822.542 7                  24641473.772
        46.800
 103428545.760 8  80444446.129 8  19321317.874    19321318.094    19321325.261
        52.700          48.700
 129333465.418 7 100592865.346 6  24169069.358    24169070.286    24169088.795
        42.600          39.600
 115516813.696 8  89846428.630 7  21571949.128    21571949.142    21571955.304
        48.100          44.600
 111223628.520 7                  20865224.963    20865223.919
        45.700
 119486614.521 8  92934071.105 7  22368144.451    22368144.536    22368152.643
        48.100          44.000
 127502589.698 6  99352630.18845  24262964.299    24262963.8434   24262973.5734
        41.900          33.6004
 104407527.221 8  81205948.115 8  19552152.781    19552153.033    19552158.278
        52.000          50.100
 140497797.355 7                  26735840.690
        42.100
 25  1  1 17 20 15.0000000  0 28G09G26E19R18G08S31S35G07G03R06S48S33
                                R19E04E31G16G27E21G04E06R07R17R08R10
                                R16G31R09E09
 107883766.750 8  84065284.87548  20529596.328    20529595.6944   20529598.7864
        50.000          51.2004
 121605921.415 7  94757884.38446  23140836.746    23140836.0714   23140841.9484
        43.900          39.7004
 128635013.516 6                  24478440.210
        41.800
 123847515.785 7  96326065.348 7  23200748.471    23200749.032    23200759.104
        45.900          43.200
 117973866.113 7  91927796.93446  22449652.520    22449651.7424   22449663.6894
        43.100          39.2004
 198980049.223 7                  37864648.130
        45.300
 200915447.947 7                  38232951.400
        43.600
 122331581.282 7  95323354.47246  23278908.886    23278908.2254   23278909.9254
        45.000          39.8004
 127132405.127 6  99064164.25845  24192535.954    24192535.7134   24192553.0384
        40.000          32.1004
 113420515.937 6                  21254973.554    21254973.598
        37.400
 412821841.322 5                  78557348.334
        32.900
 202117259.991 7                  38461625.554
        45.200
 128334901.218 5  99816165.145 5  23990851.224    23990852.117    23990880.717
        33.100          35.700
 123150113.629 8                  23434688.530
        48.800
 134508602.608 7                  25596094.168
        44.400
 108763609.403 8  84750934.28846  20697002.837    20697001.8184   20697002.8494
        48.300          37.5004
 112752903.457 7  87859563.31847  21456106.730    21456105.9794   21456112.1004
        46.500          45.6004
 133741663.492 7                  25450185.043
        45.000
 105044705.819 8  81853020.05147  19989344.339    19989343.8834   19989346.2164
        49.200          42.3004
 129463893.481 7                  24636159.044
        47.000
 103434130.367 8  80448789.643 8  19322361.115    19322361.440    19322368.562
        52.700          48.600
 129352187.281 7 100607427.635 6  24172569.051    24172569.241    24172586.212
        46.400          39.400
 115467613.197 8  89808161.607 7  21562761.182    21562761.818    21562767.381
        48.000          44.700
 111195512.241 7                  20859950.039    20859949.256
        45.600
 119533901.557 8  92970849.560 7  22376997.000    22376997.088    22377005.575
        48.000          44.000
 127544626.830 6  99385385.71045  24270964.774    24270964.3234   24270973.6104
        40.300          33.3004
 104417873.056 8  81213994.842 8  19554089.881    19554090.350    19554095.537
        52.000          50.100
 140459175.321 7                  26728490.897
        42.500
 25  1  1 17 20 30.0000000  0 28G09G26E19R18G08S31S35G07G03R06S48S33
                                R19E04E31G16G27E21G04E06R07R17R08R10
                                R16G31R09E09
 107862215.395 8  84048491.57448  20525495.166    20525494.5404   20525497.7364
        49.900          51.1004
 121655040.465 7  94796158.87646  23150183.996    23150183.3084   23150189.1424
        43.100          39.4004
 128667365.474 6                  24484596.912
        41.100
 123826215.503 7  96309498.360 7  23196758.069    23196758.194    23196769.259
        45.000          43.100
 117922789.015 7  91887996.64246  22439932.596    22439931.8274   22439944.1124
        42.800          39.1004
 198980044.498 7                  37864650.594
        45.400
 200915410.510 7                  38232944.303
        43.500
 122298540.862 7  95297608.68346  23272621.700    23272621.0344   23272622.6414
        45.600          39.9004
 127184060.939 6  99104415.14845  24202365.889    24202365.6614   24202383.7174
        40.000          32.4004
 113478534.288 6                  21265846.918    21265846.451
        37.300
 412822464.099 5                  78557384.241
        32.500
 202117275.660 7                  38461621.757
        45.100
 128285713.058 5  99777907.928 5  23981656.642    23981656.579    23981684.861
        33.500          35.900
 123140297.656 8                  23432820.775
        48.400
 134473862.512 7                  25589483.280
        43.700
 108796222.979 8  84776347.41346  20703209.067    20703208.0574   20703209.0274
        48.500          37.5004
 112723548.834 7  87836689.55447  21450520.651    21450519.8914   21450526.1364
        46.800          45.6004
 133774702.021 7                  25456472.196
        44.600
 105050484.797 8  81857523.08847  19990444.190    19990443.7434   19990445.9714
        49.600          42.3004
 129436024.874 7                  24630855.865
        46.800
 103439925.631 8  80453297.001 8  19323443.629    19323444.149    19323451.093
        52.700          48.500
 129371082.994 7 100622124.856 6  24176099.179    24176099.422    24176115.798
        44.000          39.400
 115418537.476 8  89769991.717 7  21553596.678    21553596.838    21553602.853
        48.500          44.800
 111167491.417 7                  20854692.960    20854692.591
        45.800
 119581197.500 8  93007635.159 7  22385851.228    22385851.057    22385859.674
        48.100          44.200
 127586682.197 6  99418155.43845  24278968.698    24278968.2514   24278977.1984
        40.300          33.1004
 104428310.311 8  81222112.682 8  19556045.236    19556044.955    19556050.316
        52.300          50.000
 140420582.175 7                  26721146.621
        42.200
 25  1  1 17 20 45.0000000  0 28G09G26E19R18G08S31S35G07G03R06S48S33
                                R19E04E31G16G27E21G04E06R07R17R08R10
                                R16G31R09E09
 107840787.598 8  84031794.54548  20521417.882    20521417.2564   20521420.1934
        50.400          51.3004
 121704182.867 7  94834451.57046  23159535.449    23159534.7524   23159540.4674
        43.200          39.7004
 128699779.887 6                  24490765.139
        41.000
 123805073.345 7  96293054.360 7  23192798.301    23192798.424    23192808.408
        46.000          43.400
 117871768.701 7  91848240.59946  22430223.676    22430222.9124   22430235.1064
        43.800          39.5004
 198980038.633 7                  37864647.840
        45.200
 200915371.995 7                  38232931.206
        43.400
 122265507.102 7  95271868.06546  23266335.208    23266334.5334   23266336.5994
        45.300          40.1004
 127235711.545 6  99144662.00145  24212195.476    24212195.2484   24212213.1894
        40.100          32.8004
 113536653.108 6                  21276738.167    21276738.054
        36.900
 412823084.170 5                  78557414.581
        32.300
 202117289.463 7                  38461631.242
        45.300
 128236576.633 5  99739690.973 5  23972469.192    23972469.545    23972498.333
        32.500          35.800
 123130562.051 8                  23430968.056
        48.300
 134439173.285 7                  25582882.486
        43.900
 108828939.115 8  84801840.47246  20709434.460    20709433.4414   20709434.7154
        48.500          37.6004
 112694327.115 7  87813919.34747  21444960.036    21444959.2724   21444965.4904
        46.400          45.8004
 133807774.352 7                  25462765.573
        44.300
 105056400.452 8  81862132.63547  19991569.764    19991569.3174   19991571.7154
        49.500          42.4004
 129408210.696 7                  24625563.019
        46.600
 103445924.803 8  80457962.961 8  19324564.548    19324564.841    19324571.968
        52.700          48.600
 129390145.800 7 100636951.689 5  24179661.239    24179660.944    24179678.591
        42.100          33.100
 115369579.971 8  89731913.590 7  21544453.938    21544454.342    21544460.102
        48.000          44.900
 111139559.411 7                  20849453.154    20849452.668
        46.000
 119628495.073 8  93044421.936 7  22394706.087    22394705.952    22394713.961
        48.700          43.800
 127628749.371 6  99450934.34645  24286973.892    24286973.4724   24286983.2134
        41.600          33.4004
 104438832.895 8  81230296.895 8  19558015.299    19558015.594    19558021.009
        52.300          49.900
 140382011.753 6                  26713807.165
        41.600
 25  1  1 17 21  0.0000000  0 28G09G26E19R18G08S31S35G07G03R06S48S33
                                R19E04E31G16G27E21G04E06R07R17R08R10
                                R16G31R09E09
 107819485.091 8  84015195.11248  20517364.174    20517363.5484   20517366.5194
        50.000          51.1004
 121753349.887 7  94872763.47746  23168892.095    23168891.4024   23168896.7384
        42.800          39.5004
 128732258.023 6                  24496945.720
        41.500
 123784091.176 7  96276734.774 7  23188866.717    23188867.738    23188877.574
        45.900          43.200
 117820807.091 7  91808530.29746  22420526.315    22420525.5514   22420537.5164
        43.700          39.4004
 198980033.581 7                  37864644.178
        45.500
 200915333.647 7                  38232927.696
        43.600
 122232481.479 7  95246133.80046  23260050.826    23260050.1654   23260052.0874
        45.100          40.0004
 127287358.083 6  99184905.68945  24222023.098    24222022.8574   24222041.5154
        39.900          32.0004
 113594873.332 6                  21287649.121    21287648.978
        37.400
 412823704.298 5                  78557456.676
        32.600
 202117304.311 7                  38461631.948
        45.400
 128187493.636 5  99701515.569 6  23963295.967    23963295.162    23963323.395
        32.300          36.200
 123120908.429 8                  23429131.077
        48.600
 134404536.599 7                  25576290.908
        44.000
 108861758.847 8  84827414.25446  20715680.008    20715678.9844   20715680.1014
        48.300          37.5004
 112665240.211 7  87791254.19947  21439425.237    21439424.4864   21439430.4894
        46.400          45.7004
 133840881.739 7                  25469065.854
        44.700
 105062454.332 8  81866849.89147  19992721.704    19992721.2444   19992723.8074
        49.800          42.2004
 129380452.648 7                  24620280.989
        46.800
 103452129.601 8  80462788.859 8  19325724.093    19325724.024    19325730.994
        52.600          48.400
 129409381.904 6 100651915.443 5  24183254.398    24183253.553    24183271.097
        40.300          32.700
 115320743.249 7  89693929.475 7  21535333.882    21535334.361    21535340.657
        47.700          44.700
 111111717.771 7                  20844230.485    20844229.754
        46.300
 119675795.693 7  93081211.175 7  22403560.464    22403560.109    22403568.958
        47.400          44.200
 127670829.920 6  99483723.65845  24294981.529    24294981.1144   24294991.7734
        40.800          33.3004
 104449441.658 8  81238548.134 8  19560002.118    19560002.381    19560007.715
        52.200          50.000
 140343466.275 6                  26706472.144
        41.700
 25  1  1 17 21 15.0000000  0 28G09G26E19R18G08S31S35G07G03R06S48S33
                                R19E04E31G16G27E21G04E06R07R17R08R10
                                R16G31R09E09
 107798307.240 8  83998692.86348  20513334.229    20513333.5994   20513336.5814
        50.100          51.2004
 121802540.093 7  94911093.36246  23178252.691    23178251.9984   23178257.6824
        42.900          39.5004
 128764798.923 6                  24503137.982
        41.300
 123763268.408 7  96260539.179 7  23184966.501    23184966.825    23184977.090
        46.200          43.700
 117769903.583 7  91768865.27046  22410839.581    22410838.8124   22410850.8694
        43.800          39.6004
 198980027.042 7                  37864641.687
        45.500
 200915294.756 7                  38232920.286
        43.600
 122199462.888 7  95220404.99946  23253767.625    23253766.9644   23253768.7514
        45.900          40.1004
 127338999.108 6  99225145.04645  24231850.658    24231850.4304   24231868.6354
        40.200          32.3004
 113653193.377 6                  21298579.128    21298578.518
        37.400
 412822723.817 5                  78557493.402
        32.800
 202117318.083 7                  38461633.956
        45.600
 128138463.703 5  99663381.388 5  23954129.993    23954128.805    23954157.343
        33.100          35.700
 123111335.943 8                  23427309.459
        48.400
 134369951.492 7                  25569709.771
        44.100
 108894681.129 8  84853067.94446  20721945.025    20721944.0154   20721945.0414
        48.300          37.6004
 112636287.398 7  87768693.53147  21433915.490    21433914.7394   21433920.9714
        46.400          45.8004
 133874023.110 7                  25475372.460
        44.700
 105068645.487 8  81871674.11347  19993899.930    19993899.4614   19993902.0034
        49.500          42.2004
 129352749.927 7                  24615009.329
        46.800
 103458539.004 8  80467773.905 8  19326921.196    19326921.422    19326928.486
        52.700          48.600
 129428783.832 7 100667006.912 6  24186878.806    24186880.177    24186895.888
        44.000          38.000
 115272026.753 7  89656038.805 7  21526236.935    21526236.956    21526242.783
        47.200          44.400
 111083965.530 7                  20839024.075    20839023.699
        46.200
 119723098.265 8  93118001.914 7  22412415.644    22412415.715    22412424.367
        48.300          44.100
 127712922.858 6  99516522.62345  24302992.836    24302992.4164   24303002.3184
        40.500          33.1004
 104460135.649 8  81246865.675 8  19562004.812    19562005.037    19562010.237
        52.400          50.000
 140304944.481 7                  26699141.575
        42.400
 25  1  1 17 21 30.0000000  0 29G09G26E19R18G08S31S35G07G03R06S48S33
                                R19E04E31G16G27E21G04E06R07R17R08R10
                                R16G20G31R09E09
 107777254.344 8  83982287.98148  20509327.968    20509327.3424   20509330.3794
        50.000          51.1004
 121851753.629 7  94949441.45846  23187617.819    23187617.1264   23187622.7404
        43.300          39.4004
 128797402.495 6                  24509342.378
        41.000
 123742605.383 7  96244467.809 7  23181095.775    23181095.710    23181106.382
        44.800          43.300
 117719058.716 7  91729245.93246  22401164.254    22401163.4724   22401175.3064
        43.100          39.4004
 198980019.624 7                  37864640.792
        45.500
 200915254.573 7                  38232913.632
        43.900
 122166451.678 7  95194681.96246  23247485.178    23247484.5174   23247486.8144
        45.100          39.9004
 127390634.454 6  99265379.96345  24241676.786    24241676.5414   24241695.3254
        40.200          32.1004
 113711613.282 6                  21309526.416    21309526.289
        37.200
 412823343.122 5                  78557530.579
        32.900
 202117330.361 7                  38461637.551
        45.600
 128089487.610 5  99625289.110 6  23944975.002    23944973.480    23945001.637
        32.600          36.600
 123101844.818 8                  23425503.306
        48.300
 134335418.160 7                  25563138.451
        43.900
 108927705.659 8  84878801.29546  20728229.455    20728228.4454   20728229.4324
        48.600          37.4004
 112607469.141 7  87746237.71547  21428431.763    21428431.0174   21428437.0594
        46.300          45.7004
 133907198.404 7                  25481685.416
        44.300
 105074974.103 8  81876605.44647  19995104.330    19995103.8574   19995106.3364
        49.600          42.1004
 129325102.808 7                  24609748.252
        46.700
 103465153.225 8  80472918.232 8  19328156.955    19328157.047    19328164.094
        52.800          48.400
 129448353.759 7 100682229.132 6  24190535.372    24190535.711    24190551.582
        43.200          36.800
 115223431.058 7  89618242.127 7  21517161.965    21517162.156    21517168.332
        47.500          44.700
 111056302.595 7                  20833834.236    20833833.988
        46.100
 119770402.638 8  93154793.978 7  22421270.795    22421271.200    22421279.557
        48.200          44.000
 135241992.489 5                  25735694.541
        34.300
 127755028.241 6  99549331.28545  24311005.961    24311005.5684   24311015.1484
        41.000          32.8004
 104470914.906 8  81255249.532 8  19564023.033    19564023.648    19564028.822
        52.300          49.700
 140266446.839 6                  26691815.681
        41.500
 25  1  1 17 21 45.0000000  0 29G09G26E19R18G08S31S35G07G03R06S48S33
                                R19E04E31G16G27E21G04E06R07R17R08R10
                                R16G20G31R09E09
 107756329.217 8  83965982.65348  20505345.990    20505345.3644   20505348.4704
        50.000          51.2004
 121900992.659 7  94987809.38846  23196987.493    23196986.7964   23196992.7174
        43.000          39.6004
 128830071.328 6                  24515559.374
        41.000
 123722105.203 7  96228523.096 7  23177255.906    23177256.214    23177266.429
        46.100          43.200
 117668275.467 7  91689674.60646  22391500.413    22391499.6264   22391511.4274
        43.700          39.7004
 198980014.534 7                  37864640.211
        45.700
 200915216.598 7                  38232907.444
        44.100
 122133450.330 7  95168966.59046  23241205.837    23241205.1764   23241207.0284
        45.100          40.2004
 127442266.398 6  99305612.26945  24251502.296    24251502.0424   24251521.1574
        39.600          32.8004
 113770134.861 6                  21320493.561    21320493.587
        36.900
 412823964.710 5                  78557568.378
        33.700
 202117345.673 7                  38461638.338
        45.300
 128040568.523 5  99587241.162 6  23935827.992    23935829.321    23935856.449
        34.300          36.800
 123092437.837 8                  23423713.487
        48.300
 134300939.260 7                  25556577.487
        44.100
 108960834.618 8  84904616.01046  20734533.700    20734532.6854   20734533.6784
        48.300          37.6004
 112578788.331 7  87723889.00047  21422973.977    21422973.2314   21422979.3274
        47.000          46.0004
 133940409.831 7                  25488005.542
        44.600
 105081442.827 8  81881645.96147  19996335.417    19996334.9484   19996337.3474
        49.200          42.2004
 129297514.213 7                  24604498.529
        46.800
 103471974.684 8  80478223.763 8  19329431.151    19329431.370    19329438.430
        52.500          48.400
 129468092.752 7 100697582.320 6  24194222.206    24194222.443    24194239.383
        43.100          40.100
 115174959.374 8  89580541.903 7  21508109.825    21508110.385    21508116.623
        48.100          44.900
 111028731.617 7                  20828662.431    20828661.751
        45.500
 119817711.763 7  93191589.932 7  22430127.695    22430127.575    22430136.205
        47.200          43.700
 135218319.228 5 105364934.34741  25731189.689    25731189.7024   25731192.6004
        35.900          11.4004
 127797148.663 6  99582151.66445  24319021.025    24319020.6234   24319031.0824
        40.500          32.7004
 104481781.407 8  81263701.230 8  19566058.250    19566058.594    19566063.799
        52.400          49.600
 140227975.934 7                  26684495.009
        42.200
 25  1  1 17 22  0.0000000  0 28G09G26E19R18G08S31S35G07G03R06S48S33
                                R19E04E31G16G27E21G04E06R07R17R08R10
                                R16G31R09E09
 107735530.750 8  83949776.04648  20501388.285    20501387.6554   20501390.6694
        49.800          51.3004
 121950255.762 7  95026196.14046  23206362.127    23206361.4344   23206367.2684
        42.800          39.6004
 128862803.880 6                  24521788.290
        41.200
 123701766.751 7  96212704.150 7  23173445.871    23173446.253    23173455.731
        45.800          42.800
 117617552.852 7  91650150.53746  22381848.285    22381847.4944   22381859.1984
        43.800          40.0004
 198980009.021 7                  37864641.401
        45.700
 200915179.034 7                  38232903.580
        44.200
 122100457.533 7  95143257.91646  23234927.527    23234926.8614   23234928.7904
        45.800          40.4004
 127493893.009 6  99345840.39845  24261326.514    24261326.2784   24261345.6424
        40.400          32.6004
 113828756.311 6                  21331479.926    21331479.492
        36.600
 412824586.472 5                  78557605.523
        33.000
 202117360.666 7                  38461633.773
        45.000
 127991705.397 5  99549236.778 6  23926692.939    23926693.447    23926722.642
        31.700          36.000
 123083113.713 8                  23421939.106
        48.400
 134266513.490 7                  25550026.237
        44.000
 108994066.329 8  84930510.80046  20740857.414    20740856.3994   20740857.5364
        48.400          37.8004
 112550243.884 7  87701646.54547  21417541.810    21417541.0684   21417547.5804
        46.400          46.2004
 133973655.939 7                  25494332.263
        44.700
 105088050.248 8  81886794.55047  19997592.826    19997592.3614   19997594.7324
        49.000          42.4004
 129269982.742 7                  24599259.129
        47.100
 103479002.202 8  80483689.560 8  19330743.933    19330744.185    19330751.151
        52.500          48.300
 129488001.880 6 100713068.438 5  24197944.123    24197943.710    24197958.830
        40.400          35.100
 115126610.696 8  89542937.357 7  21499080.632    21499081.870    21499087.957
        48.200          45.000
 111001251.078 7                  20823507.075    20823506.337
        45.700
 119865023.398 7  93228387.791 7  22438984.425    22438984.750    22438993.479
        47.500          44.300
 127839282.509 6  99614982.49545  24327038.944    24327038.5294   24327049.7114
        41.200          33.2004
 104492734.038 8  81272219.927 8  19568109.438    19568109.679    19568114.767
        52.200          49.500
 140189530.565 6                  26677179.250
        41.900
 25  1  1 17 22 15.0000000  0 28G09G26E19R18G08S31S35G07G03R06S48S33
                                R19E04E31G16G27E21G04E06R07R17R08R10
                                R16G31R09E09
 107714861.134 8  83933669.82348  20497455.029    20497454.3994   20497457.3714
        49.800          51.4004
 121999544.629 7  95064603.00146  23215741.468    23215740.7584   23215746.6754
        42.700          39.6004
 128895602.140 6                  24528029.991
        40.800
 123681592.453 7  96197012.889 7  23169666.486    23169666.967    23169677.281
        45.800          43.100
 117566893.334 7  91610675.63346  22372208.179    22372207.3884   22372219.0554
        44.100          40.0004
 198980006.434 7                  37864641.190
        45.900
 200915143.757 7                  38232898.340
        44.100
 122067475.351 7  95117557.51146  23228651.252    23228650.5774   23228652.4924
        45.300          40.4004
 127545516.063 6  99386065.77345  24271150.719    24271150.4654   24271168.8584
        39.900          32.4004
 113887479.249 6                  21342484.660    21342484.039
        36.200
 412823610.516 5                  78557639.047
        33.300
 202117377.719 7                  38461641.674
        45.600
 127942901.215 5  99511278.145 6  23917570.482    23917570.385    23917597.826
        33.100          36.600
 123073874.552 8                  23420180.990
        48.300
 134232142.926 7                  25543485.980
        43.700
 109027402.570 8  84956487.04546  20747201.398    20747200.3794   20747201.2794
        48.400          37.8004
 112521838.187 7  87679512.21347  21412136.429    21412135.6874   21412142.2564
        46.700          46.2004
 134006938.699 7                  25500665.893
        44.300
 105094798.483 8  81892052.85547  19998877.063    19998876.6124   19998878.9604
        49.300          42.3004
 129242510.775 7                  24594031.526
        46.800
 103486237.674 8  80489317.079 8  19332095.830    19332095.912    19332102.869
        52.700          48.400
 129508081.974 7 100728687.825 6  24201692.964    24201694.297    24201709.846
        43.300          40.100
 115078387.527 8  89505430.375 7  21490075.941    21490076.461    21490082.494
        48.100          44.600
 110973863.454 7                  20818369.049    20818368.747
        46.000
 119912339.907 8  93265189.639 7  22447842.422    22447842.811    22447850.775
        48.000          44.200
 127881431.959 6  99647825.47345  24335060.923    24335060.5214   24335071.2754
        40.200          33.1004
 104503774.416 8  81280806.871 8  19570176.969    19570177.057    19570182.262
        52.400          49.400
 140151113.187 6                  26669868.414
        41.700
 25  1  1 17 22 30.0000000  0 28G09G26E19R18G08S31S35G07G03R06S48S33
                                R19E04E31G16G27E21G04E06R07R17R08R10
                                R16G31R09E09
 107694314.451 8  83917659.38148  20493545.202    20493544.5764   20493547.4834
        50.000          51.2004
 122048852.669 7  95103024.73746  23225124.570    23225123.8824   23225129.8074
        42.500          39.6004
 128928459.876 6                  24534282.675
        40.900
 123661576.361 7  96181444.690 7  23165916.949    23165917.315    23165927.133
        46.300          42.800
 117516291.093 7  91571245.36546  22362578.250    22362577.4464   22362589.8404
        43.800          40.1004
 198980000.182 7                  37864642.384
        45.700
 200915104.297 7                  38232886.145
        43.800
 122034497.597 7  95091860.54046  23222375.534    23222374.8504   23222376.9814
        45.500          40.4004
 127597129.000 6  99426283.26145  24280972.299    24280972.0544   24280991.0014
        39.000          32.4004
 113946296.844 6                  21353507.321    21353506.933
        36.500
 412824231.182 5                  78557683.804
        33.400
 202117391.648 7                  38461644.760
        45.600
 127894150.020 5  99473360.827 5  23908456.687    23908456.158    23908483.917
        33.700          35.500
 123064714.366 8                  23418437.861
        48.400
 134197821.454 7                  25536954.638
        44.100
 109060836.834 8  84982539.67046  20753563.560    20753562.5414   20753563.6964
        48.500          37.7004
 112493565.352 7  87657481.40447  21406756.405    21406755.6634   21406762.1344
        46.300          46.2004
 134040251.662 7                  25507005.001
        44.700
 105101681.390 8  81897416.10947  20000186.765    20000186.3234   20000188.7874
        49.300          42.2004
 129215092.196 7                  24588813.971
        46.700
 103493674.593 8  80495101.300 8  19333484.986    19333485.241    19333492.252
        52.500          48.500
 129528322.698 6 100744430.393 6  24205477.192    24205476.780    24205492.678
        41.100          37.200
 115030284.185 8  89468016.577 7  21481093.217    21481093.727    21481099.889
        48.300          44.700
 110946561.864 7                  20813247.190    20813247.304
        46.300
 119959653.929 8  93301989.205 7  22456699.344    22456699.919    22456708.107
        48.000          43.600
 127923590.778 6  99680675.77745  24343083.854    24343083.4614   24343094.3314
        41.100          33.0004
 104514895.756 8  81289456.762 8  19572259.569    19572259.899    19572265.032
        52.400          49.500
 140112717.580 7                  26662562.172
        42.000
 25  1  1 17 22 45.0000000  0 28G09G26E19R18G08S31S35G07G03R06S48S33
                                R19E04E31G16G27E21G04E06R07R17R08R10
                                R16G31R09E09
 107673893.726 8  83901747.09448  20489659.103    20489658.4734   20489661.5544
        49.700          51.2004
 122098182.514 7  95141463.46646  23234511.878    23234511.1994   23234517.1244
        42.900          39.5004
 128961379.710 6                  24540547.119
        41.100
 123641721.709 7  96166002.033 7  23162197.815    23162198.472    23162208.187
        45.700          43.400
 117465749.322 7  91531862.21946  22352960.725    22352959.9384   22352972.0294
        44.100          40.1004
 198979992.123 7                  37864644.347
        45.200
 200915064.260 7                  38232880.457
        43.800
 122001527.108 7  95066169.23746  23216101.874    23216101.1954   23216102.9234
        45.200          40.4004
 127648734.221 6  99466494.75945  24290793.051    24290792.8234   24290811.3374
        39.900          32.2004
 114005211.406 6                  21364548.411    21364548.058
        36.800
 412824851.361 5                  78557713.696
        33.500
 202117404.286 7                  38461648.672
        45.300
 127845455.546 5  99435487.563 6  23899352.243    23899353.933    23899381.259
        33.200          36.000
 123055635.984 8                  23416710.408
        48.500
 134163551.901 7                  25530433.455
        43.900
 109094371.500 8  85008670.52546  20759945.052    20759944.0374   20759945.1754
        48.500          37.7004
 112465428.461 7  87635556.53647  21401401.960    21401401.2094   21401407.8714
        46.200          46.2004
 134073597.345 7                  25513350.410
        44.700
 105108701.771 8  81902886.48847  20001522.703    20001522.2614   20001524.7874
        49.400          42.2004
 129187729.993 7                  24583607.292
        46.800
 103501316.148 8  80501044.663 8  19334912.520    19334912.771    19334919.920
        52.500          48.600
 129548731.826 7 100760304.672 6  24209289.980    24209290.863    24209306.498
        43.600          37.400
 114982304.234 8  89430698.866 7  21472133.117    21472133.897    21472140.054
        48.100          44.900
 110919349.388 7                  20808142.494    20808141.748
        45.900
 120006968.437 7  93338789.026 7  22465556.918    22465557.206    22465565.774
        47.800          43.300
 127965761.731 6  99713535.53045  24351109.649    24351109.2474   24351120.0714
        41.200          33.0004
 104526100.915 8  81298171.868 8  19574357.766    19574358.221    19574363.537
        52.000          49.500
 140074346.919 7                  26655260.445
        42.200
 25  1  1 17 23  0.0000000  0 28G09G26E19R18G08S31S35G07G03R06S48S33
                                R19E04E31G16G27E21G04E06R07R17R08R10
                                R16G31R09E09
 107653598.177 8  83885932.34548  20485797.167    20485796.5464   20485799.4494
        49.700          51.0004
 122147532.861 7  95179918.12546  23243903.182    23243902.4984   23243908.2964
        43.300          39.2004
 128994360.610 6                  24546823.823
        40.900
 123622027.673 7  96150684.355 7  23158508.439    23158508.641    23158518.884
        45.700          42.800
 117415267.418 7  91492525.71446  22343354.442    22343353.6554   22343365.4764
        44.000          40.0004
 198979983.221 7                  37864628.572
        45.300
 200915022.041 7                  38232871.152
        43.800
 121968562.931 7  95040482.85246  23209828.990    23209828.3154   23209830.1044
        45.500          40.2004
 127700330.382 6  99506699.23245  24300611.528    24300611.2964   24300630.1034
        39.100          31.8004
 114064221.597 6                  21375606.415    21375605.862
        36.600
 412823869.316 5                  78557743.714
        33.300
 202117415.114 7                  38461651.091
        45.500
 127796816.906 5  99397657.728 6  23890261.357    23890261.671    23890288.326
        34.500          36.300
 123046638.632 8                  23414998.233
        48.400
 134129333.371 7                  25523921.861
        44.100
 109128005.476 8  85034878.76246  20766345.532    20766344.5264   20766345.5654
        48.300          37.5004
 112437426.844 7  87613737.07247  21396073.712    21396072.9614   21396079.3204
        46.500          46.0004
 134106974.661 7                  25519702.046
        44.400
 105115858.616 8  81908463.19147  20002884.434    20002883.9874   20002886.7144
        49.500          42.0004
 129160423.357 7                  24578410.639
        46.800
 103509161.095 8  80507146.234 8  19336378.218    19336378.390    19336385.503
        52.500          48.500
 129569306.542 7 100776307.901 6  24213134.751    24213135.761    24213150.796
        43.300          38.700
 114934446.858 8  89393476.480 7  21463196.464    21463196.482    21463202.350
        48.000          44.700
 110892224.929 7                  20803053.932    20803053.511
        45.700
 120054283.059 8  93375589.141 7  22474415.527    22474415.432    22474423.365
        48.600          43.700
 128007943.855 6  99746403.98845  24359136.939    24359136.5334   24359147.7024
        40.200          32.6004
 104537388.655 8  81306951.230 8  19576471.701    19576471.939    19576477.443
        52.100          49.500
 140036000.269 6                  26647963.455
        41.800
 25  1  1 17 23 15.0000000  0 29G09G26E19R18G08S31S35G07G03R06S48S33
                                R19G20E04E31G16G27E21G04E06R07R17R08
                                R10R16G31R09E09
 107633435.680 8  83870221.26248  20481960.302    20481959.6854   20481962.6904
        49.900          51.1004
 122196911.181 7  95218394.59446  23253299.450    23253298.7574   23253304.6154
        42.500          39.1004
 129027409.962 6                  24553112.759
        41.000
 123602502.366 7  96135497.913 7  23154849.747    23154850.304    23154861.293
        45.300          43.100
 117364853.438 7  91453242.13846  22333760.854    22333760.0674   22333771.8204
        44.000          40.1004
 198979979.119 7                  37864630.812
        45.400
 200914986.102 7                  38232863.989
        43.600
 121935612.726 7  95014807.35446  23203558.716    23203558.0324   23203559.8124
        45.900          40.3004
 127751924.678 6  99546902.21845  24310430.454    24310430.2224   24310448.4944
        38.800          31.6004
 114123334.521 6                  21386685.602    21386684.459
        36.800
 412824493.165 5                  78557785.935
        34.000
 202117431.344 7                  38461659.248
        45.300
 127748242.474 5  99359877.883 6  23881179.275    23881179.064    23881207.713
        33.300          36.400
 135078612.358 5                  25704605.865
        35.000
 123037729.989 8                  23413302.892
        48.400
 134095173.506 7                  25517421.690
        44.300
 109161745.596 8  85061169.72546  20772766.243    20772765.2374   20772766.1314
        48.500          37.6004
 112409568.420 7  87592029.19447  21390772.373    21390771.6224   21390778.0554
        46.400          46.1004
 134140391.046 7                  25526061.283
        44.600
 105123159.680 8  81914152.27247  20004274.008    20004273.5574   20004276.1194
        49.300          42.0004
 129133180.047 7                  24573226.725
        47.100
 103517217.145 8  80513411.990 8  19337882.862    19337883.319    19337890.441
        52.100          48.600
 129590052.387 7 100792443.213 6  24217011.697    24217012.958    24217027.644
        43.500          40.600
 114886720.325 8  89356355.906 7  21454283.575    21454284.065    21454290.106
        48.600          44.700
 110865195.947 7                  20797983.970    20797982.960
        46.000
 120101604.683 8  93412394.749 7  22483272.899    22483273.337    22483282.257
        48.300          43.900
 128050144.560 6  99779286.92745  24367168.145    24367167.7484   24367179.1344
        41.000          32.8004
 104548766.403 8  81315800.556 8  19578602.255    19578602.708    19578607.997
        52.400          49.600
 139997685.416 7                  26640672.693
        42.000
 25  1  1 17 23 30.0000000  0 29G09G26E19R18G08S31S35G07G03R06S48S33
                                R19G20E04E31G16G27E21G04E06R07R17R08
                                R10R16G31R09E09
 107613400.326 8  83854609.27348  20478147.772    20478147.1554   20478150.1264
        49.900          50.7004
 122246311.023 7  95256887.81546  23262700.091    23262699.4074   23262705.2764
        42.400          38.8004
 129060521.624 6                  24559414.104
        41.100
 123583139.884 7  96120438.089 7  23151222.501    23151223.228    23151233.851
        45.200          43.300
 117314501.604 7  91414006.99346  22324179.543    22324178.7394   22324190.1394
        43.600          39.9004
 198979974.200 7                  37864632.377
        45.300
 200914949.067 7                  38232853.838
        43.700
 121902670.282 7  94989137.91146  23197289.861    23197289.1774   23197290.9684
        45.500          40.1004
 127803510.536 6  99587098.62145  24320246.448    24320246.2204   24320265.3114
        39.800          31.9004
 114182543.351 6                  21397779.905    21397780.182
        36.900
 412825116.968 5                  78557820.899
        32.900
 202117447.594 7                  38461659.409
        45.400
 127699726.982 5  99322143.790 5  23872110.334    23872110.162    23872137.085
        33.000          35.800
 135055721.935 5 105238222.58541  25700249.933    25700250.4424   25700248.8874
        35.100           7.3004
 123028904.014 8                  23411623.481
        48.400
 134061066.268 7                  25510931.100
        44.400
 109195585.521 8  85087538.45946  20779205.442    20779204.4274   20779205.6524
        48.500          37.4004
 112381847.370 7  87570428.35847  21385497.136    21385496.3994   21385502.9674
        46.300          46.0004
 134173840.152 7                  25532426.133
        44.700
 105130598.803 8  81919948.93346  20005689.630    20005689.1834   20005691.7634
        49.400          41.8004
 129105994.152 7                  24568053.335
        47.000
 103525478.061 8  80519837.087 8  19339426.093    19339426.529    19339433.598
        52.500          48.600
 129610967.128 6                  24220919.618    24220919.403
        39.400
 114839118.947 8  89319332.674 7  21445394.201    21445394.703    21445400.762
        48.200          44.900
 110838256.507 7                  20792929.458    20792929.194
        45.400
 120148926.930 7  93449200.754 7  22492132.697    22492132.359    22492140.966
        47.800          43.400
 128092357.761 6  99812179.60945  24375201.695    24375201.2984   24375212.7084
        41.000          32.5004
 104560227.862 8  81324714.995 8  19580748.600    19580749.198    19580754.278
        52.000          49.700
 139959396.321 7                  26633386.257
        42.100
 25  1  1 17 23 45.0000000  0 29G09G26E19R18G08S31S35G07G03R06S48S33
                                R19G20E04E31G16G27E21G04E06R07R17R08
                                R10R16G31R09E09
 107593491.946 8  83839096.20348  20474359.227    20474358.6064   20474361.6824
        49.300          50.7004
 122295731.877 7  95295397.42946  23272104.778    23272104.0944   23272109.8944
        43.100          38.7004
 129093695.186 6                  24565726.877
        41.000
 123563940.154 7  96105504.868 7  23147627.226    23147626.952    23147637.267
        45.400          43.200
 117264211.969 7  91374820.31446  22314609.399    22314608.6044   22314620.4204
        43.400          39.9004
 198979969.352 7                  37864633.683
        45.600
 200914911.097 7                  38232847.569
        43.500
 121869735.240 7  94963474.25346  23191022.610    23191021.9264   23191023.6054
        45.800          40.1004
 127855087.295 6  99627287.93245  24330061.359    24330061.1184   24330080.7594
        40.000          31.7004
 114241847.440 6                  21408895.029    21408894.829
        36.800
 412825740.056 5                  78557856.220
        32.600
 202117462.566 7                  38461660.209
        45.100
 127651270.203 5  99284455.396 6  23863050.493    23863051.701    23863079.867
        33.400          36.400
 135032941.641 5 105220471.11041  25695915.391    25695915.9454   25695914.6864
        34.100           7.8004
 123020160.509 8                  23409959.544
        48.500
 134027011.332 7                  25504450.645
        44.300
 109229524.583 8  85113984.45746  20785664.191    20785663.1764   20785664.1024
        48.400          37.4004
 112354263.613 7  87548934.51447  21380248.311    21380247.5784   21380254.0164
        46.600          45.9004
 134207321.365 7                  25538797.553
        44.600
 105138175.660 8  81925852.93746  20007131.426    20007130.9704   20007133.6604
        49.300          41.6004
 129078865.504 7                  24562891.128
        47.400
 103533943.260 8  80526421.070 8  19341007.834    19341008.013    19341015.117
        52.500          48.400
 129632045.996 6 100825042.760 5  24224858.589    24224858.961    24224874.631
        40.300          34.300
 114791642.705 8  89282406.710 7  21436528.243    21436529.009    21436534.791
        48.900          44.800
 110811406.092 7                  20787892.021    20787891.961
        45.800
 120196249.433 8  93486007.125 7  22500992.352    22500992.374    22500999.993
        48.700          43.600
 128134582.982 6  99845081.65345  24383236.649    24383236.2344   24383248.5234
        41.800          32.5004
 104571772.329 8  81333693.989 8  19582910.799    19582911.085    19582916.222
        52.300          49.700
 139921133.041 7                  26626105.097
        42.400
 25  1  1 17 24  0.0000000  0 29G09G26E19R18G08S31S35G07G03R06S48S33
                                R19G20E04E31G16G27E21G04E06R07R17R08
                                R10R16G31R09E09
 107573710.430 8  83823682.00248  20470595.049    20470594.4324   20470597.4044
        49.400          50.9004
 122345173.071 6  95333922.89846  23281513.529    23281512.8544   23281518.5064
        41.400          38.8004
 129126930.098 6                  24572051.263
        41.000
 123544903.244 7  96090698.279 7  23144060.311    23144060.185    23144071.568
        44.900          43.400
 117213984.535 7  91335682.10646  22305051.575    22305050.8024   22305062.2914
        43.900          40.1004
 198979962.856 7                  37864637.403
        45.700
 200914872.305 7                  38232843.920
        43.900
 121836807.286 7  94937816.10846  23184756.596    23184755.9084   23184757.6324
        44.800          40.3004
 127906654.109 6  99667469.47345  24339874.580    24339874.3484   24339893.4984
        39.300          31.7004
 114301245.672 6                  21420024.816    21420025.681
        36.800
 412824761.517 5                  78557896.188
        33.200
 202117476.387 7                  38461665.311
        45.200
 127602872.535 5  99246813.016 6  23854003.611    23854003.936    23854032.160
        34.000          37.100
 135010275.266 6 105202810.26441  25691601.329    25691601.5484   25691602.5044
        36.100          10.4004
 123011499.137 8                  23408311.590
        48.400
 133993008.392 7                  25497980.259
        44.600
 109263562.066 8  85140507.14246  20792141.163    20792140.1444   20792141.2784
        48.200          37.6004
 112326817.087 7  87527547.60447  21375025.508    21375024.7714   21375031.1384
        46.100          46.2004
 134240834.224 7                  25545175.026
        44.600
 105145889.883 8  81931863.96746  20008599.486    20008599.0264   20008601.6944
        49.200          41.9004
 129051793.831 7                  24557739.359
        47.300
 103542612.810 8  80533163.994 8  19342627.334    19342627.675    19342634.694
        52.800          48.800
 129653291.637 7 100841567.883 6  24228827.639    24228827.338    24228842.700
        42.100          39.400
 114744291.742 8  89245578.175 7  21427686.005    21427686.764    21427692.538
        49.100          45.000
 110784644.100 7                  20782872.425    20782871.456
        45.800
 120243571.706 7  93522813.338 7  22509850.468    22509850.622    22509858.966
        47.900          44.000
 128176819.880 6  99877992.79745  24391275.488    24391275.0734   24391286.9444
        40.000          32.8004
 104583399.264 8  81342737.182 8  19585087.892    19585088.363    19585093.482
        52.200          49.600
 139882895.076 7                  26618828.402
        42.500
 25  1  1 17 24 15.0000000  0 29G09G26E19R18G08S31S35G07G03R06S48S33
                                R19G20E04E31G16G27E21G04E06R07R17R08
                                R10R16G31R09E09
 107554055.992 8  83808366.82048  20466855.027    20466854.4104   20466857.2944
        49.500          50.7004
 122394634.316 7  95372463.96946  23290925.698    23290925.0414   23290930.9134
        42.100          38.7004
 129160226.328 6                  24578387.502
        41.000
 123526029.283 7  96076018.434 7  23140524.953    23140525.224    23140535.579
        46.200          43.200
 117163819.727 7  91296592.70246  22295505.453    22295504.6844   22295516.1554
        43.800          40.1004
 198979954.737 7                  37864632.162
        45.600
 200914832.204 7                  38232835.688
        44.000
 121803886.432 7  94912163.50246  23178492.251    23178491.5724   23178492.9694
        44.400          40.1004
 127958210.811 6  99707643.18245  24349685.799    24349685.5714   24349704.8864
        40.000          31.8004
 114360737.843 6                  21431173.192    21431174.411
        36.300
 412825381.980 5                  78557928.012
        33.500
 202117488.426 7                  38461667.091
        45.400
 127554534.479 5  99209216.979 6  23844967.436    23844967.381    23844995.606
        34.400          36.900
 134987715.750 6 105185230.10342  25687308.857    25687309.1204   25687309.4964
        38.400          14.9004
 123002920.096 8                  23406678.906
        48.400
 133959057.513 7                  25491519.628
        44.400
 109297697.827 8  85167106.40746  20798637.163    20798636.1534   20798637.1024
        48.100          37.5004
 112299508.098 7  87506267.87047  21369828.573    21369827.8404   21369834.3844
        46.100          46.0004
 134274378.280 7                  25551558.125
        44.400
 105153741.518 8  81937982.08246  20010093.787    20010093.3314   20010095.8734
        48.800          41.7004
 129024779.368 7                  24552598.733
        47.300
 103551486.175 8  80540065.454 8  19344285.044    19344285.323    19344292.347
        52.700          48.500
 129674700.836 7 100858219.412 6  24232829.705    24232830.151    24232844.663
        44.600          40.400
 114697066.653 8  89208847.557 7  21418866.527    21418867.571    21418873.465
        48.500          44.700
 110757970.761 7                  20777868.615    20777867.934
        45.800
 120290892.958 8  93559618.587 7  22518708.614    22518708.996    22518717.894
        48.200          43.500
 128219068.421 6  99910913.02245  24399314.663    24399314.2394   24399327.1984
        41.000          32.3004
 104595108.476 8  81351844.328 8  19587280.711    19587281.126    19587286.218
        52.400          49.500
 139844682.668 7                  26611556.738
        42.200
 25  1  1 17 24 30.0000000  0 29G09G26E19R18G08S31S35G07G03R06S48S33
                                R19G20E04E31G16G27E21G04E06R07R17R08
                                R10R16G31R09E09
 107534536.496 8  83793156.78848  20463140.360    20463139.7394   20463142.8694
        49.500          50.6004
 122444122.995 7  95411026.42146  23300343.054    23300342.4204   23300348.2714
        42.300          38.3004
 129193591.429 6                  24584736.893
        40.900
 123507326.470 7  96061471.727 7  23137021.100    23137021.194    23137032.402
        45.500          43.600
 117113725.570 7  91257558.34746  22285972.771    22285971.9984   22285983.5104
        44.300          40.0004
 198979953.372 7                  37864630.025
        45.400
 200914797.762 7                  38232824.137
        43.500
 121770980.411 7  94886522.45546  23172230.613    23172229.9524   23172231.0744
        44.700          40.1004
 128009764.560 6  99747814.63345  24359495.881    24359495.6764   24359515.5684
        39.100          31.2004
 114420330.890 6                  21442343.231    21442342.964
        37.300
 412826010.512 5                  78557957.154
        32.400
 202117507.289 7                  38461671.460
        45.300
 127506264.367 5  99171673.759 6  23835942.670    23835944.349    23835971.473
        34.700          36.200
 134965280.934 6 105167749.50042  25683038.735    25683038.7134   25683040.8814
        37.000          16.5004
 122994431.114 8                  23405063.658
        48.600
 133925166.375 7                  25485070.252
        44.600
 109331939.166 8  85193787.93846  20805152.966    20805151.9514   20805153.0254
        48.300          37.4004
 112272344.579 7  87485101.48747  21364659.719    21364659.0044   21364665.3094
        45.700          45.9004
 134307961.299 7                  25557948.975
        44.800
 105161738.203 8  81944213.21346  20011615.338    20011614.8824   20011617.5984
        49.200          41.6004
 128997829.953 7                  24547470.122
        47.300
 103560571.204 8  80547131.548 8  19345982.047    19345982.465    19345989.570
        53.100          48.400
 129696281.678 6 100875003.906 4  24236861.795    24236862.960    24236878.326
        40.400          28.500
 114649975.622 8  89172221.216 7  21410073.264    21410073.929    21410079.434
        48.600          44.800
 110731393.533 7                  20772882.464    20772881.869
        45.800
 120338221.280 7  93596429.342 7  22527568.959    22527568.827    22527578.048
        47.600          43.600
 128261336.048 6  99943848.12145  24407359.373    24407358.9534   24407370.9724
        40.800          32.3004
 104606907.357 8  81361021.246 8  19589490.389    19589490.532    19589495.723
        51.900          49.500
 139806503.693 7                  26604291.736
        42.300
 25  1  1 17 24 45.0000000  0 29G09G26E19R18G08S31S35G07G03R06S48S33
                                R19G20E04E31G16G27E21G04E06R07R17R08
                                R10R16G31R09E09
 107515142.211 8  83778044.32848  20459449.959    20459449.3334   20459452.2914
        49.500          50.6004
 122493628.964 7  95449602.32946  23309763.759    23309763.1204   23309769.0374
        42.900          38.3004
 129227015.382 6                  24591097.587
        40.900
 123488784.985 7  96047050.461 7  23133548.322    23133547.901    23133558.394
        45.200          42.900
 117063692.543 7  91218571.62846  22276451.493    22276450.7114   22276462.4064
        44.500          40.1004
 198979948.362 7                  37864633.177
        45.900
 200914760.558 7                  38232822.832
        44.100
 121738079.279 7  94860885.21346  23165969.486    23165968.8294   23165970.2354
        45.400          40.2004
 128061305.133 6  99787975.83445  24369304.327    24369304.1224   24369324.0004
        39.200          31.3004
 114480014.580 6                  21453527.069    21453527.422
        36.000
 412826635.525 5                  78558006.829
        33.400
 202117522.905 7                  38461670.315
        45.400
 127458052.492 5  99134175.889 6  23826930.025    23826931.637    23826959.240
        34.200          36.700
 134942951.954 5 105150350.17741  25678790.453    25678790.3244   25678791.6724
        31.600          11.1004
 122986022.427 8                  23403463.446
        48.300
 133891325.126 7                  25478630.451
        44.300
 109366275.536 8  85220543.51846  20811686.874    20811685.8554   20811687.1164
        48.500          37.4004
 112245316.879 7  87464040.94247  21359516.359    21359515.6404   21359522.1034
        46.400          46.0004
 134341573.022 7                  25564345.376
        44.600
 105169870.035 8  81950549.64546  20013162.892    20013162.4324   20013165.0614
        48.900          41.5004
 128970935.783 7                  24542352.930
        47.300
 103569857.777 8  80554354.381 8  19347717.187    19347717.289    19347724.506
        53.000          48.500
 129718025.736 6 100891916.786 5  24240926.160    24240925.854    24240941.421
        41.400          35.100
 114603008.935 8  89135691.492 7  21401303.000    21401303.007    21401308.400
        48.200          44.600
 110704902.547 7                  20767912.286    20767912.215
        45.400
 120385546.151 8  93633237.397 7  22536428.516    22536428.775    22536436.980
        48.300          43.400
 128303613.031 6  99976790.50045  24415404.873    24415404.4444   24415416.9774
        41.000          32.5004
 104618785.692 8  81370259.930 8  19591714.663    19591715.012    19591720.257
        51.700          49.500
 139768348.560 7                  26597031.112
        42.500
 25  1  1 17 25  0.0000000  0 29G09G26E19R18G08S31S35G07G03R06S48S33
                                R19G20E04E31G16G27E21G04E06R07R17R08
                                R10R16G31R09E09
 107495875.071 8  83763030.94548  20455783.573    20455782.9474   20455785.8964
        49.300          50.5004
 122543153.635 7  95488192.81846  23319188.348    23319187.7054   23319193.4824
        42.800          38.4004
 129260499.671 6                  24597469.366
        40.700
 123470406.895 7  96032756.331 7  23130105.717    23130105.915    23130116.493
        46.000          43.600
 117013722.651 7  91179634.10646  22266942.601    22266941.8194   22266953.4474
        44.200          40.1004
 198979940.813 7                  37864629.707
        45.900
 200914720.856 7                  38232816.817
        44.100
 121705184.748 7  94835253.12346  23159709.609    23159708.9574   23159710.6924
        44.700          40.2004
 128112833.530 6  99828127.49245  24379110.544    24379110.3254   24379129.8134
        39.600          31.2004
 114539789.786 5                  21464729.674    21464729.507
        35.900
 412825657.619 5                  78558038.734
        33.200
 202117535.612 7                  38461673.686
        45.700
 127409901.173 5  99096725.098 6  23817929.378    23817929.774    23817957.470
        34.700          36.800
 134920735.482 5 105133039.06241  25674562.237    25674562.0364   25674564.2764
        31.900           8.4004
 122977695.756 8                  23401878.966
        48.400
 133857535.436 7                  25472200.496
        44.400
 109400708.336 8  85247374.23646  20818239.225    20818238.2014   20818239.4924
        48.600          37.5004
 112218426.941 7  87443087.74547  21354399.092    21354398.3644   21354405.1444
        46.500          45.9004
 134375214.886 7                  25570747.373
        45.000
 105178138.704 8  81956992.71746  20014736.535    20014736.0794   20014738.5804
        49.000          41.5004
 128944098.667 7                  24537245.720
        47.300
 103579347.511 8  80561735.219 8  19349489.886    19349490.243    19349497.263
        53.000          48.500
 129739932.195 7 100908954.199 7  24245020.044    24245020.309    24245036.502
        43.600          42.800
 114556168.996 8  89099260.389 7  21392555.553    21392556.334    21392562.076
        48.800          44.800
 110678499.091 7                  20762959.606    20762959.088
        45.700
 120432869.290 8  93670044.086 7  22545287.490    22545287.672    22545296.633
        48.200          43.400
 128345900.959 6 100009741.41745  24423452.951    24423452.5184   24423464.8074
        40.300          32.2004
 104630744.808 8  81379561.448 8  19593954.333    19593954.620    19593959.950
        52.000          49.600
 139730218.771 7                  26589774.788
        42.600
 25  1  1 17 25 15.0000000  0 29G09G26E19R18G08S31S35G07G03R06S48S33
                                R19G20E04E31G16G27E21G04E06R07R17R08
                                R10R16G31R09E09
 107476738.458 8  83748119.28248  20452142.096    20452141.4754   20452144.3374
        49.500          50.5004
 122592700.020 7  95526800.24446  23328616.572    23328615.9294   23328622.0954
        42.600          38.2004
 129294047.452 6                  24603853.612
        40.400
 123452195.715 7  96018592.006 7  23126693.694    23126693.772    23126704.448
        45.100          43.200
 116963819.525 7  91140748.60746  22257446.540    22257445.7714   22257456.9774
        43.800          40.1004
 198979934.734 7                  37864626.474
        45.500
 200914682.539 7                  38232811.478
        44.200
 121672299.994 7  94809628.64746  23153452.332    23153451.7064   23153452.8354
        45.100          40.1004
 128164352.777 6  99868272.00945  24388914.741    24388914.5184   24388934.0964
        39.000          31.4004
 114599659.398 5                  21475949.110    21475949.233
        35.900
 412826279.471 5                  78558075.446
        33.200
 202117550.111 7                  38461679.795
        45.500
 127361814.016 5  99059324.218 6  23808939.140    23808940.471    23808967.542
        34.100          37.100
 134898633.808 5 105115817.60741  25670355.539    25670355.2444   25670358.5104
        33.600           9.2004
 122969454.406 8                  23400310.786
        48.400
 133823800.599 7                  25465781.061
        44.700
 109435240.387 8  85274282.30446  20824810.530    20824809.5024   20824810.7924
        48.500          37.5004
 112191678.301 7  87422244.64947  21349309.175    21349308.4474   21349315.0704
        46.600          46.0004
 134408889.998 7                  25577155.406
        44.400
 105186547.400 8  81963544.90246  20016336.650    20016336.1944   20016338.7734
        49.200          41.5004
 128917322.003 7                  24532150.237
        47.200
 103589043.625 8  80569276.585 8  19351301.228    19351301.380    19351308.610
        53.100          48.500
 129762004.648 6 100926129.411 6  24249147.052    24249147.057    24249161.829
        41.700          37.300
 114509459.414 8  89062930.692 7  21383832.627    21383833.303    21383839.192
        49.200          44.800
 110652186.488 7                  20758023.129    20758022.707
        45.300
 120480193.712 7  93706851.835 7  22554146.982    22554146.859    22554156.075
        47.700          43.300
 128388202.867 6 100042703.21145  24431502.754    24431502.3254   24431515.3114
        41.300          32.4004
 104642788.027 8  81388928.379 8  19596209.652    19596209.986    19596215.364
        52.000          49.500
 139692117.916 7                  26582524.947
        42.000
 25  1  1 17 25 30.0000000  0 29G09G26E19R18G08S31S35G07G03R06S48S33
                                R19G20E04E31G16G27E21G04E06R07R17R08
                                R10R16G31R09E09
 107457731.126 8  83733308.35948  20448525.069    20448524.4434   20448527.3624
        49.800          50.5004
 122642266.356 7  95565423.22546  23338048.761    23338048.1224   23338054.3574
        42.300          37.9004
 129327657.086 6                  24610249.600
        41.000
 123434150.268 7  96004556.588 7  23123313.964    23123314.316    23123323.937
        45.800          42.900
 116913982.102 7  91101914.30646  22247962.716    22247961.9434   22247973.2694
        44.600          40.2004
 198979929.151 7                  37864626.582
        45.700
 200914643.881 7                  38232797.415
        44.000
 121639423.445 7  94784010.56346  23147195.660    23147195.0394   23147196.6424
        45.600          40.2004
 128215861.069 6  99908408.03445  24398716.758    24398716.5394   24398736.2194
        39.400          31.7004
 114659621.422 6                  21487187.104    21487186.702
        36.400
 412826900.763 5                  78558101.990
        32.600
 202117564.680 7                  38461683.072
        45.500
 127313790.374 5  99021972.725 6  23799962.551    23799961.989    23799990.187
        34.800          36.700
 134876644.368 5 105098683.07841  25666171.194    25666170.7474   25666173.9254
        33.800           9.8004
 122961297.065 8                  23398758.537
        48.500
 133790119.196 7                  25459371.526
        44.500
 109469869.929 8  85301266.32146  20831400.514    20831399.4824   20831400.5864
        48.800          37.5004
 112165069.781 7  87401510.73847  21344245.574    21344244.8374   21344251.5924
        46.800          46.0004
 134442596.782 7                  25583569.735
        44.700
 105195094.703 8  81970205.09346  20017963.108    20017962.6524   20017965.3034
        49.200          41.4004
 128890604.525 7                  24527066.369
        47.400
 103598944.673 8  80576977.344 8  19353150.701    19353151.232    19353158.346
        53.000          48.500
 129784248.344 7 100943431.853 6  24253301.335    24253301.673    24253317.576
        42.600          38.800
 114462879.431 8  89026701.856 7  21375134.449    21375135.604    21375140.706
        49.500          44.800
 110625963.260 7                  20753104.397    20753103.431
        45.900
 120527517.827 8  93743659.394 7  22563006.279    22563006.655    22563015.652
        48.400          43.500
 128430517.369 6 100075674.84545  24439555.796    24439555.3584   24439568.1884
        40.000          32.5004
 104654913.384 8  81398359.202 8  19598480.587    19598480.600    19598485.965
        51.800          49.400
 139654044.765 7                  26575280.005
        42.300
 25  1  1 17 25 45.0000000  0 29G09G26E19R18G08S31S35G07G03R06S48S33
                                R19G20E04E31G16G27E21G04E06R07R17R08
                                R10R16G31R09E09
 107438855.340 8  83718599.93548  20444932.933    20444932.3074   20444935.4104
        49.400          50.5004
 122691854.499 7  95604063.21546  23347485.440    23347484.7884   23347490.6294
        42.600          38.0004
 129361330.490 6                  24616657.204
        40.800
 123416272.856 7  95990651.885 7  23119964.173    23119964.190    23119975.005
        44.900          43.000
 116864212.836 7  91063133.12446  22238491.868    22238491.1084   22238502.5604
        44.500          40.3004
 198979924.144 7                  37864625.021
        45.500
 200914607.341 7                  38232793.578
        43.800
 121606557.287 7  94758400.59546  23140941.693    23140941.0814   23140942.5324
        45.500          40.1004
 128267360.053 6  99948536.81145  24408516.848    24408516.6254   24408535.9544
        39.500          30.6004
 114719677.583 6                  21498441.975    21498440.819
        36.100
 412825925.199 5                  78558143.960
        32.700
 202117579.984 7                  38461684.163
        45.200
 127265833.037 5  98984672.847 6  23790995.558    23790996.552    23791024.038
        34.300          36.600
 134854768.896 6 105081636.87242  25662008.779    25662008.2384   25662010.8134
        36.100          13.1004
 122953225.891 8                  23397222.653
        48.600
 133756493.339 7                  25452972.641
        44.800
 109504598.679 8  85328327.65246  20838008.950    20838007.9134   20838009.3274
        48.400          37.5004
 112138603.719 7  87380887.83947  21339209.533    21339208.8004   21339215.2304
        46.700          46.1004
 134476337.133 7                  25589990.116
        44.900
 105203782.698 8  81976974.91246  20019616.480    20019616.0204   20019618.6094
        48.900          41.4004
 128863948.471 7                  24521993.706
        47.400
 103609052.556 8  80584838.977 8  19355039.206    19355039.504    19355046.618
        52.900          48.300
 129806656.328 7 100960860.944 6  24257489.277    24257489.071    24257504.392
        42.900          38.900
 114416431.232 8  88990575.453 7  21366460.658    21366461.336    21366466.939
        49.000          44.800
 110599831.415 7                  20748201.588    20748201.061
        45.800
 120574843.319 8  93780467.971 7  22571865.925    22571865.870    22571874.687
        48.000          43.700
 128472846.408 6 100108657.81745  24447611.200    24447610.7674   24447623.6784
        40.000          32.2004
 104667122.871 8  81407855.449 8  19600766.691    19600767.061    19600772.449
        52.000          49.600
 139616001.401 7                  26568040.267
        42.500
 25  1  1 17 26  0.0000000  0 29G09G26E19R18G08S31S35G07G03R06S48S33
                                R19G20E04E31G16G27E21G04E06R07R17R08
                                R10R16G31R09E09
 107420106.291 8  83703990.25748  20441365.259    20441364.6334   20441367.5744
        49.500          50.7004
 122741459.161 7  95642716.08846  23356924.543    23356923.9004   23356930.3194
        42.900          38.3004
 129395062.722 6                  24623076.798
        40.800
 123398558.755 7  95976874.181 7  23116646.055    23116646.076    23116656.632
        45.200          43.000
 116814507.099 7  91024401.44046  22229032.924    22229032.1734   22229043.6214
        44.500          40.5004
 198979916.757 7                  37864620.406
        45.400
 200914567.709 7                  38232785.664
        43.800
 121573696.615 7  94732794.88646  23134688.698    23134688.0774   23134689.2544
        45.100          40.5004
 128318844.350 6  99988654.16745  24418313.744    24418313.5034   24418333.1854
        39.600          31.5004
 114779821.969 6                  21509713.940    21509712.537
        36.000
 412826547.151 5                  78558183.132
        32.500
 202117592.855 7                  38461689.185
        45.300
 127217937.403 5  98947420.852 6  23782043.689    23782043.947    23782070.647
        34.700          36.500
 134833005.479 5 105064678.33642  25657867.476    25657866.8014   25657869.1294
        35.700          12.5004
 122945235.977 8                  23395702.337
        48.700
 133722918.089 7                  25446583.512
        44.600
 109539421.478 8  85355462.27346  20844635.756    20844634.7284   20844635.8964
        48.500          37.8004
 112112275.383 7  87360372.25647  21334199.448    21334198.7114   21334205.1224
        46.200          46.3004
 134510105.454 7                  25596416.222
        44.500
 105212606.356 8  81983850.44546  20021295.586    20021295.1304   20021297.7624
        48.800          41.6004
 128837348.972 7                  24516932.099
        47.600
 103619362.212 8  80592857.535 8  19356965.133    19356965.378    19356972.711
        52.600          48.400
 129829226.800 6 100978416.472 6  24261704.780    24261706.262    24261721.333
        39.900          36.800
 114370110.399 8  88954548.071 7  21357811.102    21357811.456    21357816.831
        49.500          45.000
 110573786.006 7                  20743315.326    20743314.731
        45.700
 120622164.978 8  93817273.488 7  22580724.381    22580725.053    22580733.446
        48.300          43.300
 128515184.925 6 100141648.16645  24455668.642    24455668.1954   24455681.2204
        40.300          32.4004
 104679411.072 8  81417412.883 8  19603068.786    19603068.390    19603073.640
        52.300          49.500
 139577983.002 7                  26560805.632
        42.400
 25  1  1 17 26 15.0000000  0 29G09G26E19R18G08S31S35G07G03R06S48S33
                                R19G20E04E31G16G27E21G04E06R07R17R08
                                R10R16G31R09E09
 107401490.274 8  83689484.23048  20437822.838    20437822.2044   20437825.0794
        49.700          50.6004
 122791086.125 7  95681386.32946  23366368.648    23366368.0004   23366374.2024
        42.100          38.0004
 129428859.651 6                  24629508.141
        40.600
 123381014.465 7  95963228.573 7  23113358.718    23113359.058    23113369.971
        45.400          43.000
 116764871.342 7  90985724.28946  22219587.871    22219587.1344   22219598.0654
        44.800          40.5004
 198979912.215 7                  37864626.756
        45.600
 200914530.578 7                  38232775.822
        43.600
 121540847.517 7  94707198.18746  23128437.551    23128436.9344   23128438.1854
        46.800          40.3004
 128370319.636 6 100028764.49745  24428109.325    24428109.0754   24428129.0214
        39.500          31.4004
 114840060.496 6                  21521001.827    21521001.944
        37.100
 412827171.674 5                  78558213.499
        33.000
 202117608.789 7                  38461691.014
        45.200
 127170110.104 5  98910222.079 6  23773100.740    23773102.419    23773128.640
        34.500          36.000
 134811358.300 5 105047810.82641  25653747.668    25653746.9224   25653749.6344
        33.200          11.3004
 122937333.465 8                  23394198.415
        48.800
 133689399.543 7                  25440205.353
        44.700
 109574343.887 8  85382674.51246  20851281.103    20851280.0714   20851281.4524
        48.500          37.7004
 112086091.148 7  87339968.96347  21329216.780    21329216.0524   21329222.3794
        46.800          46.2004
 134543908.221 7                  25602848.777
        44.700
 105221571.780 8  81990836.44446  20023001.822    20023001.3714   20023003.8344
        48.800          41.4004
 128810812.272 7                  24511882.246
        47.300
 103629879.549 8  80601037.631 8  19358930.062    19358930.245    19358937.426
        52.900          48.500
 129851966.048 7 100996104.358 6  24265953.884    24265954.849    24265968.709
        43.700          41.200
 114323923.666 8  88918625.107 7  21349185.756    21349186.188    21349191.241
        49.200          44.600
 110547832.827 7                  20738446.963    20738446.409
        45.400
 120669489.018 8  93854080.897 7  22589583.943    22589583.887    22589592.995
        48.600          43.500
 128557538.915 6 100174650.57445  24463728.692    24463728.2414   24463741.8164
        39.800          32.6004
 104691783.872 8  81427036.163 8  19605384.849    19605385.366    19605390.575
        52.000          49.700
 139539995.958 7                  26553576.658
        42.600
