     2.11           OBSERVATION DATA    M (MIXED)           RINEX VERSION / TYPE
teqc  2019Feb25                         20260317 16:20:09UTCPGM / RUN BY / DATE
Linux 2.4.21-27.ELsmp|Opteron|gcc -static|Linux 64|=+       COMMENT
BIT 2 OF LLI FLAGS DATA COLLECTED UNDER A/S CONDITION       COMMENT
-Unknown-                                                   MARKER NAME
-Unknown-           -Unknown-                               OBSERVER / AGENCY
-Unknown-           -Unknown-           -Unknown-           REC # / TYPE / VERS
-Unknown-           -Unknown-                               ANT # / TYPE
        0.0000        0.0000        0.0000                  APPROX POSITION XYZ
        0.0000        0.0000        0.0000                  ANTENNA: DELTA H/E/N
     1     1                                                WAVELENGTH FACT L1/2
     7    L1    L2    C1    P1    P2    S1    S2            # / TYPES OF OBSERV
 SNR is mapped to RINEX snr flag value [0-9]                COMMENT
  L1 & L2: min(max(int(snr_dBHz/6), 0), 9)                  COMMENT
  2025     1     1    10     0    0.0000000     GPS         TIME OF FIRST OBS
    18                                                      LEAP SECONDS
                                                            END OF HEADER
 25  1  1 10  0  0.0000000  0 32G10G24E19E08R04S31S35G21R12E13S48S33
                                R02R13E29G23R19G18E07G15E33R20E26R14
                                G08G27R05G32R18G28R17R03
 111512164.698 8  86892615.93048  21220052.947    21220052.3394   21220053.7934
        51.100          50.5004
 113367081.451 7  88338027.23347  21573026.980    21573026.5744   21573028.3014
        45.900          45.1004
 145717246.277 5                  27729068.508
        32.800
 142855608.578 6                  27184509.935
        40.500
 109310273.647 8  85019155.300 7  20412919.769    20412919.922    20412925.078
        51.100          47.500
 198974336.228 7                  37863550.213
        45.800
 200954119.905 7                  38240292.896
        44.000
 133016023.218 6 103648855.75642  25312105.014    25312103.8034   25312105.2544
        36.000          13.7004
 122909065.063 7  95595976.441 7  23008828.241    23008827.911    23008834.699
        47.300          42.400
 137021958.095 6                  26074393.456
        41.700
 412717640.010 5                  78537701.732
        32.200
 202092822.292 7                  38456952.422
        45.100
 125268032.520 7  97430735.219 7  23475170.105    23475171.126    23475176.651
        45.800          43.100
 119894704.266 6                  22452412.405    22452412.465
        39.700
 127903692.761 7                  24339256.494
        47.300
 108243200.350 7  84345362.92946  20597988.634    20597988.2324   20597988.1994
        47.800          38.6004
 106357466.976 7  82722503.109 7  19882395.065    19882394.847    19882400.096
        42.900          45.900
 117249214.435 7  91363026.65045  22311779.467    22311779.1374   22311779.9314
        46.400          33.9004
 123845972.846 8                  23567096.713
        48.800
 127458034.195 6  99317968.43445  24254448.102    24254447.6514   24254448.5494
        39.200          32.2004
 130729588.170 7                  24877006.784
        45.600
 128770412.363 5 100154805.976 6  24080714.336    24080714.956    24080723.763
        34.000          39.000
 122792997.600 8                  23366725.469
        48.600
 129678705.383 7 100861251.414 6  24327395.572    24327395.523    24327403.720
        43.600          38.900
 127632164.592 6  99453652.60345  24287588.037    24287587.2644   24287590.2554
        38.600          32.0004
 124975715.707 6  97383691.67046  23782083.958    23782083.2394   23782086.1084
        41.800          37.2004
 128051842.537 7  99595887.770 6  23954740.409    23954741.107    23954746.694
        42.600          40.600
 115098867.525 8  89687442.65848  21902579.648    21902579.1754   21902581.3004
        49.300          48.8004
 107511283.315 8  83619929.574 8  20140478.458    20140478.755    20140484.673
        51.500          48.500
 133827747.463 5 104281362.35242  25466574.169    25466573.8484   25466575.3364
        34.700          16.0004
 125368412.347 7  97508803.016 6  23428085.548    23428085.357    23428091.310
        44.100          40.300
 107624944.722 8  83708328.544 8  20105236.728    20105236.801    20105241.652
        52.200          48.200
 25  1  1 10  0 15.0000000  0 32G10G24E19E08R04S31S35G21R12E13S48S33
                                R02R13E29G23R19G18E07G15E33R20E26R14
                                G08G27R05G32R18G28R17R03
 111490027.699 8  86875366.31948  21215840.224    21215839.6214   21215841.2744
        51.200          50.4004
 113387357.199 7  88353826.51447  21576885.691    21576885.2854   21576886.6494
        45.600          44.9004
 145678896.454 5                  27721770.707
        33.800
 142893905.140 6                  27191797.747
        41.500
 109291409.113 8  85004482.896 7  20409397.111    20409397.200    20409402.200
        51.100          47.500
 198974333.399 7                  37863549.511
        46.000
 200954113.431 7                  38240294.305
        44.200
 132971835.725 5 103614424.16242  25303695.345    25303694.0674   25303696.5824
        35.600          14.7004
 122915144.741 7  95600704.990 7  23009965.882    23009965.577    23009972.750
        46.600          42.800
 137063789.392 7                  26082353.829
        42.000
 412717492.119 5                  78537681.422
        32.500
 202092804.396 7                  38456949.292
        45.100
 125313415.754 7  97466033.284 7  23483675.761    23483675.875    23483681.538
        46.500          43.300
 119859684.379 6                  22445855.152    22445854.866
        40.500
 127880778.549 7                  24334896.056
        47.400
 108254301.595 7  84354013.25146  20600101.415    20600101.0094   20600100.7144
        47.700          38.4004
 106347086.604 7  82714429.486 7  19880454.193    19880454.511    19880459.541
        42.500          45.700
 117297331.112 7  91400520.14045  22320935.686    22320935.3564   22320936.2804
        46.000          33.6004
 123861197.326 8                  23569993.887
        49.200
 127509876.098 6  99358364.72445  24264313.754    24264313.2894   24264313.8384
        39.400          32.2004
 130700241.188 7                  24871422.629
        45.800
 128708233.794 5 100106445.109 6  24069085.251    24069086.783    24069096.427
        33.500          37.600
 122802521.645 8                  23368537.812
        49.000
 129621331.182 7 100816627.097 6  24316631.653    24316631.836    24316641.182
        43.500          39.100
 127637554.247 6  99457852.37845  24288613.719    24288612.9284   24288616.1664
        38.900          32.1004
 125004479.134 7  97406104.72546  23787557.514    23787556.7994   23787559.4764
        42.000          37.0004
 128008923.766 6  99562506.494 6  23946711.139    23946711.267    23946716.872
        41.200          39.700
 115069798.748 8  89664791.64848  21897048.107    21897047.6294   21897049.7644
        49.100          48.7004
 107553712.083 8  83652929.719 8  20148426.454    20148426.974    20148432.991
        51.000          48.500
 133771078.619 5 104237204.80742  25455791.446    25455791.1024   25455791.6604
        35.100          14.6004
 125437476.015 7  97562519.202 6  23440990.158    23440991.269    23440998.000
        43.700          40.300
 107646462.036 8  83725064.238 8  20109256.075    20109256.280    20109261.064
        52.100          48.000
 25  1  1 10  0 30.0000000  0 32G10G24E19E08R04S31S35G21R12E13S48S33
                                R02R13E29G23R19G18E07G15E33R20E26R14
                                G08G27R05G32R18G28R17R03
 111467941.594 8  86858156.36748  21211637.408    21211636.7964   21211638.4414
        50.700          50.7004
 113407797.302 7  88369753.86547  21580775.478    21580775.0854   21580776.2684
        45.200          45.1004
 145640581.986 5                  27714479.353
        33.600
 142932211.776 6                  27199086.791
        41.200
 109272630.566 8  84989877.351 7  20405890.383    20405890.648    20405895.375
        52.000          47.300
 198974339.951 7                  37863551.121
        46.000
 200954116.729 7                  38240294.672
        44.300
 132927693.938 5 103580028.09842  25295296.151    25295294.8284   25295296.4514
        34.600          14.1004
 122921416.785 7  95605583.137 7  23011140.343    23011140.675    23011147.069
        47.400          42.500
 137105675.758 7                  26090324.178
        42.300
 412717353.418 5                  78537664.134
        33.100
 202092796.713 7                  38456948.746
        45.400
 125358795.117 7  97501328.353 7  23492179.552    23492180.275    23492185.849
        46.200          42.800
 119824806.540 6                  22439324.128    22439322.894
        41.000
 127857935.157 7                  24330549.155
        47.300
 108265482.896 7  84362725.95346  20602229.222    20602228.8204   20602228.4204
        47.000          38.7004
 106336922.692 7  82706524.238 7  19878554.502    19878554.278    19878559.352
        42.600          45.800
 117345538.446 7  91438084.27445  22330109.390    22330109.0824   22330109.7874
        46.000          33.9004
 123876487.382 8                  23572903.490
        49.300
 127561726.085 6  99398767.29545  24274180.436    24274179.9854   24274180.2634
        39.700          32.3004
 130670967.872 7                  24865851.936
        46.200
 128646118.647 5 100058133.591 6  24057472.408    24057470.728    24057480.359
        34.500          39.100
 122812152.465 8                  23370370.505
        48.900
 129563936.638 7 100771986.971 6  24305864.115    24305864.566    24305873.675
        43.200          38.600
 127643077.321 6  99462156.09445  24289664.041    24289663.2544   24289667.0194
        39.200          32.4004
 125033342.833 6  97428595.92746  23793050.135    23793049.4294   23793051.8724
        41.600          37.3004
 127966051.161 7  99529161.152 6  23938691.510    23938691.416    23938697.227
        42.500          40.000
 115040815.944 8  89642207.64648  21891532.949    21891532.4894   21891534.5454
        48.900          49.0004
 107596307.698 8  83686059.615 8  20156406.529    20156406.379    20156412.441
        51.300          48.500
 133714401.470 5 104193040.76942  25445006.755    25445006.3714   25445006.6074
        35.000          15.0004
 125506563.486 7  97616253.944 6  23453901.991    23453901.939    23453908.447
        44.000          40.100
 107668043.281 8  83741849.651 8  20113287.329    20113287.336    20113292.531
        51.900          48.200
 25  1  1 10  0 45.0000000  0 32G10G24E19E08R04S31S35G21R12E13S48S33
                                R02R13E29G23R19G18E07G15E33R20E26R14
                                G08G27R05G32R18G28R17R03
 111445891.830 8  86840974.73548  21207441.704    21207441.0964   21207442.5214
        51.000          50.9004
 113428386.833 7  88385797.65647  21584693.205    21584692.8034   21584694.3394
        45.800          45.2004
 145602288.148 5                  27707192.096
        33.300
 142970513.764 6                  27206375.551
        40.700
 109253923.140 8  84975327.141 7  20402396.567    20402396.902    20402402.009
        51.400          47.300
 198974340.667 7                  37863551.080
        46.000
 200954113.824 7                  38240294.515
        44.400
 132883582.803 5 103545655.74242  25286902.950    25286901.5964   25286902.3624
        34.900          14.1004
 122927866.176 7  95610599.159 7  23012346.773    23012347.660    23012354.850
        47.200          42.900
 137147602.340 6                  26098302.507
        41.700
 412717209.883 5                  78537646.704
        32.800
 202092781.747 7                  38456942.146
        45.200
 125404155.495 7  97536608.652 7  23500680.420    23500680.356    23500685.952
        47.200          42.900
 119790056.372 6                  22432816.463    22432815.221
        40.500
 127835147.847 7                  24326212.881
        47.100
 108276729.762 8  84371489.74346  20604369.354    20604368.9704   20604368.6234
        48.000          38.9004
 106326960.826 7  82698776.103 7  19876691.934    19876692.160    19876697.038
        42.500          45.500
 117393821.483 7  91475707.39745  22339297.487    22339297.1794   22339297.8004
        45.800          34.0004
 123891828.155 8                  23575822.782
        49.000
 127613569.244 6  99439164.50245  24284045.852    24284045.4144   24284045.7454
        39.000          32.4004
 130641753.779 7                  24860292.735
        45.900
 128584052.098 5 100009859.730 6  24045862.075    24045862.642    24045874.468
        33.000          40.000
 122821875.393 8                  23372220.740
        48.600
 129506507.755 7 100727320.109 6  24295091.110    24295090.983    24295099.507
        43.000          38.600
 127648718.975 6  99466552.21745  24290737.734    24290736.9434   24290740.0614
        39.100          32.4004
 125062291.715 7  97451153.49746  23798558.667    23798557.9484   23798560.6294
        42.200          37.5004
 127923209.210 7  99495839.620 6  23930676.801    23930677.830    23930683.073
        42.600          40.100
 115011904.365 8  89619679.14548  21886030.994    21886030.5214   21886032.8264
        49.500          49.2004
 107639054.731 8  83719307.283 8  20164414.788    20164414.760    20164420.442
        51.500          48.400
 133657701.651 5 104148859.06042  25434217.128    25434216.7484   25434217.0294
        35.300          17.5004
 125575659.390 7  97669995.187 6  23466814.590    23466813.789    23466821.285
        44.100          40.800
 107689673.190 8  83758672.899 8  20117327.922    20117328.207    20117333.251
        51.800          48.000
 25  1  1 10  1  0.0000000  0 32G10G24E19E08R04S31S35G21R12E13S48S33
                                R02R13E29G23R19G18E07G15E33R20E26R14
                                G08G27R05G32R18G28R17R03
 111423885.859 8  86823827.23248  21203253.977    21203253.3744   21203254.9354
        51.200          50.7004
 113449132.944 7  88401963.45047  21588641.357    21588640.9514   21588642.1834
        45.700          45.0004
 145564022.443 5                  27699910.820
        33.400
 143008818.290 6                  27213664.399
        40.200
 109235294.133 8  84960837.916 7  20398917.669    20398918.011    20398922.644
        51.300          47.400
 198974342.897 7                  37863551.389
        45.800
 200954113.081 7                  38240296.554
        44.300
 132839510.578 5 103511313.70642  25278515.226    25278513.9074   25278515.4944
        35.700          14.1004
 122934500.765 7  95615759.332 7  23013589.584    23013589.921    23013596.526
        47.600          42.600
 137189576.321 6                  26106290.077
        41.700
 412717067.717 5                  78537634.349
        33.100
 202092769.636 7                  38456941.806
        45.100
 125449504.746 7  97571880.291 7  23509178.747    23509178.630    23509184.150
        46.300          42.700
 119755441.581 6                  22426333.685    22426333.917
        40.700
 127812423.980 7                  24321888.512
        46.800
 108288049.594 7  84380310.39346  20606523.212    20606522.8194   20606522.7114
        47.800          38.7004
 106317208.222 7  82691190.753 7  19874868.619    19874868.892    19874873.832
        42.400          45.600
 117442187.245 7  91513394.97245  22348500.973    22348500.6694   22348501.5984
        46.200          33.8004
 123907226.850 8                  23578752.951
        48.700
 127665412.957 6  99479562.15745  24293911.782    24293911.3354   24293911.3694
        39.900          32.2004
 130612606.456 7                  24854746.092
        45.800
 128522042.483 5  99961630.075 6  24034269.757    24034268.776    24034277.963
        33.400          39.100
 122831697.772 8                  23374089.814
        48.300
 129449052.037 7 100682632.387 6  24284312.911    24284312.589    24284321.635
        43.000          38.600
 127654486.407 6  99471046.33845  24291835.407    24291834.6204   24291837.8094
        39.100          32.4004
 125091332.814 6  97473782.91246  23804084.831    23804084.1124   23804087.2064
        41.600          37.2004
 127880405.788 7  99462548.061 6  23922669.245    23922669.592    23922675.461
        42.600          39.800
 114983071.415 8  89597211.91548  21880544.296    21880543.8234   21880546.0564
        49.100          49.0004
 107681960.217 8  83752678.210 8  20172452.173    20172452.399    20172458.179
        51.200          48.600
 133600986.719 5 104104665.61342  25423423.751    25423423.4164   25423424.4334
        35.700          16.7004
 125644770.754 7  97723748.478 6  23479728.246    23479728.761    23479735.407
        43.800          39.900
 107711359.232 8  83775539.803 8  20121379.686    20121379.488    20121384.527
        52.500          48.100
 25  1  1 10  1 15.0000000  0 32G10G24E19E08R04S31S35G21R12E13S48S33
                                R02R13E29G23R19G18E07G15E33R20E26R14
                                G08G27R05G32R18G28R17R03
 111401919.660 8  86806710.70348  21199073.857    21199073.2544   21199074.8944
        50.900          50.8004
 113470031.304 7  88418247.89047  21592617.438    21592617.0234   21592618.9984
        45.600          45.1004
 145525780.835 5                  27692633.546
        32.700
 143047121.122 6                  27220953.459
        40.600
 109216739.190 8  84946406.302 7  20395452.714    20395453.384    20395458.482
        52.000          47.500
 198974342.580 7                  37863551.805
        45.900
 200954109.191 7                  38240291.649
        44.100
 132795473.675 5 103476999.17142  25270135.596    25270134.3094   25270135.4544
        35.700          14.2004
 122941316.045 7  95621060.030 7  23014864.573    23014865.394    23014872.105
        47.700          42.000
 137231593.391 6                  26114285.761
        41.800
 412716922.467 5                  78537610.676
        33.300
 202092755.234 7                  38456938.193
        45.000
 125494838.083 7  97607139.544 7  23517674.265    23517674.534    23517679.826
        46.400          42.400
 119720958.825 6                  22419877.124    22419876.000
        41.000
 127789759.391 7                  24317575.481
        46.800
 108299438.295 7  84389184.71046  20608690.527    20608690.1344   20608689.8884
        47.400          38.7004
 106307660.824 7  82683765.007 7  19873084.420    19873084.383    19873089.060
        42.700          45.800
 117490631.302 7  91551143.54145  22357719.717    22357719.4134   22357720.1834
        46.500          33.9004
 123922679.167 8                  23581693.412
        48.500
 127717252.840 6  99519956.85645  24303776.557    24303776.0974   24303776.1184
        39.400          32.3004
 130583522.017 7                  24849211.662
        45.400
 128460085.243 5  99913441.036 6  24022680.804    24022680.825    24022691.082
        32.200          40.500
 122841615.492 8                  23375977.075
        48.100
 129391566.016 7 100637921.102 6  24273528.187    24273528.399    24273537.504
        43.300          38.800
 127660375.405 6  99475635.21345  24292956.794    24292956.0304   24292958.4564
        37.600          32.0004
 125120461.628 7  97496480.68946  23809627.951    23809627.2234   23809630.3594
        42.100          37.3004
 127837636.531 7  99429283.093 6  23914668.162    23914669.095    23914674.155
        42.500          40.200
 114954312.974 8  89574802.74148  21875071.819    21875071.3594   21875073.5014
        49.200          49.1004
 107725019.601 8  83786168.849 8  20180518.266    20180518.826    20180524.686
        51.200          48.600
 133544252.870 6 104060457.39842  25412627.466    25412627.1534   25412628.1744
        36.600          16.0004
 125713892.771 7  97777510.076 6  23492645.549    23492645.485    23492653.138
        43.800          40.100
 107733096.559 8  83792446.627 8  20125439.846    20125440.330    20125444.980
        52.000          48.000
 25  1  1 10  1 30.0000000  0 32G10G24E19E08R04S31S35G21R12E13S48S33
                                R02R13E29G23R19G18E07G15E33R20E26R14
                                G08G27R05G32R18G28R17R03
 111379999.162 8  86789629.79948  21194902.627    21194902.0194   21194903.5594
        50.700          50.7004
 113491087.511 7  88434655.32447  21596624.404    21596623.9844   21596625.8814
        45.200          44.9004
 145487568.947 5                  27685362.227
        32.300
 143085427.873 6                  27228243.186
        39.600
 109198264.080 8  84932036.767 7  20392002.888    20392003.183    20392008.420
        52.100          47.600
 198974345.956 7                  37863551.595
        45.800
 200954109.532 7                  38240291.461
        44.000
 132751478.310 6 103442717.14042  25261762.980    25261761.6354   25261763.4054
        36.200          14.8004
 122948317.843 7  95626505.685 7  23016176.533    23016176.478    23016183.579
        46.900          42.300
 137273659.204 6                  26122290.544
        41.400
 412716782.028 5                  78537601.340
        32.700
 202092743.421 7                  38456937.008
        45.100
 125540161.654 7  97642391.183 7  23526167.249    23526167.978    23526173.234
        46.400          42.500
 119686614.126 6                  22413444.017    22413444.001
        40.300
 127767159.896 7                  24313275.046
        46.700
 108310901.721 7  84398117.26246  20610871.824    20610871.4354   20610871.2974
        47.600          38.6004
 106298324.969 7  82676503.781 7  19871339.295    19871338.921    19871343.835
        42.400          46.000
 117539159.221 7  91588957.46545  22366954.203    22366953.8904   22366954.7144
        46.100          33.7004
 123938190.771 8                  23584645.158
        48.500
 127769094.395 6  99560352.82045  24313641.544    24313641.0624   24313641.2554
        39.500          31.9004
 130554506.330 7                  24843689.786
        45.400
 128398187.156 5  99865297.585 6  24011106.976    24011107.108    24011116.336
        34.700          39.700
 122851634.358 8                  23377883.573
        48.300
 129334056.209 7 100593191.275 6  24262739.545    24262739.894    24262748.596
        43.700          40.000
 127666391.539 6  99480323.14245  24294100.487    24294099.7054   24294103.2634
        39.200          32.2004
 125149683.619 6  97519251.07146  23815188.815    23815188.0964   23815191.1664
        41.000          37.2004
 127794907.315 7  99396049.258 6  23906674.381    23906675.372    23906681.147
        42.800          40.600
 114925634.847 8  89552456.15548  21869614.304    21869613.8354   21869616.2254
        49.200          49.0004
 107768238.112 8  83819783.235 8  20188614.271    20188614.913    20188620.836
        50.700          48.400
 133487506.150 6 104016239.16942  25401828.918    25401828.5974   25401829.6044
        36.000          16.5004
 125783030.964 7  97831284.181 6  23505567.313    23505566.856    23505573.837
        44.500          40.600
 107754891.533 8  83809398.261 7  20129511.259    20129511.702    20129516.504
        52.200          47.900
 25  1  1 10  1 45.0000000  0 32G10G24E19E08R04S31S35G21R12E13S48S33
                                R02R13E29G23R19G18E07G15E33R20E26R14
                                G08G27R05G32R18G28R17R03
 111358121.477 8  86772582.25748  21190739.395    21190738.8014   21190740.3664
        50.900          50.8004
 113512298.300 7  88451183.20947  21600661.002    21600660.5874   21600662.1824
        45.200          45.0004
 145449384.032 5                  27678096.027
        33.700
 143123735.433 6                  27235532.846
        40.300
 109179865.761 8  84917726.983 7  20388567.006    20388567.189    20388572.573
        51.600          47.700
 198974349.388 7                  37863553.093
        45.800
 200954109.113 7                  38240292.217
        44.200
 132707521.669 5 103408465.35842  25253398.625    25253397.2574   25253398.8374
        34.500          14.1004
 122955503.279 7  95632094.309 7  23017521.774    23017521.551    23017528.205
        46.700          42.200
 137315770.600 6                  26130303.554
        41.700
 412716641.586 5                  78537574.514
        32.800
 202092732.547 7                  38456935.940
        45.200
 125585472.101 7  97677632.629 7  23534658.826    23534659.518    23534664.707
        46.500          42.600
 119652405.138 6                  22407038.193    22407037.717
        40.600
 127744622.418 7                  24308986.367
        47.100
 108322436.875 7  84407105.70146  20613067.026    20613066.6334   20613066.3364
        47.700          38.7004
 106289197.455 7  82669404.611 7  19869633.118    19869632.805    19869637.719
        42.600          46.100
 117587767.645 7  91626834.13345  22376204.181    22376203.8464   22376204.6374
        46.600          33.7004
 123953758.468 8                  23587607.740
        48.600
 127820934.529 6  99600747.65645  24323506.816    24323506.3024   24323506.2134
        39.400          32.2004
 130525556.664 7                  24838181.240
        45.900
 128336346.321 5  99817198.880 6  23999541.925    23999541.735    23999552.751
        32.100          38.600
 122861751.365 8                  23379808.946
        48.500
 129276519.555 7 100548440.633 6  24251946.501    24251946.090    24251954.605
        43.600          38.300
 127672531.653 6  99485107.68045  24295269.381    24295268.6084   24295272.0424
        39.700          32.6004
 125178995.386 7  97542091.39946  23820767.019    23820766.3004   23820769.1624
        42.100          37.2004
 127752215.339 7  99362844.406 6  23898688.828    23898689.372    23898694.713
        42.500          40.100
 114897034.024 8  89530169.80448  21864171.855    21864171.3824   21864173.6804
        49.200          49.1004
 107811612.500 8  83853518.882 8  20196740.127    20196740.294    20196746.405
        50.800          48.400
 133430743.844 5 103972008.77042  25391027.779    25391027.4224   25391028.1224
        35.500          16.3004
 125852181.756 7  97885068.117 6  23518488.680    23518489.644    23518495.467
        45.100          40.000
 107776740.407 8  83826391.819 8  20133593.049    20133593.413    20133598.107
        52.500          48.100
 25  1  1 10  2  0.0000000  0 32G10G24E19E08R04S31S35G21R12E13S48S33
                                R02R13E29G23R19G18E07G15E33R20E26R14
                                G08G27R05G32R18G28R17R03
 111336283.265 8  86755565.47148  21186583.707    21186583.1174   21186584.7044
        50.700          50.9004
 113533660.035 7  88467828.70647  21604726.071    21604725.6474   21604727.1694
        45.800          45.2004
 145411222.719 5                  27670833.812
        34.000
 143162040.175 6                  27242821.756
        40.800
 109161540.512 8  84903474.004 7  20385145.119    20385145.302    20385150.234
        51.700          47.600
 198974349.539 7                  37863552.730
        45.900
 200954106.131 7                  38240292.167
        44.100
 132663600.323 6 103374241.22942  25245041.033    25245039.6964   25245040.8024
        36.800          15.0004
 122962868.827 7  95637823.096 7  23018900.559    23018900.926    23018907.374
        47.500          42.100
 137357923.902 6                  26138325.278
        41.900
 412716498.784 5                  78537561.014
        32.900
 202092718.233 7                  38456931.902
        45.100
 125630765.925 7  97712861.182 7  23543146.948    23543146.765    23543152.227
        45.900          42.400
 119618328.763 6                  22400656.654    22400656.041
        40.500
 127722143.546 7                  24304708.467
        47.200
 108334040.357 7  84416147.38146  20615275.113    20615274.7204   20615274.4064
        47.900          38.8004
 106280274.912 7  82662464.844 7  19867964.513    19867964.792    19867969.638
        42.500          46.000
 117636452.835 7  91664770.61045  22385468.579    22385468.2354   22385469.0924
        46.000          33.7004
 123969378.669 8                  23590580.217
        48.700
 127872769.667 6  99641138.59145  24333370.520    24333370.0024   24333370.1474
        40.100          32.2004
 130496669.787 7                  24832683.888
        46.100
 128274560.140 5  99769142.812 6  23987989.057    23987988.851    23987997.967
        33.100          38.800
 122871963.039 8                  23381752.113
        48.500
 129218953.374 7 100503666.973 6  24241146.500    24241147.041    24241155.220
        44.000          38.900
 127678792.188 6  99489986.03745  24296460.556    24296459.7924   24296463.0594
        38.600          32.3004
 125208393.108 6  97564998.69946  23826360.815    23826360.0964   23826363.2114
        41.500          36.9004
 127709556.860 7  99329665.595 6  23890707.988    23890708.648    23890714.593
        42.300          40.500
 114868507.061 8  89507941.00848  21858743.614    21858743.1454   21858745.1974
        49.100          49.2004
 107855138.728 8  83887372.620 8  20204894.491    20204894.441    20204900.346
        51.600          48.500
 133373962.817 6 103927763.82543  25380223.551    25380223.1944   25380223.2334
        36.500          18.1004
 125921341.132 7  97938858.742 6  23531413.072    23531413.160    23531419.896
        43.700          39.400
 107798639.689 8  83843424.588 7  20137683.800    20137684.451    20137689.101
        52.300          47.900
 25  1  1 10  2 15.0000000  0 32G10G24E19E08R04S31S35G21R12E13S48S33
                                R02R13E29G23R19G18E07G15E33R20E26R14
                                G08G27R05G32R18G28R17R03
 111314490.982 8  86738584.47948  21182436.750    21182436.1564   21182437.7754
        51.400          51.1004
 113555178.836 7  88484596.59747  21608820.802    21608820.3694   21608822.0934
        45.600          45.2004
 145373091.337 5                  27663576.473
        33.200
 143200348.361 6                  27250111.557
        40.700
 109143294.821 8  84889282.914 7  20381737.952    20381737.706    20381742.863
        51.600          47.700
 198974353.243 7                  37863552.976
        45.800
 200954105.805 7                  38240291.881
        44.000
 132619720.552 5 103340049.38642  25236690.299    25236688.9454   25236690.3294
        34.600          14.0004
 122970420.533 7  95643696.566 6  23020314.136    23020314.035    23020320.894
        46.800          41.700
 137400125.335 7                  26146356.301
        42.100
 412716359.750 5                  78537543.504
        32.300
 202092707.316 7                  38456928.606
        45.100
 125676049.544 7  97748081.789 7  23551633.359    23551632.948    23551638.307
        44.900          42.100
 119584391.956 6                  22394300.833    22394301.293
        40.100
 127699729.555 7                  24300443.515
        47.000
 108345718.584 7  84425247.30146  20617497.082    20617496.6804   20617496.6864
        47.700          38.9004
 106271563.911 7  82655689.634 7  19866336.412    19866336.289    19866341.301
        42.500          46.000
 117685220.819 7  91702771.60245  22394748.782    22394748.4434   22394749.3234
        46.300          33.7004
 123985057.558 8                  23593563.766
        48.700
 127924606.113 6  99681530.57545  24343234.811    24343234.2844   24343234.5154
        39.000          32.2004
 130467852.204 7                  24827200.112
        46.100
 128212835.381 5  99721134.670 6  23976445.712    23976444.838    23976455.184
        31.500          38.700
 122882275.760 8                  23383714.586
        48.600
 129161364.572 7 100458875.699 6  24230342.872    24230343.020    24230351.078
        43.500          38.500
 127685179.293 6  99494963.04345  24297675.606    24297674.8554   24297678.2584
        40.100          32.7004
 125237882.820 6  97587977.68746  23831972.689    23831971.9434   23831974.6554
        41.200          36.8004
 127666938.337 6  99296517.851 6  23882735.951    23882735.427    23882741.184
        41.900          40.100
 114840060.366 8  89485774.77848  21853330.203    21853329.7344   21853331.9454
        49.200          49.3004
 107898822.677 8  83921349.030 8  20213077.749    20213077.600    20213083.590
        51.000          48.600
 133317169.693 6 103883509.44243  25369415.076    25369414.6964   25369416.3014
        37.100          18.5004
 125990515.067 7  97992660.682 6  23544340.038    23544340.286    23544347.134
        44.400          40.400
 107820595.417 8  83860501.257 8  20141785.870    20141785.765    20141790.625
        52.500          48.000
 25  1  1 10  2 30.0000000  0 32G10G24E19E08R04S31S35G21R12E13S48S33
                                R02R13E29G23R19G18E07G15E33R20E26R14
                                G08G27R05G32R18G28R17R03
 111292737.613 8  86721633.80248  21178297.085    21178296.4824   21178298.2334
        51.100          50.8004
 113576847.330 7  88501481.13547  21612944.190    21612943.7664   21612945.4884
        45.300          45.0004
 145334982.673 5                  27656326.368
        33.900
 143238652.718 6                  27257400.693
        40.900
 109125121.186 8  84875147.860 7  20378344.143    20378344.111    20378348.905
        52.000          47.600
 198974352.937 7                  37863552.216
        45.900
 200954102.131 7                  38240290.039
        44.100
 132575875.587 5 103305884.62942  25228347.250    25228345.8784   25228346.8094
        35.000          14.9004
 122978151.320 8  95649709.300 7  23021761.542    23021761.785    23021768.528
        48.200          42.100
 137442367.593 6                  26154394.608
        41.300
 412716215.915 5                  78537517.649
        32.700
 202092692.438 7                  38456926.692
        45.300
 125721315.359 7  97783288.548 7  23560116.196    23560116.000    23560121.238
        45.200          42.400
 119550587.776 6                  22387971.305    22387969.739
        39.400
 127677373.331 7                  24296189.025
        47.100
 108357464.481 7  84434399.94946  20619732.575    20619732.1734   20619731.8584
        47.500          38.6004
 106263057.695 7  82649073.683 7  19864746.037    19864746.042    19864751.134
        42.500          46.200
 117734064.185 7  91740831.33245  22404043.544    22404043.2094   22404043.9844
        46.100          33.3004
 124000787.807 8                  23596557.044
        48.600
 127976436.573 6  99721917.93445  24353097.774    24353097.2604   24353097.5824
        39.500          32.0004
 130439096.978 7                  24821728.352
        46.100
 128151165.111 5  99673169.099 6  23964913.611    23964912.367    23964923.250
        32.900          39.000
 122892682.368 8                  23385694.857
        48.500
 129103746.040 7 100414061.303 6  24219534.325    24219534.594    24219542.165
        44.500          38.500
 127691685.697 6  99500033.01545  24298914.513    24298913.7674   24298916.5984
        40.100          32.7004
 125267456.994 6  97611022.49746  23837599.937    23837599.1914   23837602.4654
        40.500          36.5004
 127624352.636 7  99263395.627 6  23874770.327    23874769.652    23874775.092
        42.600          40.400
 114811686.793 8  89463665.53848  21847930.763    21847930.2984   21847932.5594
        49.100          49.0004
 107942656.688 8  83955442.151 8  20221289.188    20221289.529    20221295.394
        51.400          48.400
 133260357.550 6 103839240.23542  25358603.754    25358603.3434   25358605.1294
        36.300          16.6004
 126059695.908 7  98046467.982 6  23557267.514    23557267.523    23557274.849
        44.200          40.200
 107842600.627 8  83877616.413 7  20145896.507    20145896.456    20145901.540
        52.400          47.900
 25  1  1 10  2 45.0000000  0 32G10G24E19E08R04S31S35G21R12E13S48S33
                                R02R13E29G23R19G18E07G15E33R20E26R14
                                G08G27R05G32R18G28R17R03
 111271030.185 8  86704718.92348  21174166.327    21174165.7194   21174167.4734
        51.000          50.8004
 113598672.301 7  88518487.59147  21617097.555    21617097.1314   21617098.6374
        45.200          45.0004
 145296903.893 5                  27649079.777
        32.800
 143276960.039 6                  27264689.792
        40.500
 109107026.557 8  84861074.271 7  20374964.681    20374965.224    20374970.206
        51.800          47.800
 198974355.235 7                  37863553.661
        45.900
 200954100.780 7                  38240291.385
        44.100
 132532072.176 6 103271752.10042  25220011.630    25220010.2624   25220011.3424
        36.500          16.1004
 122986067.972 7  95655866.520 7  23023243.174    23023243.203    23023251.068
        47.300          42.000
 137484657.455 6                  26162442.043
        41.900
 412716074.983 5                  78537505.258
        32.700
 202092680.071 7                  38456925.337
        45.100
 125766570.743 7  97818487.226 7  23568596.552    23568596.911    23568601.872
        45.700          42.100
 119516923.838 6                  22381666.290    22381666.361
        41.100
 127655081.786 7                  24291947.113
        47.200
 108369285.025 7  84443610.76446  20621981.793    20621981.3964   20621981.2054
        47.800          38.7004
 106254763.101 7  82642622.351 7  19863195.271    19863195.382    19863200.434
        42.500          46.100
 117782989.545 7  91778954.95145  22413353.648    22413353.3094   22413354.1354
        46.000          33.4004
 124016576.219 8                  23599561.568
        48.600
 128028267.669 6  99762305.79045  24362960.645    24362960.1634   24362960.5064
        38.700          31.9004
 130410411.286 7                  24816269.665
        46.100
 128089556.428 5  99625251.509 6  23953390.963    23953389.515    23953400.804
        32.500          38.900
 122903189.821 8                  23387694.430
        48.600
 129046105.802 7 100369230.102 6  24208720.908    24208721.137    24208730.130
        44.900          40.000
 127698318.156 6  99505201.18845  24300175.878    24300175.1324   24300178.6464
        40.100          32.9004
 125297122.189 6  97634138.22346  23843246.241    23843245.5084   23843247.6114
        40.500          36.5004
 127581806.538 7  99230304.217 6  23866810.381    23866810.830    23866815.818
        42.400          40.100
 114783393.235 8  89441618.64848  21842546.749    21842546.2844   21842548.3674
        49.300          49.0004
 107986647.381 8  83989657.142 8  20229530.260    20229530.497    20229536.308
        51.600          48.400
 133203533.587 5 103794961.80542  25347790.872    25347790.5154   25347791.8114
        34.900          15.8004
 126128890.150 7  98100285.748 6  23570198.163    23570198.816    23570204.801
        43.600          39.800
 107864661.566 8  83894774.926 8  20150017.377    20150017.991    20150022.573
        52.300          48.100
 25  1  1 10  3  0.0000000  0 32G10G24E19E08R04S31S35G21R12E13S48S33
                                R02R13E29G23R19G18E07G15E33R20E26R14
                                G08G27R05G32R18G28R17R03
 111249364.879 8  86687836.87648  21170043.572    21170042.9694   21170044.7134
        51.100          50.8004
 113620649.453 7  88535612.64047  21621279.101    21621278.6904   21621280.7764
        45.200          44.8004
 145258851.002 5                  27641838.347
        32.400
 143315266.178 6                  27271979.813
        40.500
 109089006.967 8  84847059.019 7  20371599.674    20371600.122    20371605.216
        51.800          47.800
 198974356.600 7                  37863554.376
        45.800
 200954098.618 7                  38240292.194
        44.000
 132488307.403 5 103237649.70342  25211683.239    25211681.8944   25211683.1604
        35.700          14.7004
 122994166.851 7  95662165.545 6  23024759.576    23024760.339    23024766.318
        47.300          41.100
 137526990.723 7                  26170498.176
        42.100
 412715933.835 5                  78537488.775
        32.700
 202092667.023 7                  38456921.997
        45.000
 125811811.360 7  97853674.416 7  23577074.286    23577074.700    23577080.238
        45.400          42.400
 119483396.648 6                  22375387.554    22375387.940
        40.900
 127632850.885 7                  24287716.713
        47.300
 108381176.250 7  84452876.65246  20624244.800    20624244.4034   20624244.0474
        47.600          38.6004
 106246676.692 7  82636332.913 7  19861683.757    19861683.745    19861688.900
        42.100          46.100
 117831992.638 7  91817139.14745  22422679.083    22422678.7624   22422679.0464
        46.100          33.1004
 124032418.602 8                  23602576.067
        48.600
 128080095.195 6  99802690.85145  24372823.495    24372822.9904   24372823.0324
        40.100          32.2004
 130381791.284 7                  24810823.210
        46.100
 128028006.061 5  99577379.172 6  23941881.047    23941880.524    23941890.883
        32.300          38.800
 122913794.101 8                  23389712.289
        48.600
 128988439.942 7 100324378.995 6  24197902.369    24197902.565    24197910.861
        43.500          38.900
 127705072.456 6  99510464.28445  24301461.280    24301460.5524   24301463.7994
        39.800          32.6004
 125326874.074 6  97657321.51246  23848907.467    23848906.7484   23848909.1014
        41.100          36.4004
 127539296.249 7  99197240.643 6  23858858.476    23858858.372    23858864.258
        42.600          41.100
 114755175.717 8  89419631.00948  21837177.126    21837176.6574   21837178.6604
        49.500          48.9004
 108030790.170 8  84023990.409 8  20237799.446    20237799.685    20237805.890
        51.300          48.500
 133146694.129 6 103750671.32442  25336975.830    25336975.4594   25336975.4844
        37.100          17.7004
 126198093.181 7  98154110.319 6  23583130.274    23583130.480    23583137.663
        44.600          40.000
 107886774.155 8  83911973.588 8  20154148.196    20154148.482    20154153.360
        52.300          48.000
 25  1  1 10  3 15.0000000  0 32G10G24E19E08R04S31S35G21R12E13S48S33
                                R02R13E29G23R19G18E07G15E33R20E26R14
                                G08G27R05G32R18G28R17R03
 111227745.038 8  86670990.24748  21165929.560    21165928.9524   21165930.5844
        51.300          51.0004
 113642781.876 7  88552858.68847  21625491.088    21625490.6734   21625492.4454
        45.900          45.1004
 145220827.348 5                  27634603.111
        33.500
 143353574.317 6                  27279269.541
        41.400
 109071065.464 8  84833104.534 8  20368249.807    20368249.656    20368254.638
        51.400          48.000
 198974360.425 7                  37863554.872
        45.700
 200954098.262 7                  38240292.472
        44.000
 132444583.689 6 103203579.09742  25203362.844    25203361.5074   25203362.5524
        36.300          15.1004
 123002451.213 7  95668608.950 6  23026310.407    23026310.441    23026317.546
        47.300          41.100
 137569370.541 7                  26178562.475
        42.300
 412715795.366 5                  78537462.138
        32.700
 202092656.462 7                  38456918.527
        44.900
 125857040.447 7  97888852.669 7  23585550.984    23585550.768    23585555.778
        45.900          42.400
 119450009.752 6                  22369137.265    22369135.967
        41.600
 127610683.879 7                  24283498.441
        47.400
 108393141.509 7  84462200.23146  20626521.581    20626521.1754   20626520.9704
        47.900          38.8004
 106238801.611 6  82630207.869 7  19860212.433    19860211.517    19860216.722
        41.700          46.200
 117881076.395 7  91855386.19045  22432019.190    22432018.8864   22432019.4254
        45.800          33.1004
 124048318.096 8                  23605601.727
        48.800
 128131922.127 6  99843075.39445  24382685.444    24382684.9484   24382685.6254
        40.500          32.3004
 130353240.435 7                  24805390.322
        46.000
 127966517.780 5  99529555.190 6  23930381.067    23930381.823    23930392.043
        32.700          39.500
 122924498.489 8                  23391749.307
        48.600
 128930752.112 7 100279510.847 6  24187080.977    24187081.194    24187088.613
        45.000          38.700
 127711951.841 6  99515824.88245  24302770.532    24302769.8174   24302772.9794
        40.500          33.3004
 125356715.518 6  97680574.57246  23854585.373    23854584.6314   23854587.7754
        40.900          36.6004
 127496825.075 7  99164207.528 6  23850912.293    23850912.973    23850917.970
        42.800          40.600
 114727037.509 8  89397705.16848  21831822.481    21831822.0124   21831824.0974
        49.300          49.1004
 108075088.095 8  84058444.353 8  20246098.173    20246098.395    20246104.032
        51.500          48.300
 133089842.880 6 103706371.64942  25326156.295    25326155.9654   25326156.9344
        38.100          17.8004
 126267308.062 7  98207944.130 6  23596064.536    23596064.984    23596071.604
        43.600          39.200
 107908941.799 8  83929215.103 8  20158289.655    20158289.799    20158294.525
        52.800          48.000
 25  1  1 10  3 30.0000000  0 32G10G24E19E08R04S31S35G21R12E13S48S33
                                R02R13E29G23R19G18E07G15E33R20E26R14
                                G08G27R05G32R18G28R17R03
 111206164.943 8  86654174.58048  21161823.027    21161822.4284   21161824.0384
        51.400          51.1004
 113665063.478 7  88570220.96847  21629731.163    21629730.7434   21629732.5134
        45.700          45.2004
 145182827.114 5                  27627371.474
        32.600
 143391878.499 6                  27286558.317
        41.100
 109053196.061 8  84819206.121 7  20364912.020    20364912.453    20364917.582
        51.600          47.800
 198974360.561 7                  37863554.931
        45.900
 200954094.695 7                  38240291.237
        44.100
 132400896.591 5 103169537.10442  25195048.428    25195047.0514   25195049.3274
        35.900          14.2004
 123010914.904 7  95675191.822 6  23027894.322    23027894.356    23027902.115
        46.600          41.300
 137611790.860 7                  26186634.920
        42.100
 412715652.726 5                  78537448.133
        32.400
 202092641.816 7                  38456915.795
        45.100
 125902251.811 7  97924017.146 7  23594022.242    23594022.682    23594028.779
        44.800          42.500
 119416757.878 6                  22362908.596    22362908.263
        39.500
 127588574.936 7                  24279291.082
        47.600
 108405175.006 7  84471576.98346  20628811.521    20628811.1154   20628810.8394
        47.900          38.8004
 106231131.794 7  82624242.437 7  19858778.506    19858777.844    19858782.882
        42.500          46.200
 117930234.686 7  91893691.32345  22441373.971    22441373.6764   22441373.9704
        46.200          33.2004
 124064268.716 8                  23608637.190
        48.800
 128183742.648 6  99883454.95845  24392546.789    24392546.2714   24392546.7734
        40.100          31.9004
 130324753.115 7                  24799969.351
        46.500
 127905085.337 5  99481774.378 6  23918895.240    23918893.428    23918903.528
        34.400          39.500
 122935297.133 8                  23393804.273
        48.700
 128873037.362 7 100234621.712 6  24176253.386    24176253.531    24176261.661
        44.100          39.100
 127718950.183 6  99521278.13545  24304102.677    24304101.9494   24304104.6774
        39.300          32.5004
 125386640.356 6  97703892.61946  23860280.788    23860280.0644   23860282.5524
        41.100          36.6004
 127454387.155 7  99131200.263 6  23842974.026    23842974.140    23842979.637
        42.600          40.400
 114698972.790 8  89375836.58548  21826482.058    21826481.5854   21826483.5544
        49.400          49.2004
 108119534.535 8  84093013.796 8  20254424.294    20254424.655    20254430.350
        51.200          48.200
 133032974.140 6 103662058.31943  25315333.826    25315333.5004   25315335.7554
        37.400          18.2004
 126336528.154 7  98261781.984 6  23609000.212    23609000.382    23609007.355
        44.100          39.500
 107931158.188 8  83946494.502 8  20162439.854    20162439.957    20162444.571
        52.100          48.000
 25  1  1 10  3 45.0000000  0 32G10G24E19E08R04S31S35G21R12E13S48S33
                                R02R13E29G23R19G18E07G15E33R20E26R14
                                G08G27R05G32R18G28R17R03
 111184628.205 8  86637392.69648  21157724.609    21157724.0014   21157725.7244
        51.500          51.1004
 113687497.567 7  88587702.07047  21633999.961    21633999.5464   21634001.5674
        45.600          45.3004
 145144853.902 5                  27620145.195
        33.100
 143430182.044 6                  27293847.391
        40.800
 109035402.117 8  84805366.387 7  20361589.518    20361589.787    20361594.661
        51.700          47.800
 198974360.139 7                  37863556.223
        46.000
 200954091.092 7                  38240286.882
        44.300
 132357249.872 5 103135526.81242  25186743.706    25186742.3204   25186743.6824
        35.600          13.9004
 123019561.475 8  95681916.950 6  23029513.671    23029514.255    23029520.726
        48.000          41.400
 137654255.044 7                  26194715.466
        42.500
 412715509.299 5                  78537431.570
        33.000
 202092627.160 7                  38456915.039
        45.300
 125947448.830 7  97959170.347 6  23602492.911    23602493.612    23602498.233
        45.300          41.900
 119383645.081 6                  22356707.085    22356706.672
        39.900
 127566527.522 7                  24275095.632
        47.500
 108417280.272 7  84481009.65846  20631115.098    20631114.6964   20631114.4004
        47.800          38.9004
 106223671.078 7  82618439.654 7  19857384.411    19857383.364    19857388.295
        42.400          46.200
 117979470.704 7  91932057.00045  22450742.822    22450742.5234   22450743.4234
        46.500          33.0004
 124080273.780 8                  23611682.642
        49.000
 128235560.054 6  99923832.10745  24402407.100    24402406.5824   24402407.2294
        39.300          31.8004
 130296332.995 7                  24794560.989
        46.700
 127843713.430 5  99434040.694 6  23907416.332    23907416.526    23907427.113
        32.900          39.800
 122946193.540 8                  23395877.528
        48.800
 128815299.084 7 100189714.310 6  24165422.241    24165422.689    24165430.313
        45.000          39.400
 127726070.904 6  99526826.76845  24305457.537    24305456.7914   24305459.1504
        39.700          32.2004
 125416651.719 6  97727278.10246  23865990.795    23865990.0894   23865993.5434
        41.900          36.8004
 127411985.720 7  99098221.347 6  23835043.345    23835043.002    23835047.297
        43.000          40.100
 114670985.048 8  89354027.98848  21821155.967    21821155.4894   21821157.6324
        49.700          49.2004
 108164132.638 8  84127701.210 8  20262779.260    20262779.367    20262785.438
        51.100          48.200
 132976091.721 6 103617734.37942  25304509.832    25304509.4844   25304511.5944
        37.100          17.8004
 126405756.570 7  98315626.295 6  23621937.631    23621937.671    23621944.801
        44.000          40.300
 107953426.722 8  83963814.475 8  20166599.624    20166599.952    20166604.696
        52.200          48.000
 25  1  1 10  4  0.0000000  0 32G10G24E19E08R04S31S35G21R12E13S48S33
                                R02R13E29G23R19G18E07G15E33R20E26R14
                                G08G27R05G32R18G28R17R03
 111163139.576 8  86620648.31148  21153635.614    21153634.9974   21153636.6044
        51.300          51.5004
 113710088.465 7  88605305.36147  21638299.071    21638298.6604   21638300.4964
        45.600          45.5004
 145106912.336 5                  27612925.451
        34.000
 143468489.455 6                  27301136.941
        41.000
 109017688.254 8  84791588.940 7  20358281.552    20358281.936    20358286.908
        51.900          47.800
 198974364.789 7                  37863552.945
        45.600
 200954091.362 7                  38240290.102
        44.100
 132313647.896 5 103101551.38142  25178446.495    25178445.1274   25178446.7524
        35.100          16.0004
 123028395.358 7  95688787.751 6  23031167.577    23031167.879    23031174.493
        47.700          41.700
 137696767.478 6                  26202805.619
        41.900
 412715371.594 5                  78537412.266
        32.400
 202092617.207 7                  38456911.069
        44.900
 125992636.460 7  97994316.242 7  23610960.725    23610960.696    23610966.721
        44.500          42.500
 119350676.406 6                  22350533.679    22350532.658
        39.600
 127544546.188 7                  24270912.679
        47.300
 108429461.982 7  84490501.90146  20633433.293    20633432.8914   20633432.4894
        47.800          39.1004
 106216424.171 7  82612803.186 7  19856028.528    19856028.659    19856033.546
        42.500          46.300
 118028788.767 7  91970486.62845  22460127.950    22460127.6334   22460128.1614
        46.100          33.3004
 124096337.708 8                  23614739.604
        48.900
 128287378.776 6  99964210.24245  24412268.447    24412267.9334   24412268.0194
        39.600          31.9004
 130267984.851 7                  24789166.626
        46.600
 127782407.478 5  99386358.409 6  23895953.664    23895953.182    23895961.194
        34.500          39.300
 122957192.283 8                  23397970.608
        48.700
 128757542.478 7 100144792.642 6  24154587.694    24154587.733    24154595.398
        45.600          39.900
 127733318.429 6  99532474.22045  24306836.619    24306835.8824   24306838.1004
        40.000          32.7004
 125446753.829 6  97750734.28446  23871719.457    23871718.7514   23871721.7454
        40.500          36.9004
 127369625.726 7  99065274.672 6  23827117.920    23827118.817    23827123.291
        43.800          40.500
 114643078.905 8  89332282.97748  21815845.630    21815845.1614   21815847.2144
        49.000          49.5004
 108208886.676 8  84162509.885 8  20271163.245    20271163.177    20271168.872
        51.000          48.300
 132919200.465 6 103573403.51442  25293684.223    25293683.8434   25293684.9144
        37.200          17.6004
 126474997.691 7  98369480.486 6  23634875.703    23634876.173    23634884.107
        43.000          39.400
 107975751.646 8  83981178.301 8  20170770.190    20170770.505    20170775.115
        52.400          48.000
 25  1  1 10  4 15.0000000  0 32G10G24E19E08R04S31S35G21R12E13S48S33
                                R02R13E29G23R19G18E07G15E33R20E26R14
                                G08G27R05G32R18G28R17R03
 111141691.249 8  86603935.32048  21149554.005    21149553.3884   21149555.1494
        51.500          51.5004
 113732828.090 7  88623024.54347  21642626.336    21642625.9254   21642627.7394
        45.900          45.6004
 145068994.486 5                  27605709.366
        32.800
 143506792.695 6                  27308426.046
        40.600
 109000046.341 8  84777867.450 7  20354987.561    20354987.347    20354992.284
        52.200          47.800
 198974365.256 7                  37863555.315
        45.700
 200954088.385 7                  38240289.695
        44.100
 132270082.748 5 103067604.44542  25170157.266    25170155.9384   25170156.8784
        35.900          14.6004
 123037409.089 7  95695798.632 6  23032854.111    23032854.334    23032861.560
        47.000          41.300
 137739320.149 7                  26210903.173
        42.400
 412715230.851 5                  78537395.318
        32.500
 202092603.307 7                  38456911.042
        45.100
 126037806.423 7  98029448.418 7  23619425.903    23619425.621    23619431.369
        45.400          42.300
 119317844.200 6                  22344384.580    22344384.866
        40.000
 127522623.054 7                  24266740.905
        47.600
 108441712.268 8  84500047.57746  20635764.349    20635763.9434   20635763.6534
        48.200          39.2004
 106209383.441 7  82607327.060 7  19854712.835    19854712.473    19854717.212
        42.600          46.200
 118078180.672 7  92008973.79345  22469527.012    22469526.6914   22469527.1364
        46.200          33.1004
 124112452.485 8                  23617806.162
        48.900
 128339190.837 6 100004583.19445  24422127.639    24422127.1164   24422127.7194
        38.700          31.6004
 130239700.980 7                  24783784.261
        46.600
 127721159.866 5  99338721.515 6  23884497.449    23884498.186    23884508.219
        33.700          39.100
 122968285.475 8                  23400081.694
        49.000
 128699760.205 7 100099850.955 6  24143745.932    24143746.677    24143755.916
        44.900          39.900
 127740684.710 6  99538214.21745  24308238.104    24308237.3624   24308239.7924
        39.600          32.8004
 125476938.369 6  97774254.70846  23877463.704    23877463.0074   23877465.5184
        41.600          36.9004
 127327298.704 7  99032353.678 6  23819200.151    23819199.793    23819204.481
        42.300          40.000
 114615246.468 8  89310595.40548  21810549.544    21810549.0714   21810550.8184
        49.600          49.5004
 108253788.090 8  84197433.193 8  20279574.829    20279574.974    20279580.821
        51.500          48.200
 132862292.821 6 103529059.86542  25282854.410    25282854.0534   25282855.0114
        36.000          17.2004
 126544242.812 7  98423337.795 6  23647817.871    23647817.795    23647824.638
        43.700          39.600
 107998125.125 8  83998579.893 7  20174949.644    20174949.867    20174954.691
        52.300          47.900
 25  1  1 10  4 30.0000000  0 32G10G24E19E08R04S31S35G21R12E13S48S33
                                R02R13E29G23R19G18E07G15E33R20E26R14
                                G08G27R05G32R18G28R17R03
 111120287.254 8  86587256.86448  21145480.925    21145480.2994   21145482.1184
        51.400          51.2004
 113755720.122 7  88640862.48847  21646982.602    21646982.1874   21646983.9754
        45.900          45.3004
 145031104.370 5                  27598499.631
        33.800
 143545095.598 6                  27315714.995
        41.100
 108982480.306 8  84764204.979 7  20351706.665    20351707.054    20351711.848
        52.000          47.700
 198974366.287 7                  37863556.138
        45.600
 200954085.587 7                  38240288.174
        44.000
 132226559.439 5 103033690.32142  25161874.435    25161873.0764   25161874.4584
        35.100          15.6004
 123046605.860 7  95702951.765 6  23034575.328    23034575.515    23034583.296
        46.900          41.300
 137781916.804 7                  26219008.929
        42.700
 412716689.910 5                  78537377.758
        32.800
 202092590.414 7                  38456907.344
        44.900
 126082962.717 7  98064569.953 7  23627887.401    23627888.229    23627893.432
        45.400          42.500
 119285152.963 6                  22338264.053    22338263.183
        41.000
 127500761.991 7                  24262580.966
        47.800
 108454035.120 7  84509649.79946  20638109.447    20638109.0324   20638108.6084
        47.600          38.8004
 106202552.699 7  82602014.266 7  19853435.370    19853435.207    19853440.506
        42.200          46.600
 118127650.033 7  92047521.31845  22478940.692    22478940.3624   22478941.0284
        45.900          32.6004
 124128621.831 8                  23620883.139
        48.800
 128390999.987 6 100044953.93845  24431986.607    24431986.0804   24431986.7484
        40.400          31.5004
 130211485.493 7                  24778415.148
        46.800
 127659974.926 5  99291133.265 6  23873056.017    23873057.379    23873066.643
        33.500          38.800
 122979477.029 8                  23402211.313
        48.800
 128641956.681 7 100054892.765 6  24132901.920    24132901.852    24132911.172
        43.700          39.300
 127748173.402 6  99544049.59045  24309663.507    24309662.7614   24309664.9484
        39.700          32.6004
 125507208.993 6  97797842.19046  23883223.110    23883222.3954   23883225.7104
        41.800          36.7004
 127285009.156 7  98999461.782 6  23811288.246    23811289.152    23811293.353
        43.200          40.400
 114587491.652 8  89288968.31648  21805267.279    21805266.7974   21805269.1974
        49.200          49.2004
 108298840.393 8  84232473.832 8  20288014.311    20288014.531    20288020.597
        51.100          48.300
 132805372.954 6 103484706.72942  25272024.431    25272024.0964   25272023.3604
        36.400          17.0004
 126613495.418 7  98477200.917 6  23660757.402    23660757.866    23660765.277
        43.500          39.400
 108020550.692 8  84016021.977 8  20179139.022    20179139.245    20179143.998
        52.500          48.000
 25  1  1 10  4 45.0000000  0 32G10G24E19E08R04S31S35G21R12E13S48S33
                                R02R13E29G23R19G18E07G15E33R20E26R14
                                G08G27R05G32R18G28R17R03
 111098926.033 8  86570611.74148  21141416.086    21141415.4604   21141417.2474
        51.400          51.2004
 113778762.587 7  88658817.64247  21651367.166    21651366.7514   21651368.8354
        45.900          45.4004
 144993240.294 5                  27591293.814
        33.200
 143583396.255 6                  27323002.899
        40.700
 108964988.157 8  84750599.989 7  20348440.212    20348440.467    20348445.404
        52.100          47.700
 198974366.350 7                  37863554.237
        45.800
 200954081.522 7                  38240289.171
        44.200
 132183076.097 5 102999807.44342  25153599.782    25153598.4374   25153599.6184
        34.700          14.2004
 123055984.338 7  95710246.342 6  23036332.059    23036332.027    23036338.671
        47.700          41.300
 137824555.530 7                  26227122.677
        42.100
 412716550.194 5                  78537357.229
        33.100
 202092575.743 7                  38456904.290
        45.100
 126128103.606 7  98099679.535 7  23636347.502    23636347.685    23636353.191
        44.900          42.300
 119252601.447 6                  22332167.491    22332167.199
        40.900
 127478961.260 7                  24258432.286
        47.600
 108466428.835 8  84519307.24346  20640467.900    20640467.4984   20640467.0674
        48.100          38.9004
 106195930.614 7  82596863.760 7  19852197.475    19852197.301    19852202.559
        42.200          46.600
 118177194.796 7  92086127.60245  22488368.905    22488368.5754   22488369.1274
        45.800          32.7004
 124144843.860 8                  23623970.027
        48.600
 128442804.398 6 100085320.99445  24441844.702    24441844.1794   24441844.9054
        40.700          31.8004
 130183336.904 7                  24773058.792
        46.400
 127598851.374 5  99243592.799 6  23861624.735    23861625.220    23861636.196
        33.300          39.900
 122990765.224 8                  23404359.277
        48.600
 128584130.778 7 100009917.112 6  24122055.247    24122055.087    24122063.154
        45.000          39.400
 127755782.695 6  99549978.93145  24311111.796    24311111.0324   24311113.4544
        39.000          32.3004
 125537563.523 6  97821495.06746  23888999.585    23888998.8614   23889001.9194
        41.500          36.6004
 127242755.145 7  98966597.554 6  23803383.851    23803384.853    23803389.452
        43.500          40.700
 114559812.704 8  89267400.33848  21800000.757    21800000.2884   21800002.0064
        49.500          49.2004
 108344041.473 8  84267630.203 8  20296482.572    20296482.720    20296488.286
        51.600          48.200
 132748439.414 6 103440342.93643  25261189.614    25261189.2884   25261189.9154
        38.400          18.7004
 126682753.371 7  98531068.222 6  23673700.461    23673700.991    23673707.888
        43.800          39.000
 108043026.524 8  84033503.169 8  20183337.393    20183337.880    20183342.659
        52.200          48.000
 25  1  1 10  5  0.0000000  0 32G10G24E19E08R04S31S35G21R12E13S48S33
                                R02R13E29G23R19G18E07G15E33R20E26R14
                                G08G27R05G32R18G28R17R03
 111077612.921 8  86554004.10848  21137360.541    21137359.9154   21137361.5134
        51.200          51.3004
 113801960.482 7  88676893.91347  21655781.973    21655781.5494   21655783.2664
        45.400          45.4004
 144955407.582 5                  27584094.819
        32.400
 143621699.827 6                  27330292.169
        40.800
 108947575.230 8  84737056.589 7  20345188.515    20345188.958    20345193.474
        52.500          47.800
 198974370.107 7                  37863556.710
        46.000
 200954081.463 7                  38240288.255
        44.200
 132139638.333 6 102965960.12442  25145332.853    25145331.4494   25145333.5954
        36.300          15.0004
 123065549.464 7  95717685.990 6  23038121.823    23038122.719    23038128.872
        47.900          40.900
 137867241.382 7                  26235245.493
        42.000
 412716414.501 5                  78537343.828
        32.500
 202092565.087 7                  38456901.821
        45.100
 126173233.975 7  98134780.866 7  23644804.391    23644804.516    23644810.742
        44.600          42.500
 119220195.389 6                  22326098.517    22326097.709
        39.300
 127457226.079 7                  24254296.324
        47.500
 108478898.748 7  84529024.06146  20642840.772    20642840.3614   20642840.0274
        47.700          39.0004
 106189522.641 7  82591879.780 7  19850999.602    19850999.349    19851004.522
        42.100          46.400
 118226819.894 7  92124796.47645  22497812.308    22497811.9784   22497812.4344
        46.200          32.6004
 124161123.675 8                  23627067.879
        48.600
 128494609.088 6 100125688.30245  24451702.775    24451702.2614   24451702.9374
        39.600          32.1004
 130155260.657 7                  24767716.079
        46.300
 127537794.884 5  99196104.508 6  23850207.820    23850208.219    23850218.284
        32.700          38.800
 123002155.264 8                  23406526.610
        48.500
 128526287.873 7  99964928.274 6  24111204.388    24111204.171    24111211.492
        45.200          39.900
 127763517.645 6  99556006.19645  24312583.325    24312582.5344   24312585.0524
        38.800          32.4004
 125568006.886 6  97845217.17046  23894793.091    23894792.3674   23894795.0994
        40.600          36.7004
 127200541.986 7  98933765.088 6  23795486.874    23795487.127    23795493.152
        42.800          41.500
 114532214.894 8  89245895.58248  21794748.868    21794748.3954   21794750.2864
        49.400          49.3004
 108389396.071 8  84302905.978 8  20304979.170    20304979.031    20304984.918
        51.700          48.100
 132691497.735 6 103395972.80243  25250353.236    25250352.9324   25250354.9994
        36.600          18.8004
 126752021.594 7  98584943.503 6  23686644.432    23686644.442    23686652.126
        42.800          39.000
 108065557.705 8  84051027.397 8  20187547.009    20187547.112    20187551.846
        52.400          48.000
 25  1  1 10  5 15.0000000  0 32G10G24E19E08R04S31S35G21R12E13S48S33
                                R02R13E29G23R19G18E07G15E33R20E26R14
                                G08G27R05G32R18G28R17R03
 111056344.105 8  86537431.00448  21133313.149    21133312.5284   21133314.2204
        51.000          51.4004
 113825309.632 7  88695088.05047  21660225.099    21660224.6794   21660226.4584
        45.800          45.4004
 144917602.401 5                  27576900.692
        32.600
 143660002.186 6                  27337580.810
        40.800
 108930237.237 8  84723571.497 7  20341950.653    20341951.060    20341955.778
        52.300          47.600
 198974373.729 7                  37863557.359
        45.800
 200954081.041 7                  38240286.372
        43.900
 132096242.172 6 102932145.22542  25137074.617    25137073.2184   25137075.2874
        37.600          16.4004
 123075297.164 7  95725267.658 6  23039946.024    23039946.471    23039953.884
        46.800          41.000
 137909970.269 6                  26243376.823
        41.900
 412716278.351 5                  78537327.511
        32.600
 202092555.324 7                  38456899.652
        44.900
 126218350.303 7  98169871.347 7  23653259.454    23653259.393    23653265.176
        44.500          42.600
 119187931.364 6                  22320056.406    22320056.154
        40.300
 127435552.459 7                  24250171.833
        47.700
 108491440.912 7  84538797.17346  20645227.623    20645227.2214   20645226.7294
        47.900          39.1004
 106183324.275 7  82587058.856 7  19849840.734    19849840.765    19849845.929
        42.300          46.400
 118276521.107 7  92163524.67245  22507269.693    22507269.3544   22507270.2334
        45.600          32.4004
 124177457.137 8                  23630176.202
        48.600
 128546409.881 6 100166052.55945  24461560.394    24461559.9074   24461560.4234
        39.000          31.9004
 130127252.918 7                  24762386.176
        46.300
 127476802.084 5  99148665.749 6  23838802.086    23838801.938    23838812.172
        33.500          40.000
 123013643.202 8                  23408712.873
        48.600
 128468424.782 7  99919923.762 6  24100348.723    24100348.901    24100356.641
        44.800          39.000
 127771374.073 6  99562128.10545  24314078.353    24314077.5444   24314079.9734
        39.300          32.5004
 125598534.734 6  97869005.10146  23900601.979    23900601.2604   23900604.3764
        40.900          36.7004
 127158365.708 7  98900961.343 6  23787598.184    23787598.125    23787602.509
        43.700          40.700
 114504694.270 8  89224450.98048  21789511.821    21789511.3484   21789513.2744
        49.700          49.4004
 108434899.676 8  84338297.663 8  20313502.995    20313503.178    20313508.860
        51.000          48.100
 132634544.277 6 103351593.47843  25239515.647    25239515.3304   25239516.8414
        38.100          18.0004
 126821295.398 7  98638823.086 6  23699591.699    23699590.943    23699598.417
        43.700          39.400
 108088140.004 8  84068591.418 8  20191765.125    20191765.435    20191770.281
        51.600          48.000
 25  1  1 10  5 30.0000000  0 32G10G24E19E08R04S31S35G21R12E13S48S33
                                R02R13E29G23R19G18E07G15E33R20E26R14
                                G08G27R05G32R18G28R17R03
 111035115.308 8  86520889.09948  21129273.444    21129272.8184   21129274.5124
        51.300          51.5004
 113848805.436 7  88713396.47147  21664696.059    21664695.6394   21664697.5394
        45.900          45.6004
 144879820.240 5                  27569710.846
        33.000
 143698298.774 6                  27344868.240
        40.100
 108912969.671 8  84710141.178 7  20338726.139    20338726.403    20338731.054
        52.100          47.600
 198974372.563 7                  37863558.642
        45.900
 200954076.255 7                  38240285.925
        44.000
 132052883.298 5 102898359.27442  25128824.154    25128822.7554   25128824.1464
        35.900          16.1004
 123085222.824 7  95732987.619 6  23041804.712    23041805.642    23041811.732
        47.500          41.400
 137952737.554 6                  26251515.018
        41.900
 412716138.121 5                  78537303.789
        32.700
 202092539.818 7                  38456894.631
        44.800
 126263447.620 7  98204947.062 7  23661710.749    23661710.281    23661716.843
        43.400          42.600
 119155805.155 6                  22314040.561    22314040.471
        41.200
 127413935.969 7                  24246058.207
        47.300
 108504050.986 8  84548623.20546  20647627.053    20647626.6474   20647626.3454
        48.200          39.2004
 106177331.604 7  82582397.897 7  19848720.457    19848720.454    19848725.623
        42.400          46.500
 118326293.659 7  92202308.45745  22516741.503    22516741.1594   22516741.6934
        45.800          32.5004
 124193839.677 8                  23633293.551
        48.300
 128598202.137 6 100206410.10045  24471416.112    24471415.6434   24471416.2904
        39.400          32.2004
 130099309.551 7                  24757068.758
        46.000
 127415869.185 5  99101273.671 6  23827406.934    23827407.725    23827417.954
        33.700          39.900
 123025224.602 8                  23410916.867
        48.300
 128410537.583 7  99874900.505 6  24089488.784    24089488.613    24089497.422
        45.500          40.200
 127779347.458 6  99568341.15645  24315595.545    24315594.7504   24315597.1864
        39.200          33.1004
 125629142.246 6  97892855.10646  23906426.622    23906425.8944   23906428.7544
        41.300          36.8004
 127116221.850 7  98868182.764 6  23779713.248    23779713.545    23779718.323
        43.400          40.100
 114477246.415 8  89203063.07948  21784288.253    21784287.7574   21784290.1244
        49.800          49.6004
 108480547.517 8  84373801.524 8  20322054.899    20322055.058    20322060.619
        51.800          48.200
 132577574.850 6 103307201.71142  25228674.723    25228674.4154   25228675.4424
        36.300          17.6004
 126890569.970 7  98692703.275 6  23712536.480    23712536.572    23712543.281
        43.500          39.300
 108110768.794 8  84086191.583 8  20195992.143    20195992.817    20195997.489
        52.000          48.100
 25  1  1 10  5 45.0000000  0 32G10G24E19E08R04S31S35G21R12E13S48S33
                                R02R13E29G23R19G18E07G15E33R20E26R14
                                G08G27R05G32R18G28R17R03
 111013934.527 8  86504384.59448  21125242.880    21125242.2594   21125243.9214
        51.400          51.4004
 113872455.539 7  88731825.12547  21669196.677    21669196.2714   21669198.0134
        45.700          45.5004
 144842069.281 5                  27562527.606
        33.400
 143736597.511 6                  27352155.950
        40.500
 108895780.637 8  84696771.940 7  20335516.501    20335516.440    20335521.422
        52.300          47.900
 198974375.447 7                  37863558.481
        45.700
 200954074.977 7                  38240285.576
        44.000
 132009569.665 5 102864608.44742  25120581.525    25120580.1354   25120581.3984
        35.500          14.4004
 123095334.852 8  95740852.614 6  23043698.134    23043698.676    23043704.968
        48.500          41.500
 137995551.061 6                  26259662.198
        41.800
 412716001.361 5                  78537284.145
        32.200
 202092528.651 7                  38456894.667
        44.800
 126308534.045 7  98240014.323 7  23670159.966    23670159.904    23670165.781
        44.300          42.500
 119123825.456 6                  22308051.790    22308051.350
        41.000
 127392384.545 7                  24241957.063
        47.600
 108516736.967 7  84558508.37946  20650041.091    20650040.6804   20650040.4084
        47.800          39.1004
 106171552.777 7  82577903.250 7  19847640.667    19847640.544    19847645.350
        42.700          46.500
 118376145.271 7  92241153.85845  22526227.744    22526227.4094   22526228.1914
        45.300          32.3004
 124210279.085 8                  23636421.749
        48.300
 128649993.654 6 100246767.05245  24481271.495    24481271.0174   24481271.7474
        40.000          30.7004
 130071438.610 7                  24751764.969
        46.500
 127355004.989 5  99053934.995 6  23816025.063    23816024.923    23816035.367
        34.000          39.600
 123036907.425 8                  23413139.840
        48.200
 128352634.513 7  99829864.918 6  24078626.472    24078626.979    24078634.934
        45.400          40.000
 127787445.592 6  99574651.45345  24317136.065    24317135.2924   24317138.3174
        39.300          32.7004
 125659837.044 6  97916773.11946  23912267.272    23912266.5354   23912269.7534
        41.100          36.8004
 127074118.220 7  98835435.491 6  23771836.742    23771837.216    23771842.061
        43.000          40.300
 114449879.253 8  89181738.05148  21779080.749    21779080.2404   21779082.2624
        50.100          49.5004
 108526346.950 8  84409423.297 8  20330633.546    20330634.313    20330640.384
        50.900          48.200
 132520597.767 6 103262803.96743  25217833.052    25217832.7444   25217832.9464
        37.400          18.7004
 126959852.916 7  98746589.995 6  23725483.565    23725484.473    23725490.118
        43.600          39.200
 108133451.916 8  84103834.012 7  20200229.929    20200230.257    20200234.736
        52.300          47.800
 25  1  1 10  6  0.0000000  0 32G10G24E19E08R04S31S35G21R12E13S48S33
                                R02R13E29G23R19G18E07G15E33R20E26R14
                                G08G27R05G32R18G28R17R03
 110992796.788 8  86487913.62548  21121220.292    21121219.6714   21121221.5534
        51.400          51.7004
 113896254.576 7  88750369.83047  21673725.349    21673724.9474   21673726.8544
        45.800          45.7004
 144804344.269 5                  27555348.643
        33.300
 143774893.047 6                  27359444.031
        39.800
 108878664.705 8  84683459.565 7  20332319.553    20332320.218    20332325.218
        52.100          47.700
 198974376.263 7                  37863555.843
        45.900
 200954071.739 7                  38240285.617
        44.200
 131966296.905 6 102830889.49742  25112347.267    25112345.8954   25112346.6064
        36.900          15.9004
 123105627.678 7  95748858.217 6  23045623.909    23045624.211    23045631.620
        46.700          41.300
 138038405.460 6                  26267817.199
        41.700
 412715863.057 5                  78537266.093
        32.600
 202092515.585 7                  38456889.793
        45.100
 126353604.140 7  98275068.881 7  23678606.740    23678606.047    23678611.617
        44.400          42.900
 119091987.414 6                  22302090.084    22302088.352
        40.400
 127370893.023 7                  24237867.461
        47.500
 108529493.749 7  84568448.72246  20652468.923    20652468.5264   20652467.9764
        47.700          39.3004
 106165982.690 7  82573570.960 7  19846599.006    19846598.821    19846604.120
        42.500          46.700
 118426070.468 7  92280056.61045  22535728.197    22535727.8584   22535728.4484
        45.300          32.2004
 124226770.109 8                  23639559.956
        48.300
 128701779.378 6 100287119.54545  24491125.897    24491125.3884   24491126.4834
        40.200          31.8004
 130043635.240 7                  24746474.331
        46.300
 127294204.481 5  99006645.865 6  23804654.272    23804656.055    23804664.161
        33.700          39.400
 123048686.521 8                  23415381.428
        48.200
 128294711.035 7  99784813.413 6  24067759.992    24067760.181    24067768.346
        45.200          39.600
 127795663.124 6  99581054.75645  24318700.799    24318700.0354   24318702.2184
        39.600          32.9004
 125690613.629 6  97940754.86346  23918124.218    23918123.4944   23918126.3084
        40.000          36.8004
 127032049.624 7  98802715.474 6  23763966.791    23763966.646    23763972.139
        43.100          40.500
 114422587.687 8  89160471.92748  21773887.082    21773886.5554   21773888.7684
        49.200          49.7004
 108572292.434 8  84445158.650 8  20339241.428    20339241.592    20339247.635
        51.400          48.300
 132463608.125 6 103218396.45143  25206988.354    25206988.0684   25206988.5914
        36.700          18.6004
 127029138.554 7  98800478.807 6  23738429.825    23738430.683    23738437.808
        42.900          38.400
 108156183.876 8  84121514.424 7  20204476.442    20204476.787    20204481.436
        52.300          47.700
 25  1  1 10  6 15.0000000  0 32G10G24E19E08R04S31S35G21R12E13S48S33
                                R02R13E29G23R19G18E07G15E33R20E26R14
                                G08G27R05G32R18G28R17R03
 110971705.563 8  86471478.90848  21117206.699    21117206.0694   21117208.0484
        51.100          51.4004
 113920205.594 7  88769032.95647  21678283.295    21678282.8934   21678284.6004
        45.300          45.4004
 144766648.591 5                  27548175.431
        32.800
 143813188.583 6                  27366731.128
        41.300
 108861625.193 8  84670206.627 7  20329138.024    20329138.252    20329143.176
        52.000          47.800
 198974378.735 7                  37863555.735
        45.800
 200954070.279 7                  38240286.006
        44.100
 131923068.482 6 102797205.04842  25104120.423    25104119.0374   25104120.4844
        36.400          15.3004
 123116104.812 7  95757007.246 6  23047586.060    23047586.126    23047592.623
        47.600          41.700
 138081303.902 7                  26275980.458
        42.300
 412715726.835 5                  78537247.299
        32.700
 202092503.275 7                  38456889.287
        44.900
 126398661.227 7  98310113.337 7  23687049.151    23687049.164    23687055.645
        44.600          42.700
 119060294.801 6                  22296154.674    22296154.361
        40.900
 127349464.690 7                  24233789.902
        47.500
 108542324.707 7  84578446.86746  20654910.399    20654910.0024   20654909.6524
        47.600          39.0004
 106160624.807 7  82569403.731 7  19845597.697    19845597.263    19845602.333
        42.400          46.700
 118476072.204 7  92319018.99145  22545243.281    22545242.9154   22545243.5114
        45.500          32.0004
 124243315.830 8                  23642708.546
        48.500
 128753562.361 6 100327469.93745  24500979.802    24500979.3064   24500980.4774
        38.700          31.1004
 130015902.894 7                  24741196.938
        46.200
 127233471.327 5  98959409.160 6  23793296.180    23793298.371    23793305.739
        33.100          38.900
 123060565.176 8                  23417641.923
        48.400
 128236770.913 7  99739748.980 6  24056890.287    24056890.748    24056898.019
        44.700          39.200
 127804003.195 6  99587553.56345  24320287.423    24320286.6414   24320289.3004
        39.200          32.6004
 125721474.961 6  97964802.65646  23923997.438    23923996.7324   23923999.1504
        39.900          36.6004
 126990019.727 7  98770025.526 6  23756105.754    23756106.182    23756110.472
        43.600          41.200
 114395375.025 8  89139267.29548  21768709.062    21768708.5444   21768710.2934
        49.400          49.5004
 108618386.753 8  84481009.776 8  20347876.006    20347876.903    20347882.750
        50.700          48.200
 132406609.539 6 103173981.96842  25196142.385    25196142.0774   25196142.3444
        37.600          17.4004
 127098429.653 7  98854371.880 6  23751380.696    23751379.509    23751386.321
        42.600          38.300
 108178967.805 8  84139235.266 7  20208732.719    20208733.172    20208737.625
        52.400          47.800
 25  1  1 10  6 30.0000000  0 32G10G24E19E08R04S31S35G21R12E13S48S33
                                R02R13E29G23R19G18E07G15E33R20E26R14
                                G08G27R05G32R18G28R17R03
 110950659.061 8  86455079.05948  21113201.972    21113201.3464   21113203.0224
        51.500          51.5004
 113944306.512 7  88787812.88047  21682869.539    21682869.1464   21682870.8404
        45.700          45.5004
 144728980.428 5                  27541007.378
        33.600
 143851482.137 6                  27374017.689
        40.700
 108844660.065 8  84657011.508 7  20325969.855    20325970.085    20325974.888
        52.000          47.600
 198974381.019 7                  37863559.693
        45.700
 200954068.784 7                  38240285.634
        43.900
 131879883.133 5 102763554.36642  25095902.755    25095901.3744   25095902.5494
        35.900          15.0004
 123126763.638 7  95765297.370 6  23049580.908    23049581.597    23049588.465
        47.700          41.400
 138124244.297 7                  26284151.997
        42.100
 412715591.666 5                  78537234.680
        32.500
 202092492.103 7                  38456886.975
        44.900
 126443703.533 7  98345146.261 7  23695490.002    23695490.706    23695496.275
        43.800          42.300
 119028746.212 6                  22290246.814    22290245.747
        40.700
 127328097.626 7                  24229723.789
        47.600
 108555228.001 7  84588501.37946  20657365.769    20657365.3854   20657365.0784
        47.900          39.0004
 106155477.218 7  82565400.044 7  19844635.174    19844635.171    19844640.187
        42.200          46.700
 118526148.310 7  92358039.32245  22554772.271    22554771.9054   22554772.6734
        45.300          31.7004
 124259914.214 8                  23645867.106
        48.500
 128805340.590 6 100367816.63845  24510833.641    24510833.1414   24510833.4424
        39.500          31.2004
 129988239.878 7                  24735932.739
        46.500
 127172803.836 5  98912223.439 6  23781951.760    23781953.453    23781961.993
        34.000          39.200
 123072541.498 8                  23419920.832
        48.300
 128178812.677 7  99694670.450 6  24046017.951    24046016.844    24046026.079
        44.400          40.200
 127812463.619 6  99594146.11745  24321896.945    24321896.1544   24321898.8874
        39.000          32.2004
 125752418.718 6  97988914.67546  23929885.596    23929884.9084   23929887.6774
        40.400          36.7004
 126948026.432 7  98737364.065 6  23748249.192    23748249.492    23748254.784
        43.400          40.900
 114368239.335 8  89118122.64148  21763544.975    21763544.4574   21763546.5584
        49.800          49.5004
 108664627.614 8  84516974.839 8  20356539.008    20356538.937    20356544.873
        51.000          48.200
 132349600.409 6 103129559.25243  25185292.669    25185292.3164   25185293.8344
        38.000          18.2004
 127167723.937 7  98908267.408 6  23764330.418    23764330.339    23764337.428
        44.500          39.800
 108201801.944 8  84156995.125 7  20212998.095    20212998.514    20213003.294
        52.500          47.900
 25  1  1 10  6 45.0000000  0 32G10G24E19E08R04S31S35G21R12E13S48S33
                                R02R13E29G23R19G18E07G15E33R20E26R14
                                G08G27R05G32R18G28R17R03
 110929658.431 8  86438714.93548  21109205.716    21109205.0954   21109206.7154
        51.200          51.4004
 113968558.161 7  88806710.26747  21687484.496    21687484.0944   21687485.7604
        46.100          45.5004
 144691340.894 5                  27533844.067
        34.100
 143889774.663 6                  27381305.199
        40.900
 108827770.360 8  84643875.069 7  20322815.706    20322815.896    20322820.775
        51.900          47.700
 198974383.816 7                  37863557.515
        45.700
 200954066.936 7                  38240283.255
        44.000
 131836741.109 6 102729937.13242  25087693.132    25087691.7914   25087692.9414
        36.800          16.2004
 123137605.701 7  95773730.024 6  23051611.071    23051610.654    23051617.576
        46.900          41.100
 138167227.598 7                  26292331.304
        42.300
 412715457.092 5                  78537220.196
        32.700
 202092481.017 7                  38456885.294
        45.000
 126488731.858 7  98380168.300 7  23703928.734    23703930.026    23703934.607
        44.600          42.600
 118997343.278 6                  22284364.844    22284364.803
        40.100
 127306792.891 8                  24225669.772
        48.100
 108568204.772 8  84598613.14646  20659835.297    20659834.9134   20659834.4874
        48.200          39.1004
 106150541.116 7  82561560.869 7  19843712.030    19843712.166    19843717.500
        42.300          46.700
 118576299.576 7  92397118.22645  22564315.875    22564315.4914   22564316.1084
        45.500          31.6004
 124276566.222 8                  23649035.930
        48.800
 128857114.812 6 100408160.20545  24520685.467    24520684.9984   24520685.2994
        39.200          30.8004
 129960647.489 7                  24730682.264
        47.000
 127112204.236 5  98865090.602 6  23770621.349    23770621.633    23770629.318
        34.500          39.800
 123084616.559 8                  23422218.695
        48.700
 128120838.082 7  99649579.252 6  24035142.493    24035142.028    24035150.073
        45.700          39.800
 127821045.418 6  99600833.23045  24323530.207    24323529.4204   24323531.8434
        39.100          32.0004
 125783445.627 6  98013091.48446  23935789.855    23935789.1674   23935792.1154
        41.600          36.8004
 126906070.573 7  98704731.714 6  23740399.865    23740399.849    23740405.638
        42.800          40.500
 114341181.754 8  89097038.85148  21758396.024    21758395.5014   21758397.6854
        49.800          49.5004
 108711015.618 8  84553054.385 8  20365228.915    20365229.289    20365235.311
        50.600          48.400
 132292582.083 6 103085129.37843  25174442.837    25174442.4894   25174443.4694
        38.200          18.9004
 127237021.742 7  98962165.664 6  23777279.131    23777279.670    23777286.567
        44.100          39.500
 108224686.966 8  84174794.581 7  20217273.275    20217273.967    20217278.491
        52.500          47.700
 25  1  1 10  7  0.0000000  0 32G10G24E19E08R04S31S35G21R12E13S48S33
                                R02R13E29G23R19G18E07G15E33R20E26R14
                                G08G27R05G32R18G28R17R03
 110908700.596 8  86422384.15148  21105217.661    21105217.0494   21105218.5774
        51.300          51.5004
 113992957.020 7  88825722.36547  21692127.205    21692126.8084   21692128.7174
        45.600          45.6004
 144653726.907 5                  27526686.723
        33.100
 143928062.707 6                  27388590.906
        40.300
 108810952.312 8  84630794.372 7  20319675.347    20319675.333    20319680.136
        52.000          47.600
 198974384.498 7                  37863557.918
        45.500
 200954063.477 7                  38240282.053
        43.800
 131793640.353 6 102696352.17942  25079491.111    25079489.6984   25079491.0334
        36.500          15.3004
 123148627.728 8  95782302.708 6  23053674.483    23053674.656    23053681.046
        48.300          41.800
 138210250.369 6                  26300518.420
        41.700
 412715319.369 5                  78537196.532
        32.600
 202092467.323 7                  38456885.330
        45.100
 126533742.735 7  98415176.752 7  23712364.668    23712364.101    23712369.930
        44.100          42.400
 118966083.124 6                  22278511.235    22278510.622
        39.300
 127285547.221 7                  24221626.751
        47.600
 108581251.811 8  84608779.66946  20662318.160    20662317.7894   20662317.2754
        48.100          39.3004
 106145813.382 7  82557883.746 7  19842828.435    19842828.510    19842833.581
        42.200          46.700
 118626522.440 7  92436252.92645  22573873.104    22573872.7204   22573873.2004
        44.900          31.6004
 124293268.407 8                  23652214.203
        48.300
 128908881.644 6 100448497.96345  24530536.665    24530536.2054   24530536.0194
        39.100          31.3004
 129933122.637 7                  24725444.205
        46.300
 127051668.625 5  98818007.351 6  23759300.575    23759299.722    23759309.495
        34.300          40.100
 123096787.095 8                  23424534.554
        48.400
 128062844.209 7  99604473.049 6  24024261.201    24024261.363    24024269.403
        44.800          39.000
 127829745.219 6  99607612.33645  24325185.738    24325184.9604   24325186.9034
        39.700          32.2004
 125814552.103 6  98037330.29246  23941708.773    23941708.0714   23941711.4974
        40.900          37.0004
 126864149.183 7  98672126.198 6  23732558.196    23732558.099    23732564.004
        42.800          41.100
 114314198.993 8  89076013.36248  21753261.770    21753261.2474   21753263.0204
        50.000          49.8004
 108757546.941 8  84589245.392 8  20373946.092    20373946.248    20373951.858
        51.100          48.100
 132235551.604 6 103040690.04643  25163589.947    25163589.6034   25163591.1004
        37.700          19.0004
 127306319.612 7  99016063.970 6  23790228.712    23790227.969    23790235.675
        42.000          38.600
 108247619.364 8  84192630.900 7  20221556.790    20221557.526    20221562.248
        52.300          47.800
 25  1  1 10  7 15.0000000  0 32G10G24E19E08R04S31S35G21R12E13S48S33
                                R02R13E29G23R19G18E07G15E33R20E26R14
                                G08G27R05G32R18G28R17R03
 110887789.647 8  86406089.90948  21101238.159    21101237.5514   21101239.3794
        51.200          51.6004
 114017506.802 7  88844852.06447  21696799.125    21696798.7194   21696800.4224
        45.500          45.7004
 144616142.380 5                  27519534.924
        33.700
 143966350.192 6                  27395876.553
        39.600
 108794210.278 8  84617772.794 7  20316548.592    20316548.967    20316553.711
        52.300          47.700
 198974386.268 7                  37863557.689
        45.800
 200954061.234 7                  38240282.155
        44.100
 131750584.591 5 102662802.22842  25071297.893    25071296.4584   25071297.6254
        35.700          16.5004
 123159833.569 7  95791018.442 6  23055771.825    23055772.053    23055778.868
        47.800          41.400
 138253316.343 6                  26308713.142
        41.600
 412715183.793 5                  78537186.458
        32.900
 202092455.105 7                  38456882.835
        45.100
 126578740.247 7  98450174.794 7  23720795.868    23720796.374    23720802.896
        44.300          43.000
 118934969.818 6                  22272685.107    22272684.308
        40.200
 127264364.514 7                  24217595.779
        47.600
 108594373.087 7  84619004.04046  20664814.846    20664814.4754   20664814.1934
        47.600          39.4004
 106141297.923 7  82554371.732 7  19841984.534    19841984.326    19841989.531
        42.200          46.500
 118676820.476 7  92475446.17845  22583444.616    22583444.2324   22583444.5514
        45.200          31.5004
 124310024.534 8                  23655402.878
        48.000
 128960644.784 6 100488832.81045  24540387.216    24540386.7564   24540386.3514
        39.700          31.0004
 129905669.431 7                  24720220.163
        46.000
 126991202.724 5  98770978.394 6  23747993.613    23747992.759    23748001.871
        34.100          40.200
 123109057.022 8                  23426869.384
        48.000
 128004835.286 7  99559355.124 6  24013379.716    24013380.197    24013387.755
        45.500          39.600
 127838566.646 6  99614486.19545  24326864.100    24326863.3364   24326865.8854
        40.000          32.8004
 125845741.656 6  98061633.82846  23947644.565    23947643.8634   23947646.5434
        40.100          36.8004
 126822266.199 7  98639550.531 6  23724722.965    23724723.597    23724729.104
        43.600          41.500
 114287294.951 8  89055049.20648  21748141.943    21748141.4254   21748143.2804
        49.300          49.8004
 108804225.015 8  84625550.526 8  20382690.006    20382690.332    20382696.720
        50.700          48.200
 132178513.258 6 102996244.57842  25152735.939    25152735.5734   25152737.0284
        37.100          17.9004
 127375620.966 7  99069964.977 6  23803181.417    23803180.574    23803186.907
        44.200          39.100
 108270603.143 8  84210507.164 7  20225850.913    20225851.201    20225856.065
        52.000          47.900
 25  1  1 10  7 30.0000000  0 32G10G24E19E08R04S31S35G21R12E13S48S33
                                R02R13E29G23R19G18E07G15E33R20E26R14
                                G08G27R05G32R18G28R17R03
 110866924.922 8  86389831.68848  21097267.747    21097267.1354   21097268.9454
        51.300          51.6004
 114042206.518 7  88864098.59547  21701499.273    21701498.8624   21701500.6304
        46.300          45.7004
 144578586.558 5                  27512387.406
        32.800
 144004636.203 6                  27403162.442
        39.700
 108777543.105 8  84604809.449 7  20313436.134    20313436.503    20313441.176
        51.900          47.600
 198974388.911 7                  37863560.225
        45.700
 200954059.476 7                  38240282.214
        44.100
 131707574.261 5 102629287.98842  25063112.868    25063111.4644   25063112.7274
        35.000          15.1004
 123171222.281 7  95799876.382 6  23057903.739    23057904.132    23057911.009
        47.300          41.000
 138296424.668 6                  26316916.599
        40.800
 412715049.529 5                  78537163.903
        32.800
 202092443.927 7                  38456881.100
        45.100
 126623723.508 7  98485161.775 7  23729226.713    23729226.433    23729232.423
        44.000          42.400
 118904003.609 6                  22266885.313    22266885.164
        39.900
 127243244.007 7                  24213576.683
        47.700
 108607567.945 8  84629285.74846  20667325.878    20667325.5124   20667325.0544
        48.200          39.4004
 106136994.131 7  82551024.328 7  19841179.833    19841179.586    19841185.005
        42.300          46.800
 118727192.698 7  92514697.24945  22593030.058    22593029.6474   22593030.0514
        44.800          31.2004
 124326833.732 8                  23658601.305
        48.200
 129012403.509 6 100529164.21645  24550236.423    24550235.9274   24550235.9184
        39.000          31.1004
 129878287.377 7                  24715009.731
        46.200
 126930806.032 5  98724003.457 6  23736699.232    23736698.200    23736706.972
        34.400          39.900
 123121425.585 8                  23429223.255
        48.100
 127946811.185 7  99514225.408 6  24002494.383    24002494.797    24002501.733
        45.300          39.600
 127847508.868 6  99621454.17345  24328565.309    24328564.5494   24328568.5094
        40.000          33.4004
 125877013.221 6  98086001.26946  23953595.050    23953594.3574   23953597.0614
        40.300          36.7004
 126780420.835 7  98607004.125 6  23716894.847    23716894.756    23716900.527
        43.200          40.500
 114260468.946 8  89034145.85348  21743036.942    21743036.4284   21743038.4094
        49.600          49.8004
 108851048.743 8  84661968.941 8  20391461.773    20391462.139    20391468.116
        50.500          48.200
 132121466.543 6 102951792.57543  25141880.271    25141879.8824   25141881.5254
        37.700          19.3004
 127444924.513 7  99123867.668 6  23816131.792    23816132.177    23816138.336
        44.700          39.000
 108293636.821 8  84228422.246 8  20230153.840    20230154.087    20230158.799
        51.800          48.100
 25  1  1 10  7 45.0000000  0 32G10G24E19E08R04S31S35G21R12E13S48S33
                                R02R13E29G23R19G18E07G15E33R20E26R14
                                G08G27R05G32R18G28R17R03
 110846104.914 8  86373608.31848  21093305.752    21093305.1404   21093307.0024
        51.100          51.6004
 114067054.240 7  88883460.44947  21706227.578    21706227.1494   21706228.9914
        45.600          45.7004
 144541057.968 5                  27505247.102
        33.100
 144042918.949 6                  27410447.644
        40.500
 108760949.089 8  84591902.996 7  20310337.081    20310337.565    20310342.458
        52.200          47.900
 198974390.321 7                  37863559.120
        45.700
 200954056.791 7                  38240284.275
        44.200
 131664606.739 5 102595806.96542  25054936.060    25054934.7374   25054936.2134
        35.200          15.6004
 123182791.874 8  95808874.885 6  23060070.047    23060070.231    23060076.594
        48.100          41.700
 138339573.460 6                  26325127.966
        41.300
 412714914.110 5                  78537146.938
        32.700
 202092431.360 7                  38456877.800
        45.000
 126668690.900 7  98520136.457 7  23737652.709    23737652.974    23737659.442
        44.600          42.600
 118873182.763 6                  22261114.506    22261114.199
        41.000
 127222184.018 7                  24209569.144
        47.500
 108620834.738 7  84639623.50746  20669850.444    20669850.0784   20669849.6794
        47.600          39.5004
 106132900.292 7  82547840.250 7  19840414.771    19840414.483    19840419.759
        42.200          46.700
 118777637.108 7  92554004.57245  22602629.015    22602628.5774   22602629.2924
        45.200          31.3004
 124343694.168 8                  23661809.923
        48.200
 129064155.984 6 100569490.74545  24560084.997    24560084.4924   24560084.1214
        40.000          31.2004
 129850974.975 7                  24709812.342
        46.200
 126870476.741 5  98677080.585 6  23725417.290    23725416.413    23725424.925
        34.000          39.900
 123133891.117 8                  23431595.189
        48.000
 127888770.930 7  99469083.128 6  23991606.161    23991606.230    23991614.566
        45.200          40.200
 127856570.044 6  99628514.87645  24330290.000    24330289.2404   24330292.6194
        40.200          33.2004
 125908364.738 6  98110431.02146  23959560.971    23959560.2874   23959562.9704
        41.300          36.9004
 126738611.211 7  98574485.530 6  23709074.435    23709073.607    23709078.778
        42.200          41.300
 114233719.301 8  89013302.00148  21737946.812    21737946.2944   21737948.0974
        49.700          50.0004
 108898015.877 8  84698498.899 8  20400260.559    20400260.486    20400266.789
        51.000          48.200
 132064410.097 6 102907332.99243  25131023.039    25131022.6734   25131024.2874
        37.400          19.3004
 127514228.309 7  99177770.576 6  23829081.710    23829082.456    23829089.621
        44.400          39.300
 108316719.104 8  84246375.137 8  20234465.693    20234465.817    20234470.879
        51.900          48.000
 25  1  1 10  8  0.0000000  0 32G10G24E19E08R04S31S35G21R12E13S48S33
                                R02R13E29G23R19G18E07G15E33R20E26R14
                                G08G27R05G32R18G28R17R03
 110825330.790 8  86357420.68948  21089352.635    21089352.0274   21089353.8064
        51.200          51.7004
 114092050.818 7  88902938.30347  21710984.258    21710983.8344   21710985.6884
        45.700          45.8004
 144503557.660 5                  27498110.049
        32.500
 144081199.451 6                  27417731.698
        39.300
 108744429.262 8  84579054.251 8  20307252.129    20307252.495    20307257.758
        52.200          48.000
 198974391.874 7                  37863560.457
        45.700
 200954054.293 7                  38240281.181
        44.100
 131621683.816 6 102562360.56142  25046768.782    25046767.5304   25046768.0654
        36.700          16.2004
 123194543.529 7  95818014.977 6  23062269.807    23062270.251    23062276.614
        47.600          41.200
 138382763.686 6                  26333346.373
        41.000
 412714778.638 5                  78537128.197
        32.600
 202092419.080 7                  38456876.136
        45.100
 126713643.443 7  98555099.498 7  23746077.282    23746078.271    23746083.187
        44.200          42.400
 118842509.084 6                  22255370.868    22255370.043
        40.700
 127201185.599 7                  24205573.347
        47.200
 108634174.621 8  84650018.21046  20672389.244    20672388.8824   20672388.1654
        48.100          39.5004
 106129017.931 7  82544820.627 7  19839689.433    19839688.658    19839693.965
        42.400          46.700
 118828154.460 7  92593368.71345  22612242.326    22612241.8884   22612242.5164
        44.100          31.1004
 124360606.761 7                  23665028.177
        47.800
 129115903.197 6 100609813.19645  24569931.296    24569930.7874   24569931.7204
        39.200          31.1004
 129823733.515 7                  24704628.353
        45.900
 126810217.381 5  98630212.306 6  23714146.188    23714146.520    23714156.191
        34.100          39.800
 123146454.699 7                  23433986.135
        47.800
 127830715.706 7  99423929.201 6  23980714.301    23980714.163    23980722.986
        44.900          40.200
 127865751.050 6  99635668.94445  24332037.384    24332036.6244   24332039.4724
        39.500          32.8004
 125939796.927 6  98134923.62946  23965542.151    23965541.4494   23965544.6014
        40.600          37.0004
 126696838.686 7  98541995.771 6  23701259.417    23701260.605    23701265.110
        44.200          41.400
 114207047.072 8  88992518.47248  21732870.956    21732870.4334   21732872.5154
        49.900          50.0004
 108945126.999 8  84735140.851 8  20409086.080    20409086.360    20409092.498
        51.100          48.100
 132007345.307 6 102862866.89743  25120164.149    25120163.8194   25120164.6974
        37.900          18.3004
 127583532.811 7  99231674.027 6  23842033.081    23842032.919    23842040.089
        43.300          38.900
 108339850.795 8  84264366.448 8  20238786.512    20238787.050    20238791.986
        51.800          48.100
 25  1  1 10  8 15.0000000  0 32G10G24E19E08R04S31S35G21R12E13S48S33
                                R02R13E29G23R19G18E07G15E33R20E26R14
                                G08G27R05G32R18G28R17R03
 110804604.724 8  86341270.51948  21085408.656    21085408.0484   21085409.7644
        51.300          51.5004
 114117197.969 7  88922533.49047  21715769.802    21715769.3784   21715771.0584
        45.700          45.7004
 144466087.567 5                  27490980.084
        32.800
 144119479.525 6                  27425016.517
        40.000
 108727985.295 8  84566264.521 7  20304181.464    20304181.890    20304186.652
        52.200          47.700
 198974395.460 7                  37863561.092
        45.700
 200954052.995 7                  38240280.488
        44.000
 131578807.614 5 102528950.50142  25038609.853    25038608.5884   25038609.0004
        35.800          15.7004
 123206479.206 7  95827298.208 6  23064504.732    23064504.502    23064511.236
        47.700          41.700
 138425997.086 6                  26341573.048
        41.000
 412714645.854 5                  78537116.790
        32.600
 202092408.896 7                  38456872.393
        44.900
 126758583.085 7  98590052.525 7  23754498.659    23754498.792    23754504.804
        43.900          42.400
 118811985.048 6                  22249653.135    22249653.856
        40.600
 127180250.712 7                  24201589.520
        47.800
 108647589.627 8  84660471.45946  20674941.684    20674941.3274   20674940.9974
        48.200          39.4004
 106125348.942 7  82541966.999 7  19839002.602    19839002.872    19839007.942
        42.300          46.500
 118878746.461 7  92632791.02045  22621869.855    22621869.4314   22621869.8664
        44.300          31.0004
 124377573.355 8                  23668256.783
        48.200
 129167647.027 6 100650133.06045  24579778.112    24579777.6074   24579778.1314
        40.600          31.0004
 129796565.192 7                  24699458.168
        46.300
 126750029.980 5  98583400.032 6  23702892.443    23702891.974    23702900.585
        33.700          40.400
 123159118.268 8                  23436395.815
        48.100
 127772648.310 7  99378765.779 6  23969820.985    23969821.272    23969829.268
        45.200          40.100
 127875053.653 6  99642917.74545  24333807.875    24333807.1294   24333809.0854
        39.800          32.3004
 125971311.397 6  98159480.34946  23971539.588    23971538.8864   23971541.8884
        40.400          36.6004
 126655105.043 7  98509536.254 6  23693453.266    23693453.125    23693457.862
        44.600          41.400
 114180454.253 8  88971796.82048  21727810.663    21727810.1404   21727812.0114
        49.700          49.9004
 108992383.817 8  84771896.119 8  20417938.655    20417938.894    20417945.054
        50.200          48.100
 131950274.411 6 102818396.07143  25109304.551    25109304.1854   25109304.2884
        37.700          18.7004
 127652839.703 7  99285579.382 6  23854984.881    23854985.332    23854992.931
        43.600          39.500
 108363033.619 8  84282397.544 7  20243117.812    20243117.839    20243122.641
        52.100          47.900
 25  1  1 10  8 30.0000000  0 32G10G24E19E08R04S31S35G21R12E13S48S33
                                R02R13E29G23R19G18E07G15E33R20E26R14
                                G08G27R05G32R18G28R17R03
 110783922.776 8  86325154.71848  21081472.970    21081472.3624   21081474.1104
        51.300          51.7004
 114142491.471 7  88942242.70947  21720583.162    21720582.7604   21720584.2684
        45.700          45.8004
 144428643.848 5                  27483854.875
        32.900
 144157755.018 6                  27432300.238
        40.200
 108711613.455 8  84553530.852 7  20301124.499    20301124.462    20301129.350
        52.100          47.700
 198974397.145 7                  37863561.799
        45.700
 200954050.764 7                  38240282.053
        44.100
 131535974.489 6 102495574.06442  25030458.913    25030457.6754   25030458.3364
        36.300          16.7004
 123218594.780 7  95836721.347 6  23066771.796    23066772.133    23066779.927
        47.100          41.000
 138469269.518 6                  26349807.954
        41.600
 412714511.974 5                  78537088.865
        32.600
 202092396.916 7                  38456872.022
        45.100
 126803505.396 7  98624992.052 7  23762916.995    23762916.935    23762923.000
        44.100          42.100
 118781606.741 6                  22243964.658    22243964.449
        40.800
 127159375.323 8                  24197616.798
        48.000
 108661075.817 8  84670980.18246  20677507.969    20677507.6124   20677507.3234
        48.000          39.5004
 106121889.410 7  82539276.233 7  19838356.066    19838356.414    19838361.252
        42.300          46.700
 118929408.809 7  92672268.16245  22631510.363    22631509.9434   22631510.6754
        44.400          30.8004
 124394589.783 8                  23671495.109
        48.300
 129219383.094 6 100690446.87345  24589622.765    24589622.2694   24589622.9894
        40.500          30.9004
 129769466.178 7                  24694301.666
        46.400
 126689911.351 5  98536641.359 6  23691650.473    23691648.996    23691657.821
        34.600          40.200
 123171877.804 8                  23438823.876
        48.200
 127714565.171 7  99333590.097 6  23958925.694    23958925.605    23958933.770
        45.700          40.800
 127884473.698 6  99650258.07645  24335600.044    24335599.2844   24335601.5894
        39.500          32.6004
 126002903.801 6  98184097.81546  23977551.158    23977550.4564   23977553.4844
        41.300          36.9004
 126613406.314 7  98477103.906 6  23685651.147    23685651.793    23685656.500
        44.200          41.000
 114153936.822 8  88951133.90948  21722764.592    21722764.0784   21722765.8834
        50.000          50.0004
 109039781.574 8  84808761.009 8  20426818.458    20426818.490    20426824.386
        50.800          48.300
 131893193.722 6 102773917.60843  25098441.467    25098441.0784   25098442.7174
        38.600          19.3004
 127722144.275 7  99339482.878 6  23867937.220    23867936.850    23867943.125
        44.100          38.400
 108386263.527 8  84300465.235 7  20247457.368    20247457.504    20247462.498
        51.900          47.700
 25  1  1 10  8 45.0000000  0 32G10G24E19E08R04S31S35G21R12E13S48S33
                                R02R13E29G23R19G18E07G15E33R20E26R14
                                G08G27R05G32R18G28R17R03
 110763287.950 8  86309075.63648  21077546.517    21077545.9094   21077547.4394
        51.400          51.6004
 114167933.856 7  88962067.94447  21725424.584    21725424.1874   21725425.8284
        45.700          45.6004
 144391229.448 5                  27476735.011
        32.900
 144196028.681 6                  27439583.376
        39.900
 108695316.108 8  84540855.151 7  20298080.487    20298080.960    20298085.803
        51.900          47.600
 198974399.737 7                  37863562.528
        45.700
 200954049.035 7                  38240279.522
        44.000
 131493187.667 6 102462233.71842  25022316.307    25022315.0964   25022316.2904
        36.500          16.0004
 123230892.957 7  95846286.480 6  23069075.124    23069074.782    23069081.534
        47.600          41.500
 138512583.638 6                  26358050.326
        41.700
 412714379.012 5                  78537080.114
        32.400
 202092385.363 7                  38456869.603
        45.100
 126848413.540 7  98659920.537 7  23771334.000    23771333.615    23771339.305
        45.000          42.400
 118751377.912 6                  22238303.951    22238304.086
        40.600
 127138562.240 8                  24193656.179
        48.100
 108674636.030 8  84681546.58346  20680088.406    20680088.0534   20680087.7454
        48.200          39.4004
 106118642.197 7  82536750.640 7  19837749.230    19837749.155    19837754.256
        42.300          46.900
 118980144.027 7  92711802.09345  22641165.134    22641164.7284   22641165.2354
        43.600          30.7004
 124411658.701 8                  23674743.084
        48.400
 129271114.241 6 100730756.86745  24599466.904    24599466.4174   24599466.6944
        40.300          30.9004
 129742439.445 7                  24689158.687
        46.600
 126629864.417 5  98489938.382 6  23680419.647    23680419.598    23680428.352
        34.300          40.100
 123184736.131 8                  23441270.832
        48.300
 127656469.282 7  99288404.497 6  23948026.866    23948026.740    23948034.517
        45.300          40.600
 127894013.827 6  99657691.97145  24337415.145    24337414.3944   24337417.1974
        38.900          32.8004
 126034576.537 6  98208777.85746  23983578.139    23983577.4334   23983580.4714
        40.200          36.7004
 126571745.563 7  98444701.100 6  23677857.923    23677858.654    23677863.776
        44.000          41.500
 114127497.635 8  88930531.96648  21717733.264    21717732.7414   21717734.6914
        50.200          50.0004
 109087322.719 8  84845737.419 8  20435723.809    20435724.303    20435730.369
        50.100          48.000
 131836106.349 6 102729433.94543  25087577.904    25087577.5244   25087579.3434
        38.000          19.9004
 127791448.892 7  99393386.443 6  23880887.606    23880888.001    23880894.760
        44.000          38.700
 108409543.049 8  84318571.527 8  20251806.039    20251806.090    20251811.191
        51.500          48.000
 25  1  1 10  9  0.0000000  0 32G10G24E19E08R04S31S35G21R12E13S48S33
                                R02R13E29G23R19G18E07G15E33R20E26R14
                                G08G27R05G32R18G28R17R03
 110742698.330 8  86293031.77848  21073628.427    21073627.8194   21073629.3684
        51.200          51.6004
 114193522.870 7  88982007.43447  21730293.783    21730293.3774   21730295.2994
        45.900          45.7004
 144353842.260 5                  27469620.822
        32.400
 144234298.356 6                  27446865.815
        40.100
 108679091.301 8  84528235.852 7  20295050.884    20295051.530    20295056.127
        52.100          47.800
 198974401.405 7                  37863559.545
        45.300
 200954045.541 7                  38240280.675
        43.900
 131450445.035 5 102428927.76942  25014182.841    25014181.5854   25014182.4534
        35.700          15.8004
 123243372.015 7  95855992.430 6  23071410.069    23071411.290    23071417.590
        47.600          41.100
 138555937.243 6                  26366300.340
        41.700
 412714244.839 5                  78537063.376
        32.200
 202092372.601 7                  38456866.330
        44.800
 126893305.232 7  98694836.165 7  23779746.042    23779746.356    23779752.251
        44.700          42.300
 118721296.713 6                  22232670.376    22232670.097
        40.900
 127117809.426 7                  24189707.146
        47.900
 108688268.328 8  84692169.15246  20682682.719    20682682.3624   20682681.8674
        48.100          39.4004
 106115605.289 7  82534388.597 7  19837181.312    19837181.491    19837186.624
        42.500          46.700
 119030949.739 7  92751390.93745  22650833.162    22650832.7654   22650833.2854
        44.500          30.6004
 124428777.935 8                  23678000.805
        48.500
 129322838.352 6 100771061.38445  24609310.293    24609309.8244   24609309.5404
        39.700          30.9004
 129715483.273 7                  24684029.055
        46.600
 126569887.626 5  98443289.943 6  23669204.268    23669204.218    23669212.100
        34.700          39.300
 123197691.211 8                  23443736.009
        48.300
 127598359.498 7  99243208.048 6  23937124.329    23937124.218    23937132.947
        44.300          39.800
 127903671.780 6  99665217.68745  24339253.213    24339252.4624   24339255.3164
        38.300          32.9004
 126066327.207 6  98233518.63346  23989620.898    23989620.2104   23989622.3664
        40.200          36.6004
 126530120.428 7  98412325.990 6  23670071.102    23670071.315    23670076.320
        43.800          41.700
 114101134.632 8  88909989.38748  21712716.417    21712715.8904   21712717.9864
        49.800          49.9004
 109135004.784 8  84882823.425 8  20444656.225    20444656.647    20444663.128
        50.400          48.200
 131779010.599 6 102684943.72443  25076713.528    25076713.1574   25076714.1734
        38.200          19.4004
 127860751.370 7  99447288.326 6  23893838.728    23893839.269    23893845.218
        44.600          38.700
 108432869.779 8  84336714.527 8  20256163.652    20256163.861    20256168.721
        52.000          48.100
 25  1  1 10  9 15.0000000  0 32G10G24E19E08R04S31S35G21R12E13S48S33
                                R02R13E29G23R19G18E07G15E33R20E26R14
                                G08G27R05G32R18G28R17R03
 110722154.104 8  86277023.29548  21069719.020    21069718.4124   21069719.9274
        51.400          51.4004
 114219258.295 7  89002061.00947  21735191.059    21735190.6484   21735192.5804
        45.900          45.6004
 144316482.270 5                  27462511.519
        33.100
 144272563.978 6                  27454147.210
        40.300
 108662938.936 8  84515672.924 7  20292034.050    20292035.004    20292039.660
        52.000          47.700
 198974400.972 7                  37863562.599
        45.700
 200954041.199 7                  38240281.261
        44.000
 131407747.109 5 102395656.64242  25006057.303    25006056.0474   25006057.1804
        35.900          15.6004
 123256031.101 7  95865838.184 6  23073780.022    23073780.235    23073788.489
        46.400          41.700
 138599330.197 6                  26374557.773
        41.300
 412714109.302 5                  78537038.514
        32.700
 202092359.269 7                  38456864.067
        44.900
 126938180.238 7  98729738.882 7  23788154.884    23788154.674    23788161.683
        44.100          42.700
 118691363.578 6                  22227064.870    22227064.668
        40.500
 127097116.871 8                  24185769.451
        48.100
 108701972.760 8  84702847.92746  20685290.611    20685290.2634   20685289.7174
        48.000          39.2004
 106112778.840 7  82532190.253 7  19836652.265    19836653.120    19836658.150
        42.300          46.700
 119081825.686 7  92791034.51745  22660514.384    22660513.9874   22660514.7914
        43.700          30.6004
 124445947.370 8                  23681267.893
        48.600
 129374555.227 6 100811360.26245  24619151.002    24619150.5514   24619151.3534
        40.700          31.3004
 129688597.829 7                  24678912.969
        46.600
 126509981.335 5  98396696.209 6  23658000.263    23658000.353    23658008.964
        34.300          39.500
 123210743.050 8                  23446219.674
        48.400
 127540236.176 7  99198001.094 6  23926220.960    23926221.003    23926228.064
        43.900          39.300
 127913447.453 6  99672835.11545  24341113.572    24341112.8304   24341115.6724
        39.300          32.4004
 126098155.529 6  98258319.91346  23995677.024    23995676.3184   23995679.4384
        40.500          36.7004
 126488530.898 7  98379978.589 6  23662290.610    23662291.612    23662296.319
        44.100          41.000
 114074847.878 8  88889506.22048  21707714.271    21707713.7484   21707715.7484
        50.000          49.8004
 109182827.185 8  84920018.612 8  20453615.210    20453615.381    20453621.671
        50.100          48.000
 131721906.790 6 102640447.24843  25065847.376    25065847.0504   25065847.7184
        36.800          19.4004
 127930051.055 7  99501188.075 6  23906789.439    23906789.405    23906796.293
        44.600          38.400
 108456243.699 8  84354894.240 8  20260530.417    20260530.418    20260535.300
        51.800          48.000
 25  1  1 10  9 30.0000000  0 32G10G24E19E08R04S31S35G21R12E13S48S33
                                R02R13E29G23R19G18E07G15E33R20E26R14
                                G08G27R05G32R18G28R17R03
 110701660.082 8  86261053.93048  21065818.994    21065818.3864   21065820.0414
        51.400          51.4004
 114245144.574 7  89022232.13847  21740117.278    21740116.8724   21740118.5824
        45.700          45.6004
 144279154.562 5                  27455408.039
        33.500
 144310830.089 6                  27461428.899
        40.400
 108646863.621 8  84503169.880 7  20289032.982    20289032.958    20289037.609
        52.300          47.500
 198974404.546 7                  37863560.994
        45.800
 200954040.722 7                  38240279.642
        44.000
 131365098.952 6 102362424.37242  24997941.872    24997940.5944   24997941.6324
        36.300          15.6004
 123268875.597 8  95875828.216 6  23076185.887    23076185.771    23076192.313
        48.000          41.200
 138642767.063 6                  26382823.604
        41.400
 412713978.602 5                  78537019.935
        32.400
 202092349.194 7                  38456861.053
        45.100
 126983043.781 7  98764632.648 7  23796562.920    23796563.797    23796569.424
        44.500          42.300
 118661583.698 6                  22221488.335    22221488.201
        40.600
 127076489.265 8                  24181844.407
        48.400
 108715754.119 7  84713586.64946  20687913.137    20687912.7934   20687912.2444
        47.900          39.1004
 106110167.546 7  82530159.235 7  19836164.742    19836165.020    19836170.050
        42.400          46.600
 119132776.298 7  92830736.28445  22670210.444    22670210.0644   22670210.4894
        43.900          30.5004
 124463171.536 8                  23684545.632
        48.700
 129426269.261 6 100851656.93145  24628991.859    24628991.4214   24628992.0884
        40.100          30.6004
 129661788.025 7                  24673811.325
        47.100
 126450151.465 5  98350161.984 6  23646810.899    23646812.631    23646821.099
        34.600          40.600
 123223896.355 8                  23448722.663
        48.600
 127482104.684 7  99152787.792 6  23915315.960    23915316.370    23915323.677
        45.000          39.900
 127923345.362 6  99680547.79845  24342996.550    24342995.7954   24342999.0174
        38.800          32.0004
 126130065.820 6  98283185.07546  24001749.752    24001749.0424   24001751.7634
        40.300          36.4004
 126446982.076 7  98347662.819 6  23654517.728    23654518.197    23654524.111
        43.000          41.600
 114048642.034 8  88869086.09548  21702727.533    21702727.0104   21702728.9094
        50.100          49.7004
 109230794.394 8  84957326.416 7  20462601.587    20462601.800    20462607.406
        50.300          47.900
 131664799.872 6 102595948.35943  25054980.300    25054979.9834   25054980.9114
        38.500          19.6004
 127999352.373 7  99555089.071 6  23919739.234    23919739.430    23919746.720
        44.000          38.900
 108479669.418 8  84373114.221 7  20264906.561    20264906.473    20264911.373
        52.200          47.800
 25  1  1 10  9 45.0000000  0 32G10G24E19E08R04S31S35G21R12E13S48S33
                                R02R13E29G23R19G18E07G15E33R20E26R14
                                G08G27R05G32R18G28R17R03
 110681211.365 8  86245119.87048  21061927.613    21061927.0014   21061928.7824
        51.500          51.6004
 114271176.415 7  89042516.68947  21745070.921    21745070.5194   21745072.3314
        46.100          45.8004
 144241853.862 5                  27448309.762
        32.800
 144349091.576 6                  27468710.045
        40.600
 108630860.075 8  84490722.708 7  20286043.893    20286044.300    20286049.063
        51.900          47.500
 198974407.101 7                  37863563.583
        45.700
 200954037.340 7                  38240277.988
        44.000
 131322495.782 6 102329227.20442  24989834.510    24989833.2324   24989834.2944
        36.400          15.6004
 123281900.251 7  95885958.583 6  23078622.932    23078624.026    23078631.154
        46.800          41.600
 138686242.560 6                  26391096.343
        41.200
 412713846.724 5                  78537003.971
        32.500
 202092337.509 7                  38456859.234
        45.000
 127027890.589 7  98799513.486 7  23804967.360    23804967.854    23804973.191
        44.800          42.100
 118631952.652 6                  22215939.155    22215939.298
        41.200
 127055921.531 8                  24177930.134
        48.200
 108729607.378 8  84724381.39346  20690549.317    20690548.9824   20690548.4174
        48.200          39.3004
 106107766.663 7  82528291.898 7  19835716.116    19835716.190    19835721.336
        42.100          46.700
 119183796.140 7  92870491.98045  22679919.037    22679918.6574   22679919.1564
        44.400          30.5004
 124480445.234 8                  23687832.738
        48.600
 129477975.451 6 100891947.50445  24638831.285    24638830.8524   24638831.0764
        40.200          30.4004
 129635048.994 7                  24668722.869
        46.900
 126390393.096 5  98303683.567 6  23635638.271    23635637.018    23635646.984
        34.500          41.100
 123237146.058 8                  23451244.008
        48.500
 127423960.167 7  99107564.368 6  23904407.658    23904408.593    23904415.641
        45.200          40.300
 127933360.285 6  99688351.68145  24344902.302    24344901.5564   24344904.6304
        39.800          32.3004
 126162052.641 6  98308109.88046  24007835.866    24007835.1564   24007838.5274
        40.500          36.8004
 126405468.693 7  98315374.632 6  23646752.555    23646752.559    23646757.851
        43.900          41.300
 114022512.083 8  88848725.11248  21697755.111    21697754.5884   21697756.5104
        50.000          49.9004
 109278900.536 8  84994742.280 7  20471613.002    20471613.157    20471619.661
        50.200          47.900
 131607685.153 6 102551443.37443  25044111.020    25044110.7034   25044111.7744
        38.600          19.9004
 128068649.439 7  99608986.786 6  23932688.497    23932688.882    23932696.025
        43.000          38.400
 108503141.772 8  84391370.515 7  20269291.018    20269291.194    20269296.175
        51.500          47.800
 25  1  1 10 10  0.0000000  0 32G10G24E19E08R04S31S35G21R12E13S48S33
                                R02R13E29G23R19G18E07G15E33R20E26R14
                                G08G27R05G32R18G28R17R03
 110660809.739 8  86229222.50548  21058045.471    21058044.8634   21058046.4654
        51.200          51.6004
 114297355.165 7  89062915.70947  21750052.619    21750052.2084   21750054.0144
        46.200          46.0004
 144204581.872 5                  27441217.266
        32.600
 144387349.971 6                  27475990.303
        39.500
 108614929.968 8  84478332.621 7  20283069.184    20283069.719    20283074.218
        52.100          47.800
 198974409.325 7                  37863564.732
        45.900
 200954035.364 7                  38240276.320
        43.900
 131279939.298 6 102296066.38542  24981737.274    24981735.9824   24981735.9134
        36.800          15.8004
 123295106.028 7  95896229.597 6  23081095.257    23081095.809    23081102.687
        46.800          41.500
 138729758.195 6                  26399377.440
        41.300
 412713715.244 5                  78536986.268
        32.300
 202092325.857 7                  38456858.411
        45.100
 127072722.071 7  98834382.393 7  23813368.527    23813369.442    23813374.591
        44.500          42.200
 118602472.229 6                  22210418.577    22210418.896
        41.300
 127035415.269 8                  24174028.150
        48.000
 108743534.215 8  84735233.47146  20693199.191    20693198.8524   20693198.6054
        48.200          39.3004
 106105577.700 7  82526589.362 7  19835306.658    19835306.871    19835312.156
        42.300          46.800
 119234886.600 7  92910302.70645  22689640.469    22689640.0804   22689641.3754
        44.200          30.4004
 124497769.957 8                  23691129.623
        48.600
 129529675.153 6 100932233.01044  24648670.051    24648669.6314   24648668.8294
        39.600          29.6004
 129608382.586 7                  24663648.468
        46.900
 126330708.247 5  98257262.184 6  23624477.209    23624475.338    23624485.094
        34.600          41.100
 123250493.764 8                  23453783.921
        48.300
 127365804.854 7  99062332.500 6  23893498.899    23893498.608    23893506.264
        45.700          40.100
 127943493.524 6  99696247.74845  24346831.285    24346830.5304   24346832.8214
        39.200          32.3004
 126194117.252 6  98333095.29246  24013937.888    24013937.1954   24013940.0564
        40.800          37.0004
 126363992.350 7  98283115.238 6  23638993.179    23638993.860    23638999.138
        43.400          41.700
 113996459.621 8  88828424.50948  21692797.643    21692797.1204   21692798.8584
        50.200          50.0004
 109327147.007 8  85032267.284 7  20480651.771    20480651.643    20480657.861
        50.600          47.800
 131550564.526 6 102506933.78243  25033241.840    25033241.5454   25033242.1894
        38.500          20.3004
 128137943.618 7  99662882.190 6  23945639.322    23945639.086    23945646.086
        44.200          38.700
 108526662.053 8  84409664.047 7  20273685.346    20273685.274    20273689.942
        52.400          47.800
 25  1  1 10 10 15.0000000  0 32G10G24E19E08R04S31S35G21R12E13S48S33
                                R02R13E29G23R19G18E07G15E33R20E26R14
                                G08G27R05G32R18G28R17R03
 110640453.016 8  86213360.12448  21054171.892    21054171.2934   21054172.7084
        51.300          51.6004
 114323678.315 7  89083427.24447  21755061.478    21755061.0584   21755063.0854
        45.400          45.9004
 144167336.525 5                  27434129.811
        32.200
 144425602.866 6                  27483269.914
        40.000
 108599070.818 8  84465997.736 7  20280107.067    20280108.092    20280112.599
        52.100          47.500
 198974409.054 7                  37863562.684
        45.700
 200954030.824 7                  38240277.393
        43.900
 131237427.683 5 102262940.61442  24973646.219    24973644.9544   24973646.5874
        35.900          15.5004
 123308491.249 7  95906640.347 6  23083601.507    23083601.197    23083608.235
        47.100          40.900
 138773311.522 6                  26407665.395
        40.900
 412713583.683 5                  78536969.745
        32.300
 202092312.969 7                  38456854.722
        44.900
 127117535.655 7  98869237.310 7  23821766.146    23821766.385    23821772.719
        44.100          42.100
 118573140.581 6                  22204925.842    22204925.745
        40.600
 127014968.185 8                  24170137.017
        48.100
 108757532.443 8  84746141.17546  20695863.113    20695862.7744   20695862.3464
        48.100          39.4004
 106103598.363 7  82525049.874 7  19834936.649    19834937.171    19834942.129
        42.400          46.600
 119286045.107 7  92950166.48745  22699376.239    22699375.8464   22699376.6214
        44.300          30.6004
 124515143.247 8                  23694435.568
        48.700
 129581366.039 6 100972511.64145  24658505.715    24658505.2864   24658505.4594
        40.200          30.5004
 129581786.665 7                  24658587.411
        46.900
 126271095.275 5  98210896.706 6  23613327.776    23613328.513    23613335.872
        35.500          40.200
 123263937.177 8                  23456342.225
        48.300
 127307637.255 7  99017091.120 6  23882586.211    23882585.814    23882593.698
        44.700          40.300
 127953742.786 6  99704234.20845  24348781.654    24348780.9084   24348783.2394
        38.800          32.1004
 126226256.992 6  98358139.23746  24020053.808    24020053.1064   24020056.0064
        39.800          36.7004
 126322550.569 7  98250882.739 7  23631239.691    23631240.692    23631246.749
        43.500          42.200
 113970482.399 8  88808182.53248  21687854.023    21687853.4964   21687855.5464
        49.700          50.0004
 109375530.940 8  85069899.222 8  20489715.527    20489715.685    20489721.738
        50.600          48.100
 131493436.010 6 102462418.04943  25022370.557    25022370.2404   25022371.3224
        38.100          20.0004
 128207232.292 7  99716773.349 6  23958586.071    23958586.611    23958593.843
        43.200          38.300
 108550227.873 8  84427993.030 7  20278087.039    20278087.376    20278092.286
        51.800          47.900
 25  1  1 10 10 30.0000000  0 32G10G24E19E08R04S31S35G21R12E13S48S33
                                R02R13E29G23R19G18E07G15E33R20E26R14
                                G08G27R05G32R18G28R17R03
 110620147.989 8  86197538.03048  21050307.714    21050307.1154   21050308.7704
        51.500          51.6004
 114350152.222 7  89104056.25447  21760099.439    21760099.0244   21760100.8914
        46.000          45.9004
 144130124.530 5                  27427048.664
        32.700
 144463856.779 6                  27490549.252
        39.800
 108583289.362 8  84453723.257 7  20277160.195    20277160.867    20277165.559
        51.900          47.400
 198974413.896 7                  37863562.787
        45.600
 200954030.213 7                  38240279.414
        44.200
 131194967.509 5 102229854.84942  24965566.584    24965565.3014   24965566.5034
        35.900          15.7004
 123322062.133 7  95917195.521 6  23086142.208    23086141.915    23086149.047
        46.800          41.100
 138816908.965 6                  26415961.456
        40.800
 412713455.415 5                  78536952.543
        32.100
 202092303.112 7                  38456851.645
        45.000
 127162338.255 7  98904083.637 6  23830163.092    23830163.220    23830169.044
        44.700          41.700
 118543964.953 6                  22199461.889    22199462.500
        41.700
 126994586.889 8                  24166258.923
        48.200
 108771608.734 8  84757109.70846  20698541.789    20698541.4454   20698541.0184
        48.300          39.3004
 106101835.359 7  82523678.644 7  19834607.264    19834607.281    19834612.499
        42.200          46.700
 119337277.915 7  92990088.13645  22709125.207    22709124.8054   22709125.7284
        43.800          30.4004
 124532571.604 8                  23697752.044
        48.500
 129633054.526 6 101012788.39445  24668342.203    24668341.7654   24668341.8754
        39.600          30.9004
 129555268.128 7                  24653541.038
        46.600
 126211561.186 5  98164592.494 6  23602193.894    23602194.634    23602202.726
        35.200          40.200
 123277482.898 8                  23458919.937
        48.300
 127249464.315 7  98971845.585 6  23871671.979    23871672.524    23871681.812
        45.100          41.200
 127964114.494 6  99712316.10845  24350755.039    24350754.2794   24350756.9734
        39.000          32.1004
 126258478.136 6  98383246.61546  24026185.560    24026184.8414   24026187.6334
        40.500          36.8004
 126281150.189 7  98218682.428 7  23623495.473    23623496.455    23623502.140
        43.100          42.400
 113944587.039 8  88788004.34248  21682926.669    21682926.1424   21682927.8134
        50.100          50.0004
 109424058.507 8  85107642.864 7  20498805.964    20498806.333    20498812.595
        50.700          47.900
 131436306.574 6 102417901.60443  25011499.615    25011499.3024   25011499.5824
        38.500          20.1004
 128276521.523 7  99770664.959 6  23971533.700    23971535.035    23971541.431
        43.400          38.000
 108573845.918 8  84446362.604 7  20282499.112    20282499.272    20282504.431
        51.700          47.900
 25  1  1 10 10 45.0000000  0 32G10G24E19E08R04S31S35G21R12E13S48S33
                                R02R13E29G23R19G18E07G15E33R20E26R14
                                G08G27R05G32R18G28R17R03
 110599887.359 8  86181750.53848  21046452.207    21046451.6044   21046453.2974
        51.600          51.8004
 114376769.219 7  89124796.76847  21765164.085    21765163.6654   21765166.0144
        46.000          46.0004
 144092938.309 5                  27419972.210
        31.800
 144502104.149 6                  27497827.405
        39.800
 108567577.804 8  84441503.173 7  20274226.203    20274227.103    20274231.664
        52.100          47.500
 198974415.304 7                  37863566.069
        45.700
 200954027.298 7                  38240275.913
        44.000
 131152551.708 5 102196803.61042  24957494.991    24957493.7174   24957495.0724
        35.100          16.0004
 123335810.951 8  95927889.049 6  23088716.828    23088716.599    23088722.546
        48.000          41.400
 138860542.966 6                  26424264.727
        40.800
 412713324.087 5                  78536939.611
        32.300
 202092291.670 7                  38456850.818
        44.900
 127207122.441 7  98938915.736 7  23838557.072    23838556.827    23838561.828
        45.800          42.200
 118514938.108 6                  22194026.221    22194025.289
        41.300
 126974263.922 8                  24162391.402
        48.100
 108785755.712 8  84768133.32646  20701233.763    20701233.4154   20701233.1054
        48.100          39.3004
 106100281.558 7  82522470.137 7  19834316.586    19834316.764    19834322.036
        42.300          46.800
 119388577.323 7  93030061.67145  22718887.053    22718886.6294   22718887.8084
        44.100          30.7004
 124550047.410 8                  23701077.589
        48.600
 129684733.220 6 101053057.53645  24678176.087    24678175.6364   24678175.9664
        40.300          30.5004
 129528819.661 7                  24648508.146
        46.800
 126152099.038 5  98118344.353 6  23591073.745    23591074.196    23591082.731
        34.100          40.600
 123291123.505 8                  23461515.504
        48.200
 127191278.834 7  98926590.282 6  23860758.206    23860758.738    23860765.088
        45.700          40.400
 127974600.934 6  99720487.39745  24352749.964    24352749.2134   24352751.9704
        39.400          32.4004
 126290772.877 6  98408411.33646  24032330.440    24032329.7164   24032333.3964
        40.300          37.0004
 126239783.785 7  98186508.544 6  23615757.601    23615757.400    23615763.260
        43.300          41.800
 113918766.088 8  88767884.13548  21678012.928    21678012.4014   21678014.2254
        50.000          50.1004
 109472721.747 8  85145492.071 7  20507922.377    20507922.764    20507928.669
        50.600          47.800
 131379169.053 6 102373378.84743  25000626.090    25000625.7424   25000626.4524
        38.700          20.8004
 128345803.340 7  99824550.847 6  23984481.341    23984481.625    23984489.085
        42.200          38.800
 108597508.059 8  84464766.502 7  20286919.979    20286919.694    20286924.483
        52.200          47.900
 25  1  1 10 11  0.0000000  0 32G10G24E19E08R04S31S35G21R12E13S48S33
                                R02R13E29G23R19G18E07G15E33R20E26R14
                                G08G27R05G32R18G28R17R03
 110579673.263 8  86165999.29748  21042605.628    21042605.0204   21042606.6734
        51.500          51.7004
 114403531.015 7  89145650.11447  21770257.176    21770256.7614   21770258.6744
        45.900          45.9004
 144055780.004 5                  27412900.892
        31.400
 144540346.851 6                  27505105.083
        39.600
 108551938.205 8  84429339.044 7  20271306.223    20271306.499    20271310.921
        52.400          47.400
 198974415.773 7                  37863564.916
        45.900
 200954022.891 7                  38240274.174
        44.000
 131110182.540 6 102163788.76542  24949432.575    24949431.2884   24949432.2054
        36.600          15.6004
 123349739.970 7  95938722.862 6  23091322.228    23091323.202    23091330.705
        46.600          41.900
 138904215.329 6                  26432574.882
        41.100
 412713193.685 5                  78536920.844
        32.800
 202092278.441 7                  38456848.117
        45.100
 127251889.922 7  98973734.798 7  23846945.254    23846945.560    23846951.875
        45.100          42.000
 118486062.768 6                  22188619.036    22188618.605
        40.800
 126954001.248 8                  24158535.471
        48.300
 108799975.410 8  84779213.61246  20703940.000    20703939.6474   20703938.9824
        48.100          39.2004
 106098938.569 7  82521425.593 7  19834065.230    19834065.938    19834071.111
        42.700          46.600
 119439944.985 7  93070088.39845  22728662.246    22728661.8314   22728663.0164
        44.200          30.5004
 124567572.536 8                  23704412.529
        48.700
 129736403.859 6 101093320.42245  24688008.910    24688008.4504   24688008.3084
        39.900          30.1004
 129502443.539 7                  24643488.754
        47.000
 126092711.133 5  98072153.662 6  23579967.236    23579969.230    23579976.839
        35.300          40.400
 123304860.949 8                  23464129.780
        48.200
 127133083.561 7  98881327.343 6  23849840.545    23849840.404    23849848.301
        45.400          40.900
 127985203.936 6  99728749.47545  24354767.703    24354766.9484   24354769.7184
        39.100          32.2004
 126323142.846 6  98433634.68046  24038490.616    24038489.8924   24038493.3874
        40.600          36.9004
 126198453.349 7  98154362.625 7  23608025.370    23608024.954    23608031.685
        42.200          42.100
 113893021.540 8  88747823.46548  21673113.795    21673113.2684   21673115.1554
        50.200          50.1004
 109521522.157 8  85183447.954 7  20517064.266    20517064.585    20517070.901
        50.300          47.700
 131322025.725 6 102328851.56743  24989752.471    24989752.1234   24989753.0134
        39.000          20.8004
 128415079.374 7  99878432.157 6  23997428.565    23997427.902    23997435.788
        42.900          38.900
 108621216.485 8  84483206.372 7  20291348.483    20291348.863    20291353.589
        52.100          47.900
 25  1  1 10 11 15.0000000  0 33G10G24E19E08R04S31S35G21R12E13S48S33
                                R02R13E29G23R19G18E07G15E33R20E26R14
                                G08G27R05G32R18G28R17R03E02
 110559506.886 8  86150285.24448  21038768.166    21038767.5634   21038769.1404
        51.600          51.7004
 114430438.439 7  89166616.92647  21775377.345    21775376.9304   21775379.0034
        46.300          45.9004
 144018650.725 5                  27405835.743
        31.500
 144578585.873 6                  27512381.428
        39.500
 108536371.489 8  84417231.601 7  20268398.791    20268399.103    20268403.937
        51.600          47.500
 198974416.328 7                  37863563.181
        45.700
 200954018.428 7                  38240276.155
        44.100
 131067861.180 5 102130811.09342  24941378.276    24941376.9844   24941378.8804
        35.100          15.2004
 123363849.996 7  95949697.503 6  23093964.564    23093964.303    23093971.189
        47.300          41.200
 138947926.945 6                  26440893.458
        40.800
 412713063.443 5                  78536907.049
        32.800
 202092264.930 7                  38456847.142
        45.000
 127296642.031 7  99008542.020 6  23855330.927    23855331.377    23855337.679
        43.600          41.500
 118457340.343 6                  22183240.470    22183239.771
        41.500
 126933799.907 8                  24154691.385
        48.200
 108814268.926 8  84790351.41446  20706659.762    20706659.4144   20706658.9184
        48.300          39.2004
 106097807.771 7  82520546.079 7  19833854.115    19833854.359    19833859.599
        42.300          46.600
 119491381.685 7  93110168.91545  22738450.191    22738449.7804   22738451.1434
        43.700          30.6004
 124585147.884 8                  23707757.028
        48.600
 129788067.201 6 101133577.57645  24697840.451    24697839.9954   24697839.7294
        39.900          30.4004
 129476140.913 7                  24638483.669
        46.800
 126033399.413 5  98026022.248 6  23568876.197    23568876.941    23568885.234
        34.100          39.900
 123318696.307 8                  23466762.570
        48.200
 127074880.028 7  98836057.945 6  23838920.594    23838920.254    23838929.431
        44.300          40.800
 127995924.446 6  99737103.16245  24356807.747    24356807.0054   24356810.1464
        39.300          32.5004
 126355588.733 6  98458917.19246  24044665.077    24044664.3584   24044667.3924
        39.700          36.7004
 126157159.804 7  98122245.419 7  23600299.679    23600300.342    23600307.159
        42.300          42.600
 113867354.480 8  88727823.17648  21668229.443    21668228.9164   21668230.8334
        50.300          50.1004
 109570460.286 8  85221510.926 7  20526232.130    20526232.377    20526238.707
        50.000          47.700
 131264877.964 6 102284320.84843  24978877.075    24978876.7224   24978878.2684
        39.300          20.8004
 128484350.275 7  99932309.478 6  24010372.184    24010372.870    24010380.142
        42.700          38.400
 108644971.918 8  84501682.834 8  20295786.091    20295786.430    20295791.326
        52.200          48.000


 25  1  1 10 11 30.0000000  0 33G10G24E19E08R04S31S35G21R12E13S48S33
                                R02R13E29G23R19G18E07G15E33R20E26R14
                                G08G27R05G32R18G28R17R03E02
 110539391.515 8  86134610.93048  21034940.312    21034939.7134   21034941.3014
        51.500          51.8004
 114457494.362 7  89187699.46547  21780525.794    21780525.3434   21780527.5134
        46.200          46.0004
 143981553.493 5                  27398776.656
        31.100
 144616824.235 6                  27519657.894
        39.700
 108520880.759 8  84405183.264 7  20265505.853    20265506.567    20265511.348
        51.600          47.500
 198974420.207 7                  37863566.414
        45.900
 200954017.243 7                  38240275.448
        44.100
 131025591.458 6 102097873.72442  24933335.601    24933334.3054   24933335.0264
        36.100          16.0004
 123378143.749 7  95960814.819 6  23096641.015    23096640.650    23096647.134
        46.700          41.000
 138991680.796 6                  26449219.783
        40.700
 412712935.868 5                  78536890.848
        32.600
 202092255.846 7                  38456841.624
        45.000
 127341381.648 7  99043339.529 6  23863714.978    23863715.150    23863721.582
        42.300          41.500
 118428774.124 6                  22177890.905    22177890.852
        41.400
 126913663.027 8                  24150859.432
        48.100
 108828639.515 8  84801549.27446  20709394.506    20709394.1534   20709393.5614
        48.100          39.3004
 106096892.324 7  82519834.057 7  19833683.285    19833683.543    19833688.416
        42.600          46.600
 119542890.235 7  93150305.40445  22748252.356    22748251.9544   22748252.8104
        43.800          30.4004
 124602776.459 8                  23711111.647
        48.800
 129839726.367 6 101173831.48045  24707670.430    24707669.9614   24707670.1354
        39.600          30.3004
 129449915.202 7                  24633492.868
        46.800
 125974167.808 5  97979953.338 6  23557799.944    23557801.201    23557808.260
        35.000          40.900
 123332632.666 8                  23469414.447
        48.300
 127016671.828 7  98790784.932 6  23828001.443    23828001.858    23828009.590
        45.900          40.100
 128006765.346 6  99745550.64845  24358871.261    24358870.5154   24358873.2554
        39.000          32.5004
 126388113.302 6  98484261.02146  24050854.148    24050853.4424   24050856.1674
        40.600          36.9004
 126115906.502 7  98090159.493 7  23592583.617    23592584.155    23592590.256
        44.000          42.700
 113841768.015 8  88707885.68448  21663360.522    21663359.9994   21663361.8714
        50.000          50.2004
 109619538.864 8  85259683.123 7  20535426.009    20535426.569    20535432.595
        50.100          47.800
 131207729.249 6 102239789.36143  24968001.826    24968001.4874   24968002.7414
        38.200          21.2004
 128553618.672 7  99986184.832 6  24023317.410    24023317.452    24023325.172
        42.500          39.000
 108668777.835 8  84520198.523 8  20300233.391    20300233.754    20300238.466
        52.300          48.100


 25  1  1 10 11 45.0000000  0 32G10G24E19E08R04S31S35G21R12E13S48S33
                                R02R13E29G23R19G18E07G15E33R20E26R14
                                G08G27R05G32R18G28R17R03
 110519325.271 8  86118974.90348  21031121.943    21031121.3534   21031122.8134
        51.500          51.8004
 114484696.450 7  89208895.89447  21785702.208    21785701.7574   21785703.8824
        46.200          46.1004
 143944486.493 5                  27391723.837
        31.700
 144655059.781 6                  27526934.013
        38.900
 108505463.913 8  84393192.379 7  20262627.117    20262627.678    20262632.101
        51.500          47.200
 198974424.847 7                  37863564.799
        45.700
 200954017.333 7                  38240274.165
        44.000
 130983371.231 6 102064974.87342  24925300.562    24925299.2394   24925300.6024
        36.900          15.1004
 123392619.388 8  95972073.718 6  23099350.671    23099350.766    23099357.022
        48.000          41.300
 139035474.646 6                  26457553.222
        40.200
 412712809.729 5                  78536873.887
        32.600
 202092246.208 7                  38456842.590
        45.000
 127386106.426 7  99078125.396 7  23872097.643    23872097.757    23872103.344
        44.200          42.000
 118400363.010 6                  22172570.350    22172569.854
        40.800
 126893588.517 8                  24147039.458
        48.000
 108843085.142 7  84812805.61046  20712143.279    20712142.9224   20712142.4514
        47.900          39.2004
 106096190.304 7  82519288.024 7  19833552.169    19833552.175    19833557.348
        42.600          46.700
 119594468.295 7  93190496.05745  22758066.916    22758066.5054   22758068.0264
        43.500          30.8004
 124620456.018 8                  23714475.991
        48.600
 129891379.314 6 101214080.57245  24717499.801    24717499.3504   24717499.1784
        39.700          30.2004
 129423764.516 7                  24628516.755
        46.800
 125915014.464 5  97933945.319 6  23546739.072    23546738.993    23546747.094
        35.700          41.000
 123346667.970 8                  23472085.560
        48.100
 126958457.566 7  98745507.184 6  23817081.598    23817081.851    23817088.528
        46.100          40.600
 128017724.312 6  99754090.12245  24360956.405    24360955.6684   24360958.6364
        39.100          32.7004
 126420714.094 6  98509664.22546  24057057.702    24057056.9694   24057059.9574
        41.200          37.2004
 126074691.001 6  98058102.996 7  23584873.156    23584872.945    23584879.717
        41.800          42.700
 113816260.097 8  88688009.39648  21658506.684    21658506.1574   21658507.8764
        50.200          50.2004
 109668755.184 8  85297962.438 7  20544645.915    20544646.545    20544652.634
        50.200          47.400
 131150577.781 6 102195255.75043  24957127.073    24957126.7254   24957127.3174
        38.400          20.9004
 128622882.117 7 100040056.329 6  24036261.379    24036260.626    24036268.364
        42.300          38.700
 108692631.279 8  84538751.178 8  20304689.464    20304689.551    20304694.617
        52.100          48.100
 25  1  1 10 12  0.0000000  0 32G10G24E19E08R04S31S35G21R12E13S48S33
                                R02R13E29G23R19G18E07G15E33R20E26R14
                                G08G27R05G32R18G28R17R03
 110499309.281 8  86103378.04048  21027312.964    21027312.3744   21027313.8714
        51.600          52.0004
 114512045.461 7  89230206.80147  21790906.355    21790905.9134   21790908.2204
        46.500          46.2004
 143907450.754 5                  27384675.736
        32.400
 144693293.395 6                  27534209.803
        39.600
 108490121.736 8  84381259.581 7  20259762.562    20259762.679    20259767.245
        52.200          47.400
 198974431.712 7                  37863564.160
        45.900
 200954019.276 7                  38240275.488
        44.200
 130941201.873 6 102032115.62342  24917276.183    24917274.8294   24917275.5694
        36.700          16.2004
 123407277.832 7  95983474.790 6  23102093.963    23102094.616    23102101.596
        47.800          41.700
 139079309.364 6                  26465894.580
        39.500
 412712686.411 5                  78536850.393
        32.500
 202092239.928 7                  38456840.837
        45.100
 127430817.625 7  99112900.678 6  23880476.055    23880475.936    23880482.078
        43.300          41.400
 118372107.913 6                  22167278.797    22167278.332
        41.400
 126873577.410 7                  24143231.270
        47.600
 108857606.895 8  84824121.26046  20714906.854    20714906.5014   20714905.8154
        48.000          39.3004
 106095702.494 7  82518908.639 7  19833460.536    19833461.115    19833466.181
        42.100          46.600
 119646116.584 7  93230741.42745  22767895.421    22767895.0284   22767896.4524
        43.800          30.6004
 124638187.462 8                  23717850.116
        48.400
 129943026.961 6 101254325.54845  24727327.814    24727327.3854   24727327.0444
        39.500          30.2004
 129397690.136 7                  24623554.950
        46.500
 125855940.610 6  97887998.957 6  23535691.370    23535691.612    23535699.803
        36.000          40.300
 123360803.215 7                  23474775.175
        47.700
 126900238.551 7  98700225.735 6  23806158.742    23806159.238    23806167.310
        45.200          41.200
 128028802.312 6  99762722.34845  24363063.872    24363063.1444   24363066.5904
        39.200          32.5004
 126453391.822 6  98535127.38446  24063276.117    24063275.3804   24063278.5894
        40.400          37.2004
 126033514.956 7  98026077.149 7  23577171.290    23577171.120    23577176.332
        43.000          42.400
 113790831.766 8  88668195.12748  21653667.725    21653667.2024   21653669.0034
        50.300          50.3004
 109718110.017 8  85336349.517 7  20553892.019    20553892.399    20553898.411
        50.300          47.400
 131093424.951 6 102150721.06643  24946251.001    24946250.6574   24946251.9424
        38.600          21.4004
 128692141.217 7 100093924.484 6  24049202.869    24049204.279    24049210.657
        42.700          38.400
 108716533.715 8  84557341.947 8  20309154.865    20309154.869    20309159.653
        52.200          48.100
 25  1  1 10 12 15.0000000  0 32G10G24E19E08R04S31S35G21R12E13S48S33
                                R02R13E29G23R19G18E07G15E33R20E26R14
                                G08G27R05G32R18G28R17R03
 110479333.300 8  86087812.33848  21023511.411    21023510.8124   21023512.5634
        51.500          51.7004
 114539530.786 7  89251623.92747  21796137.114    21796136.6724   21796138.5384
        45.600          45.9004
 143870436.104 5                  27377631.345
        31.700
 144731514.604 6                  27541482.304
        40.100
 108474843.516 8  84369376.519 7  20256909.022    20256909.564    20256913.701
        52.000          47.400
 198974430.763 7                  37863565.667
        46.000
 200954012.728 7                  38240276.848
        44.300
 130899073.199 5 101999288.11142  24909259.207    24909257.7904   24909258.8354
        35.800          15.6004
 123422108.194 7  95995009.494 6  23104870.191    23104870.238    23104877.540
        46.200          41.600
 139123174.383 6                  26474242.170
        39.800
 412712554.234 5                  78536833.839
        32.700
 202092224.801 7                  38456838.150
        45.100
 127475504.988 7  99147657.541 7  23888851.405    23888851.491    23888857.074
        45.000          42.000
 118343999.080 6                  22162014.799    22162014.106
        40.900
 126853619.268 7                  24139433.531
        47.700
 108872194.433 8  84835488.17046  20717682.606    20717682.2404   20717681.7044
        48.000          39.0004
 106095418.841 7  82518688.017 7  19833407.619    19833408.109    19833413.049
        42.400          46.500
 119697824.446 7  93271033.23745  22777735.651    22777735.2544   22777735.9984
        43.600          30.3004
 124655960.270 8                  23721232.153
        48.400
 129994658.560 6 101294558.01944  24737152.688    24737152.2504   24737152.2584
        39.300          29.8004
 129371681.824 7                  24618605.894
        46.600
 125796936.522 5  97842106.902 6  23524656.311    23524657.034    23524666.020
        34.100          40.700
 123375028.020 7                  23477482.128
        47.900
 126842004.948 7  98654932.952 6  23795234.897    23795234.528    23795242.563
        44.600          40.800
 128039988.693 6  99771439.02745  24365192.892    24365192.1644   24365195.1904
        38.000          32.2004
 126486135.693 6  98560642.08646  24069506.983    24069506.2464   24069509.4374
        40.400          36.8004
 125992367.243 7  97994073.377 7  23569472.898    23569472.793    23569479.153
        42.900          42.600
 113765472.620 8  88648434.77148  21648842.026    21648841.4994   21648843.2914
        50.100          50.1004
 109767592.240 8  85374835.667 7  20563161.809    20563162.104    20563167.740
        50.300          47.300
 131036260.624 6 102106177.42443  24935372.605    24935372.2484   24935373.6564
        38.600          21.2004
 128761385.023 6 100147780.743 6  24062143.462    24062142.575    24062150.075
        40.400          37.800
 108740474.125 8  84575962.246 7  20313626.916    20313627.055    20313631.874
        52.100          47.900
 25  1  1 10 12 30.0000000  0 32G10G24E19E08R04S31S35G21R12E13S48S33
                                R02R13E29G23R19G18E07G15E33R20E26R14
                                G08G27R05G32R18G28R17R03
 110459411.041 8  86072288.50048  21019720.504    21019719.9014   21019721.4854
        51.600          51.7004
 114567165.718 7  89273157.62347  21801395.820    21801395.3874   21801397.2964
        46.100          45.9004
 143833455.971 5                  27370594.386
        32.100
 144769736.855 6                  27548755.910
        39.300
 108459643.018 8  84357553.926 7  20254070.512    20254070.956    20254075.388
        51.800          47.400
 198974434.318 7                  37863566.700
        45.700
 200954012.008 7                  38240276.785
        44.100
 130856999.086 6 101966503.02242  24901253.404    24901251.9514   24901252.3634
        36.400          14.3004
 123437124.140 7  96006688.497 6  23107682.175    23107681.668    23107688.643
        46.800          41.400
 139167083.105 6                  26482597.430
        39.700
 412712428.437 5                  78536816.024
        32.500
 202092215.788 7                  38456835.977
        44.900
 127520181.700 7  99182406.185 7  23897221.887    23897222.252    23897228.984
        43.600          42.300
 118316050.480 6                  22156780.975    22156781.019
        41.600
 126833727.652 7                  24135648.191
        47.900
 108886861.376 7  84846916.96546  20720473.524    20720473.1534   20720472.7354
        47.700          38.9004
 106095352.895 6  82518636.724 7  19833394.739    19833395.597    19833400.900
        41.900          46.700
 119749605.091 7  93311381.75945  22787588.617    22787588.2064   22787589.5714
        44.000          30.3004
 124673787.844 8                  23724624.634
        48.500
 130046287.528 6 101334788.39444  24746977.709    24746977.2764   24746976.8254
        39.400          29.9004
 129345753.372 7                  24613671.798
        46.900
 125738016.696 5  97796280.465 6  23513636.388    23513637.834    23513647.786
        34.600          40.600
 123389355.910 8                  23480208.544
        48.000
 126783771.101 7  98609639.996 6  23784309.198    23784309.549    23784317.008
        45.300          40.700
 128051296.829 6  99780250.57645  24367345.018    24367344.2814   24367347.3874
        38.200          32.4004
 126518958.893 6  98586218.59546  24075753.674    24075752.9194   24075755.6284
        40.300          36.9004
 125951261.844 7  97962102.484 7  23561784.778    23561784.222    23561789.832
        42.900          42.700
 113740196.215 8  88628738.88448  21644032.188    21644031.6614   21644033.3014
        50.100          50.1004
 109817215.153 8  85413431.293 7  20572457.762    20572457.976    20572464.253
        50.100          47.400
 130979098.699 6 102061635.64643  24924495.557    24924495.2004   24924496.4114
        38.500          21.6004
 128830626.713 7 100201635.406 6  24075082.727    24075082.435    24075089.994
        42.200          38.600
 108764465.874 8  84594622.487 8  20318108.498    20318109.136    20318113.876
        52.300          48.000
 25  1  1 10 12 45.0000000  0 32G10G24E19E08R04S31S35G21R12E13S48S33
                                R02R13E29G23R19G18E07G15E33R20E26R14
                                G08G27R05G32R18G28R17R03
 110439537.642 8  86056802.73748  21015938.747    21015938.1444   21015939.7134
        51.600          52.0004
 114594944.961 7  89294803.78947  21806681.827    21806681.3894   21806683.4874
        46.300          46.1004
 143796505.340 5                  27363563.045
        32.500
 144807955.019 6                  27556029.072
        39.300
 108444514.995 8  84345787.682 7  20251245.420    20251245.642    20251250.503
        51.700          47.300
 198974438.836 7                  37863569.074
        45.500
 200954010.959 7                  38240272.738
        43.900
 130814974.782 5 101933756.88442  24893256.233    24893254.7314   24893255.5284
        35.800          16.3004
 123452320.748 7  96018508.060 6  23110526.370    23110526.617    23110533.713
        47.500          41.900
 139211030.299 6                  26490960.195
        40.100
 412712304.016 5                  78536802.811
        32.700
 202092206.720 7                  38456833.070
        44.900
 127564842.765 7  99217142.557 6  23905591.360    23905591.855    23905598.685
        43.800          41.500
 118288257.723 6                  22151576.174    22151575.385
        41.800
 126813897.485 7                  24131874.646
        47.900
 108901602.767 8  84858403.76146  20723279.214    20723278.8574   20723277.8784
        48.100          39.1004
 106095499.603 7  82518750.821 7  19833423.120    19833423.111    19833428.289
        42.400          46.600
 119801453.213 7  93351782.88145  22797455.220    22797454.8054   22797455.9834
        43.700          30.6004
 124691664.999 8                  23728026.712
        48.600
 130097908.856 6 101375012.84445  24756800.716    24756800.2924   24756800.2334
        39.400          30.2004
 129319899.913 7                  24608751.910
        46.600
 125679176.316 5  97750515.653 6  23502636.018    23502636.421    23502644.379
        35.700          40.400
 123403781.821 7                  23482953.993
        47.900
 126725532.327 7  98564343.239 6  23773385.402    23773384.691    23773392.141
        45.400          40.700
 128062721.517 6  99789152.94945  24369518.827    24369518.1084   24369521.3424
        39.000          32.3004
 126551856.045 6  98611852.72046  24082013.706    24082012.9464   24082015.6094
        40.900          36.9004
 125910193.691 6  97930160.584 7  23554100.538    23554100.316    23554106.627
        41.800          42.000
 113714997.523 8  88609103.55848  21639236.873    21639236.3414   21639238.1124
        50.200          50.2004
 109866973.072 8  85452131.891 7  20581779.004    20581779.467    20581785.609
        50.300          47.300
 130921934.415 6 102017092.06743  24913617.551    24913617.1804   24913618.3674
        39.100          21.9004
 128899860.750 7 100255484.067 6  24088020.922    24088021.764    24088029.944
        42.000          40.300
 108788504.360 8  84613319.071 8  20322599.439    20322599.656    20322604.377
        52.300          48.100
 25  1  1 10 13  0.0000000  0 32G10G24E19E08R04S31S35G21R12E13S48S33
                                R02R13E29G23R19G18E07G15E33R20E26R14
                                G08G27R05G32R18G28R17R03
 110419710.963 8  86041353.38548  21012165.893    21012165.2944   21012166.8094
        51.600          51.8004
 114622865.943 7  89316560.39147  21811995.076    21811994.6384   21811996.6334
        46.000          45.9004
 143759582.162 5                  27356536.475
        32.400
 144846166.708 6                  27563300.342
        39.300
 108429456.998 8  84334075.923 7  20248432.857    20248433.733    20248438.304
        52.100          47.400
 198974441.561 7                  37863570.912
        45.900
 200954008.066 7                  38240270.771
        43.900
 130772998.137 6 101901047.80442  24885268.123    24885266.6574   24885267.6414
        36.200          15.4004
 123467695.508 7  96030466.253 6  23113404.746    23113405.005    23113411.193
        47.300          41.600
 139255013.543 6                  26499330.000
        40.100
 412712178.948 5                  78536785.376
        32.400
 202092195.728 7                  38456836.647
        44.900
 127609485.826 7  99251864.838 6  23913958.615    23913957.859    23913964.733
        44.500          41.400
 118260618.578 7                  22146400.762    22146400.550
        42.200
 126794126.483 8                  24128112.083
        48.100
 108916416.367 7  84869946.82646  20726097.876    20726097.5234   20726096.8294
        47.800          38.9004
 106095856.848 7  82519028.684 7  19833489.933    19833489.703    19833494.867
        42.500          46.500
 119853366.235 7  93392234.57945  22807334.143    22807333.7324   22807334.6784
        43.700          30.3004
 124709589.324 8                  23731437.488
        48.700
 130149520.018 6 101415229.36344  24766621.735    24766621.3294   24766621.0604
        39.900          29.7004
 129294119.355 7                  24603846.147
        46.900
 125620413.368 5  97704811.174 6  23491644.808    23491646.072    23491655.139
        35.000          40.800
 123418303.481 8                  23485717.021
        48.200
 126667286.871 7  98519041.261 6  23762456.693    23762457.668    23762465.736
        44.400          40.800
 128074260.243 6  99798144.18145  24371714.531    24371713.8164   24371716.8644
        38.500          32.0004
 126584824.493 6  98637542.42246  24088287.433    24088286.6644   24088289.1034
        40.000          36.6004
 125869160.395 7  97898245.764 7  23546424.717    23546425.388    23546431.355
        43.800          42.900
 113689874.261 8  88589527.00548  21634455.989    21634455.4664   21634457.2634
        50.000          50.1004
 109916863.256 8  85490935.359 7  20591125.497    20591125.682    20591131.694
        50.400          47.400
 130864765.841 6 101972545.10843  24902738.860    24902738.4714   24902739.5984
        38.100          21.8004
 128969084.420 6 100309324.642 6  24100957.186    24100956.603    24100965.820
        41.500          40.000
 108812586.896 8  84632049.934 7  20327098.169    20327098.752    20327103.246
        52.600          47.900
 25  1  1 10 13 15.0000000  0 33G10G24E19E08R04S31S35G21R12E13S48S33
                                R02R13E29G23R19G18E07E30G15E33R20E26
                                R14G08G27R05G32R18G28R17R03
 110399930.484 8  86025940.03048  21008401.708    21008401.1094   21008402.6864
        51.400          51.7004
 114650927.806 7  89338426.77647  21817335.267    21817334.8254   21817336.6094
        46.300          45.8004
 143722685.749 5                  27349515.177
        32.700
 144884371.259 6                  27570570.769
        39.300
 108414468.554 8  84322418.243 7  20245634.365    20245634.954    20245639.417
        52.300          47.500
 198974440.583 7                  37863571.476
        45.600
 200954002.798 7                  38240269.993
        43.800
 130731068.803 5 101868375.49942  24877290.405    24877289.0284   24877288.7104
        35.200          15.1004
 123483247.208 7  96042561.889 6  23116315.519    23116315.951    23116323.226
        46.700          41.200
 139299032.071 6                  26507706.704
        40.600
 412712049.274 5                  78536771.608
        32.300
 202092181.409 7                  38456829.551
        44.800
 127654110.335 7  99286572.762 6  23922320.331    23922320.727    23922327.236
        44.200          41.100
 118233133.038 7                  22141252.924    22141252.666
        42.100
 126774413.994 8                  24124361.253
        48.200
 108931301.618 8  84881545.72246  20728930.411    20728930.0544   20728929.3784
        48.000          38.7004
 106096423.600 7  82519469.508 7  19833595.235    19833596.034    19833600.840
        42.800          46.600
 119905343.182 7  93432736.08545  22817224.899    22817224.4934   22817225.6974
        42.900          30.2004
 124727560.014 8                  23734857.193
        49.100
 153290811.080 5                  29170270.952
        34.200
 130201120.360 6 101455437.44845  24776441.352    24776440.9464   24776440.0374
        40.000          30.0004
 129268411.318 7                  24598953.937
        47.400
 125561728.165 5  97659167.139 6  23480670.909    23480671.311    23480680.610
        34.800          40.900
 123432920.223 8                  23488498.679
        48.300
 126609034.375 7  98473733.786 6  23751529.375    23751529.788    23751537.430
        45.200          40.800
 128085912.212 6  99807223.64445  24373932.407    24373931.6974   24373934.2704
        38.300          31.8004
 126617863.231 6  98663286.88146  24094574.592    24094573.8194   24094576.3344
        40.300          36.7004
 125828161.269 6  97866357.562 6  23538753.870    23538754.150    23538760.309
        41.400          41.800
 113664825.791 8  88570008.72948  21629689.697    21629689.1794   21629690.6884
        50.100          50.0004
 109966884.460 8  85529840.720 7  20600495.741    20600496.038    20600502.234
        50.200          47.600
 130807592.634 6 101927994.55443  24891859.172    24891858.8104   24891860.2524
        38.700          21.9004
 129038296.691 7 100363156.409 6  24113891.196    24113891.746    24113898.048
        43.100          38.100
 108836712.359 8  84650814.168 7  20331604.942    20331605.119    20331610.104
        51.900          47.900
 25  1  1 10 13 30.0000000  0 33G10G24E19E08R04S31S35G21R12E13S48S33
                                R02R13E29G23R19G18E07E30G15E33R20E26
                                R14G08G27R05G32R18G28R17R03
 110380200.178 8  86010565.75848  21004647.184    21004646.5944   21004648.1244
        51.300          51.6004
 114679134.077 7  89360405.68947  21822702.864    21822702.4084   21822704.1174
        46.300          45.6004
 143685820.019 5                  27342499.755
        31.700
 144922572.327 6                  27577840.306
        39.600
 108399553.251 8  84310817.437 7  20242848.835    20242849.321    20242854.124
        51.800          47.400
 198974441.408 7                  37863571.399
        45.600
 200953998.366 7                  38240272.631
        44.000
 130689191.260 6 101835743.64942  24869320.752    24869319.3754   24869319.8324
        36.500          15.3004
 123498980.095 7  96054798.490 6  23119261.256    23119261.086    23119268.496
        46.500          41.300
 139343089.516 6                  26516090.315
        40.400
 412711920.772 5                  78536748.892
        32.700
 202092169.945 7                  38456827.892
        44.800
 127698719.868 7  99321268.983 6  23930681.438    23930681.468    23930687.296
        44.300          41.200
 118205805.369 6                  22136134.799    22136135.069
        40.900
 126754763.818 8                  24120622.065
        48.200
 108946262.381 7  84893203.45546  20731777.258    20731776.8874   20731776.2994
        47.700          38.6004
 106097203.903 7  82520076.393 7  19833741.417    19833741.822    19833746.691
        42.800          46.700
 119957387.567 7  93473290.13445  22827128.817    22827128.4284   22827129.1784
        43.300          30.1004
 124745580.758 8                  23738286.366
        49.100
 153257332.599 5                  29163900.338
        34.400
 130252713.547 6 101495639.97644  24786258.962    24786258.5654   24786257.9274
        40.300          29.7004
 129242779.815 7                  24594076.468
        47.500
 125503124.786 5  97613586.645 6  23469713.001    23469713.036    23469721.361
        35.100          39.000
 123447635.865 8                  23491299.131
        48.300
 126550779.227 7  98428424.242 6  23740600.893    23740600.905    23740609.424
        45.200          41.400
 128097681.052 6  99816394.18145  24376172.020    24376171.3104   24376173.7704
        37.700          31.6004
 126650975.738 6  98689088.82346  24100876.013    24100875.2494   24100877.4814
        40.200          36.6004
 125787200.368 7  97834499.028 7  23531093.042    23531092.369    23531098.989
        43.100          42.500
 113639855.950 8  88550551.72648  21624938.094    21624937.5894   21624939.0664
        50.100          49.8004
 110017040.228 8  85568850.729 7  20609891.598    20609892.008    20609897.909
        50.200          47.300
 130750418.943 6 101883443.63243  24880979.255    24880978.8894   24880979.8684
        39.000          21.1004
 129107500.858 7 100416981.856 6  24126823.074    24126824.452    24126830.302
        43.000          38.500
 108860884.568 8  84669614.748 7  20336120.472    20336120.814    20336125.790
        52.100          47.800
 25  1  1 10 13 45.0000000  0 33G10G24E19E08R04S31S35G21R12E13S48S33
                                R02R13E29G23R19G18E07E30G15E33R20E26
                                R14G08G27R05G32R18G28R17R03
 110360522.241 8  85995232.30648  21000902.610    21000902.0294   21000903.5384
        51.800          51.9004
 114707486.466 7  89382498.45447  21828097.719    21828097.2594   21828099.4204
        46.100          45.8004
 143648987.018 5                  27335491.589
        33.100
 144960771.822 6                  27585109.507
        39.000
 108384713.005 8  84299275.045 7  20240077.805    20240078.238    20240082.769
        52.100          47.400
 198974445.780 7                  37863567.813
        45.700
 200953997.260 7                  38240270.619
        44.000
 130647367.505 6 101803153.85142  24861361.731    24861360.3684   24861360.8404
        36.800          16.0004
 123514896.073 7  96067177.610 6  23122240.894    23122240.985    23122247.580
        47.300          41.500
 139387187.691 6                  26524481.846
        39.700
 412711795.816 5                  78536740.552
        32.700
 202092160.195 7                  38456825.482
        45.200
 127743316.697 7  99355955.431 6  23939038.853    23939038.997    23939045.175
        44.800          41.400
 118178637.870 7                  22131047.989    22131047.047
        42.200
 126735177.924 8                  24116894.817
        48.200
 108961300.709 7  84904921.63246  20734639.000    20734638.6384   20734637.9904
        47.600          38.6004
 106098200.096 7  82520851.227 7  19833927.966    19833928.011    19833932.965
        43.000          46.400
 120009501.062 7  93513898.04545  22837046.012    22837045.6284   22837046.1064
        42.600          30.1004
 124763653.398 8                  23741725.678
        48.900
 153223868.357 4                  29157532.029
        24.900
 130304301.401 6 101535838.31944  24796075.823    24796075.4304   24796074.6634
        40.000          29.4004
 129217227.008 7                  24589214.119
        47.000
 125444605.904 5  97568072.087 6  23458769.975    23458769.996    23458777.467
        35.500          39.600
 123462452.349 8                  23494118.247
        48.200
 126492524.234 7  98383114.870 6  23729672.672    23729672.286    23729680.711
        45.200          41.200
 128109568.561 6  99825657.21845  24378433.877    24378433.1534   24378436.1124
        38.700          32.0004
 126684163.603 6  98714949.49246  24107190.952    24107190.1834   24107192.9544
        40.100          36.5004
 125746279.540 7  97802671.738 7  23523436.958    23523436.906    23523443.835
        42.200          42.700
 113614966.688 8  88531157.51148  21620201.675    21620201.1664   21620202.8124
        50.000          50.0004
 110067331.867 8  85607966.448 7  20619313.179    20619313.471    20619319.327
        50.600          47.400
 130693247.033 6 101838894.06843  24870099.067    24870098.6834   24870100.2854
        39.600          22.1004
 129176698.589 6 100470802.345 6  24139754.065    24139753.746    24139762.454
        40.400          38.800
 108885105.688 8  84688453.399 7  20340645.147    20340645.591    20340650.679
        51.900          47.900
 25  1  1 10 14  0.0000000  0 33G10G24E19E08R04S31S35G21R12E13S48S33
                                R02R13E29G23R19G18E07E30G15E33R20E26
                                R14G08G27R05G32R18G28R17R03
 110340890.868 8  85979935.12748  20997167.105    20997166.5204   20997167.7974
        51.800          51.8004
 114735978.879 7  89404700.32547  21833520.029    21833519.5694   21833521.3484
        46.200          45.9004
 143612180.934 5                  27328487.586
        33.400
 144998963.773 6                  27592376.694
        39.700
 108369941.842 8  84287786.350 7  20237318.925    20237319.824    20237324.193
        52.000          47.300
 198974446.691 7                  37863568.305
        45.500
 200953993.457 7                  38240268.906
        43.800
 130605591.618 6 101770601.16542  24853411.773    24853410.3604   24853410.9834
        37.000          15.5004
 123530988.905 7  96079694.270 6  23125254.062    23125253.799    23125260.367
        47.400          41.200
 139431320.571 6                  26532880.303
        39.900
 412713269.347 5                  78536714.433
        32.300
 202092148.091 7                  38456825.661
        45.100
 127787894.725 7  99390627.210 6  23947392.624    23947392.373    23947399.391
        45.400          41.500
 118151625.137 7                  22125989.071    22125988.617
        42.500
 126715650.396 8                  24113178.773
        48.200
 108976410.786 8  84916695.71946  20737514.515    20737514.1624   20737513.2884
        48.100          38.7004
 106099405.906 7  82521789.063 7  19834153.794    19834153.345    19834158.474
        42.900          46.600
 120061677.481 7  93554554.95645  22846974.466    22846974.0914   22846975.1254
        43.400          30.2004
 124781771.905 8                  23745173.388
        49.000
 153190412.983 6                  29151166.103
        36.800
 130355878.033 6 101576027.93144  24805890.191    24805889.7674   24805889.3034
        39.500          29.4004
 129191747.245 7                  24584365.256
        47.400
 125386166.058 6  97522618.873 6  23447840.708    23447840.399    23447848.719
        36.000          40.000
 123477363.789 8                  23496956.038
        48.300
 126434263.597 7  98337800.987 6  23718742.019    23718742.617    23718750.706
        45.900          40.800
 128121568.679 6  99835007.99045  24380716.972    24380716.2484   24380719.5464
        39.000          32.1004
 126717420.582 6  98740864.01846  24113519.316    24113518.5344   24113521.5884
        41.000          36.8004
 125705392.915 7  97770870.988 7  23515788.100    23515788.469    23515795.299
        42.700          42.800
 113590152.179 8  88511821.54448  21615479.634    21615479.1384   21615480.7394
        50.400          50.0004
 110117753.034 8  85647182.855 7  20628758.976    20628759.009    20628765.393
        50.400          47.200
 130636071.374 6 101794341.62443  24859218.761    24859218.3644   24859220.6534
        38.900          22.4004
 129245883.506 6 100524612.793 6  24152684.757    24152683.577    24152691.618
        41.700          39.200
 108909369.394 8  84707325.148 7  20345178.127    20345178.390    20345183.120
        52.100          47.900
 25  1  1 10 14 15.0000000  0 33G10G24E19E08R04S31S35G21R12E13S48S33
                                R02R13E29G23R19G18E07E30G15E33R20E26
                                R14G08G27R05G32R18G28R17R03
 110321310.326 8  85964677.55648  20993440.866    20993440.2814   20993441.7694
        51.800          51.9004
 114764615.099 7  89427014.26047  21838969.361    21838968.9104   21838970.5974
        46.200          45.8004
 143575405.881 5                  27321489.052
        32.500
 145037152.102 6                  27599643.578
        39.300
 108355243.720 8  84276354.484 7  20234574.346    20234574.820    20234579.364
        51.600          47.300
 198974449.555 7                  37863569.758
        45.500
 200953990.432 7                  38240268.526
        43.700
 130563868.217 6 101738089.39542  24845471.959    24845470.5514   24845471.5424
        36.000          16.0004
 123547262.664 7  96092351.645 6  23128300.154    23128300.525    23128307.380
        47.300          41.300
 139475492.062 6                  26541286.043
        39.800
 412713143.272 5                  78536706.268
        32.300
 202092137.708 7                  38456822.951
        45.000
 127832457.899 7  99425287.461 6  23955743.290    23955744.098    23955749.162
        45.200          41.100
 118124771.834 7                  22120960.128    22120960.104
        42.800
 126696185.308 8                  24109474.722
        48.400
 108991596.755 8  84928528.94446  20740404.204    20740403.8514   20740403.0744
        48.000          38.6004
 106100825.798 7  82522893.413 7  19834418.339    19834418.839    19834423.766
        42.500          46.400
 120113920.651 7  93595263.89345  22856915.997    22856915.6174   22856916.7804
        42.500          30.1004
 124799940.250 8                  23748630.903
        48.900
 153156970.419 4                  29144802.263
        28.400
 130407447.415 6 101616211.91745  24815704.167    24815703.7344   24815703.1374
        39.200          30.1004
 129166344.803 7                  24579531.531
        47.600
 125327810.126 6  97477230.965 6  23436927.841    23436927.337    23436936.641
        36.500          40.900
 123492374.264 8                  23499812.461
        48.200
 126376002.104 7  98292486.438 6  23707813.951    23707813.994    23707821.479
        45.500          41.300
 128133685.200 6  99844449.46245  24383022.221    24383021.4794   24383024.5964
        38.400          31.6004
 126750750.432 6  98766835.33246  24119862.315    24119861.5424   24119863.9724
        39.400          36.6004
 125664544.429 7  97739099.933 7  23508147.575    23508147.351    23508153.318
        42.400          42.500
 113565416.444 8  88492546.96248  21610772.460    21610771.9604   21610773.6274
        50.300          50.1004
 110168307.523 8  85686502.993 7  20638229.784    20638229.745    20638235.391
        50.700          47.400
 130578896.337 6 101749789.65343  24848339.232    24848338.8264   24848340.5924
        38.400          21.3004
 129315059.247 7 100578416.095 6  24165611.454    24165611.632    24165619.620
        42.600          39.800
 108933679.822 8  84726233.239 7  20349719.198    20349719.694    20349724.509
        52.100          47.800
 25  1  1 10 14 30.0000000  0 33G10G24E19E08R04S31S35G21R12E13S48S33
                                R02R13E29G23R19G18E07E30G15E33R20E26
                                R14G08G27R05G32R18G28R17R03
 110301777.271 8  85949456.98748  20989723.947    20989723.3664   20989724.7504
        52.000          52.0004
 114793391.330 7  89449437.29647  21844445.123    21844444.6674   21844446.5284
        45.900          45.8004
 143538658.429 5                  27314496.748
        32.600
 145075333.299 6                  27606909.638
        39.300
 108340614.957 8  84264976.553 7  20231842.975    20231843.187    20231847.493
        51.900          47.300
 198974450.605 7                  37863570.425
        45.700
 200953986.126 7                  38240266.947
        43.800
 130522194.100 6 101705615.97442  24837542.615    24837541.2614   24837541.2404
        36.900          15.8004
 123563713.663 7  96105146.971 6  23131379.076    23131379.649    23131386.070
        47.500          41.600
 139519698.467 6                  26549698.195
        39.300
 412713015.221 5                  78536680.910
        32.100
 202092125.263 7                  38456818.864
        44.900
 127877002.708 7  99459933.497 6  23964090.763    23964090.449    23964096.738
        44.100          40.800
 118098074.440 7                  22115961.036    22115960.221
        42.500
 126676779.116 8                  24105781.911
        48.100
 109006855.148 8  84940418.60146  20743307.749    20743307.3964   20743306.6424
        48.200          38.7004
 106102455.934 7  82524161.305 7  19834723.377    19834723.545    19834728.449
        42.600          46.600
 120166226.715 7  93636021.83645  22866869.380    22866869.0004   22866870.2414
        44.000          30.2004
 124818154.737 8                  23752096.812
        48.900
 153123537.832 5                  29138440.121
        32.900
 130459005.837 6 101656387.38545  24825514.812    24825514.3884   24825514.6824
        40.300          30.0004
 129141016.365 7                  24574711.703
        47.200
 125269534.506 5  97431905.491 6  23426028.267    23426028.866    23426037.821
        35.200          40.000
 123507480.214 8                  23502687.050
        48.000
 126317736.847 7  98247169.038 6  23696882.158    23696882.352    23696890.835
        45.000          41.200
 128145914.466 6  99853978.79645  24385349.970    24385349.2154   24385351.6374
        39.200          32.0004
 126784149.195 6  98792860.34546  24126217.793    24126217.0334   24126219.4894
        40.300          36.7004
 125623730.797 7  97707355.971 7  23500512.084    23500512.937    23500518.618
        42.600          42.500
 113540755.986 8  88473331.03848  21606079.824    21606079.3154   21606080.8474
        50.400          50.1004
 110218990.978 8  85725923.444 7  20647724.030    20647724.189    20647730.184
        50.300          47.300
 130521718.736 6 101705235.65843  24837459.683    24837459.2684   24837459.3194
        39.200          22.0004
 129384221.729 6 100632209.138 6  24178534.215    24178535.690    24178543.387
        41.600          38.600
 108958032.835 8  84745174.468 7  20354268.496    20354268.908    20354273.978
        52.300          47.700
 25  1  1 10 14 45.0000000  0 33G10G24E19E08R04S31S35G21R12E13S48S33
                                R02R13E29G23R19G18E07E30G15E33R20E26
                                R14G08G27R05G32R18G28R17R03
 110282296.620 8  85934277.27348  20986016.826    20986016.2454   20986017.6954
        52.200          51.8004
 114822312.084 7  89471972.93647  21849948.582    21849948.1264   21849950.0454
        46.200          45.7004
 143501943.246 5                  27307510.050
        32.600
 145113511.942 6                  27614174.505
        39.300
 108326060.383 8  84253656.334 7  20229124.624    20229125.281    20229129.655
        51.800          47.200
 198974453.419 7                  37863571.891
        45.600
 200953984.169 7                  38240269.993
        43.900
 130480574.523 6 101673185.25242  24829621.539    24829620.1944   24829621.5764
        36.700          16.3004
 123580346.421 7  96118083.598 6  23134492.725    23134492.708    23134499.446
        46.700          41.100
 139563944.430 6                  26558117.986
        39.600
 412712890.581 5                  78536667.419
        32.500
 202092115.279 7                  38456818.868
        44.800
 127921533.983 7  99494568.983 6  23972436.491    23972436.732    23972442.158
        44.600          40.600
 118071538.372 7                  22110991.537    22110990.760
        42.600
 126657436.563 8                  24102100.971
        48.200
 109022190.816 8  84952368.46946  20746226.023    20746225.6614   20746224.9124
        48.100          38.5004
 106104301.265 7  82525596.571 7  19835068.233    19835068.879    19835073.440
        42.700          46.300
 120218600.141 7  93676832.26744  22876835.590    22876835.2154   22876836.4734
        43.000          29.9004
 124836419.993 8                  23755572.505
        48.700
 153090119.980 5                  29132080.896
        35.700
 130510557.908 6 101696557.91545  24835324.575    24835324.1554   24835324.6394
        40.800          30.0004
 129115766.919 7                  24569906.582
        47.300
 125211345.067 6  97386646.973 6  23415148.159    23415149.757    23415157.192
        37.100          40.800
 123522686.397 8                  23505580.671
        48.200
 126259473.218 7  98201852.821 6  23685953.544    23685953.742    23685960.522
        46.000          40.700
 128158261.011 6  99863599.50145  24387699.678    24387698.9184   24387700.9834
        38.300          31.6004
 126817621.294 6  98818942.49846  24132587.049    24132586.2984   24132588.9584
        40.700          36.7004
 125582956.857 7  97675642.911 7  23492884.057    23492884.840    23492890.754
        42.900          42.300
 113516175.599 8  88454177.50848  21601402.180    21601401.6754   21601403.3294
        50.300          49.9004
 110269807.942 8  85765447.750 7  20657244.126    20657244.274    20657250.210
        50.300          47.400
 130464543.651 6 101660683.65643  24826579.081    24826578.6574   24826580.2994
        39.100          23.4004
 129453375.607 7 100685995.482 6  24191457.936    24191459.243    24191466.319
        42.000          38.900
 108982433.421 8  84764152.696 7  20358827.260    20358827.383    20358832.131
        52.300          47.500
 25  1  1 10 15  0.0000000  0 34G10G24E19E08R04S31S35G21R12E13S48S33
                                R02R13E29G23R19G18E07E02E30G15E33R20
                                E26R14G08G27R05G32R18G28R17R03
 110262867.058 8  85919137.35548  20982319.332    20982318.7384   20982320.3524
        52.300          52.0004
 114851375.626 7  89494619.83747  21855479.269    21855478.8184   21855480.6774
        45.900          45.8004
 143465259.128 5                  27300529.210
        32.900
 145151686.553 6                  27621438.524
        38.800
 108311578.416 8  84242392.577 7  20226420.188    20226420.754    20226425.266
        51.800          47.500
 198974457.982 7                  37863571.569
        45.300
 200953982.710 7                  38240270.699
        44.000
 130439007.945 6 101640795.73442  24821712.291    24821710.9324   24821711.7544
        37.500          16.0004
 123597159.409 7  96131160.369 6  23137640.836    23137641.097    23137647.518
        47.300          41.200
 139608228.308 6                  26566545.133
        39.400
 412712767.601 5                  78536649.783
        32.400
 202092106.751 7                  38456814.906
        44.700
 127966050.333 7  99529192.820 6  23980778.182    23980778.531    23980784.636
        44.100          40.500
 118045162.918 7                  22106052.971    22106051.929
        43.200
 126638156.225 8                  24098431.937
        48.000
 109037602.367 8  84964377.47846  20749158.774    20749158.4174   20749157.6394
        48.000          38.6004
 106106360.364 7  82527198.079 7  19835453.140    19835453.394    19835458.366
        42.300          46.200
 120271039.189 7  93717693.83045  22886814.667    22886814.3104   22886815.3374
        44.100          30.2004
 124854734.444 8                  23759057.832
        48.800
 151349609.812 5                  28800873.413
        32.800
 153056715.701 5                  29125724.515
        32.700
 130562101.990 6 101736722.24144  24845133.383    24845132.9774   24845132.7184
        40.600          29.7004
 129090595.216 7                  24565116.857
        47.300
 125153240.766 6  97341454.637 6  23404282.344    23404282.650    23404291.618
        36.600          41.000
 123537991.360 8                  23508493.064
        48.200
 126201210.192 7  98156537.121 6  23675022.638    23675022.749    23675031.085
        44.600          41.300
 128170723.192 6  99873310.31445  24390070.883    24390070.1144   24390072.6654
        39.400          32.1004
 126851164.934 6  98845080.40046  24138970.290    24138969.5304   24138972.0164
        41.100          36.9004
 125542220.885 7  97643959.343 7  23485263.684    23485264.623    23485270.796
        42.700          42.700
 113491673.826 8  88435085.23348  21596739.782    21596739.2774   21596740.7864
        50.600          50.1004
 110320756.319 8  85805074.210 7  20666788.581    20666788.948    20666794.182
        50.500          47.300
 130407369.908 6 101616132.69843  24815698.551    24815698.1004   24815700.6364
        39.800          22.7004
 129522518.891 6 100739773.574 6  24204378.371    24204378.887    24204386.759
        40.200          38.500
 109006879.789 8  84783166.512 7  20363393.962    20363393.951    20363398.905
        51.900          47.400
 25  1  1 10 15 15.0000000  0 34G10G24E19E08R04S31S35G21R12E13S48S33
                                R02R13E29G23R19G18E07E02E30G15E33R20
                                E26R14G08G27R05G32R18G28R17R03
 110243486.866 8  85904035.90748  20978631.396    20978630.7974   20978632.4174
        51.800          51.9004
 114880579.807 7  89517376.31747  21861036.729    21861036.2824   21861038.0594
        45.900          45.5004
 143428604.110 5                  27293553.712
        33.200
 145189855.124 6                  27628702.425
        39.600
 108297166.980 8  84231183.701 7  20223728.984    20223729.472    20223734.307
        51.600          47.300
 198974461.969 7                  37863571.784
        45.700
 200953981.280 7                  38240267.202
        43.700
 130397492.932 6 101608446.43642  24813811.776    24813810.3904   24813811.7744
        37.300          15.5004
 123614150.657 7  96144375.847 6  23140821.288    23140821.485    23140827.816
        47.300          41.800
 139652548.024 6                  26574978.708
        39.900
 412712642.354 5                  78536634.436
        32.300
 202092097.654 7                  38456816.614
        45.000
 128010549.683 7  99563803.460 6  23989117.987    23989117.825    23989123.631
        45.100          40.500
 118018946.279 7                  22101142.164    22101142.163
        43.000
 126618936.145 7                  24094774.663
        47.900
 109053087.954 8  84976444.17046  20752105.578    20752105.2254   20752104.4214
        48.400          38.4004
 106108631.371 7  82528964.418 7  19835878.155    19835878.037    19835882.942
        42.400          46.500
 120323541.644 7  93758604.79545  22896805.446    22896805.0714   22896806.4894
        43.400          30.0004
 124873096.052 8                  23762551.854
        48.900
 151333498.698 5                  28797807.891
        34.500
 153023323.325 5                  29119369.803
        31.800
 130613636.137 6 101776878.82045  24854940.381    24854939.9754   24854939.2594
        40.500          30.0004
 129065499.526 7                  24560341.314
        47.300
 125095220.534 6  97296327.838 6  23393432.085    23393432.781    23393440.636
        36.200          40.400
 123553393.155 8                  23511423.792
        48.200
 126142946.421 7  98111220.872 6  23664093.331    23664092.928    23664100.176
        45.500          41.000
 128183298.935 6  99883109.58445  24392463.661    24392462.8924   24392465.9534
        38.400          32.0004
 126884777.830 6  98871272.25946  24145366.366    24145365.5884   24145368.5164
        40.900          36.8004
 125501521.240 7  97612304.065 7  23477650.181    23477650.358    23477656.110
        43.100          42.300
 113467248.745 8  88416052.72248  21592091.588    21592091.0744   21592092.8164
        50.400          50.0004
 110371833.723 8  85844801.077 7  20676356.573    20676357.039    20676363.056
        50.400          47.300
 130350195.960 6 101571581.56243  24804818.577    24804818.0994   24804820.5884
        39.700          22.3004
 129591649.058 6 100793541.471 6  24217299.303    24217298.737    24217305.411
        41.100          38.000
 109031370.088 8  84802214.513 7  20367969.022    20367969.016    20367973.947
        51.700          47.300
 25  1  1 10 15 30.0000000  0 34G10G24E19E08R04S31S35G21R12E13S48S33
                                R02R13E29G23R19G18E07E02E30G15E33R20
                                E26R14G08G27R05G32R18G28R17R03
 110224155.669 8  85888972.63248  20974953.013    20974952.4194   20974953.8094
        51.600          51.8004
 114909923.935 7  89540241.86747  21866621.110    21866620.6544   21866622.0914
        45.600          45.6004
 143391977.900 5                  27286583.642
        32.700
 145228017.108 6                  27635964.205
        40.500
 108282825.630 8  84220029.319 7  20221051.169    20221051.538    20221056.180
        52.000          47.600
 198974464.404 7                  37863572.558
        45.800
 200953978.011 7                  38240269.979
        44.100
 130356029.081 6 101576137.02742  24805921.946    24805920.5294   24805921.5344
        37.600          16.6004
 123631319.471 7  96157729.408 6  23144036.172    23144035.884    23144042.171
        47.500          41.600
 139696902.983 6                  26583419.145
        40.100
 412712516.395 5                  78536614.184
        32.000
 202092086.817 7                  38456811.570
        44.700
 128055031.278 7  99598400.318 6  23997452.826    23997453.395    23997459.044
        45.400          41.000
 117992888.360 7                  22096262.294    22096262.031
        42.100
 126599775.844 8                  24091128.668
        48.300
 109068647.145 7  84988568.21046  20755066.271    20755065.9184   20755065.1854
        47.900          38.4004
 106111113.823 7  82530895.232 7  19836342.534    19836342.071    19836347.168
        42.100          46.400
 120376106.745 7  93799564.58845  22906808.059    22906807.6754   22906809.2004
        43.300          30.0004
 124891504.196 8                  23766054.838
        49.100
 151317468.109 5                  28794757.157
        35.600
 152989942.793 6                  29113017.673
        36.100
 130665159.851 6 101817027.26844  24864744.281    24864743.8794   24864743.9184
        39.400          29.8004
 129040479.610 7                  24555580.185
        47.500
 125037283.565 5  97251265.723 6  23382597.655    23382596.810    23382606.762
        35.900          41.300
 123568891.316 8                  23514373.180
        48.200
 126084681.984 7  98065904.160 6  23653162.207    23653162.824    23653170.431
        45.400          41.700
 128195987.513 6  99892996.78345  24394878.547    24394877.7784   24394880.4954
        38.000          31.5004
 126918459.175 6  98897517.45146  24151775.432    24151774.6594   24151777.9024
        40.600          36.9004
 125460857.122 6  97580676.425 7  23470042.106    23470042.192    23470049.031
        41.700          42.400
 113442899.879 8  88397079.59648  21587458.232    21587457.7184   21587459.3394
        49.800          50.0004
 110423039.243 8  85884627.570 7  20685949.743    20685949.765    20685955.626
        50.400          47.400
 130293021.652 6 101527030.15443  24793939.035    24793938.5304   24793940.5224
        38.900          22.1004
 129660765.329 6 100847298.526 6  24230214.725    24230214.778    24230222.055
        41.700          38.500
 109055903.635 8  84821296.162 7  20372552.119    20372552.174    20372557.141
        52.200          47.400
 25  1  1 10 15 45.0000000  0 34G10G24E19E08R04S31S35G21R12E13S48S33
                                R02R13E29G23R19G18E07E02E30G15E33R20
                                E26R14G08G27R05G32R18G28R17R03
 110204877.271 8  85873950.49848  20971284.472    20971283.8824   20971285.2594
        51.700          51.7004
 114939411.281 7  89563219.02147  21872232.048    21872231.5924   21872233.3654
        45.700          45.4004
 143355384.052 5                  27279620.782
        32.200
 145266175.978 6                  27643225.313
        39.100
 108268557.769 8  84208932.096 7  20218386.182    20218386.952    20218391.616
        52.200          47.400
 198974469.214 7                  37863575.151
        45.500
 200953977.511 7                  38240266.818
        43.800
 130314620.176 6 101543870.37942  24798041.164    24798039.7384   24798041.6274
        36.700          16.6004
 123648669.354 7  96171223.758 6  23147283.764    23147284.079    23147290.702
        47.900          41.900
 139741296.584 6                  26591866.786
        39.300
 412712393.658 5                  78536603.390
        32.300
 202092079.267 7                  38456809.268
        44.700
 128099499.276 7  99632986.570 6  24005787.221    24005787.506    24005792.856
        46.400          40.900
 117966993.239 7                  22091413.143    22091413.124
        43.100
 126580678.882 8                  24087494.563
        48.100
 109084283.607 8  85000752.47046  20758041.783    20758041.4264   20758040.6964
        48.000          38.3004
 106113811.323 7  82532993.269 7  19836846.296    19836846.193    19836851.147
        42.200          46.200
 120428737.773 7  93840575.75744  22916823.553    22916823.1644   22916824.7274
        43.100          29.8004
 124909962.328 8                  23769567.244
        48.900
 151301521.795 5                  28791722.836
        33.600
 152956577.677 5                  29106668.996
        35.000
 130716676.531 6 101857170.23544  24874547.629    24874547.2324   24874547.1184
        39.300          29.8004
 129015539.248 7                  24550834.012
        47.300
 124979434.341 6  97206271.829 6  23371779.477    23371779.682    23371788.847
        36.400          41.300
 123584489.393 8                  23517341.327
        48.200
 126026420.817 7  98020589.941 6  23642233.147    23642233.226    23642240.506
        45.700          41.000
 128208792.358 6  99902974.60045  24397315.261    24397314.4884   24397317.2934
        38.400          31.4004
 126952212.175 6  98923818.49646  24158199.124    24158198.3734   24158200.8874
        41.300          36.8004
 125420232.294 7  97549079.333 7  23462443.204    23462443.456    23462450.179
        42.900          42.800
 113418630.852 8  88378168.68148  21582840.067    21582839.5534   21582841.0694
        50.000          49.8004
 110474375.968 8  85924556.114 7  20695566.648    20695566.719    20695572.279
        50.300          47.100
 130235850.916 6 101482481.52443  24783060.115    24783059.6374   24783061.2794
        39.700          23.1004
 129729871.009 7 100901047.352 6  24243128.286    24243128.475    24243137.017
        42.100          38.700
 109080484.108 8  84840414.301 7  20377144.248    20377144.320    20377148.840
        52.800          47.600
 25  1  1 10 16  0.0000000  0 34G10G24E19E08R04S31S35G21R12E13S48S33
                                R02R13E29G23R19G18E07E02E30G15E33R20
                                E26R14G08G27R05G32R18G28R17R03
 110185646.432 8  85858965.44248  20967624.916    20967624.3264   20967625.7414
        51.600          51.7004
 114969036.179 7  89586303.35747  21877869.402    21877868.9514   21877870.8564
        45.800          45.5004
 143318817.238 5                  27272662.286
        34.100
 145304326.258 6                  27650485.410
        39.800
 108254357.720 8  84197887.608 7  20215734.556    20215735.012    20215739.591
        52.100          47.400
 198974471.710 7                  37863575.563
        45.600
 200953974.205 7                  38240271.719
        44.100
 130273261.377 6 101511642.79342  24790171.566    24790170.1364   24790171.0794
        37.100          16.5004
 123666194.713 8  96184854.625 6  23150564.291    23150564.699    23150570.632
        48.000          41.300
 139785723.247 6                  26600321.447
        40.000
 412712269.354 5                  78536585.624
        32.500
 202092068.233 7                  38456804.653
        44.700
 128143947.878 7  99667557.777 6  24014116.600    24014116.704    24014121.696
        44.500          39.700
 117941255.830 7                  22086593.302    22086593.283
        42.700
 126561639.870 8                  24083871.357
        48.400
 109099992.049 8  85012992.82446  20761031.251    20761030.8984   20761029.9274
        48.000          38.4004
 106116718.172 7  82535254.168 7  19837389.131    19837389.821    19837394.744
        42.400          46.400
 120481429.039 7  93881633.85044  22926850.849    22926850.4744   22926851.6344
        43.300          29.9004
 124928464.926 8                  23773088.287
        49.100
 151285654.628 5                  28788703.451
        33.100
 152923222.935 5                  29100321.671
        31.900
 130768180.685 6 101897303.45044  24884348.944    24884348.5604   24884347.7664
        39.900          29.5004
 128990673.285 7                  24546102.277
        47.400
 124921668.448 6  97161342.921 6  23360977.127    23360977.467    23360986.234
        36.100          41.000
 123600181.966 8                  23520327.606
        48.200
 125968158.319 7  97975274.730 6  23631303.134    23631303.534    23631311.508
        45.800          41.700
 128221707.922 6  99913038.66845  24399772.352    24399771.6014   24399775.2814
        39.600          31.8004
 126986031.051 6  98950170.85446  24164634.449    24164633.6944   24164636.3124
        41.000          36.7004
 125379641.298 7  97517508.529 7  23454849.825    23454849.733    23454855.705
        43.000          42.100
 113394436.235 8  88359315.75048  21578236.087    21578235.5824   21578236.9524
        49.700          49.8004
 110525837.969 8  85964582.100 7  20705207.085    20705207.309    20705213.022
        50.200          47.300
 130178678.578 6 101437931.65143  24772180.580    24772180.0934   24772181.8664
        37.900          23.1004
 129798959.971 6 100954783.167 6  24256038.562    24256039.695    24256047.106
        41.900          38.600
 109105105.647 8  84859564.399 7  20381742.840    20381743.456    20381748.414
        52.100          47.800
 25  1  1 10 16 15.0000000  0 34G10G24E19E08R04S31S35G21R12E13S48S33
                                R02R13E29G23R19G18E07E02E30G15E33R20
                                E26R14G08G27R05G32R18G28R17R03
 110166465.821 8  85844019.52448  20963975.019    20963974.4294   20963975.7704
        51.400          51.7004
 114998800.853 7  89609496.59447  21883533.577    21883533.1304   21883534.8994
        44.700          45.3004
 143282279.983 5                  27265709.881
        33.400
 145342470.342 6                  27657743.605
        39.700
 108240228.279 8  84186898.052 7  20213095.997    20213096.584    20213101.016
        51.900          47.300
 198974473.554 7                  37863576.743
        45.700
 200953970.578 7                  38240271.383
        44.200
 130231955.178 6 101479456.14142  24782311.093    24782309.6854   24782310.5304
        37.800          17.8004
 123683898.106 7  96198624.116 7  23153877.261    23153878.292    23153884.896
        47.600          42.100
 139830185.396 6                  26608782.122
        40.100
 412712145.166 5                  78536569.705
        33.200
 202092056.847 7                  38456806.424
        45.100
 128188379.689 7  99702115.922 6  24022441.936    24022441.926    24022448.398
        43.900          40.600
 117915678.982 7                  22081804.387    22081803.800
        42.900
 126542661.296 8                  24080259.887
        48.100
 109115775.012 7  85025291.23946  20764034.370    20764034.0174   20764033.3064
        47.700          38.3004
 106119837.081 7  82537679.980 7  19837972.822    19837972.653    19837977.777
        42.400          46.100
 120534182.742 7  93922740.60244  22936888.975    22936888.5914   22936890.2434
        42.600          29.8004
 124947014.356 8                  23776618.113
        48.900
 151269869.107 5                  28785699.454
        35.700
 152889881.394 5                  29093977.057
        35.500
 130819674.650 6 101937428.72944  24894147.645    24894147.2614   24894146.7544
        39.200          29.9004
 128965884.393 7                  24541385.057
        47.500
 124863988.922 6  97116481.152 6  23350190.894    23350190.858    23350199.120
        37.000          41.000
 123615971.556 8                  23523332.222
        48.100
 125909897.292 7  97929960.672 6  23620373.172    23620373.990    23620380.389
        46.100          41.300
 128234736.460 6  99923190.77545  24402251.396    24402250.6504   24402254.1254
        37.900          31.3004
 127019917.956 6  98976576.22446  24171083.049    24171082.2714   24171084.7374
        40.500          36.5004
 125339086.779 7  97485966.140 7  23447263.149    23447264.337    23447269.718
        43.100          42.200
 113370318.576 8  88340522.78248  21573646.644    21573646.1444   21573647.4804
        49.800          49.8004
 110577427.109 8  86004706.976 7  20714871.495    20714871.867    20714877.817
        50.600          47.200
 130121507.566 6 101393382.80443  24761301.533    24761301.0914   24761302.6054
        38.100          22.2004
 129868034.359 6 101008507.705 6  24268947.273    24268947.990    24268955.231
        41.200          37.800
 109129770.552 8  84878748.231 7  20386350.959    20386351.266    20386356.054
        52.300          47.600
 25  1  1 10 16 30.0000000  0 34G10G24E19E08R04S31S35G21R12E13S48S33
                                R02R13E29G23R19G18E07E02E30G15E33R20
                                E26R14G08G27R05G32R18G28R17R03
 110147333.638 8  85829111.32948  20960334.104    20960333.5194   20960335.0164
        51.400          51.8004
 115028703.126 7  89632797.05547  21889223.618    21889223.1714   21889225.1244
        46.000          45.4004
 143245770.544 5                  27258761.663
        33.700
 145380606.281 6                  27665000.458
        39.400
 108226167.246 8  84175961.692 7  20210470.064    20210470.553    20210475.360
        51.600          47.400
 198974472.954 7                  37863577.950
        45.700
 200953963.783 7                  38240268.651
        44.200
 130190700.274 6 101447309.54242  24774460.257    24774458.8184   24774459.9624
        36.900          16.5004
 123701777.095 7  96212530.014 6  23157224.804    23157224.868    23157231.995
        47.000          41.100
 139874680.897 6                  26617249.320
        38.900
 412712018.643 5                  78536551.058
        33.000
 202092043.094 7                  38456800.879
        45.000
 128232792.447 7  99736659.235 6  24030766.105    24030766.705    24030771.680
        45.800          40.200
 117890261.536 7                  22077043.623    22077043.266
        42.800
 126523741.191 8                  24076659.608
        48.300
 109131630.615 8  85037646.25146  20767051.648    20767051.2954   20767050.5064
        48.100          38.3004
 106123166.273 7  82540269.359 7  19838595.078    19838595.049    19838599.923
        42.100          46.300
 120586996.661 7  93963894.27445  22946939.444    22946939.0734   22946940.4074
        43.200          30.0004
 124965608.558 8                  23780156.341
        49.000
 151254163.644 5                  28782710.986
        34.800
 152856551.388 5                  29087634.323
        34.700
 130871156.484 6 101977544.56044  24903943.902    24903943.5224   24903942.8594
        40.600          29.3004
 128941170.872 7                  24536682.196
        47.500
 124806393.945 6  97071685.262 6  23339419.215    23339421.036    23339428.716
        36.400          40.800
 123631856.197 8                  23526355.008
        48.100
 125851636.305 7  97884646.689 6  23609442.710    23609442.523    23609451.744
        45.000          41.700
 128247875.876 6  99933429.28845  24404753.143    24404752.3924   24404754.2814
        38.400          31.0004
 127053870.619 6  99003032.83446  24177544.137    24177543.3684   24177545.5744
        39.900          36.2004
 125298566.643 7  97454450.466 7  23439682.898    23439683.519    23439689.240
        43.400          42.200
 113346275.909 8  88321788.25048  21569071.492    21569070.9964   21569072.3084
        50.000          49.9004
 110629141.186 8  86044929.007 7  20724559.464    20724559.704    20724565.274
        50.700          47.000
 130064336.253 6 101348833.74143  24750421.646    24750421.2084   24750423.0184
        39.300          23.0004
 129937091.978 6 101062219.174 6  24281852.389    24281852.775    24281860.200
        40.700          38.000
 109154476.755 8  84897964.180 7  20390965.919    20390966.414    20390971.261
        51.600          47.500
 25  1  1 10 16 45.0000000  0 34G10G24E19E08R04S31S35G21R12E13S48S33
                                R02R13E29G23R19G18E07E02E30G15E33R20
                                E26R14G08G27R05G32R18G28R17R03
 110128254.523 8  85814244.49548  20956703.567    20956702.9864   20956704.3674
        51.400          51.9004
 115058747.142 7  89656207.95147  21894940.561    21894940.0964   21894942.3444
        45.400          45.3004
 143209293.489 5                  27251820.164
        33.200
 145418738.341 6                  27672257.269
        39.700
 108212179.018 8  84165081.967 7  20207858.188    20207858.517    20207863.096
        51.500          47.500
 198974474.078 7                  37863577.642
        46.000
 200953959.854 7                  38240265.025
        44.100
 130149500.890 6 101415206.06742  24766620.572    24766619.1064   24766619.8044
        37.100          17.0004
 123719836.236 7  96226576.022 6  23160606.134    23160606.429    23160612.587
        47.700          41.300
 139919214.037 6                  26625723.733
        40.000
 412711894.663 5                  78536535.908
        33.000
 202092031.471 7                  38456802.046
        45.100
 128277190.769 7  99771191.334 6  24039086.736    24039086.700    24039091.603
        46.100          39.700
 117865007.866 7                  22072314.996    22072314.029
        42.100
 126504884.011 8                  24073071.231
        48.200
 109147563.390 8  85050061.39746  20770083.448    20770083.0954   20770082.3924
        48.100          38.4004
 106126709.656 7  82543025.333 7  19839257.693    19839257.677    19839262.563
        42.400          46.200
 120639874.932 7  94005098.09045  22957001.349    22957000.9744   22957002.7564
        43.200          30.1004
 124984251.832 8                  23783704.163
        49.100
 151238542.727 5                  28779738.495
        34.400
 152823237.467 5                  29081294.926
        33.200
 130922630.370 6 102017654.17145  24913739.036    24913738.6614   24913738.0244
        40.500          30.0004
 128916537.367 7                  24531994.589
        47.700
 124748888.228 6  97026958.662 6  23328665.572    23328666.229    23328675.265
        36.100          40.500
 123647840.321 8                  23529396.693
        48.300
 125793380.525 7  97839336.698 6  23598514.581    23598513.640    23598522.365
        44.500          41.300
 128261130.377 6  99943757.49145  24407275.406    24407274.6194   24407276.5534
        36.800          30.9004
 127087893.113 6  99029543.86846  24184018.148    24184017.3574   24184019.5984
        41.400          36.4004
 125258085.551 7  97422965.172 7  23432110.292    23432110.607    23432116.932
        44.100          42.300
 113322312.707 8  88303115.64348  21564511.516    21564511.0254   21564512.2604
        50.000          50.0004
 110680984.038 8  86085251.186 7  20734271.072    20734271.121    20734277.491
        50.300          47.300
 130007169.408 6 101304288.13643  24739543.367    24739542.9524   24739544.7234
        39.400          23.2004
 130006136.814 6 101115920.720 6  24294754.866    24294754.524    24294763.268
        40.200          38.500
 109179228.848 8  84917215.814 7  20395590.446    20395590.439    20395595.080
        52.000          47.500
 25  1  1 10 17  0.0000000  0 34G10G24E19E08R04S31S35G21R12E13S48S33
                                R02R13E29G23R19G18E07E02E30G15E33R20
                                E26R14G08G27R05G32R18G28R17R03
 110109232.123 8  85799421.85248  20953083.897    20953083.3214   20953084.5264
        51.900          51.7004
 115088936.136 7  89679731.82247  21900685.487    21900685.0184   21900687.1054
        45.400          45.2004
 143172852.135 5                  27244886.430
        33.000
 145456870.002 6                  27679513.232
        39.100
 108198267.204 8  84154261.671 7  20205260.253    20205260.571    20205265.298
        51.600          47.700
 198974481.538 7                  37863579.229
        45.900
 200953961.270 7                  38240267.381
        44.200
 130108361.014 6 101383148.97942  24758792.330    24758790.8594   24758791.3304
        37.300          17.6004
 123738079.108 7  96240765.077 7  23164020.285    23164020.875    23164027.793
        47.500          42.200
 139963788.125 6                  26634205.604
        39.800
 412711776.234 5                  78536522.306
        32.700
 202092025.970 7                  38456801.733
        45.300
 128321578.356 7  99805715.076 6  24047404.121    24047404.392    24047409.908
        45.200          40.200
 117839922.321 7                  22067618.003    22067616.688
        43.100
 126486093.208 8                  24069495.306
        48.200
 109163576.879 8  85062539.44146  20773130.812    20773130.4554   20773129.6374
        48.100          38.2004
 106130471.446 7  82545951.157 7  19839959.854    19839960.656    19839965.735
        42.500          46.200
 120692820.735 7  94046354.53144  22967077.280    22967076.9234   22967078.3464
        43.000          29.9004
 125002947.523 8                  23787261.770
        48.900
 151223010.088 5                  28776782.433
        35.400
 152789943.633 5                  29074958.628
        32.500
 130974099.639 6 102057760.18845  24923533.130    24923532.7554   24923532.3804
        40.700          30.1004
 128891987.552 7                  24527322.643
        47.600
 124691476.443 6  96982305.092 6  23317930.911    23317930.167    23317938.389
        36.600          40.100
 123663927.359 8                  23532458.040
        48.100
 125735133.969 7  97794033.853 6  23587587.890    23587587.942    23587595.427
        45.700          41.000
 128274503.215 6  99954177.89745  24409819.880    24409819.0714   24409821.6354
        38.500          31.2004
 127121988.541 6  99056111.72746  24190505.851    24190505.0564   24190507.7034
        40.800          36.4004
 125217646.704 7  97391512.737 7  23424545.448    23424545.663    23424551.747
        43.300          42.200
 113298432.458 8  88284507.67348  21559967.152    21559966.6564   21559967.9554
        50.100          49.8004
 110732958.817 8  86125675.971 7  20744007.355    20744008.146    20744014.176
        50.200          47.300
 129950010.807 6 101259748.97243  24728666.667    24728666.2654   24728667.9354
        38.500          22.9004
 130075172.031 6 101169614.740 6  24307656.944    24307656.519    24307663.850
        40.500          38.100
 109204030.227 8  84936505.786 7  20400223.449    20400223.518    20400228.293
        52.000          47.700
 25  1  1 10 17 15.0000000  0 35G10G24E19E08R04S31S35G21R12E13S48S33
                                R02R13E29G23R19G18E07E02E30G15G12E33
                                R20E26R14G08G27R05G32R18G28R17R03
 110090254.365 8  85784633.99848  20949472.159    20949471.5784   20949473.1764
        52.000          51.8004
 115119257.652 7  89703358.95647  21906455.752    21906455.2874   21906457.1174
        45.600          45.1004
 143136434.607 5                  27237956.114
        33.300
 145494988.904 6                  27686767.251
        39.400
 108184419.001 8  84143490.840 7  20202673.820    20202674.413    20202679.404
        52.000          47.500
 198974481.751 7                  37863579.010
        45.700
 200953955.800 7                  38240266.290
        44.200
 130067269.002 6 101351129.29642  24750972.114    24750970.6084   24750972.0854
        38.000          17.3004
 123756492.855 7  96255086.911 6  23167467.493    23167467.701    23167474.587
        47.000          41.400
 140008390.841 6                  26642693.497
        40.000
 412711651.855 5                  78536505.381
        33.100
 202092013.512 7                  38456796.456
        44.900
 128365942.623 7  99840220.639 6  24055718.645    24055718.793    24055724.630
        46.800          40.600
 117814992.723 7                  22062948.099    22062948.265
        43.300
 126467356.565 8                  24065929.939
        48.100
 109179658.933 8  85075070.90646  20776191.355    20776191.0024   20776189.9974
        48.200          38.3004
 106134438.777 7  82549036.856 7  19840702.743    19840702.306    19840707.434
        42.500          46.200
 120745821.586 7  94087653.86244  22977162.992    22977162.6394   22977163.8134
        42.400          29.8004
 125021683.280 8                  23790827.198
        48.800
 151207553.712 5                  28773841.279
        35.900
 152756657.760 5                  29068625.474
        33.700
 131025552.117 6 102097853.08645  24933324.249    24933323.8834   24933323.6054
        41.500          30.1004
 135979179.144 4                  25875977.639
        29.900
 128867509.479 7                  24522665.047
        47.500
 124634146.513 6  96937715.206 6  23307208.867    23307209.032    23307217.370
        36.200          40.400
 123680105.111 7                  23535536.449
        47.900
 125676884.802 7  97748728.989 6  23576660.525    23576660.678    23576668.293
        44.700          41.700
 128287982.050 6  99964680.88245  24412384.602    24412383.7934   24412386.7864
        39.400          31.5004
 127156144.377 6  99082726.66846  24197005.978    24197005.1784   24197007.4704
        40.800          36.4004
 125177237.950 7  97360083.709 7  23416985.823    23416986.198    23416992.585
        42.000          42.200
 113274622.921 8  88265954.80548  21555436.279    21555435.7924   21555437.1194
        50.200          49.8004
 110785052.512 8  86166193.269 7  20753766.455    20753767.033    20753772.567
        49.700          46.900
 129892848.597 6 101215206.99043  24717789.267    24717788.8704   24717790.1944
        39.900          22.8004
 130144184.826 7 101223291.334 6  24320554.453    24320553.609    24320559.705
        42.200          37.400
 109228867.993 8  84955824.019 7  20404863.377    20404863.578    20404868.134
        52.200          47.400
 25  1  1 10 17 30.0000000  0 35G10G24E19E08R04S31S35G21R12E13S48S33
                                R02R13E29G23R19G18E07E02E30G15G12E33
                                R20E26R14G08G27R05G32R18G28R17R03
 110071331.949 8  85769889.26748  20945871.443    20945870.8624   20945872.3574
        51.800          51.8004
 115149721.924 7  89727097.33747  21912252.837    21912252.3814   21912254.2584
        45.100          45.0004
 143100051.109 5                  27231032.725
        32.500
 145533105.499 6                  27694020.365
        38.400
 108170645.082 8  84132777.801 7  20200101.555    20200102.277    20200107.049
        51.600          47.400
 198974485.811 7                  37863579.265
        45.900
 200953954.888 7                  38240262.972
        44.200
 130026235.374 6 101319155.08242  24743163.972    24743162.4924   24743163.4384
        37.000          17.6004
 123775087.965 7  96269549.829 6  23170948.651    23170948.546    23170955.436
        46.500          41.600
 140053032.457 6                  26651188.513
        39.200
 412711531.018 5                  78536491.532
        32.700
 202092005.444 7                  38456794.529
        45.100
 128410294.216 7  99874716.360 6  24064030.290    24064030.699    24064034.551
        46.600          39.500
 117790230.232 7                  22058310.956    22058310.678
        42.600
 126448684.565 8                  24062376.753
        48.000
 109195820.136 8  85087664.04846  20779266.628    20779266.2754   20779265.3694
        48.200          38.2004
 106138622.733 7  82552291.042 7  19841484.727    19841484.277    19841489.566
        42.300          46.400
 120798887.678 7  94129004.02745  22987260.884    22987260.5544   22987262.1374
        43.600          30.1004
 125040469.506 8                  23794401.977
        48.500
 151192184.226 5                  28770916.124
        33.800
 152723390.792 5                  29062294.532
        32.600
 131076998.250 6 102137941.00045  24943113.982    24943113.5934   24943113.4094
        40.600          30.1004
 135941640.193 5                  25868833.416    25868833.8494
        33.500
 128843113.851 7                  24518022.183
        47.200
 124576909.250 6  96893197.372 6  23296505.244    23296504.750    23296513.826
        36.200          41.500
 123696384.066 7                  23538634.279
        47.800
 125618643.891 7  97703430.558 6  23565734.564    23565734.492    23565741.374
        45.600          40.700
 128301577.117 6  99975274.42545  24414971.279    24414970.4524   24414973.9864
        38.500          31.4004
 127190370.707 6  99109396.52846  24203519.255    24203518.4554   24203520.7784
        40.800          36.5004
 125136870.170 7  97328686.527 6  23409435.415    23409435.787    23409441.468
        43.000          41.900
 113250894.638 8  88247465.24948  21550920.948    21550920.4614   21550921.7424
        50.100          49.9004
 110837275.439 8  86206811.069 7  20763549.947    20763550.138    20763555.873
        50.000          46.900
 129835693.601 6 101170670.63243  24706912.117    24706911.6844   24706913.6884
        40.000          23.2004
 130213185.516 6 101276958.569 6  24333446.046    24333446.960    24333454.666
        40.700          38.100
 109253752.917 8  84975178.978 7  20409511.489    20409512.174    20409516.850
        51.800          47.300
 25  1  1 10 17 45.0000000  0 35G10G24E19E08R04S31S35G21R12E13S48S33
                                R02R13E29G23R19G18E07E02E30G15G12E33
                                R20E26R14G08G27R05G32R18G28R17R03
 110052459.196 8  85755183.23148  20942280.037    20942279.4524   20942280.9834
        52.000          51.7004
 115180322.835 7  89750942.19247  21918075.765    21918075.3094   21918077.4464
        44.800          45.0004
 143063696.179 5                  27224114.761
        32.800
 145571213.898 6                  27701272.028
        39.000
 108156939.561 8  84122117.963 7  20197542.508    20197542.801    20197547.644
        51.100          47.400
 198974488.537 7                  37863579.064
        45.900
 200953951.546 7                  38240263.035
        44.200
 129985254.507 6 101287221.93542  24735365.263    24735363.8064   24735365.1744
        37.400          16.8004
 123793858.422 7  96284149.003 7  23174462.742    23174462.959    23174469.398
        47.300          42.100
 140097707.056 6                  26659690.047
        40.100
 412711408.341 5                  78536477.169
        32.900
 202091994.475 7                  38456795.133
        44.900
 128454627.363 7  99909197.782 6  24072335.969    24072336.715    24072342.821
        45.100          40.100
 117765629.225 7                  22053704.394    22053703.793
        42.700
 126430071.384 8                  24058834.794
        48.200
 109212054.725 8  85100314.37746  20782356.086    20782355.7294   20782354.7374
        48.200          38.2004
 106143017.154 7  82555708.920 7  19842305.608    19842306.094    19842311.021
        42.700          46.200
 120852012.903 7  94170400.27244  22997370.363    22997370.0374   22997371.4964
        43.300          29.9004
 125059300.213 8                  23797985.389
        48.800
 151176895.840 5                  28768007.464
        35.900
 152690136.985 5                  29055967.171
        33.700
 131128432.042 6 102178019.30444  24952901.466    24952901.0694   24952900.9104
        40.300          29.6004
 135904114.992 5 105899314.48043  25861692.425    25861692.4564   25861694.0824
        32.900          19.1004
 128818795.003 7                  24513394.749
        47.600
 124519759.699 6  96848747.693 6  23285817.788    23285817.599    23285826.304
        36.300          41.000
 123712758.360 7                  23541750.266
        47.900
 125560406.132 7  97658134.578 6  23554808.369    23554808.797    23554817.128
        46.000          41.400
 128315282.413 6  99985953.86545  24417579.161    24417578.3304   24417581.8684
        39.000          31.3004
 127224661.342 6  99136116.50446  24210043.981    24210043.1774   24210046.0604
        40.600          36.7004
 125096537.162 7  97297316.429 6  23401889.484    23401890.098    23401895.788
        43.600          41.600
 113227241.759 8  88229034.45248  21546419.898    21546419.4074   21546420.7414
        50.100          49.9004
 110889621.035 8  86247524.284 7  20773355.950    20773356.299    20773362.289
        50.000          47.000
 129778540.288 6 101126135.58143  24696036.577    24696036.1304   24696037.6114
        39.000          23.1004
 130282167.701 6 101330611.355 6  24346338.935    24346338.746    24346346.582
        40.700          38.300
 109278679.142 8  84994566.032 7  20414168.329    20414168.872    20414173.209
        52.200          47.500
 25  1  1 10 18  0.0000000  0 35G10G24E19E08R04S31S35G21R12E13S48S33
                                R02R13E29G23R19G18E07E02E30G15G12E33
                                R20E26R14G08G27R05G32R18G28R17R03
 110033636.831 8  85740516.46348  20938698.212    20938697.6274   20938699.1734
        51.600          51.6004
 115211060.655 7  89774893.73547  21923924.997    21923924.5594   21923926.6734
        45.100          44.9004
 143027370.329 5                  27217201.991
        33.500
 145609314.535 6                  27708522.825
        39.300
 108143302.967 8  84111511.731 7  20194995.954    20194996.221    20195000.935
        51.500          47.200
 198974490.162 7                  37863578.174
        45.700
 200953946.605 7                  38240261.577
        44.100
 129944327.462 6 101255330.71242  24727577.379    24727575.9044   24727576.7754
        37.900          17.4004
 123812804.925 8  96298885.245 7  23178009.532    23178010.414    23178016.790
        48.100          42.600
 140142415.013 6                  26668197.285
        40.300
 412711285.713 5                  78536456.899
        32.900
 202091983.266 7                  38456792.320
        45.100
 128498942.763 7  99943665.416 6  24080641.918    24080642.419    24080648.337
        46.000          40.000
 117741190.800 7                  22049127.936    22049128.036
        43.500
 126411517.542 8                  24055304.037
        48.200
 109228363.324 8  85113022.37746  20785459.205    20785458.8524   20785458.1374
        48.200          38.1004
 106147622.889 7  82559291.163 7  19843166.737    19843167.100    19843171.884
        42.400          46.100
 120905197.489 7  94211842.78544  23007491.226    23007490.9094   23007492.1194
        43.600          29.7004
 125078175.855 8                  23801577.225
        48.700
 151161689.609 5                  28765113.284
        35.000
 152656897.170 5                  29049642.241
        32.800
 131179853.880 6 102218088.29744  24962687.336    24962686.9344   24962686.1354
        39.300          29.2004
 135866604.394 6 105870085.43643  25854554.834    25854554.6384   25854556.3184
        36.300          21.8004
 128794553.718 7                  24508781.823
        47.500
 124462699.123 6  96804367.321 6  23275147.207    23275148.084    23275156.364
        36.900          41.300
 123729228.537 8                  23544884.335
        48.000
 125502172.891 7  97612842.073 6  23543884.304    23543886.130    23543892.342
        46.500          41.100
 128329098.296 6  99996719.48645  24420208.658    24420207.8184   24420210.5744
        38.300          30.9004
 127259016.506 6  99162886.75246  24216581.908    24216581.1264   24216583.6534
        40.300          36.5004
 125056239.589 7  97265973.918 6  23394350.299    23394349.896    23394357.326
        42.400          41.900
 113203664.873 8  88210662.86948  21541933.341    21541932.8544   21541934.2154
        50.000          49.8004
 110942089.420 8  86288333.022 7  20783185.758    20783185.851    20783191.050
        50.100          46.900
 129721389.559 6 101081602.55043  24685160.622    24685160.1934   24685162.7904
        38.600          23.0004
 130351131.425 6 101384249.827 6  24359225.464    24359226.285    24359233.906
        41.300          38.400
 109303646.923 8  85013985.431 7  20418831.802    20418832.788    20418837.438
        51.900          47.500
 25  1  1 10 18 15.0000000  0 35G10G24E19E08R04S31S35G21R12E13S48S33
                                R02R13E29G23R19G18E07E02E30G15G12E33
                                R20E26R14G08G27R05G32R18G28R17R03
 110014866.946 8  85725890.58648  20935126.487    20935125.8974   20935127.3794
        51.800          51.5004
 115241937.019 7  89798953.21747  21929800.585    21929800.1344   21929802.2644
        45.100          44.7004
 142991075.606 5                  27210295.303
        33.400
 145647409.331 6                  27715771.608
        38.800
 108129736.982 8  84100960.404 7  20192462.550    20192462.904    20192467.559
        51.200          47.500
 198974491.678 7                  37863577.427
        45.500
 200953942.703 7                  38240261.349
        43.900
 129903456.062 6 101223482.78843  24719799.723    24719798.2524   24719799.4794
        38.600          18.0004
 123831929.055 8  96313759.587 7  23181589.524    23181590.301    23181597.523
        48.200          42.700
 140187158.111 6                  26676711.895
        39.700
 412711164.417 5                  78536435.655
        32.600
 202091972.545 7                  38456792.588
        45.100
 128543242.033 7  99978120.504 6  24088943.384    24088944.134    24088949.247
        45.900          39.700
 117716917.360 7                  22044581.009    22044581.214
        42.600
 126393024.959 8                  24051784.915
        48.000
 109244747.933 8  85125789.60646  20788577.068    20788576.7204   20788576.0664
        48.300          38.0004
 106152441.567 7  82563039.018 7  19844067.811    19844067.640    19844072.787
        42.000          46.200
 120958443.059 7  94253332.81044  23017623.397    23017623.0764   23017624.4454
        43.500          29.7004
 125097098.209 8                  23805178.054
        48.700
 151146567.430 5                  28762236.253
        34.300
 152623673.654 5                  29043319.391
        33.700
 131231265.666 6 102258149.46244  24972471.034    24972470.6374   24972469.2584
        40.600          29.3004
 135829110.845 5 105840869.72743  25847420.324    25847419.9314   25847421.9204
        31.800          18.6004
 128770392.143 7                  24504183.995
        47.500
 124405729.547 6  96760057.561 6  23264495.365    23264493.902    23264501.708
        36.600          40.400
 123745796.508 8                  23548037.185
        48.100
 125443946.447 7  97567554.854 6  23532961.313    23532961.536    23532968.955
        45.200          41.300
 128343026.460 6 100007572.60145  24422858.876    24422858.0184   24422860.4174
        38.700          30.6004
 127293437.778 6  99189708.51946  24223132.434    24223131.6474   24223134.1644
        41.300          36.4004
 125015979.542 7  97234660.497 6  23386819.649    23386820.350    23386825.817
        44.800          41.700
 113180165.877 8  88192351.97848  21537461.779    21537461.2924   21537462.4944
        50.100          49.7004
 110994682.111 8  86329238.410 7  20793037.263    20793037.842    20793043.631
        49.600          47.100
 129664243.672 6 101037073.27243  24674287.259    24674286.8534   24674288.1394
        39.200          22.7004
 130420078.374 6 101437875.208 6  24372109.500    24372110.125    24372118.403
        41.000          38.200
 109328658.079 8  85033438.527 7  20423504.792    20423505.075    20423509.626
        52.000          47.400
 25  1  1 10 18 30.0000000  0 35G10G24E19E08R04S31S35G21R12E13S48S33
                                R02R13E29G23R19G18E07E02E30G15G12E33
                                R20E26R14G08G27R05G32R18G28R17R03
 109996148.893 8  85711305.09948  20931564.605    20931564.0154   20931565.4234
        52.000          51.7004
 115272950.865 7  89823119.82947  21935702.525    21935702.0834   21935703.9794
        45.300          44.8004
 142954811.095 5                  27203394.430
        33.500
 145685497.354 6                  27723019.601
        38.700
 108116241.006 8  84090463.531 7  20189942.033    20189942.626    20189947.263
        51.500          47.200
 198974493.568 7                  37863579.216
        45.300
 200953938.353 7                  38240258.335
        43.600
 129862640.267 6 101191678.28642  24712032.478    24712030.9674   24712032.3514
        36.400          17.2004
 123851230.014 7  96328771.535 6  23185202.269    23185202.760    23185209.744
        47.600          41.800
 140231935.326 6                  26685232.957
        39.300
 412711043.571 5                  78536412.912
        31.900
 202091960.989 7                  38456792.088
        44.900
 128587524.378 7 100012562.490 6  24097241.896    24097242.150    24097247.398
        45.900          39.800
 117692808.188 7                  22040067.265    22040067.151
        42.600
 126374592.794 8                  24048277.656
        48.100
 109261207.784 8  85138615.46746  20791709.349    20791709.0014   20791708.2994
        48.300          38.0004
 106157472.289 7  82566951.803 7  19845009.109    19845008.228    19845013.303
        42.200          46.200
 121011748.479 7  94294869.45044  23027766.943    23027766.6304   23027768.0354
        43.100          29.7004
 125116066.311 8                  23808787.549
        48.700
 151131528.732 5                  28759374.238
        34.000
 152590465.754 5                  29036999.828
        33.900
 131282666.451 6 102298202.01744  24982251.500    24982251.1114   24982250.8214
        40.300          29.6004
 135791633.788 5 105811666.77943  25840288.055    25840287.7514   25840289.7944
        33.800          19.0004
 128746309.694 7                  24499601.167
        47.500
 124348850.717 6  96715818.403 6  23253858.245    23253857.611    23253865.534
        36.800          40.800
 123762461.412 8                  23551208.244
        48.100
 125385726.379 7  97522272.612 6  23522039.031    23522039.612    23522047.428
        45.500          41.400
 128357065.898 6 100018512.40345  24425530.817    24425529.9684   24425532.3594
        38.700          30.7004
 127327923.926 6  99216580.83946  24229694.703    24229693.9084   24229696.8474
        41.500          36.3004
 124975755.928 7  97203375.472 6  23379294.449    23379295.535    23379300.443
        44.100          41.300
 113156743.956 8  88174101.14548  21533004.756    21533004.2744   21533005.4354
        50.500          49.8004
 111047397.719 8  86370239.421 7  20802913.744    20802913.581    20802918.851
        50.200          46.900
 129607102.166 6 100992547.41643  24663413.296    24663412.9034   24663414.2764
        39.200          23.1004
 130489007.426 6 101491486.704 6  24384991.790    24384991.228    24384997.906
        39.500          36.600
 109353711.471 8  85052924.489 7  20428184.888    20428185.182    20428189.926
        51.800          47.400
 25  1  1 10 18 45.0000000  0 35G10G24E19E08R04S31S35G21R12E13S48S33
                                R02R13E29G23R19G18E07E02E30G15G12E33
                                R20E26R14G08G27R05G32R18G28R17R03
 109977487.782 8  85696763.97548  20928013.414    20928012.8294   20928014.3294
        51.700          51.8004
 115304106.871 7  89847397.22147  21941631.155    21941630.7134   21941632.7604
        45.300          44.8004
 142918582.009 5                  27196499.988
        32.300
 145723583.423 6                  27730267.098
        38.500
 108102819.593 8  84080024.657 7  20187435.994    20187436.335    20187440.897
        52.000          47.200
 198974500.146 7                  37863581.684
        45.700
 200953938.606 7                  38240263.156
        43.800
 129821884.907 6 101159920.79042  24704277.599    24704276.1244   24704277.0954
        36.400          16.7004
 123870712.312 8  96343924.489 7  23188850.083    23188850.817    23188856.491
        48.600          42.400
 140276751.472 6                  26693760.935
        39.600
 412710928.720 5                  78536407.676
        32.400
 202091955.316 7                  38456784.669
        44.700
 128631794.795 7 100046995.173 6  24105538.307    24105538.857    24105543.876
        46.400          39.300
 117668868.802 7                  22035584.150    22035583.437
        42.500
 126356226.022 8                  24044782.362
        48.400
 109277747.904 8  85151503.87046  20794856.922    20794856.5784   20794855.7804
        48.200          38.1004
 106162720.214 7  82571033.524 7  19845988.824    19845989.168    19845994.185
        42.300          46.100
 121065118.435 7  94336456.38544  23037923.011    23037922.6944   23037924.0464
        44.200          29.7004
 125135085.025 8                  23812406.499
        48.700
 151116578.448 5                  28756529.467
        34.600
 152557278.786 5                  29030684.571
        33.700
 131334061.152 6 102338249.88344  24992031.485    24992031.1054   24992030.5814
        39.500          29.4004
 135754178.557 5 105782480.87043  25833160.507    25833160.1904   25833161.8934
        35.400          23.2004
 128722311.463 7                  24495034.570
        47.600
 124292068.816 6  96671654.733 6  23243239.847    23243238.653    23243247.460
        37.000          40.600
 123779228.212 8                  23554398.873
        48.200
 125327518.456 7  97476999.794 6  23511120.544    23511120.602    23511126.876
        46.100          40.900
 128371221.360 6 100029542.62645  24428224.370    24428223.5034   24428226.1634
        37.500          30.8004
 127362479.597 6  99243507.33946  24236270.296    24236269.4964   24236272.1174
        41.000          36.3004
 124935573.858 7  97172122.772 6  23371778.389    23371778.456    23371784.589
        43.700          41.500
 113133404.096 8  88155914.25448  21528563.000    21528562.5004   21528564.0014
        50.400          50.0004
 111100240.743 8  86411339.532 7  20812811.689    20812812.439    20812818.764
        49.700          47.100
 129549970.265 6 100948029.05843  24652541.526    24652541.1244   24652541.9954
        39.700          22.7004
 130557923.084 6 101545087.820 6  24397870.254    24397870.172    24397876.747
        41.700          38.100
 109378812.173 8  85072447.257 7  20432873.834    20432874.237    20432878.775
        51.700          47.400
 25  1  1 10 19  0.0000000  0 35G10G24E19E08R04S31S35G21R12E13S48S33
                                R02R13E29G23R19G18E07E02E30G15G12E33
                                R20E26R14G08G27R05G32R18G28R17R03
 109958876.714 8  85682261.85448  20924472.048    20924471.4584   20924472.7464
        52.200          52.0004
 115335397.688 7  89871779.66647  21947585.686    21947585.2444   21947587.1954
        45.100          44.9004
 142882381.163 5                  27189611.419
        32.800
 145761660.476 6                  27737512.978
        38.300
 108089465.752 8  84069638.328 7  20184942.083    20184942.534    20184947.185
        51.500          47.200
 198974503.909 7                  37863578.773
        45.400
 200953936.789 7                  38240259.869
        43.800
 129781183.311 6 101128205.18442  24696532.700    24696531.1944   24696531.6374
        37.200          16.0004
 123890368.720 7  96359212.769 7  23192529.443    23192529.808    23192536.587
        47.700          42.300
 140321599.324 6                  26702295.357
        39.300
 412710811.691 5                  78536383.122
        31.900
 202091946.907 7                  38456782.000
        44.700
 128676045.963 7 100081412.892 6  24113830.039    24113830.806    24113836.379
        46.000          40.100
 117645092.511 7                  22031130.518    22031131.307
        43.300
 126337917.504 8                  24041298.387
        48.000
 109294361.278 8  85164449.36346  20798018.230    20798017.8914   20798017.1994
        48.200          38.3004
 106168178.002 7  82575278.462 7  19847009.371    19847009.740    19847014.578
        42.400          46.100
 121118545.562 7  94378087.87744  23048089.909    23048089.5834   23048090.8354
        43.100          29.7004
 125154147.100 8                  23816034.064
        48.400
 151101709.785 5                  28753700.291
        35.400
 152524105.789 5                  29024372.433
        33.200
 131385442.466 6 102378287.27845  25001809.654    25001809.2704   25001808.1554
        40.700          30.0004
 135716738.395 5 105753306.73241  25826035.237    25826034.9564   25826037.6464
        30.400          11.0004
 128698390.623 7                  24490482.593
        47.300
 124235376.839 6  96627561.065 7  23232635.991    23232636.928    23232646.214
        36.900          42.000
 123796089.763 7                  23557607.622
        47.700
 125269315.931 7  97431731.137 6  23500201.380    23500201.477    23500209.168
        45.500          41.600
 128385485.557 6 100040657.57745  24430939.019    24430938.1614   24430940.6444
        39.900          31.5004
 127397097.338 6  99270482.21346  24242857.719    24242856.9154   24242859.5334
        41.200          36.5004
 124895426.211 7  97140896.816 6  23364267.957    23364268.317    23364273.452
        44.000          41.600
 113110139.184 8  88137785.76748  21524135.769    21524135.2694   21524136.8224
        50.400          50.3004
 111153203.532 8  86452532.782 7  20822734.090    20822734.089    20822740.110
        49.200          46.900
 129492841.247 6 100903512.93343  24641670.221    24641669.8414   24641670.7254
        39.700          22.9004
 130626817.609 6 101598672.478 5  24410743.894    24410744.903    24410751.903
        40.200          35.800
 109403952.908 8  85092001.160 7  20437570.581    20437570.877    20437575.379
        51.900          47.400
 25  1  1 10 19 15.0000000  0 35G10G24E19E08R04S31S35G21R12E13S48S33
                                R02R13E29G23R19G18E07E02E30G15G12E33
                                R20E26R14G08G27R05G32R18G28R17R03
 109940317.325 8  85667799.99248  20920940.177    20920939.5834   20920941.0094
        51.800          52.0004
 115366824.447 7  89896268.02947  21953566.080    21953565.6474   21953567.5124
        44.500          44.8004
 142846210.200 5                  27182727.569
        33.000
 145799729.817 6                  27744757.236
        38.500
 108076180.696 8  84059305.518 7  20182461.330    20182461.610    20182466.427
        51.400          47.200
 198974507.471 7                  37863582.842
        45.900
 200953934.237 7                  38240260.862
        44.200
 129740537.237 6 101096532.86943  24688797.340    24688795.8254   24688796.9464
        37.000          18.0004
 123910200.480 7  96374637.343 7  23196242.094    23196242.378    23196249.384
        47.100          42.300
 140366480.195 6                  26710835.836
        39.300
 412710693.699 5                  78536374.062
        32.700
 202091937.432 7                  38456784.218
        45.000
 128720279.622 7 100115816.980 6  24122120.638    24122120.183    24122125.493
        45.500          39.200
 117621481.401 7                  22026710.316    22026709.713
        43.600
 126319668.706 8                  24037825.537
        48.000
 109311049.425 8  85177453.11546  20801194.060    20801193.7214   20801192.8474
        48.100          38.2004
 106173846.969 6  82579687.666 7  19848069.111    19848069.376    19848074.321
        41.800          46.200
 121172031.018 7  94419764.81144  23058268.076    23058267.7414   23058268.9274
        43.500          29.7004
 125173253.891 8                  23819670.170
        48.500
 151086924.310 5                  28750886.213
        35.500
 152490948.671 5                  29018062.661
        33.000
 131436811.752 6 102418315.26644  25011584.523    25011584.1344   25011583.6324
        40.400          29.9004
 135679315.282 6 105724145.79643  25818914.919    25818914.6064   25818916.4534
        36.900          23.7004
 128674548.810 7                  24485945.632
        47.600
 124178776.531 6  96583538.564 6  23222051.609    23222053.223    23222061.042
        36.100          40.700
 123813047.536 8                  23560834.541
        48.100
 125211120.588 7  97386468.040 6  23489284.061    23489284.426    23489291.112
        45.700          40.900
 128399859.724 6 100051858.20245  24433673.515    24433672.6664   24433676.2664
        38.600          31.7004
 127431778.205 6  99297506.25546  24249457.917    24249457.1224   24249459.3934
        40.800          36.7004
 124855314.283 7  97109698.662 6  23356764.310    23356764.666    23356769.953
        44.200          41.500
 113086950.675 8  88119716.81648  21519723.237    21519722.7414   21519724.1894
        50.200          50.2004
 111206287.008 8  86493819.919 7  20832678.015    20832678.526    20832684.413
        49.200          47.100
 129435716.889 6 100859000.44243  24630799.930    24630799.5644   24630800.7834
        39.800          23.9004
 130695692.334 7 101652241.714 6  24423615.820    24423615.700    24423622.968
        42.300          38.600
 109429135.002 8  85111587.250 7  20442274.280    20442275.032    20442279.481
        51.600          47.200
 25  1  1 10 19 30.0000000  0 35G10G24E19E08R04S31S35G21R12E13S48S33
                                R02R13E29G23R19G18E07E02E30G15G12E33
                                R20E26R14G08G27R05G32R18G28R17R03
 109921810.466 8  85653379.07048  20917418.509    20917417.9154   20917419.2584
        52.100          52.1004
 115398387.649 7  89920862.72147  21959572.376    21959571.9474   21959573.8274
        45.000          44.9004
 142810069.768 5                  27175850.764
        32.300
 145837792.114 6                  27752000.292
        38.700
 108062965.145 8  84049026.751 7  20179993.500    20179993.579    20179998.431
        51.300          47.300
 198974510.995 7                  37863582.534
        46.000
 200953931.777 7                  38240259.395
        44.300
 129699947.849 6 101064904.71942  24681073.349    24681071.9054   24681073.1354
        37.400          17.7004
 123930208.215 8  96390198.756 6  23199987.457    23199988.461    23199995.035
        48.100          41.900
 140411394.597 6                  26719383.055
        39.100
 412710575.875 5                  78536352.442
        32.500
 202091927.751 7                  38456778.118
        45.100
 128764496.293 7 100150207.836 6  24130406.288    24130405.850    24130411.553
        44.600          39.200
 117598036.441 7                  22022319.813    22022319.492
        43.200
 126301480.324 8                  24034364.594
        48.100
 109327813.138 8  85190515.74646  20804384.040    20804383.7014   20804382.8584
        48.400          38.2004
 106179728.084 7  82584261.855 7  19849169.150    19849168.836    19849173.773
        42.500          46.300
 121225575.191 7  94461487.49944  23068457.285    23068456.9504   23068458.0874
        43.800          29.6004
 125192405.985 8                  23823314.520
        48.600
 151072222.893 5                  28748089.014
        35.200
 152457808.290 5                  29011755.894
        32.500
 131488169.814 6 102458334.54544  25021357.810    25021357.4084   25021356.8734
        39.400          29.5004
 135641910.159 5 105694998.94443  25811795.969    25811795.6524   25811798.3684
        34.700          23.8004
 128650786.989 7                  24481423.886
        47.500
 124122269.090 6  96539588.307 6  23211484.826    23211485.151    23211494.325
        36.500          41.100
 123830102.200 8                  23564079.994
        48.000
 125152934.206 7  97341211.934 6  23478367.914    23478367.792    23478376.400
        45.300          41.400
 128414344.360 6 100063144.91845  24436430.150    24436429.3234   24436432.4584
        38.900          31.5004
 127466522.577 6  99324579.78446  24256069.055    24256068.2554   24256070.8264
        40.300          36.3004
 124815238.961 7  97078528.954 6  23349267.863    23349267.114    23349272.487
        43.200          40.800
 113063839.317 8  88101707.97948  21515325.415    21515324.9194   21515326.2144
        50.600          50.3004
 111259491.403 8  86535201.079 7  20842645.205    20842645.580    20842651.794
        49.600          47.100
 129378598.226 6 100814492.38943  24619930.537    24619930.1844   24619931.6504
        39.200          23.0004
 130764547.413 6 101705795.684 6  24436481.642    24436482.481    24436490.084
        38.600          36.300
 109454359.028 8  85131205.922 7  20446986.774    20446986.960    20446991.637
        51.900          47.300
 25  1  1 10 19 45.0000000  0 35G10G24E19E08R04S31S35G21R12E13S48S33
                                R02R13E29G23R19G18E07E02E30G15G12E33
                                R20E26R14G08G27R05G32R18G28R17R03
 109903355.916 8  85638998.90448  20913906.533    20913905.9304   20913907.4654
        51.900          52.1004
 115430086.514 7  89945563.11847  21965604.324    21965603.8914   21965605.9204
        44.900          44.8004
 142773959.613 5                  27168979.967
        33.000
 145875846.823 6                  27759241.805
        38.400
 108049818.524 8  84038801.585 7  20177538.241    20177538.631    20177543.506
        51.100          47.200
 198974513.451 7                  37863582.386
        45.900
 200953928.342 7                  38240258.747
        44.000
 129659414.643 6 101033320.34942  24673360.531    24673359.0834   24673360.1184
        36.700          17.8004
 123950391.834 7  96405897.237 6  23203765.919    23203766.562    23203772.143
        47.700          41.300
 140456341.988 6                  26727936.460
        39.300
 412710456.479 5                  78536332.119
        32.700
 202091918.394 7                  38456780.131
        45.200
 128808695.586 7 100184585.206 6  24138688.524    24138688.739    24138693.517
        45.800          39.500
 117574757.065 7                  22017960.196    22017959.543
        43.300
 126283351.894 8                  24030914.826
        48.000
 109344652.026 8  85203636.96046  20807588.444    20807588.1004   20807587.1834
        48.000          38.3004
 106185820.678 6  82589000.543 7  19850307.587    19850307.549    19850312.811
        41.600          46.200
 121279177.361 7  94503255.39144  23078657.087    23078656.7344   23078658.1494
        42.600          29.6004
 125211602.788 8                  23826967.520
        48.400
 151057605.279 5                  28745307.164
        35.000
 152424684.511 5                  29005452.760
        34.200
 131539515.908 6 102498344.48744  25031128.252    25031127.8504   25031127.5784
        39.600          29.2004
 135604522.925 5 105665866.04342  25804681.561    25804681.2314   25804684.4864
        32.600          17.9004
 128627104.893 7                  24476917.198
        47.300
 124065855.301 6  96495711.054 6  23200934.424    23200935.042    23200944.131
        36.700          41.900
 123847253.297 8                  23567343.671
        48.100
 125094756.515 7  97295962.597 6  23467453.970    23467453.549    23467462.372
        44.800          41.500
 128428938.838 6 100074517.21745  24439207.661    24439206.8394   24439209.8954
        37.900          31.6004
 127501329.640 6  99351702.17046  24262692.713    24262691.9184   24262693.8984
        40.800          36.2004
 124775199.768 7  97047387.356 6  23341777.165    23341776.628    23341782.197
        43.100          41.000
 113040804.639 8  88083758.89348  21510942.003    21510941.5034   21510942.8574
        50.500          50.4004
 111312815.855 8  86576675.617 7  20852634.924    20852635.203    20852640.992
        50.200          47.200
 129321485.172 6 100769988.70343  24609062.497    24609062.1624   24609062.9464
        38.900          22.2004
 130833382.150 6 101759333.819 6  24449344.878    24449346.046    24449353.296
        39.800          37.400
 109479624.270 8  85150856.647 7  20451706.171    20451706.776    20451711.497
        52.200          47.400
 25  1  1 10 20  0.0000000  0 35G10G24E19E08R04S31S35G21R12E13S48S33
                                R02R13E29G23R19G18E07E02E30G15G12E33
                                R20E26R14G08G27R05G32R18G28R17R03
 109884953.783 8  85624659.58548  20910404.768    20910404.1694   20910405.6434
        51.600          52.2004
 115461920.802 7  89970369.04947  21971662.351    21971661.9224   21971663.7974
        44.500          44.8004
 142737879.735 5                  27162113.959
        33.100
 145913893.857 6                  27766482.120
        38.700
 108036740.934 8  84028630.138 7  20175096.258    20175096.593    20175101.338
        51.400          47.200
 198974515.810 7                  37863582.614
        45.500
 200953924.538 7                  38240260.097
        44.000
 129618938.136 6 101001780.18642  24665658.070    24665656.6264   24665657.9944
        36.800          17.2004
 123970750.568 7  96421731.833 6  23207577.132    23207577.158    23207584.398
        47.600          41.700
 140501322.116 6                  26736495.300
        39.800
 412710338.365 5                  78536325.867
        32.400
 202091907.573 7                  38456775.829
        44.700
 128852877.280 7 100218948.856 6  24146968.303    24146968.981    24146973.656
        45.500          38.500
 117551644.234 7                  22013631.620    22013631.134
        43.600
 126265283.376 8                  24027476.622
        48.100
 109361566.155 8  85216816.79946  20810806.884    20810806.5314   20810805.7764
        48.100          38.2004
 106192124.966 6  82593903.864 7  19851485.576    19851486.116    19851491.321
        41.700          46.300
 121332837.184 7  94545068.19344  23088868.583    23088868.2534   23088869.4704
        43.200          29.7004
 125230844.151 8                  23830629.071
        48.500
 151043071.474 5                  28742541.767
        35.700
 152391577.595 5                  28999152.925
        32.300
 131590849.937 6 102538345.01444  25040896.812    25040896.3884   25040896.2044
        40.400          29.8004
 135567154.234 5 105636747.51843  25797571.686    25797571.3564   25797573.2514
        34.900          21.9004
 128603502.727 7                  24472426.016
        47.400
 124009535.170 6  96451906.584 6  23190402.980    23190403.816    23190412.535
        36.600          40.900
 123864500.772 8                  23570625.572
        48.000
 125036588.120 7  97250720.463 6  23456543.050    23456542.844    23456549.645
        45.900          41.200
 128443642.923 6 100085974.93045  24442006.017    24442005.1814   24442008.1164
        38.400          31.4004
 127536199.040 6  99378873.12446  24269328.076    24269327.2854   24269329.2854
        40.900          36.3004
 124735196.735 7  97016273.891 6  23334293.595    23334294.490    23334298.972
        44.900          40.700
 113017846.625 8  88065869.54348  21506573.024    21506572.5154   21506574.0814
        50.500          50.4004
 111366259.734 8  86618243.060 7  20862646.283    20862646.839    20862652.861
        49.100          47.300
 129264378.006 6 100725489.59143  24598195.104    24598194.7874   24598195.5804
        39.000          23.2004
 130902196.149 6 101812855.845 6  24462203.533    24462205.123    24462212.985
        39.400          38.100
 109504930.567 8  85170539.330 7  20456433.663    20456434.238    20456438.990
        51.900          47.500
 25  1  1 10 20 15.0000000  0 35G10G24E19E08R04S31S35G21R12E13S48S33
                                R02R13E29G23R19G18E07E02E30G15G12E33
                                R20E26R14G08G27R05G32R18G28R17R03
 109866602.429 8  85610359.83748  20906912.773    20906912.1794   20906913.5124
        52.000          52.1004
 115493888.414 7  89995278.89447  21977745.592    21977745.1724   21977747.0464
        44.700          44.8004
 142701828.448 5                  27155253.000
        33.400
 145951931.320 6                  27773720.337
        38.200
 108023730.184 8  84018510.657 7  20172666.545    20172666.785    20172671.499
        51.300          47.200
 198974515.995 7                  37863582.359
        45.400
 200953917.879 7                  38240255.974
        43.900
 129578516.689 6 100970282.94042  24657965.894    24657964.4594   24657965.9094
        37.100          17.0004
 123991282.155 7  96437700.725 6  23211421.433    23211421.095    23211427.485
        47.300          41.200
 140546333.049 6                  26745060.578
        39.900
 412710218.209 5                  78536306.219
        32.100
 202091894.867 7                  38456776.017
        44.800
 128897039.699 7 100253297.398 6  24155244.569    24155244.510    24155249.632
        45.000          38.400
 117528696.202 7                  22009334.169    22009333.663
        43.400
 126247272.943 8                  24024049.102
        48.000
 109378553.733 8  85230053.87846  20814039.555    20814039.1984   20814038.4374
        48.100          38.2004
 106198638.913 7  82598970.251 7  19852703.936    19852703.981    19852708.970
        42.100          46.300
 121386552.544 7  94586924.26544  23099090.398    23099090.0634   23099091.2024
        43.400          29.4004
 125250128.119 8                  23834298.502
        48.400
 151028619.856 5                  28739791.998
        35.500
 152358485.998 5                  28992856.239
        33.500
 131642169.999 6 102578334.66044  25050662.799    25050662.3754   25050662.2104
        40.000          29.3004
 135529802.474 6 105607642.22144  25790463.660    25790463.2854   25790465.3924
        36.100          25.1004
 128579978.820 7                  24467949.470
        47.200
 123953307.273 6  96408173.718 6  23179888.818    23179888.045    23179896.714
        36.900          41.100
 123881842.771 7                  23573925.922
        47.800
 124978427.726 7  97205484.545 6  23445631.900    23445631.691    23445639.664
        45.600          41.900
 128458454.544 6 100097516.42045  24444824.093    24444823.2574   24444826.9504
        38.500          32.0004
 127571128.528 6  99406090.90145  24275974.635    24275973.8174   24275976.1824
        41.100          35.9004
 124695228.005 7  96985187.079 6  23326816.415    23326816.747    23326822.035
        44.000          40.600
 112994963.464 8  88048038.52348  21502218.590    21502218.0814   21502219.5714
        50.400          50.5004
 111419820.719 8  86659901.560 7  20872680.626    20872680.829    20872686.520
        50.100          47.100
 129207275.254 6 100680993.95743  24587328.560    24587328.2214   24587329.5194
        40.000          23.0004
 130970987.046 6 101866359.904 6  24475059.687    24475060.215    24475067.845
        41.100          39.500
 109530276.358 8  85190252.715 7  20461168.378    20461168.850    20461173.656
        51.900          47.300
 25  1  1 10 20 30.0000000  0 35G10G24E19E08R04S31S35G21R12E13S48S33
                                R02R13E29G23R19G18E07E02E30G15G12E33
                                R20E26R14G08G27R05G32R18G28R17R03
 109848305.277 8  85596102.32248  20903430.774    20903430.1804   20903431.6694
        52.300          52.1004
 115525992.203 7  90020294.80947  21983854.589    21983854.1744   21983856.1864
        45.200          44.7004
 142665809.015 5                  27148398.517
        33.100
 145989962.362 6                  27780957.406
        38.300
 108010789.628 8  84008445.780 7  20170249.977    20170250.450    20170255.181
        51.300          47.300
 198974516.753 7                  37863583.728
        45.800
 200953912.664 7                  38240257.763
        44.000
 129538153.812 6 100938831.35342  24650285.231    24650283.7784   24650285.3964
        36.100          16.5004
 124011990.493 8  96453807.238 6  23215297.928    23215298.394    23215303.876
        48.300          41.300
 140591377.884 6                  26753632.654
        39.300
 412710097.877 5                  78536288.744
        32.600
 202091883.928 7                  38456770.677
        44.800
 128941186.155 7 100287633.595 6  24163517.530    24163517.687    24163522.670
        45.200          39.900
 117505917.054 7                  22005068.340    22005068.070
        43.500
 126229323.824 8                  24020633.500
        48.100
 109395618.121 8  85243350.80046  20817287.004    20817286.6514   20817285.6944
        48.100          38.1004
 106205365.647 7  82604202.173 7  19853961.589    19853961.379    19853966.418
        42.100          46.100
 121440326.435 7  94628825.95544  23109323.329    23109322.9814   23109323.8704
        43.500          29.4004
 125269457.845 8                  23837977.115
        48.500
 151014254.078 5                  28737058.410
        35.100
 152325413.245 5                  28986562.232
        33.800
 131693479.312 6 102618315.89944  25060427.130    25060426.7334   25060426.1904
        40.400          29.6004
 135492471.324 5 105578553.03243  25783359.478    25783359.0724   25783361.4554
        33.200          20.6004
 128556536.730 7                  24463488.601
        47.600
 123897175.768 6  96364516.034 6  23169391.465    23169390.620    23169400.371
        36.100          41.200
 123899282.553 8                  23577244.557
        48.100
 124920279.241 7  97160257.952 6  23434722.836    23434723.190    23434730.739
        44.600          41.400
 128473376.737 6 100109144.06845  24447663.682    24447662.8644   24447666.6324
        39.300          31.9004
 127606121.044 6  99433357.79045  24282634.060    24282633.2334   24282634.9244
        40.600          35.7004
 124655296.900 7  96954129.566 6  23319346.508    23319345.940    23319352.386
        44.400          40.900
 112972158.408 8  88030268.36348  21497879.190    21497878.6904   21497879.9104
        50.800          50.4004
 111473501.559 8  86701653.301 7  20882736.154    20882736.655    20882743.105
        49.500          47.300
 129150180.486 6 100636504.49543  24576463.702    24576463.3544   24576464.9034
        40.300          23.4004
 131039757.934 6 101919848.395 5  24487912.795    24487912.731    24487919.203
        38.300          33.900
 109555664.491 8  85209999.048 7  20465911.454    20465911.640    20465916.523
        51.600          47.100
 25  1  1 10 20 45.0000000  0 35G10G24E19E08R04S31S35G21R12E13S48S33
                                R02R13E29G23R19G18E07E02E30G15G12E33
                                R20E26R14G08G27R05G32R18G28R17R03
 109830065.294 8  85581889.34648  20899959.849    20899959.2374   20899960.7204
        52.100          52.1004
 115558234.778 7  90045418.87347  21989989.752    21989989.3284   21989991.8024
        44.700          44.6004
 142629824.180 5                  27141551.005
        32.600
 146027989.761 6                  27788193.875
        38.300
 107997922.058 8  83998437.651 7  20167846.718    20167847.355    20167852.176
        51.600          47.200
 198974521.462 7                  37863584.314
        45.700
 200953911.143 7                  38240257.494
        43.900
 129497852.749 6 100907427.93242  24642616.241    24642614.7304   24642616.4124
        37.800          17.2004
 124032877.960 8  96470053.100 7  23219207.291    23219207.558    23219214.154
        48.000          42.500
 140636459.286 6                  26762211.388
        39.100
 412709983.073 5                  78536273.916
        32.500
 202091875.883 7                  38456770.709
        44.900
 128985319.426 7 100321959.493 6  24171787.651    24171787.859    24171793.576
        44.800          39.300
 117483309.593 7                  22000834.794    22000834.486
        43.600
 126211438.820 8                  24017230.244
        48.100
 109412762.170 8  85256709.79946  20820549.473    20820549.1294   20820548.1314
        48.300          38.0004
 106212308.134 6  82609601.872 7  19855258.546    19855259.254    19855264.239
        41.900          46.000
 121494161.308 7  94670775.16244  23119567.544    23119567.1914   23119568.5504
        43.900          29.3004
 125288835.982 8                  23841664.465
        48.500
 150999976.964 6                  28734342.019
        37.300
 152292362.322 5                  28980272.896
        31.800
 131744780.536 6 102658290.84444  25070188.602    25070188.1784   25070188.5474
        39.800          29.3004
 135455164.098 5 105549482.41943  25776260.345    25776259.9524   25776262.2184
        34.500          19.9004
 128533179.444 7                  24459044.016
        47.700
 123841143.620 6  96320935.416 6  23158912.885    23158913.112    23158923.194
        37.500          41.500
 123916822.859 8                  23580582.360
        48.200
 124862146.066 7  97115043.246 6  23423817.713    23423817.712    23423825.055
        46.100          41.300
 128488412.181 6 100120859.96545  24450525.168    24450524.3594   24450527.3124
        38.300          31.0004
 127641179.026 6  99460675.70046  24289305.469    24289304.6474   24289306.5414
        41.200          36.0004
 124615406.194 7  96923103.473 6  23311884.104    23311884.077    23311890.299
        44.000          41.000
 112949434.251 8  88012561.24048  21493554.695    21493554.1954   21493555.6504
        50.700          50.4004
 111527304.747 8  86743500.167 7  20892815.638    20892815.848    20892822.236
        49.700          47.300
 129093096.855 6 100592023.73643  24565601.207    24565600.8144   24565602.1744
        40.100          23.1004
 131108511.267 6 101973323.251 6  24500759.533    24500760.329    24500767.655
        40.700          37.300
 109581097.768 8  85229780.476 7  20470662.343    20470662.547    20470667.546
        51.600          47.600
 25  1  1 10 21  0.0000000  0 35G10G24E19E08R04S31S35G21R12E13S48S33
                                R02R13E29G23R19G18E07E02E30G15G12E33
                                R20E26R14G08G27R05G32R18G28R17R03
 109811873.524 8  85567713.94148  20896498.108    20896497.5004   20896498.9374
        52.000          52.2004
 115590606.669 7  90070643.69447  21996150.233    21996149.8094   21996152.0574
        44.600          44.7004
 142593864.821 5                  27134708.074
        33.500
 146066004.312 6                  27795427.764
        39.500
 107985118.033 8  83988478.974 7  20165456.304    20165456.365    20165460.958
        51.700          47.000
 198974520.809 7                  37863584.966
        46.100
 200953904.352 7                  38240257.020
        44.300
 129457604.145 6 100876065.28642  24634956.730    24634955.1654   24634957.8014
        36.200          17.3004
 124053934.950 7  96486430.814 6  23223149.524    23223149.705    23223156.756
        47.500          41.800
 140681567.921 6                  26770795.331
        39.400
 412709863.228 5                  78536255.927
        32.500
 202091862.670 7                  38456768.312
        45.200
 129029430.122 7 100356267.860 6  24180053.767    24180054.391    24180059.688
        45.100          39.200
 117460864.950 7                  21996631.599    21996630.628
        43.000
 126193608.760 8                  24013837.282
        48.400
 109429976.788 8  85270123.79046  20823825.002    20823824.6454   20823824.0244
        48.100          38.0004
 106219457.076 6  82615162.170 7  19856595.716    19856595.701    19856600.718
        41.400          45.900
 121548047.764 7  94712764.57144  23129821.951    23129821.6074   23129822.7184
        43.400          29.2004
 125308253.226 8                  23845359.493
        48.800
 150985779.743 5                  28731640.116
        35.600
 152259324.390 5                  28973986.987
        33.600
 131796064.472 6 102698252.31144  25079948.126    25079947.7204   25079947.8104
        39.100          29.6004
 135417872.017 6 105520423.59843  25769164.078    25769163.6364   25769165.3414
        36.500          23.9004
 128509897.989 7                  24454613.541
        47.600
 123785203.033 6  96277426.142 6  23148452.140    23148452.252    23148460.970
        36.900          41.700
 123934454.542 8                  23583937.734
        48.200
 124804019.508 7  97069833.695 6  23412913.460    23412913.312    23412921.097
        46.300          41.100
 128503551.398 6 100132656.72745  24453406.401    24453405.5704   24453408.0174
        39.000          30.8004
 127676292.965 6  99488037.20045  24295987.156    24295986.3344   24295988.6924
        40.700          35.8004
 124575546.692 7  96892101.636 6  23304426.513    23304427.096    23304433.774
        44.800          41.100
 112926781.872 8  87994910.05248  21489244.141    21489243.6414   21489245.0424
        50.400          50.5004
 111581220.268 8  86785434.413 7  20902915.492    20902915.987    20902922.371
        49.000          47.300
 129036015.499 6 100547544.76143  24554739.207    24554738.7694   24554739.6634
        39.500          22.9004
 131177237.228 6 102026776.843 6  24513602.270    24513602.704    24513610.982
        41.700          37.700
 109606566.805 8  85249589.724 7  20475420.457    20475420.783    20475425.415
        52.000          47.500
 25  1  1 10 21 15.0000000  0 35G10G24E19E08R04S31S35G21R12E13S48S33
                                R02R13E29G23R19G18E07E02E30G15G12E33
                                R20E26R14G08G27R05G32R18G28R17R03
 109793743.835 8  85553586.90348  20893048.336    20893047.7284   20893048.9644
        51.900          52.2004
 115623121.377 7  90095979.80247  22002337.436    22002337.0124   22002339.3654
        44.500          44.6004
 142557944.972 5                  27127872.825
        33.400
 146104019.580 6                  27802661.798
        39.400
 107972391.525 8  83978580.581 7  20163079.245    20163079.680    20163084.394
        51.400          47.300
 198974528.245 7                  37863587.234
        46.100
 200953905.449 7                  38240252.696
        44.200
 129417422.782 6 100844755.17742  24627311.055    24627309.4864   24627311.0544
        36.200          16.5004
 124075175.183 8  96502951.016 6  23227125.594    23227125.948    23227132.816
        48.100          41.600
 140726717.381 6                  26779386.773
        40.200
 412709751.575 5                  78536240.857
        32.600
 202091858.104 7                  38456768.035
        45.200
 129073532.314 7 100390569.568 6  24188318.697    24188319.090    24188324.444
        45.300          39.800
 117438597.655 7                  21992460.719    21992460.653
        42.800
 126175847.347 8                  24010457.504
        48.600
 109447275.791 8  85283603.53146  20827116.933    20827116.5624   20827115.8584
        48.300          38.0004
 106226826.146 6  82620893.660 7  19857973.972    19857973.247    19857978.080
        41.700          46.100
 121601999.218 7  94754804.62444  23140088.577    23140088.2204   23140089.4214
        43.300          29.3004
 125327723.224 8                  23849064.581
        49.100
 150971675.973 5                  28728956.245
        34.800
 152226313.538 5                  28967703.994
        33.900
 131847344.640 6 102738210.82744  25089706.070    25089705.6414   25089706.3124
        40.000          29.5004
 135380609.014 5 105491387.47243  25762072.893    25762072.4284   25762074.6944
        34.700          23.0004
 128486706.287 8                  24450200.432
        48.000
 123729367.494 5  96233998.498 6  23138010.198    23138009.846    23138019.034
        35.300          41.300
 123952191.284 8                  23587312.783
        48.600
 124745913.722 7  97024640.322 6  23402012.520    23402012.533    23402020.328
        45.800          41.100
 128518807.954 6 100144544.92145  24456309.070    24456308.2344   24456311.1244
        38.300          30.9004
 127711476.207 6  99515452.71145  24302682.353    24302681.5404   24302683.9184
        41.200          35.8004
 124535732.178 7  96861134.815 6  23296979.501    23296979.054    23296985.482
        44.000          40.800
 112904214.966 8  87977325.46848  21484949.755    21484949.2554   21484950.6834
        50.600          50.6004
 111635261.764 8  86827466.668 7  20913039.746    20913040.389    20913046.393
        49.900          47.600
 128978950.564 6 100503078.56043  24543880.078    24543879.6094   24543880.3594
        39.300          22.7004
 131245949.473 6 102080219.748 6  24526442.044    24526442.641    24526451.837
        36.600          36.900
 109632085.403 8  85269437.514 7  20480187.466    20480187.640    20480192.464
        51.700          47.200
 25  1  1 10 21 30.0000000  0 35G10G24E19E08R04S31S35G21R12E13S48S33
                                R02R13E29G23R19G18E07E02E30G15G12E33
                                R20E26R14G08G27R05G32R18G28R17R03
 109775661.266 8  85539496.58048  20889607.125    20889606.5174   20889607.9754
        51.800          52.1004
 115655763.434 7  90121415.16247  22008549.167    22008548.7434   22008550.9594
        45.200          44.4004
 142522049.324 5                  27121041.910
        33.100
 146142020.375 6                  27809892.973
        39.200
 107959726.898 8  83968730.316 7  20160714.383    20160714.930    20160719.281
        52.000          47.100
 198974529.033 7                  37863586.670
        46.100
 200953900.026 7                  38240254.610
        44.300
 129377293.203 6 100813485.41242  24619674.698    24619673.1694   24619674.4264
        36.300          16.6004
 124096583.052 8  96519601.610 7  23231133.824    23231134.073    23231140.369
        48.200          42.300
 140771892.289 6                  26787983.343
        40.200
 412709632.210 5                  78536228.784
        32.900
 202091846.587 7                  38456767.038
        45.200
 129117610.554 7 100424852.645 6  24196579.363    24196579.465    24196583.885
        45.300          39.200
 117416492.642 7                  21988322.186    21988321.790
        43.900
 126158139.405 8                  24007087.457
        48.400
 109464644.053 8  85297137.24346  20830422.093    20830421.7184   20830420.9334
        48.200          37.7004
 106234399.972 6  82626784.438 7  19859388.610    19859389.066    19859393.939
        41.500          46.100
 121656000.182 7  94796883.26244  23150364.650    23150364.2704   23150365.5894
        43.400          28.9004
 125347230.645 8                  23852776.798
        48.700
 150957650.937 5                  28726287.503
        35.200
 152193314.766 5                  28961424.755
        34.500
 131898605.902 6 102778154.59644  25099461.081    25099460.6574   25099460.9914
        39.600          29.2004
 135343360.433 6 105462362.59643  25754985.631    25754985.1534   25754986.7474
        36.400          23.6004
 128463589.450 7                  24445801.395
        47.700
 123673622.473 6  96190641.340 6  23127585.539    23127585.913    23127595.002
        36.500          41.100
 123970017.888 8                  23590704.990
        48.000
 124687814.322 7  96979451.856 6  23391113.779    23391113.910    23391120.873
        46.200          41.400
 128534166.476 6 100156512.55945  24459231.935    24459231.1174   24459233.6024
        39.600          31.1004
 127746713.238 6  99542910.13545  24309387.249    24309386.4314   24309389.3354
        40.600          35.6004
 124495947.503 7  96830191.167 6  23289536.477    23289536.736    23289542.127
        44.700          40.100
 112881718.354 8  87959795.65348  21480668.926    21480668.4304   21480669.6904
        50.200          50.5004
 111689413.207 8  86869584.432 7  20923183.589    20923184.135    20923190.438
        48.800          47.100
 128921887.147 6 100458613.54343  24533020.999    24533020.5974   24533021.9234
        38.600          23.0004
 131314632.418 6 102133639.827 6  24539279.045    24539278.488    24539286.543
        39.400          37.400
 109657638.063 8  85289311.800 7  20484960.923    20484961.280    20484965.966
        52.100          47.400
 25  1  1 10 21 45.0000000  0 35G10G24E19E08R04S31S35G21R12E13S48S33
                                R02R13E29G23R19G18E07E02E30G15G12E33
                                R20E26R14G08G27R05G32R18G28R17R03
 109757635.113 8  85525450.22448  20886176.984    20886176.3724   20886177.7354
        51.900          52.2004
 115688541.660 7  90146956.62247  22014786.588    22014786.1464   22014788.4884
        44.900          44.6004
 142486187.178 5                  27114217.835
        33.100
 146180015.740 6                  27817123.308
        39.000
 107947133.313 8  83958935.323 7  20158362.661    20158362.972    20158367.480
        51.800          47.200
 198974532.814 7                  37863589.420
        45.900
 200953897.332 7                  38240248.775
        43.700
 129337224.781 5 100782263.31342  24612050.194    24612048.6924   24612050.0414
        35.200          17.1004
 124118167.707 7  96536389.655 6  23235174.013    23235173.661    23235180.350
        47.000          41.000
 140817101.639 6                  26796586.583
        38.800
 412709515.055 5                  78536200.747
        32.400
 202091837.953 7                  38456767.020
        45.200
 129161674.299 7 100459124.450 6  24204836.695    24204837.009    24204841.702
        44.800          39.600
 117394559.229 7                  21984214.454    21984213.993
        43.200
 126140494.022 8                  24003729.850
        48.100
 109482090.771 7  85310732.08046  20833742.137    20833741.7624   20833740.9164
        47.400          37.8004
 106242187.788 6  82632841.615 7  19860844.706    19860844.829    19860849.837
        41.600          46.000
 121710059.480 7  94839007.35144  23160651.764    23160651.3714   23160652.7674
        43.300          29.1004
 125366784.503 8                  23856497.614
        48.700
 150943713.911 5                  28723635.549
        35.500
 152160337.429 5                  28955149.856
        35.400
 131949857.242 6 102818090.64544  25109213.841    25109213.4174   25109213.4264
        39.800          29.4004
 135306135.931 5 105433356.40443  25747901.583    25747901.1234   25747902.8164
        35.700          23.1004
 128440556.756 7                  24441418.390
        47.600
 123617977.962 6  96147362.300 6  23117180.877    23117179.920    23117188.602
        36.100          40.800
 123987943.451 8                  23594116.177
        48.100
 124629730.936 7  96934275.893 6  23380217.662    23380217.121    23380225.331
        45.000          41.800
 128549635.829 6 100168566.55445  24462174.978    24462174.1654   24462177.6334
        37.900          31.5004
 127782012.807 6  99570416.29345  24316105.219    24316104.4154   24316106.2854
        40.300          35.4004
 124456201.647 7  96799277.732 6  23282101.297    23282100.777    23282106.663
        44.100          39.700
 112859301.167 8  87942327.72848  21476403.143    21476402.6524   21476403.8164
        50.100          50.6004
 111743683.376 8  86911794.514 7  20933350.874    20933351.085    20933357.822
        49.100          47.400
 128864834.684 6 100414157.07843  24522164.891    24522164.4854   24522165.2794
        39.300          22.9004
 131383294.815 6 102187043.939 6  24552110.874    24552110.323    24552117.720
        40.200          38.000
 109683233.629 8  85309219.454 7  20489742.221    20489742.692    20489747.400
        51.600          47.300
 25  1  1 10 22  0.0000000  0 35G10G24E19E08R04S31S35G21R12E13S48S33
                                R02R13E29G23R19G18E07E02E30G15G12E33
                                R20E26R14G08G27R05G32R18G28R17R03
 109739664.641 8  85511447.26148  20882757.280    20882756.6634   20882758.0664
        51.500          52.0004
 115721454.887 7  90172603.28847  22021050.203    22021049.7564   22021051.7064
        44.600          44.3004
 142450357.632 5                  27107400.619
        31.700
 146218004.701 6                  27824352.467
        38.200
 107934609.862 8  83949194.843 7  20156024.110    20156024.528    20156028.938
        52.200          47.300
 198974537.056 7                  37863589.062
        46.000
 200953895.099 7                  38240252.012
        44.100
 129297217.067 5 100751088.49242  24604436.239    24604434.7644   24604436.7014
        35.500          16.8004
 124139928.100 7  96553314.338 6  23239247.741    23239248.230    23239254.629
        47.400          41.800
 140862344.340 6                  26805196.227
        39.400
 412709399.908 5                  78536193.834
        32.900
 202091830.248 7                  38456763.250
        45.300
 129205722.240 7 100493383.980 6  24213090.473    24213091.105    24213096.053
        44.800          39.000
 117372797.231 7                  21980138.722    21980138.887
        43.600
 126122910.284 8                  24000383.519
        48.100
 109499615.103 7  85324387.40246  20837076.935    20837076.5604   20837075.6734
        47.800          37.4004
 106250188.839 6  82639064.639 7  19862340.427    19862340.735    19862345.555
        41.500          46.100
 121764175.908 7  94881175.95544  23170950.096    23170949.7074   23170950.8474
        42.800          28.8004
 125386383.743 8                  23860227.314
        48.400
 150929863.832 5                  28721000.069
        35.200
 152127381.024 5                  28948878.536
        34.200
 132001097.662 6 102858018.17744  25118964.541    25118964.1124   25118964.0134
        39.400          29.3004
 135268934.837 5 105404368.53043  25740823.225    25740822.7784   25740824.0454
        34.500          22.6004
 128417607.434 7                  24437051.240
        47.400
 123562433.032 6  96104160.695 6  23106792.442    23106792.823    23106801.416
        36.100          40.600
 124005967.024 7                  23597545.860
        47.900
 124571662.834 7  96889111.788 6  23369324.009    23369323.841    23369330.804
        46.000          41.100
 128565214.918 6 100180706.06045  24465140.135    24465139.2994   24465142.9454
        39.000          31.4004
 127817373.609 6  99597970.16545  24322833.744    24322832.9534   24322835.1064
        39.600          34.9004
 124416493.878 7  96768393.914 6  23274672.369    23274672.629    23274679.026
        43.800          40.100
 112836962.490 8  87924920.98148  21472152.219    21472151.7374   21472152.9264
        50.300          50.4004
 111798070.711 8  86954095.715 7  20943539.015    20943539.475    20943545.846
        48.600          47.300
 128807792.647 6 100369708.72343  24511309.553    24511309.1424   24511310.5094
        39.400          23.0004
 131451935.176 6 102240430.869 5  24564937.028    24564937.096    24564944.547
        36.900          34.900
 109708871.608 8  85329160.089 7  20494531.922    20494532.104    20494536.834
        51.700          47.300
 25  1  1 10 22 15.0000000  0 34G10G24E19E08R04S31S35G21R12E13S48S33
                                R02R13E29G23R19G18E07E02E30G15G12E33
                                R20E26R14G08G27R05G32R18G28R03
 109721747.896 8  85497486.15248  20879347.893    20879347.2764   20879348.6284
        51.900          52.0004
 115754500.697 7  90198353.27847  22027338.296    22027337.8364   22027340.1404
        44.800          44.3004
 142414558.672 5                  27100588.335
        32.300
 146255985.069 6                  27831580.010
        38.500
 107922154.367 8  83939507.232 7  20153698.179    20153698.457    20153703.108
        52.000          47.300
 198974541.370 7                  37863589.908
        45.800
 200953892.703 7                  38240252.518
        44.100
 129257268.179 5 100719959.56142  24596835.698    24596834.2454   24596834.6344
        35.300          16.5004
 124161861.833 7  96570373.888 6  23243354.027    23243353.882    23243360.706
        47.200          41.700
 140907618.114 6                  26813811.545
        39.500
 412709285.630 5                  78536180.790
        32.900
 202091821.429 7                  38456762.870
        45.000
 129249752.402 7 100527629.654 6  24221342.560    24221342.926    24221348.593
        45.700          40.300
 117351204.654 7                  21976095.696    21976094.353
        42.500
 126105386.061 8                  23997049.164
        48.200
 109517215.014 7  85338101.62246  20840426.004    20840425.6244   20840424.8384
        47.800          37.4004
 106258400.456 6  82645451.458 7  19863875.568    19863875.807    19863880.685
        41.300          45.800
 121818347.069 7  94923387.21744  23181258.128    23181257.7394   23181259.4404
        43.500          28.8004
 125406026.159 8                  23863965.037
        48.600
 150916098.998 5                  28718380.407
        35.600
 152094443.575 5                  28942609.819
        33.300
 132052325.122 6 102897935.60544  25128713.227    25128712.8164   25128712.3784
        39.400          28.9004
 135231755.333 5 105375397.41143  25733747.237    25733746.7724   25733749.0984
        35.100          21.9004
 128394739.686 7                  24432699.942
        47.400
 123506986.470 6  96061035.612 6  23096424.940    23096424.615    23096432.220
        36.700          40.500
 124024086.468 8                  23600994.033
        48.300
 124513608.976 7  96843958.794 6  23358432.707    23358432.856    23358440.552
        46.100          41.000
 128580901.442 6 100192929.28545  24468125.479    24468124.6344   24468127.9634
        38.000          31.1004
 127852793.235 6  99625569.87145  24329574.130    24329573.3434   24329575.1924
        41.700          35.1004
 124376822.117 7  96737538.080 6  23267251.529    23267252.235    23267257.894
        45.900          40.400
 112814700.226 8  87907573.77548  21467915.639    21467915.1484   21467916.5834
        50.300          50.4004
 111852572.782 8  86996486.155 7  20953749.636    20953749.679    20953756.483
        48.500          47.600
 128750759.220 6 100325267.07843  24500456.130    24500455.7194   24500457.7384
        38.700          23.2004
 109734549.312 8  85349131.614 7  20499328.774    20499328.912    20499333.794
        51.700          47.500
 25  1  1 10 22 30.0000000  0 34G10G24E19E08R04S31S35G21R12E13S48S33
                                R02R13E29G23R19G18E07E02E30G15G12E33
                                R20E26R14G08G27R05G32R18G28R03
 109703885.043 8  85483567.04148  20875948.372    20875947.7554   20875949.4484
        51.500          52.0004
 115787678.722 7  90224206.26847  22033651.738    22033651.2734   22033653.6734
        44.600          44.4004
 142378790.260 5                  27093781.294
        32.100
 146293956.823 6                  27838805.575
        39.200
 107909766.531 8  83929872.243 7  20151384.545    20151385.046    20151389.589
        52.000          47.200
 198974545.631 7                  37863589.720
        45.500
 200953889.755 7                  38240250.850
        43.700
 129217378.536 6 100688876.76443  24589243.630    24589242.1684   24589243.5944
        36.500          18.2004
 124183969.200 7  96587568.708 6  23247492.125    23247491.998    23247499.425
        46.900          41.100
 140952922.845 6                  26822432.685
        39.800
 412709170.731 5                  78536158.915
        32.400
 202091813.217 7                  38456758.685
        44.700
 129293764.972 7 100561861.628 6  24229590.253    24229590.713    24229595.871
        44.900          39.900
 117329781.956 7                  21972083.025    21972083.214
        43.100
 126087921.337 8                  23993725.634
        48.300
 109534890.547 7  85351874.76046  20843789.300    20843788.9074   20843788.3844
        47.700          37.4004
 106266822.732 6  82652002.104 7  19865450.740    19865450.069    19865455.134
        41.600          46.100
 121872572.676 7  94965640.90544  23191577.167    23191576.7784   23191578.2094
        43.000          28.6004
 125425711.603 8                  23867711.329
        48.600
 150902419.462 6                  28715778.613
        36.800
 152061525.448 5                  28936346.005
        32.400
 132103539.476 6 102937842.81244  25138458.730    25138458.3194   25138458.0704
        39.100          28.6004
 135194597.959 5 105346443.57843  25726677.072    25726676.5814   25726678.3404
        33.600          22.9004
 128371953.618 7                  24428363.686
        47.700
 123451638.247 6  96017986.867 6  23086073.616    23086073.860    23086082.028
        37.100          40.500
 124042301.759 8                  23604460.261
        48.300
 124455569.684 7  96798817.117 6  23347544.446    23347544.455    23347552.236
        45.800          41.200
 128596695.095 6 100205235.99645  24471130.339    24471129.4854   24471133.3504
        37.600          31.4004
 127888271.266 6  99653215.08045  24336325.000    24336324.1914   24336326.4754
        40.900          35.4004
 124337186.037 7  96706710.016 6  23259836.165    23259836.720    23259843.501
        44.700          40.900
 112792514.340 8  87890286.08448  21463693.755    21463693.2644   21463694.7454
        50.300          50.5004
 111907188.902 8  87038965.295 7  20963981.051    20963980.930    20963987.953
        49.000          47.500
 128693734.772 6 100280832.44043  24489604.825    24489604.4234   24489606.2284
        39.200          23.5004
 109760266.431 8  85369133.787 7  20504132.568    20504132.933    20504137.887
        51.600          47.600
