     2.11           OBSERVATION DATA    M (MIXED)           RINEX VERSION / TYPE
teqc  2019Feb25                         20260317 16:20:09UTCPGM / RUN BY / DATE
Linux 2.4.21-27.ELsmp|Opteron|gcc -static|Linux 64|=+       COMMENT
BIT 2 OF LLI FLAGS DATA COLLECTED UNDER A/S CONDITION       COMMENT
-Unknown-                                                   MARKER NAME
-Unknown-           -Unknown-                               OBSERVER / AGENCY
-Unknown-           -Unknown-           -Unknown-           REC # / TYPE / VERS
-Unknown-           -Unknown-                               ANT # / TYPE
        0.0000        0.0000        0.0000                  APPROX POSITION XYZ
        0.0000        0.0000        0.0000                  ANTENNA: DELTA H/E/N
     1     1                                                WAVELENGTH FACT L1/2
     7    L1    L2    C1    P1    P2    S1    S2            # / TYPES OF OBSERV
 SNR is mapped to RINEX snr flag value [0-9]                COMMENT
  L1 & L2: min(max(int(snr_dBHz/6), 0), 9)                  COMMENT
  2025     1     1    15     0    0.0000000     GPS         TIME OF FIRST OBS
    18                                                      LEAP SECONDS
                                                            END OF HEADER
 25  1  1 15  0  0.0000000  0 28G09G26E19E10S31S35G03R06S48S33E27E11
                                E29E04G16E21G04R15E06R07R23R05G32R16
                                E12G29G28G31
 131328075.190 6 102333573.75844  24990902.639    24990902.0314   24990905.8134
        36.800          28.6004
 106370998.048 8  82886520.61448  20241723.545    20241722.8704   20241727.0074
        50.300          50.8004
 121014379.129 7                  23028269.923
        44.100
 144723990.206 6                  27540060.345
        39.300
 198981219.568 7                  37864865.550
        45.200
 200935524.565 7                  38236763.682
        43.300
 108758524.275 8  84746916.52348  20696055.788    20696055.5024   20696058.6274
        49.100          50.2004
 105458027.928 6                  19762789.676    19762788.912
        41.000
 412730707.854 5                  78539819.211
        32.200
 202105148.761 7                  38459307.147
        44.900
 136831154.198 7                  26038099.983
        44.000
 144902102.958 5                  27573954.103
        35.700
 132121119.862 7                  25141814.331
        45.200
 136986052.535 7                  26067580.936
        42.700
 112646844.736 7  87776824.84445  21435963.108    21435962.1344   21435965.1774
        46.000          34.1004
 125914544.735 8                  23960733.629
        49.000
 118359287.415 7  92228019.35244  22523024.313    22523023.9114   22523025.9604
        43.400          29.5004
 113601092.621 8  88356452.639 7  21258891.554    21258891.961    21258897.927
        51.300          46.100
 149042005.156 6                  28361752.892
        36.900
 124249127.694 7  96638233.325 6  23210776.835    23210777.507    23210783.673
        46.200          40.300
 131434283.414 6                  24570254.410    24570254.330
        40.100
 109762615.813 8  85370924.456 7  20533369.251    20533369.337    20533376.762
        51.500          47.000
 125405114.423 6  97718247.89146  23863820.607    23863820.0754   23863831.2714
        41.800          36.1004
 102064774.090 8  79383758.481 8  19106733.697    19106733.775    19106740.379
        52.300          49.200
 147124787.182 6                  27996929.774
        36.300
 132205496.202 6 103017401.66845  25157821.152    25157820.5314   25157824.4094
        38.800          30.1004
 117250389.104 7  91363940.29545  22312008.357    22312007.9464   22312009.3044
        45.200          33.8004
 107850277.380 8  84039177.48748  20523225.955    20523225.4824   20523225.3664
        50.100          49.2004
 25  1  1 15  0 15.0000000  0 28G09G26E19E10S31S35G03R06S48S33E27E11
                                E29E04G16E21G04R15E06R07R23R05G32R16
                                E12G29G28G31
 131279573.777 6 102295780.46844  24981673.071    24981672.4594   24981676.5234
        36.800          28.4004
 106362735.828 8  82880082.52848  20240151.205    20240150.5264   20240154.7584
        50.200          50.8004
 121011363.255 7                  23027696.226
        43.700
 144753199.510 6                  27545618.788
        39.100
 198981220.070 7                  37864868.832
        45.300
 200935491.999 7                  38236760.780
        43.700
 108755998.054 8  84744948.01548  20695574.924    20695574.6384   20695577.9094
        49.100          50.2004
 105427177.839 6                  19757008.515    19757007.882
        41.200
 412731151.899 5                  78539847.029
        32.600
 202105171.992 7                  38459314.414
        44.900
 136859832.091 7                  26043557.247
        43.600
 144916146.283 5                  27576626.316
        35.300
 132145266.821 7                  25146409.561
        44.900
 136954206.741 7                  26061521.205
        42.800
 112600441.187 7  87740666.30745  21427132.787    21427131.8084   21427134.7604
        46.600          34.2004
 125902491.078 8                  23958439.918
        48.900
 118318153.829 7  92195967.20244  22515196.921    22515196.5154   22515198.6534
        43.500          29.5004
 113652635.844 8  88396541.740 7  21268537.100    21268537.385    21268543.687
        51.400          46.200
 149006674.323 6                  28355029.672
        36.200
 124190831.252 7  96592891.645 6  23199886.571    23199887.134    23199892.531
        46.100          39.300
 131439616.512 6                  24571251.515    24571251.162
        40.300
 109798933.071 8  85399171.160 7  20540162.677    20540163.096    20540170.847
        51.200          47.200
 125445936.751 6  97750057.18746  23871589.255    23871588.7194   23871599.6964
        41.500          36.1004
 102062041.325 8  79381633.005 8  19106221.848    19106222.190    19106228.812
        52.200          49.000
 147162243.726 6                  28004057.408
        36.600
 132193713.395 6 103008220.34045  25155579.227    25155578.6154   25155582.5834
        39.600          30.8004
 117286895.673 7  91392386.93245  22318955.378    22318954.9814   22318956.3494
        45.100          33.7004
 107872860.609 8  84056774.81148  20527523.251    20527522.7734   20527522.8144
        49.900          49.3004
 25  1  1 15  0 30.0000000  0 28G09G26E19E10S31S35G03R06S48S33E27E11
                                E29E04G16E21G04R15E06R07R23R05G32R16
                                E12G29G28G31
 131231064.395 6 102257980.91944  24972441.826    24972441.2324   24972444.9434
        36.800          27.5004
 106354632.900 8  82873768.58348  20238609.566    20238608.8874   20238612.7914
        50.300          50.9004
 121008396.414 7                  23027131.607
        44.000
 144782475.253 6                  27551190.184
        39.400
 198981224.517 7                  37864867.790
        45.500
 200935463.124 7                  38236758.079
        44.100
 108753633.949 8  84743105.83848  20695125.104    20695124.8184   20695128.0644
        49.300          50.2004
 105396450.280 6                  19751249.671    19751249.519
        41.000
 412730000.667 5                  78539863.431
        33.000
 202105199.012 7                  38459315.961
        45.100
 136888590.587 7                  26049029.840
        43.900
 144930288.717 5                  27579317.886
        34.500
 132169458.678 7                  25151013.071
        45.300
 136922369.534 7                  26055462.140
        42.900
 112554144.716 7  87704591.19845  21418322.904    21418321.9214   21418324.7244
        46.400          34.3004
 125890545.393 8                  23956166.477
        49.100
 118277045.694 7  92163934.88344  22507374.269    22507373.8674   22507376.0144
        43.900          29.9004
 113704260.271 8  88436694.021 7  21278197.469    21278198.223    21278204.578
        51.000          46.200
 148971334.588 6                  28348304.636
        36.700
 124132539.271 7  96547553.452 6  23188997.412    23188997.369    23189003.799
        46.100          39.800
 131445123.232 6                  24572280.683    24572281.853
        40.600
 109835379.283 8  85427518.158 7  20546980.690    20546980.948    20546989.021
        50.900          47.200
 125486812.732 7  97781908.28546  23879368.157    23879367.6164   23879378.3564
        42.400          36.1004
 102059489.362 8  79379648.158 8  19105744.127    19105744.536    19105750.961
        52.500          49.100
 147199727.482 6                  28011190.273
        36.000
 132182050.216 6 102999132.21345  25153359.168    25153358.5784   25153363.0804
        39.800          31.0004
 117323436.509 7  91420860.27945  22325909.127    22325908.7474   22325909.9064
        45.400          33.9004
 107895522.369 8  84074433.31448  20531835.816    20531835.3474   20531835.2024
        49.800          49.3004
 25  1  1 15  0 45.0000000  0 28G09G26E19E10S31S35G03R06S48S33E27E11
                                E29E04G16E21G04R15E06R07R23R05G32R16
                                E12G29G28G31
 131182539.536 5 102220169.31844  24963208.293    24963207.6854   24963210.5824
        35.800          27.5004
 106346681.564 8  82867572.77248  20237096.340    20237095.6654   20237099.6874
        50.300          51.1004
 121005471.133 7                  23026574.909
        44.000
 144811809.522 6                  27556772.047
        39.600
 198981226.244 7                  37864868.067
        45.300
 200935432.062 7                  38236748.997
        43.700
 108751424.344 8  84741384.06348  20694704.707    20694704.4214   20694707.6024
        49.500          50.4004
 105365837.641 6                  19745512.590    19745512.432
        41.000
 412730446.262 5                  78539896.798
        32.600
 202105223.359 7                  38459320.893
        44.700
 136917421.789 7                  26054516.065
        43.800
 144944522.331 5                  27582026.226
        35.100
 132193687.815 7                  25155624.007
        45.200
 136890533.364 7                  26049404.591
        43.100
 112507948.256 7  87668594.00845  21409531.787    21409530.8044   21409533.8854
        46.000          34.4004
 125878700.106 8                  23953912.585
        49.100
 118235955.514 7  92131916.53545  22499555.272    22499554.8614   22499556.7164
        43.800          30.0004
 113755957.454 8  88476902.887 7  21287872.317    21287872.650    21287879.023
        51.100          46.100
 148935978.359 6                  28341576.338
        37.400
 124074244.082 7  96502212.699 6  23178107.052    23178107.452    23178114.334
        46.200          39.800
 131450799.867 6                  24573342.449    24573342.428
        40.200
 109871946.691 8  85455959.404 7  20553821.794    20553821.998    20553829.781
        51.300          47.100
 125527734.689 7  97813795.20946  23887155.374    23887154.8384   23887165.8614
        42.500          36.0004
 102057110.087 8  79377797.608 8  19105298.696    19105299.100    19105305.664
        52.400          49.100
 147237230.420 6                  28018326.920
        36.200
 132170499.361 6 102990131.61045  25151161.042    25151160.4394   25151164.9604
        38.900          30.9004
 117360003.786 7  91449354.22045  22332867.466    22332867.0864   22332868.4524
        45.800          33.8004
 107918254.779 8  84092146.86948  20536161.729    20536161.2604   20536161.0414
        50.200          49.5004
 25  1  1 15  1  0.0000000  0 28G09G26E19E10S31S35G03R06S48S33E27E11
                                E29E04G16E21G04R15E06R07R23R05G32R16
                                E12G29G28G31
 131134004.109 5 102182349.53244  24953972.502    24953971.9034   24953975.1074
        35.500          28.2004
 106338886.536 8  82861498.71948  20235613.015    20235612.3404   20235616.3344
        50.100          51.1004
 121002592.209 7                  23026027.156
        44.000
 144841206.774 6                  27562365.945
        39.100
 198981229.257 7                  37864864.995
        45.400
 200935401.926 7                  38236740.282
        43.600
 108749373.985 8  84739786.36948  20694314.228    20694313.9334   20694317.4404
        48.900          50.4004
 105335345.149 6                  19739798.592    19739798.566
        41.100
 412730893.685 5                  78539917.493
        32.700
 202105249.241 7                  38459323.987
        44.900
 136946329.947 7                  26060017.393
        43.600
 144958851.881 5                  27584752.869
        35.500
 132217958.965 7                  25160242.589
        45.000
 136858703.020 7                  26043347.339
        43.400
 112461856.872 7  87632678.70745  21400761.143    21400760.1694   21400762.9454
        46.400          34.4004
 125866959.851 8                  23951678.397
        48.900
 118194888.227 7  92099916.04145  22491740.170    22491739.7554   22491742.0414
        43.900          30.1004
 113807731.985 8  88517171.979 7  21297561.291    21297561.547    21297567.817
        51.200          46.200
 148900610.453 6                  28334846.629
        37.300
 124015950.698 7  96456873.352 6  23167217.739    23167218.054    23167224.055
        46.000          39.800
 131456652.884 6                  24574435.402    24574435.574
        40.300
 109908639.788 8  85484498.422 7  20560685.285    20560685.898    20560693.958
        50.600          47.100
 125568707.266 6  97845721.57545  23894952.318    23894951.7514   23894963.0434
        41.900          35.9004
 102054908.178 8  79376085.010 8  19104886.647    19104886.896    19104893.371
        52.300          49.100
 147274757.087 5                  28025468.347
        35.800
 132159065.585 6 102981222.21545  25148985.288    25148984.7034   25148988.8944
        38.900          30.5004
 117396602.093 7  91477872.33045  22339831.862    22339831.4734   22339832.9294
        45.500          33.7004
 107941062.302 8  84109918.93348  20540501.764    20540501.2954   20540501.2074
        49.700          49.4004
 25  1  1 15  1 15.0000000  0 28G09G26E19E10S31S35G03R06S48S33E27E11
                                E29E04G16E21G04R15E06R07R23R05G32R16
                                E12G29G28G31
 131085455.541 6 102144519.52244  24944734.115    24944733.5304   24944736.6154
        36.400          28.3004
 106331245.332 8  82855544.52648  20234158.865    20234158.1954   20234162.2654
        50.100          51.1004
 120999757.132 7                  23025487.650
        44.200
 144870664.216 6                  27567971.773
        39.100
 198981231.466 7                  37864863.631
        45.500
 200935370.951 7                  38236739.352
        44.100
 108747480.371 8  84738310.83048  20693954.287    20693954.0064   20693957.0764
        49.100          50.4004
 105304970.866 6                  19734106.560    19734106.338
        41.100
 412731340.131 5                  78539936.975
        32.700
 202105273.317 7                  38459332.376
        45.400
 136975312.548 7                  26065532.658
        43.900
 144973274.596 5                  27587497.406
        35.900
 132242269.583 7                  25164868.912
        45.300
 136826876.045 7                  26037290.484
        43.300
 112415868.348 7  87596843.54345  21392009.443    21392008.4514   21392011.5914
        46.400          34.3004
 125855321.988 8                  23949463.775
        48.900
 118153841.372 7  92067931.43244  22483929.024    22483928.6134   22483931.1364
        43.300          29.9004
 113859580.644 8  88557498.719 7  21307263.858    21307264.096    21307270.679
        50.800          46.100
 148865228.251 6                  28328113.787
        37.300
 123957656.995 7  96411533.840 6  23156327.826    23156328.209    23156333.476
        45.400          40.100
 131462676.379 6                  24575561.709    24575561.524
        39.900
 109945456.015 8  85513133.207 7  20567573.818    20567573.610    20567581.210
        51.300          47.100
 125609727.865 6  97877685.37446  23902758.339    23902757.7814   23902769.3384
        41.900          36.1004
 102052881.038 8  79374508.360 8  19104507.061    19104507.394    19104513.927
        52.600          49.100
 147312304.589 6                  28032613.963
        36.900
 132147746.678 6 102972402.33745  25146831.816    25146831.2354   25146835.0474
        38.500          30.8004
 117433228.680 7  91506412.47145  22346801.520    22346801.1234   22346802.7664
        45.100          33.7004
 107963942.312 8  84127747.50848  20544855.821    20544855.3524   20544855.1684
        49.700          49.4004
 25  1  1 15  1 30.0000000  0 28G09G26E19E10S31S35G03R06S48S33E27E11
                                E29E04G16E21G04R15E06R07R23R05G32R16
                                E12G29G28G31
 131036894.391 6 102106679.61144  24935492.611    24935492.0174   24935495.2644
        36.500          28.4004
 106323758.473 8  82849710.62148  20232734.113    20232733.4434   20232737.5754
        50.100          51.2004
 120996966.537 7                  23024956.530
        44.000
 144900182.012 6                  27573588.362
        39.000
 198981232.922 7                  37864869.114
        45.500
 200935339.103 7                  38236730.587
        43.700
 108745743.917 8  84736957.72748  20693624.091    20693623.8054   20693626.6464
        49.300          50.4004
 105274715.256 6                  19728436.665    19728436.477
        41.300
 412731786.605 5                  78539969.685
        32.800
 202105297.958 7                  38459334.049
        44.900
 137004369.901 7                  26071062.070
        43.800
 144987790.751 5                  27590259.766
        34.300
 132266620.178 7                  25169502.427
        45.200
 136795052.929 7                  26031235.019
        43.300
 112369983.621 7  87561089.26345  21383278.339    21383277.3474   21383279.9074
        46.300          34.5004
 125843787.226 8                  23947268.885
        49.100
 118112815.670 7  92035963.34745  22476122.634    22476122.2234   22476124.1884
        43.900          30.2004
 113911503.389 8  88597883.080 7  21316980.494    21316980.940    21316987.417
        50.800          46.200
 148829832.343 6                  28321378.019
        37.400
 123899363.781 7  96366194.608 6  23145437.247    23145438.033    23145444.002
        46.100          39.300
 131468870.923 6                  24576719.349    24576720.305
        41.300
 109982395.608 8  85541863.934 7  20574483.278    20574483.743    20574491.664
        51.200          47.100
 125650796.827 7  97909686.83246  23910573.815    23910573.2614   23910584.9344
        42.100          36.2004
 102051029.008 8  79373067.877 8  19104160.646    19104160.620    19104167.269
        52.400          48.900
 147349873.142 6                  28039762.327
        36.100
 132136543.062 6 102963672.25245  25144699.370    25144698.7854   25144703.4254
        38.400          30.9004
 117469883.880 7  91534974.89145  22353777.256    22353776.8634   22353778.0864
        45.300          33.7004
 107986894.990 8  84145632.69948  20549223.413    20549222.9444   20549222.9324
        49.900          49.5004
 25  1  1 15  1 45.0000000  0 28G09G26E19E10S31S35G03R06S48S33E27E11
                                E29E04G16E21G04R15E06R07R23R05G32R16
                                E12G29G28G31
 130988322.501 6 102068831.39344  24926249.660    24926249.0704   24926252.4834
        36.000          29.0004
 106316427.503 8  82843998.17948  20231339.130    20231338.4604   20231342.5364
        50.400          51.1004
 120994222.043 7                  23024434.230
        43.900
 144929761.464 6                  27579217.559
        39.000
 198981235.496 7                  37864871.524
        45.500
 200935308.144 7                  38236729.398
        43.900
 108744166.340 8  84735728.43648  20693323.659    20693323.3824   20693326.4614
        48.700          50.4004
 105244580.560 6                  19722789.510    19722789.113
        41.300
 412730635.346 5                  78539988.887
        32.800
 202105322.699 7                  38459341.847
        45.000
 137033503.147 7                  26076606.045
        43.500
 145002401.802 5                  27593039.809
        35.000
 132291012.355 7                  25174144.133
        45.000
 136763235.340 7                  26025180.388
        42.700
 112324204.663 7  87525417.38445  21374566.714    21374565.7084   21374568.3414
        46.400          34.6004
 125832357.136 8                  23945093.570
        48.800
 118071812.859 7  92004013.09745  22468319.574    22468319.1594   22468321.5914
        43.800          30.1004
 113963501.403 8  88638326.005 7  21326711.310    21326711.491    21326717.904
        50.500          45.900
 148794424.328 6                  28314640.071
        37.300
 123841073.038 7  96320857.349 6  23134549.320    23134549.538    23134555.583
        45.400          40.200
 131475238.594 6                  24577908.644    24577908.961
        39.700
 110019460.046 8  85570691.750 7  20581417.151    20581417.669    20581425.434
        51.300          47.000
 125691915.673 6  97941727.17146  23918399.152    23918398.6114   23918409.9744
        41.500          36.1004
 102049353.449 8  79371764.665 8  19103846.797    19103846.918    19103853.554
        52.700          49.200
 147387464.018 5                  28046915.855
        35.800
 132125456.634 6 102955033.47645  25142590.461    25142589.8714   25142593.6464
        38.500          30.5004
 117506569.176 7  91563560.76345  22360758.289    22360757.9054   22360759.2234
        45.500          33.7004
 108009921.714 8  84163575.60448  20553605.220    20553604.7554   20553604.7924
        49.800          49.4004
 25  1  1 15  2  0.0000000  0 28G09G26E19E10S31S35G03R06S48S33E27E11
                                E29E04G16E21G04R15E06R07R23R05G32R16
                                E12G29G28G31
 130939740.069 6 102030974.96644  24917004.221    24917003.6404   24917008.0384
        36.200          28.4004
 106309252.688 8  82838407.42348  20229973.635    20229972.9654   20229977.2024
        50.200          51.1004
 120991523.879 7                  23023921.093
        44.100
 144959402.504 6                  27584858.234
        38.700
 198981238.400 7                  37864870.343
        45.800
 200935278.246 7                  38236722.789
        43.900
 108742747.785 8  84734623.06248  20693053.877    20693053.6144   20693056.5274
        49.200          50.3004
 105214567.351 6                  19717164.840    19717164.545
        41.100
 412731086.307 5                  78540019.853
        33.400
 202105348.625 7                  38459348.693
        45.200
 137062712.401 7                  26082164.612
        43.600
 145017107.743 5                  27595838.899
        35.500
 132315446.321 7                  25178793.996
        44.700
 136731423.605 7                  26019126.818
        42.900
 112278532.025 7  87489828.36245  21365875.440    21365874.4434   21365877.1174
        46.200          34.5004
 125821031.898 8                  23942938.732
        48.900
 118030833.285 7  91972080.95545  22460521.858    22460521.4564   22460523.3554
        43.800          30.1004
 114015574.556 8  88678827.437 7  21336456.364    21336456.467    21336462.822
        50.800          46.000
 148759004.332 6                  28307899.483
        36.800
 123782785.203 7  96275522.350 6  23123660.461    23123659.858    23123665.872
        44.900          39.600
 131481777.472 6                  24579131.355    24579131.869
        38.700
 110056649.558 8  85599616.858 7  20588374.237    20588374.574    20588382.554
        51.300          46.900
 125733084.556 7  97973806.47946  23926232.973    23926232.4324   23926244.3994
        42.100          36.1004
 102047854.485 8  79370598.807 8  19103565.982    19103566.342    19103572.933
        52.400          49.100
 147425077.140 5                  28054073.964
        35.300
 132114487.871 6 102946486.44045  25140502.191    25140501.6064   25140506.0204
        39.000          30.7004
 117543284.618 7  91592170.13445  22367744.743    22367744.3544   22367745.9554
        45.300          33.4004
 108033022.569 8  84181576.27248  20558001.128    20558000.6594   20558000.7634
        49.700          49.3004
 25  1  1 15  2 15.0000000  0 28G09G26E19E10S31S35G03R06S48S33E27E11
                                E29E04G16E21G04R15E06R07R23R05G32R16
                                E12G29G28G31
 130891143.613 6 101993107.58144  24907756.611    24907756.0574   24907760.4504
        36.500          28.2004
 106302230.462 8  82832935.56948  20228637.506    20228636.8314   20228640.9254
        50.300          50.8004
 120988868.837 7                  23023415.454
        43.500
 144989101.355 6                  27590509.068
        38.600
 198981239.673 7                  37864869.033
        45.600
 200935246.318 7                  38236715.080
        44.000
 108741484.770 8  84733638.88448  20692813.355    20692813.0964   20692816.1874
        49.400          50.1004
 105184672.403 6                  19711563.327    19711562.353
        41.500
 412731534.152 5                  78540042.627
        32.800
 202105373.051 7                  38459353.862
        45.300
 137091993.781 7                  26087736.584
        43.400
 145031904.882 6                  27598654.158
        36.000
 132339918.528 7                  25183450.738
        44.800
 136699614.185 7                  26013073.714
        43.100
 112232962.411 7  87454319.61545  21357203.810    21357202.8004   21357205.5324
        46.300          34.3004
 125809808.063 8                  23940802.867
        48.800
 117989873.551 7  91940164.27344  22452727.480    22452727.0834   22452728.9724
        43.600          29.9004
 114067718.528 8  88719383.847 7  21346213.905    21346214.204    21346220.417
        50.300          46.000
 148723568.993 6                  28301156.048
        36.500
 123724496.801 7  96230186.855 6  23112771.878    23112772.401    23112777.493
        45.700          39.200
 131488484.864 6                  24580385.473    24580385.667
        40.500
 110093960.358 8  85628636.288 7  20595353.825    20595354.451    20595362.529
        50.500          47.100
 125774299.838 7  98005921.94045  23934076.497    23934075.9394   23934087.7774
        42.400          35.9004
 102046528.209 8  79369567.262 8  19103317.846    19103318.050    19103324.615
        52.500          49.300
 147462708.741 5                  28061235.245
        35.100
 132103633.470 6 102938028.43944  25138436.858    25138436.2684   25138440.5114
        38.400          29.8004
 117580026.519 7  91620800.15145  22374736.385    22374735.9964   22374737.7304
        45.100          33.2004
 108056193.795 8  84199631.78448  20562410.482    20562410.0094   20562410.1104
        49.800          49.1004
 25  1  1 15  2 30.0000000  0 28G09G26E19E10S31S35G03R06S48S33E27E11
                                E29E04G16E21G04R15E06R07R23R05G32R16
                                E12G29G28G31
 130842535.693 6 101955231.27644  24898506.794    24898506.2274   24898510.4294
        36.100          28.3004
 106295363.162 8  82827584.43748  20227330.542    20227329.8674   20227334.1164
        50.400          51.0004
 120986259.104 7                  23022919.136
        43.500
 145018860.060 6                  27596172.671
        38.600
 198981240.869 7                  37864873.245
        45.600
 200935213.716 7                  38236709.392
        44.200
 108740379.580 8  84732777.68848  20692603.077    20692602.8184   20692605.8644
        49.300          50.3004
 105154898.348 6                  19705982.851    19705982.784
        41.300
 412731981.944 5                  78540059.552
        33.100
 202105396.011 7                  38459358.236
        45.200
 137121349.461 7                  26093322.855
        43.300
 145046795.368 5                  27601487.421
        35.700
 132364431.308 7                  25188115.434
        45.000
 136667809.453 7                  26007021.103
        42.700
 112187498.492 7  87418893.22045  21348552.188    21348551.1874   21348553.9484
        46.600          34.4004
 125798687.992 8                  23938686.822
        48.700
 117948936.149 7  91908265.01345  22444937.321    22444936.9284   22444938.8474
        44.500          30.2004
 114119935.261 8  88759996.833 7  21355985.883    21355985.679    21355992.504
        50.300          46.000
 148688120.568 6                  28294411.175
        36.800
 123666211.008 7  96184853.574 6  23101883.143    23101883.012    23101889.803
        45.400          40.400
 131495364.731 6                  24581670.752    24581671.881
        40.800
 110131394.599 8  85657751.731 7  20602357.067    20602357.504    20602365.501
        50.900          47.300
 125815563.764 7  98038075.30146  23941928.789    23941928.2264   23941940.3544
        42.200          36.0004
 102045376.916 8  79368671.802 8  19103102.286    19103102.514    19103109.082
        52.700          49.500
 147500360.750 6                  28068399.507
        36.200
 132092895.951 6 102929661.54445  25136394.079    25136393.4944   25136397.4094
        39.900          31.0004
 117616797.032 7  91649452.47345  22381734.026    22381733.6514   22381734.9744
        45.000          33.4004
 108079437.454 8  84217743.73648  20566833.594    20566833.1214   20566833.2284
        49.500          49.2004
 25  1  1 15  2 45.0000000  0 29G09G26E19E10S31S35G03R06S48S33E27E11
                                E29E04G16E21G04R15E06R07G06R23R05G32
                                R16E12G29G28G31
 130793916.589 5 101917346.28444  24889255.143    24889254.5674   24889258.6384
        35.700          28.5004
 106288650.976 8  82822354.17248  20226053.518    20226052.8344   20226056.8194
        50.700          51.0004
 120983695.031 7                  23022430.895
        43.900
 145048678.548 6                  27601846.870
        38.500
 198981241.731 7                  37864871.027
        45.500
 200935181.779 7                  38236702.183
        43.700
 108739432.489 8  84732039.68648  20692422.871    20692422.6174   20692425.6494
        49.500          50.3004
 105125245.967 6                  19700426.184    19700425.621
        41.000
 412732429.560 5                  78540088.143
        33.200
 202105419.872 7                  38459360.610
        44.800
 137150779.820 7                  26098923.485
        43.900
 145061779.256 5                  27604339.127
        35.000
 132388984.876 7                  25192787.919
        44.800
 136636009.628 7                  26000970.010
        42.700
 112142140.836 7  87383549.63245  21339921.243    21339920.2424   21339922.5954
        46.400          34.5004
 125787671.900 8                  23936590.205
        48.900
 117908021.387 7  91876383.38145  22437151.163    22437150.7794   22437152.9384
        44.400          30.3004
 114172224.445 8  88800666.175 7  21365771.363    21365771.382    21365777.380
        50.900          46.100
 148652659.223 6                  28287663.044
        36.700
 123607927.958 7  96139522.334 6  23090995.180    23090995.290    23091001.832
        46.000          39.900
 136098449.709 6                  25898673.826
        38.000
 131502415.688 6                  24582990.402    24582989.793
        41.900
 110168952.516 8  85686963.365 7  20609383.053    20609383.259    20609391.596
        50.800          47.300
 125856876.457 6  98070266.66245  23949790.608    23949790.0364   23949802.4724
        41.700          35.9004
 102044400.651 8  79367912.474 8  19102919.589    19102919.803    19102926.336
        52.500          49.300
 147538033.203 5                  28075569.085
        35.600
 132082275.518 6 102921385.89345  25134372.694    25134372.1094   25134376.6154
        38.400          30.8004
 117653596.160 7  91678127.08645  22388736.572    22388736.1974   22388737.7104
        45.500          33.3004
 108102753.550 8  84235912.13048  20571270.550    20571270.0684   20571270.1334
        49.800          49.2004
 25  1  1 15  3  0.0000000  0 29G09G26E19E10S31S35G03R06S48S33E27E11
                                E29E04G16E21G04R15E06R07G06R23R05G32
                                R16E12G29G28G31
 130745289.040 6 101879454.69444  24880002.265    24880001.7114   24880004.5974
        36.200          28.7004
 106282096.653 8  82817246.94448  20224806.026    20224805.3334   20224809.5674
        50.400          51.2004
 120981179.320 7                  23021952.283
        43.900
 145078559.324 6                  27607533.153
        38.400
 198981245.721 7                  37864874.345
        45.600
 200935152.511 7                  38236698.181
        43.900
 108738646.158 8  84731426.96448  20692273.249    20692272.9954   20692276.0014
        49.300          50.4004
 105095718.450 6                  19694892.684    19694892.476
        41.400
 412731280.269 5                  78540114.942
        33.100
 202105447.084 7                  38459363.767
        44.900
 137180287.092 7                  26104538.685
        43.500
 145076859.081 5                  27607209.112
        35.500
 132413581.940 7                  25197468.840
        44.900
 136604217.496 7                  25994919.995
        42.700
 112096892.472 7  87348291.20745  21331310.647    21331309.6464   21331312.0744
        46.800          34.6004
 125776762.432 8                  23934514.528
        48.700
 117867132.169 7  91844521.65345  22429370.219    22429369.8304   22429372.0024
        44.400          30.5004
 114224588.379 8  88841393.591 7  21375570.327    21375570.858    21375576.619
        50.700          46.100
 148617187.785 6                  28280913.338
        36.100
 123549650.635 7  96094195.515 6  23080108.355    23080108.772    23080114.070
        45.100          39.200
 136090395.143 6 106044473.81344  25897140.466    25897140.4664   25897143.6494
        37.700          28.7004
 131509640.528 6                  24584340.116    24584340.617
        41.400
 110206636.311 8  85716272.904 7  20616432.698    20616432.973    20616441.056
        50.700          47.000
 125898240.517 7  98102498.04246  23957662.155    23957661.5834   23957673.9864
        42.200          36.0004
 102043601.826 8  79367291.167 8  19102769.659    19102770.228    19102776.720
        52.100          49.200
 147575728.426 5                  28082742.077
        35.700
 132071775.164 6 102913203.81745  25132374.792    25132374.2164   25132378.2124
        38.100          30.5004
 117690426.461 7  91706825.98945  22395745.277    22395744.8974   22395746.3074
        45.200          33.6004
 108126144.466 8  84254138.79948  20575721.673    20575721.1864   20575721.3074
        50.000          49.4004
 25  1  1 15  3 15.0000000  0 29G09G26E19E10S31S35G03R06S48S33E27E11
                                E29E04G16E21G04R15E06R07G06R23R05G32
                                R16E12G29G28G31
 130696648.104 6 101841552.65544  24870746.422    24870745.8724   24870748.5264
        36.900          29.1004
 106275695.019 8  82812258.65748  20223587.758    20223587.0704   20223591.3414
        50.400          51.3004
 120978706.961 7                  23021481.996
        43.700
 145108496.999 6                  27613230.367
        38.400
 198981247.031 7                  37864872.660
        45.600
 200935120.549 7                  38236689.949
        43.500
 108738015.527 8  84730935.54348  20692153.389    20692153.1354   20692156.0014
        49.700          50.4004
 105066310.978 6                  19689382.064    19689381.438
        41.400
 412731728.991 5                  78540135.059
        32.900
 202105471.131 7                  38459372.428
        44.900
 137209865.958 7                  26110167.233
        43.300
 145092029.580 5                  27610095.982
        34.100
 132438217.444 7                  25202156.910
        44.800
 136572428.116 7                  25988870.991
        42.800
 112051748.750 7  87313114.33245  21322719.641    21322718.6314   21322721.4164
        46.600          34.7004
 125765954.560 8                  23932457.950
        48.700
 117826263.544 7  91812675.97045  22421593.409    22421593.0204   22421595.1174
        44.300          30.6004
 114277021.687 8  88882175.061 7  21385382.744    21385382.877    21385389.246
        51.200          46.400
 148581701.168 6                  28274160.949
        37.400
 123491374.459 7  96048869.557 6  23069222.823    23069222.401    23069228.629
        45.900          40.500
 136082463.142 5 106038293.11844  25895630.951    25895630.7324   25895634.5624
        35.900          28.0004
 131517034.517 7                  24585721.693    24585722.446
        42.200
 110244441.021 8  85745676.484 7  20623505.099    20623505.421    20623513.369
        50.400          47.300
 125939650.833 6  98134765.46346  23965542.609    23965542.0554   23965554.1834
        41.700          36.1004
 102042975.501 8  79366804.016 8  19102652.683    19102652.995    19102659.492
        52.600          49.300
 147613441.113 5                  28089918.873
        35.100
 132061389.915 6 102905111.42845  25130399.006    25130398.4164   25130401.9604
        37.800          30.1004
 117727282.700 7  91735545.09745  22402758.367    22402757.9874   22402759.8284
        45.700          33.5004
 108149605.001 8  84272419.71748  20580186.165    20580185.6744   20580185.7394
        49.900          49.4004
 25  1  1 15  3 30.0000000  0 28G09G26E19E10S31S35G03R06S48S33E27E11
                                E29E04G16E21G04R15E06R07R23R05G32R16
                                E12G29G28G31
 130647997.393 6 101803643.01644  24861487.920    24861487.3704   24861491.2214
        36.800          29.8004
 106269449.674 8  82807392.16248  20222399.364    20222398.6714   20222402.8874
        50.700          51.3004
 120976281.587 7                  23021020.399
        43.500
 145138494.784 6                  27618938.742
        37.800
 198981249.485 7                  37864872.168
        45.700
 200935089.903 7                  38236687.373
        44.000
 108737544.149 8  84730568.22848  20692063.655    20692063.4054   20692066.3094
        49.400          50.5004
 105037027.264 6                  19683893.771    19683893.559
        41.200
 412732179.036 5                  78540160.610
        33.100
 202105496.467 7                  38459376.869
        45.200
 137239519.588 7                  26115810.239
        43.200
 145107294.105 5                  27613000.932
        34.500
 132462894.923 7                  25206852.630
        44.600
 136540644.931 7                  25982822.764
        42.500
 112006713.456 7  87278021.93145  21314149.721    21314148.7064   21314151.4184
        46.700          34.8004
 125755251.905 8                  23930421.164
        48.500
 117785419.210 7  91780849.22345  22413821.074    22413820.6854   22413822.5244
        44.000          30.5004
 114329527.230 8  88923012.648 7  21395207.747    21395208.539    21395214.648
        50.700          46.200
 148546202.848 6                  28267404.785
        36.800
 123433102.942 7  96003547.300 6  23058336.047    23058336.330    23058342.849
        45.700          40.100
 131524599.774 6                  24587137.381    24587136.964
        41.400
 110282369.931 8  85775176.671 7  20630600.478    20630600.612    20630609.052
        50.800          47.400
 125981110.784 7  98167071.55446  23973432.469    23973431.9284   23973444.3924
        42.000          36.3004
 102042524.678 8  79366453.379 8  19102568.191    19102568.611    19102575.108
        52.200          49.400
 147651174.430 5                  28097099.289
        35.300
 132051123.438 6 102897111.59545  25128445.101    25128444.5074   25128448.3804
        38.100          30.2004
 117764168.272 7  91764287.07545  22409777.682    22409777.3024   22409778.9164
        45.200          33.5004
 108173138.411 8  84290757.42148  20584664.437    20584663.9374   20584664.0294
        50.000          49.4004
 25  1  1 15  3 45.0000000  0 28G09G26E19E10S31S35G03R06S48S33E27E11
                                E29E04G16E21G04R15E06R07R23R05G32R16
                                E12G29G28G31
 130599335.414 6 101765724.58745  24852227.817    24852227.2674   24852231.2024
        37.500          30.0004
 106263358.887 8  82802646.10548  20221240.329    20221239.6324   20221243.8424
        50.500          51.3004
 120973901.534 7                  23020567.287
        43.700
 145168550.810 6                  27624658.397
        38.200
 198981251.948 7                  37864873.084
        45.900
 200935059.346 7                  38236682.119
        44.300
 108737230.301 8  84730323.65948  20692003.697    20692003.4434   20692006.6044
        49.900          50.4004
 105007866.181 6                  19678428.890    19678429.003
        41.300
 412732629.545 5                  78540186.595
        33.200
 202105521.321 7                  38459381.153
        45.200
 137269246.362 7                  26121467.473
        43.200
 145122650.786 5                  27615922.622
        34.400
 132487612.667 7                  25211556.556
        44.900
 136508866.504 7                  25976775.154
        42.800
 111961785.253 7  87243012.96845  21305600.428    21305599.4094   21305601.8594
        46.700          34.8004
 125744652.720 8                  23928403.981
        48.700
 117744597.774 7  91749040.36245  22406052.693    22406052.2914   22406054.4894
        44.700          30.5004
 114382102.761 8  88963904.657 7  21405047.040    21405047.146    21405053.273
        50.500          45.600
 148510691.250 6                  28260647.487
        36.900
 123374835.036 7  95958227.862 6  23047451.828    23047452.311    23047458.039
        45.600          40.800
 131532335.812 6                  24588581.917    24588582.528
        41.000
 110320421.093 8  85804771.933 7  20637719.032    20637719.064    20637727.271
        51.100          47.300
 126022618.675 6  98199415.00046  23981331.800    23981331.2684   23981343.6704
        41.500          36.1004
 102042247.731 8  79366237.955 8  19102516.592    19102516.857    19102523.358
        52.300          49.400
 147688926.456 5                  28104283.192
        35.000
 132040974.234 6 102889203.13345  25126513.692    25126513.0934   25126517.2784
        38.900          30.9004
 117801081.306 7  91793050.45545  22416801.998    22416801.6144   22416803.3124
        45.400          33.5004
 108196742.767 8  84309150.41248  20589156.074    20589155.5694   20589155.8324
        49.600          49.4004
 25  1  1 15  4  0.0000000  0 28G09G26E19E10S31S35G03R06S48S33E27E11
                                E29E04G16E21G04R15E06R07R23R05G32R16
                                E12G29G28G31
 130550663.533 6 101727798.46444  24842966.384    24842965.8484   24842969.4034
        36.600          29.7004
 106257423.974 8  82798021.50948  20220111.049    20220110.3564   20220114.4674
        50.600          51.2004
 120971568.316 7                  23020123.570
        43.700
 145198666.092 6                  27630388.856
        38.100
 198981254.755 7                  37864873.997
        45.900
 200935028.871 7                  38236676.883
        44.500
 108737075.269 8  84730202.82448  20691974.208    20691973.9454   20691977.1144
        49.800          50.3004
 104978829.361 6                  19672987.655    19672987.307
        41.200
 412733082.057 5                  78540210.701
        33.500
 202105547.198 7                  38459386.340
        45.600
 137299047.274 7                  26127138.407
        43.100
 145138100.756 5                  27618862.936
        34.800
 132512372.023 7                  25216268.072
        44.800
 136477094.008 7                  25970729.549
        42.600
 111916966.000 7  87208088.90545  21297071.551    21297070.5324   21297072.9584
        46.900          34.8004
 125734158.387 8                  23926407.012
        48.600
 117703800.453 7  91717250.26445  22398289.519    22398289.1264   22398290.9834
        43.700          30.5004
 114434749.343 8  89004852.022 7  21414898.811    21414899.320    21414905.899
        50.500          46.200
 148475167.569 6                  28253887.630
        36.100
 123316572.414 7  95912912.494 6  23036567.771    23036568.905    23036574.337
        46.600          40.700
 131540243.674 6                  24590061.261    24590061.181
        41.900
 110358595.797 8  85834463.294 7  20644859.491    20644860.303    20644868.654
        50.600          47.300
 126064175.653 7  98231796.69446  23989239.766    23989239.2084   23989251.9494
        42.400          36.2004
 102042145.586 8  79366158.519 8  19102497.231    19102497.602    19102504.157
        52.300          49.300
 147726698.162 5                  28111471.500
        35.100
 132030943.765 6 102881387.15645  25124604.660    25124604.0664   25124608.4144
        38.600          30.8004
 117838022.922 7  91821836.09345  22423832.063    22423831.6744   22423833.1104
        45.600          33.5004
 108220419.231 8  84327599.59948  20593661.804    20593661.2994   20593661.3414
        50.000          49.4004
 25  1  1 15  4 15.0000000  0 28G09G26E19E10S31S35G03R06S48S33E27E11
                                E29E04G16E21G04R15E06R07R23R05G32R16
                                E12G29G28G31
 130501978.141 6 101689861.81544  24833701.027    24833700.4954   24833704.9654
        37.100          29.3004
 106251641.207 8  82793515.44448  20219010.551    20219009.8494   20219014.0324
        50.900          51.2004
 120969278.283 7                  23019687.553
        43.400
 145228836.636 6                  27636129.697
        37.800
 198981254.902 7                  37864870.111
        45.500
 200934995.706 7                  38236667.184
        43.900
 108737075.466 8  84730202.97248  20691974.744    20691974.4764   20691977.1674
        50.300          50.3004
 104949913.731 6                  19667569.687    19667568.961
        41.200
 412731931.614 5                  78540231.977
        33.000
 202105570.366 7                  38459389.971
        45.200
 137328918.533 7                  26132822.480
        43.000
 145153640.221 5                  27621820.082
        34.800
 132537169.309 7                  25220986.897
        44.600
 136445323.997 7                  25964683.955
        42.200
 111872252.157 7  87173246.96945  21288562.700    21288561.6814   21288564.2394
        47.000          34.7004
 125723765.198 8                  23924429.282
        48.400
 117663023.814 7  91685476.26345  22390529.642    22390529.2454   22390531.4394
        44.800          30.6004
 114487462.521 8  89045851.075 7  21424763.512    21424763.987    21424769.909
        50.100          45.700
 148439628.214 5                  28247124.622
        35.300
 123258311.143 7  95867598.139 6  23025684.326    23025683.724    23025690.292
        45.800          40.300
 131548318.342 7                  24591570.268    24591570.296
        42.000
 110396890.351 8  85864247.856 7  20652024.027    20652024.276    20652032.547
        50.800          47.400
 126105777.965 7  98264213.70746  23997156.995    23997156.4324   23997168.8274
        42.100          36.1004
 102042214.543 8  79366212.155 8  19102510.599    19102510.601    19102517.147
        52.500          49.300
 147764485.615 5                  28118662.231
        35.700
 132021028.554 6 102873661.01145  25122718.295    25122717.6834   25122721.7704
        37.800          30.3004
 117874989.287 7  91850641.00445  22430866.283    22430865.8864   22430867.5354
        45.900          33.4004
 108244163.986 8  84346101.99948  20598179.925    20598179.4164   20598179.8394
        49.700          49.3004
 25  1  1 15  4 30.0000000  0 28G09G26E19E10S31S35G03R06S48S33E27E11
                                E29E04G16E21G04R15E06R07R23R05G32R16
                                E12G29G28G31
 130453283.503 6 101651917.92544  24824435.003    24824434.4454   24824438.1804
        36.200          28.5004
 106246014.786 8  82789131.21948  20217939.989    20217939.2874   20217943.3564
        50.200          51.1004
 120967035.696 7                  23019260.881
        43.500
 145259066.343 6                  27641882.644
        38.800
 198981256.191 7                  37864871.949
        45.600
 200934963.374 7                  38236657.722
        43.800
 108737234.987 8  84730327.25848  20692004.625    20692004.3484   20692007.5304
        49.600          50.2004
 104921123.534 6                  19662174.046    19662173.381
        41.100
 412732383.573 5                  78540250.029
        33.200
 202105594.596 7                  38459395.006
        45.400
 137358863.978 7                  26138520.556
        42.900
 145169273.049 5                  27624794.721
        34.400
 132562008.680 7                  25225713.743
        44.700
 136413560.604 7                  25958639.512
        42.600
 111827648.132 7  87138490.59745  21280074.949    21280073.9254   21280076.3174
        46.700          34.8004
 125713477.350 8                  23922471.671
        48.500
 117622272.256 7  91653721.83345  22382775.030    22382774.6414   22382776.8184
        44.500          30.6004
 114540246.323 8  89086905.100 7  21434641.260    21434641.793    21434648.457
        50.500          46.200
 148404077.387 5                  28240359.852
        35.800
 123200055.715 7  95822288.358 6  23014801.218    23014801.386    23014808.724
        45.900          41.500
 131556564.623 6                  24593112.378    24593112.594
        41.700
 110435308.702 8  85894128.717 7  20659210.667    20659211.229    20659219.875
        50.300          47.500
 126147429.747 6  98296669.26945  24005083.237    24005082.6834   24005095.3284
        41.300          35.8004
 102042458.380 8  79366401.819 8  19102555.809    19102556.171    19102562.731
        52.400          49.300
 147802292.596 5                  28125856.467
        34.000
 132011233.073 6 102866028.18245  25120853.805    25120853.1844   25120857.7344
        39.900          30.9004
 117911984.412 7  91879468.31845  22437906.230    22437905.8244   22437907.5514
        45.500          33.3004
 108267980.869 8  84364660.58848  20602712.349    20602711.8444   20602712.0524
        49.600          49.2004
 25  1  1 15  4 45.0000000  0 28G09G26E19E10S31S35G03R06S48S33E27E11
                                E29E04G16E21G04R15E06R07R23R05G32R16
                                E12G29G28G31
 130404579.116 6 101613966.43044  24815166.918    24815166.3734   24815169.9154
        36.100          29.1004
 106240544.029 8  82784868.30248  20216899.097    20216898.4004   20216902.3084
        50.500          51.3004
 120964839.874 7                  23018843.153
        43.700
 145289354.217 6                  27647646.372
        38.600
 198981257.990 7                  37864873.379
        45.700
 200934932.253 7                  38236656.689
        44.000
 108737553.145 8  84730575.16348  20692065.374    20692065.0934   20692068.0854
        49.600          50.3004
 104892458.481 6                  19656801.342    19656801.679
        41.300
 412732837.253 5                  78540283.240
        33.500
 202105618.834 7                  38459400.667
        45.100
 137388882.671 7                  26144233.088
        42.900
 145184998.490 5                  27627787.600
        34.500
 132586889.447 7                  25230448.668
        44.600
 136381803.198 7                  25952595.978
        42.600
 111783153.693 7  87103819.62645  21271607.631    21271606.6074   21271609.2734
        46.800          35.0004
 125703294.239 8                  23920533.922
        48.700
 117581545.196 7  91621986.48145  22375024.852    22375024.4774   22375026.7814
        44.500          30.7004
 114593099.218 8  89128012.843 7  21444532.169    21444532.709    21444538.881
        50.500          46.100
 148368514.468 6                  28233592.284
        37.100
 123141806.252 7  95776983.224 6  23003919.418    23003920.243    23003926.529
        46.300          40.800
 131564980.986 6                  24594685.943    24594685.465
        40.300
 110473850.164 8  85924105.321 7  20666421.201    20666421.050    20666429.436
        50.500          47.200
 126189130.170 6  98329162.72346  24013019.047    24013018.5204   24013030.9254
        41.900          36.0004
 102042876.344 8  79366726.908 8  19102634.181    19102634.546    19102641.043
        52.500          49.100
 147840118.299 5                  28133054.652
        35.500
 132001556.833 6 102858488.31545  25119012.598    25119011.9774   25119016.6194
        38.800          30.9004
 117949007.532 7  91908317.45045  22444951.895    22444951.4984   22444952.8164
        45.100          33.4004
 108291868.998 8  84383274.69948  20607258.163    20607257.6544   20607257.8464
        50.000          49.4004
 25  1  1 15  5  0.0000000  0 28G09G26E19E10S31S35G03R06S48S33E27E11
                                E29E04G16E21G04R15E06R07R23R05G32R16
                                E12G29G28G31
 130355861.752 6 101576004.85845  24805896.444    24805895.8994   24805899.8264
        36.900          30.5004
 106235225.601 8  82780724.06148  20215886.674    20215885.9814   20215890.2334
        50.300          51.2004
 120962687.684 7                  23018433.640
        43.300
 145319696.863 6                  27653419.897
        38.000
 198981256.952 7                  37864874.292
        45.600
 200934897.649 7                  38236647.089
        44.100
 108738026.616 8  84730944.06548  20692155.332    20692155.0554   20692158.2014
        49.300          50.2004
 104863915.865 6                  19651452.101    19651452.890
        41.100
 412733288.505 5                  78540311.917
        33.300
 202105640.324 7                  38459405.675
        45.000
 137418970.940 7                  26149958.585
        43.300
 145200813.058 5                  27630796.633
        34.800
 132611808.336 7                  25235190.668
        44.600
 136350048.513 7                  25946553.397
        42.600
 111738765.975 7  87069231.81545  21263161.044    21263160.0254   21263162.5214
        46.400          34.9004
 125693212.577 8                  23918615.497
        48.500
 117540839.490 7  91590267.76245  22367278.982    22367278.6074   22367280.6164
        44.000          30.6004
 114646017.594 8  89169171.502 7  21454434.841    21454435.479    21454442.018
        50.200          46.100
 148332936.134 6                  28226821.555
        36.400
 123083559.629 7  95731680.288 6  22993038.590    22993038.929    22993045.842
        45.600          41.100
 131573565.491 6                  24596290.756    24596290.648
        41.400
 110512510.928 8  85954174.693 7  20673653.322    20673653.394    20673662.009
        50.500          47.300
 126230875.889 7  98361691.48346  24020963.295    24020962.7724   24020975.1654
        42.700          36.1004
 102043465.187 8  79367184.878 8  19102744.142    19102744.650    19102751.210
        52.600          49.100
 147877959.004 5                  28140255.412
        34.100
 131991996.662 6 102851038.94245  25117193.491    25117192.8574   25117196.8884
        37.900          30.1004
 117986055.183 7  91937185.71745  22452001.899    22452001.5064   22452002.8344
        45.800          33.3004
 108315824.914 8  84401941.62348  20611816.532    20611816.0234   20611816.5264
        49.700          49.3004
 25  1  1 15  5 15.0000000  0 28G09G26E19E10S31S35G03R06S48S33E27E11
                                E29E04G16E21G04R15E06R07R23R05G32R16
                                E12G29G28G31
 130307136.841 6 101538037.39644  24796624.211    24796623.6754   24796627.6934
        37.200          29.9004
 106230064.864 8  82776702.73248  20214904.897    20214904.2094   20214908.1844
        50.300          51.3004
 120960584.561 7                  23018033.101
        43.300
 145350099.178 6                  27659205.085
        38.200
 198981258.421 7                  37864872.476
        45.600
 200934865.845 7                  38236647.665
        44.200
 108738660.803 8  84731438.22048  20692276.070    20692275.8074   20692278.9044
        49.300          50.3004
 104835501.434 6                  19646128.526    19646127.880
        41.300
 412733742.189 5                  78540331.498
        32.700
 202105665.445 7                  38459407.969
        45.100
 137449133.952 7                  26155698.412
        43.200
 145216721.824 5                  27633823.841
        35.100
 132636770.728 7                  25239940.553
        44.500
 136318302.008 7                  25940512.468
        42.600
 111694490.476 7  87034731.44145  21254735.920    21254734.9144   21254737.1434
        46.700          35.1004
 125683237.504 8                  23916717.254
        48.400
 117500160.617 7  91558569.93245  22359537.684    22359537.3134   22359539.5534
        44.300          30.8004
 114699006.486 8  89210385.005 7  21464351.780    21464351.736    21464358.114
        50.400          46.100
 148297347.785 6                  28220049.650
        36.600
 123025321.624 7  95686384.085 6  22982159.035    22982159.266    22982167.095
        46.200          41.800
 131582322.401 6                  24597927.587    24597927.240
        40.800
 110551296.325 8  85984341.029 7  20680909.171    20680909.501    20680917.641
        50.800          47.200
 126272672.106 6  98394259.57446  24028917.048    24028916.5214   24028929.5194
        41.400          36.2004
 102044229.830 8  79367779.625 8  19102887.679    19102887.796    19102894.280
        52.600          49.200
 147915819.808 5                  28147460.402
        34.000
 131982557.813 6 102843684.10445  25115397.212    25115396.5734   25115400.5074
        38.000          30.3004
 118023132.447 7  91966077.04145  22459057.163    22459056.7614   22459058.4864
        45.200          33.3004
 108339853.687 8  84420665.32648  20616389.355    20616388.8414   20616389.0604
        49.700          49.4004
 25  1  1 15  5 30.0000000  0 28G09G26E19E10S31S35G03R06S48S33E27E11
                                E29E04G16E21G04R15E06R07R23R05G32R16
                                E12G29G28G31
 130258405.601 6 101500065.01845  24787351.378    24787350.8464   24787354.4334
        37.300          30.0004
 106225062.716 8  82772804.96248  20213952.961    20213952.2734   20213956.2964
        50.200          51.2004
 120958531.530 7                  23017642.524
        43.400
 145380561.968 6                  27665002.292
        37.300
 198981263.505 7                  37864873.268
        45.600
 200934837.815 7                  38236635.252
        43.800
 108739456.617 8  84732058.31348  20692427.527    20692427.2594   20692430.3674
        49.800          50.2004
 104807216.396 6                  19640828.068    19640827.205
        41.300
 412732599.447 5                  78540353.078
        32.600
 202105693.820 7                  38459411.600
        45.200
 137479372.520 7                  26161452.831
        42.500
 145232725.672 5                  27636869.502
        34.800
 132661777.535 7                  25244699.339
        44.500
 136286564.681 7                  25934472.809
        42.300
 111650328.587 7  87000319.60345  21246332.069    21246331.0634   21246333.3904
        47.100          35.0004
 125673370.320 8                  23914839.658
        48.300
 117459509.778 7  91526893.96445  22351802.343    22351801.9774   22351804.0314
        44.500          30.8004
 114752066.414 8  89251653.776 7  21474280.959    21474281.363    21474287.553
        50.400          46.200
 148261750.318 6                  28213275.773
        36.600
 122967093.424 7  95641095.438 6  22971281.916    22971282.464    22971288.107
        46.500          40.600
 131591252.957 7                  24599596.179    24599597.006
        42.200
 110590207.166 8  86014604.912 7  20688187.956    20688188.135    20688196.664
        50.600          47.000
 126314519.774 7  98426867.75346  24036880.226    24036879.6904   24036893.3274
        42.600          36.2004
 102045171.254 8  79368511.830 8  19103063.618    19103064.000    19103070.565
        52.500          49.300
 147953701.406 5                  28154669.282
        34.300
 131973241.706 6 102836424.90545  25113624.245    25113623.5974   25113627.6214
        37.600          30.1004
 118060240.236 7  91994992.14545  22466118.804    22466118.4024   22466119.9794
        45.300          33.3004
 108363956.106 8  84439446.39648  20620975.909    20620975.3954   20620975.6214
        49.700          49.3004
 25  1  1 15  5 45.0000000  0 28G09G26E19E10S31S35G03R06S48S33E27E11
                                E29E04G16E21G04R15E06R07R23R05G32R16
                                E12G29G28G31
 130209659.895 6 101462081.34645  24778075.472    24778074.9364   24778078.4284
        38.300          30.3004
 106220211.076 8  82769024.45748  20213029.789    20213029.1054   20213033.0364
        50.100          51.4004
 120956520.554 7                  23017259.958
        43.300
 145411076.723 6                  27670809.508
        38.100
 198981263.586 7                  37864874.292
        45.500
 200934804.718 7                  38236628.075
        43.500
 108740406.011 8  84732798.08148  20692608.248    20692607.9764   20692611.0654
        49.400          50.3004
 104779053.137 6                  19635549.599    19635549.591
        41.300
 412733052.442 5                  78540378.034
        32.600
 202105716.512 7                  38459416.170
        45.100
 137509678.618 7                  26167219.787
        42.500
 145248816.269 5                  27639931.572
        34.600
 132686820.761 7                  25249464.992
        44.500
 136254828.608 7                  25928434.100
        42.100
 111606272.719 7  86965990.37345  21237948.509    21237947.5174   21237949.8764
        47.000          35.3004
 125663602.912 8                  23912980.745
        48.400
 117418879.037 7  91495233.65945  22344070.484    22344070.1094   22344072.2554
        44.700          31.1004
 114805188.619 8  89292970.999 7  21484221.256    21484221.910    21484229.195
        49.900          46.200
 148226135.748 5                  28206498.562
        35.500
 122908867.173 7  95595808.374 6  22960404.925    22960405.184    22960411.972
        46.500          41.300
 131600347.275 6                  24601297.677    24601296.952
        41.500
 110629235.355 8  86044960.091 7  20695489.128    20695489.387    20695497.997
        50.700          46.900
 126356410.680 7  98459509.62346  24044852.603    24044852.0584   24044865.0684
        42.100          36.3004
 102046280.870 8  79369374.861 8  19103271.456    19103271.792    19103278.330
        52.200          49.200
 147991595.525 5                  28161880.068
        34.600
 131964040.129 6 102829254.90645  25111872.479    25111871.8274   25111876.4664
        36.800          30.2004
 118097370.354 7  92023924.66545  22473184.101    22473183.6904   22473185.6254
        45.700          33.5004
 108388123.739 8  84458278.26748  20625574.963    20625574.4494   20625574.6054
        49.400          49.5004
 25  1  1 15  6  0.0000000  0 28G09G26E19E10S31S35G03R06S48S33E27E11
                                E29E04G16E21G04R15E06R07R23R05G32R16
                                E12G29G28G31
 130160904.629 6 101424090.21944  24768796.756    24768796.2244   24768800.2544
        37.000          29.9004
 106215514.651 8  82765364.90248  20212135.939    20212135.2644   20212139.3374
        50.400          51.3004
 120954556.302 7                  23016886.101
        43.200
 145441647.943 6                  27676626.889
        37.200
 198981264.128 7                  37864873.388
        45.600
 200934771.754 7                  38236623.080
        43.800
 108741513.648 8  84733661.15348  20692818.923    20692818.6464   20692821.8624
        49.500          50.2004
 104751016.519 6                  19630296.211    19630295.470
        41.200
 412733506.612 5                  78540404.913
        33.000
 202105740.028 7                  38459421.353
        44.900
 137540056.370 7                  26173000.551
        42.800
 145264998.257 5                  27643010.910
        35.100
 132711905.113 7                  25254238.473
        44.400
 136223098.536 7                  25922395.766
        42.300
 111562327.742 7  86931747.55345  21229585.897    21229584.9054   21229587.4414
        46.600          35.3004
 125653939.644 8                  23911142.174
        48.200
 117378273.211 7  91463592.73545  22336343.815    22336343.4224   22336345.3054
        44.600          31.0004
 114858377.505 8  89334340.122 7  21494175.683    21494175.795    21494182.607
        49.600          46.400
 148190508.845 6                  28199718.768
        36.100
 122850648.042 7  95550526.839 6  22949528.463    22949529.501    22949535.975
        45.700          41.400
 131609613.371 6                  24603028.731    24603028.230
        40.400
 110668385.297 8  86075409.933 7  20702813.146    20702813.377    20702822.036
        50.600          46.800
 126398349.480 7  98492188.81445  24052833.339    24052832.7854   24052845.8324
        42.300          35.7004
 102047563.293 8  79370372.290 8  19103511.596    19103511.829    19103518.433
        52.100          49.300
 148029506.486 5                  28169094.809
        34.800
 131954958.188 6 102822178.19545  25110144.698    25110144.0594   25110148.1084
        37.900          30.4004
 118134527.282 7  92052878.06645  22480254.832    22480254.4034   22480256.4144
        45.600          33.4004
 108412361.194 8  84477164.56948  20630187.066    20630186.5574   20630186.8914
        49.700          49.4004
 25  1  1 15  6 15.0000000  0 28G09G26E19E10S31S35G03R06S48S33E27E11
                                E29E04G16E21G04R15E06R07R23R05G32R16
                                E12G29G28G31
 130112144.477 6 101386095.28445  24759518.639    24759518.1254   24759521.4134
        37.400          30.8004
 106210977.944 8  82761829.81148  20211272.679    20211272.0004   20211276.0334
        50.400          51.3004
 120952643.708 7                  23016522.234
        43.300
 145472279.885 6                  27682456.098
        38.200
 198981269.541 7                  37864879.067
        45.800
 200934743.618 7                  38236617.768
        43.700
 108742784.036 8  84734651.02948  20693060.827    20693060.5504   20693063.6344
        49.600          50.2004
 104723111.842 6                  19625066.231    19625066.386
        41.200
 412733966.346 5                  78540435.195
        33.300
 202105768.237 7                  38459427.353
        45.200
 137570510.117 7                  26178795.497
        43.000
 145281275.867 5                  27646108.388
        34.600
 132737035.078 7                  25259020.567
        44.600
 136191378.996 7                  25916359.658
        42.600
 111518498.536 7  86897594.94445  21221245.577    21221244.5714   21221247.0074
        47.400          35.3004
 125644385.464 8                  23909323.786
        48.300
 117337697.145 7  91431975.05545  22328621.759    22328621.3624   22328623.9264
        44.800          31.1004
 114911637.070 8  89375764.232 7  21504141.719    21504142.528    21504149.478
        50.000          46.200
 148154874.135 6                  28192937.546
        37.200
 122792440.820 7  95505254.606 6  22938654.473    22938654.908    22938662.147
        46.200          41.600
 131619053.365 6                  24604793.145    24604792.974
        39.600
 110707661.248 8  86105957.817 7  20710160.115    20710160.740    20710168.988
        50.300          46.600
 126440340.652 6  98524908.82645  24060824.321    24060823.7634   24060836.7374
        41.800          35.8004
 102049023.097 8  79371507.716 8  19103784.947    19103785.000    19103791.676
        51.900          49.300
 148067438.443 5                  28176312.845
        35.300
 131946000.433 6 102815198.19845  25108439.838    25108439.1994   25108443.7364
        37.800          30.3004
 118171715.413 7  92081855.78145  22487331.740    22487331.2894   22487332.9634
        45.000          33.4004
 108436672.757 8  84496108.60748  20634813.390    20634812.8854   20634813.2544
        49.800          49.4004
 25  1  1 15  6 30.0000000  0 28G09G26E19E10S31S35G03R06S48S33E27E11
                                E29E04G16E21G04R15E06R07R23R05G32R16
                                E12G29G28G31
 130063370.293 6 101348089.45145  24750237.093    24750236.5974   24750240.4444
        38.100          30.8004
 106206591.748 8  82758411.98648  20210438.003    20210437.3284   20210441.3604
        50.500          51.2004
 120950773.206 7                  23016166.266
        43.200
 145502963.134 6                  27688294.642
        38.100
 198981269.839 7                  37864874.658
        45.600
 200934710.564 7                  38236613.654
        44.300
 108744207.991 8  84735760.57248  20693331.792    20693331.5114   20693334.6184
        49.500          50.0004
 104695329.934 6                  19619860.479    19619859.915
        41.000
 412734422.023 5                  78540454.704
        32.900
 202105791.117 7                  38459432.093
        45.300
 137601030.726 7                  26184603.552
        42.700
 145297639.801 5                  27649222.299
        33.800
 132762201.486 7                  25263809.875
        44.500
 136159660.900 7                  25910323.998
        42.600
 111474776.360 7  86863525.73845  21212925.372    21212924.3664   21212926.9274
        47.400          35.3004
 125634931.105 8                  23907524.878
        48.400
 117297141.754 7  91400373.49545  22320904.439    22320904.0374   22320906.3754
        45.100          31.1004
 114964957.427 8  89417235.563 7  21514120.032    21514120.900    21514127.479
        49.600          46.200
 148119222.396 6                  28186153.400
        37.000
 122734236.607 7  95459984.695 6  22927782.216    22927781.715    22927789.285
        46.200          41.300
 131628657.082 6                  24606587.829    24606587.038
        37.500
 110747054.408 8  86136596.854 7  20717529.919    20717530.046    20717538.567
        50.000          46.600
 126482374.840 7  98557662.34845  24068823.608    24068823.0504   24068836.0544
        42.000          35.9004
 102050650.773 8  79372773.687 8  19104089.607    19104089.813    19104096.328
        52.300          49.200
 148105382.110 5                  28183533.881
        35.000
 131937157.868 6 102808307.97245  25106757.678    25106757.0394   25106761.1094
        38.200          30.4004
 118208925.449 7  92110850.56045  22494412.906    22494412.4734   22494413.9384
        45.000          33.4004
 108461049.173 8  84515103.18248  20639452.109    20639451.6044   20639451.9544
        49.900          49.3004
 25  1  1 15  6 45.0000000  0 28G09G26E19E10S31S35G03R06S48S33E27E11
                                E29E04G16E21G04R15E06R07R23R05G32R16
                                E12G29G28G31
 130014585.356 6 101310075.22745  24740953.452    24740952.9434   24740957.0254
        37.500          30.9004
 106202359.121 8  82755113.84348  20209632.498    20209631.8284   20209635.9264
        50.600          51.2004
 120948948.333 7                  23015819.032
        43.500
 145533700.521 6                  27694143.892
        37.700
 198981268.501 7                  37864874.828
        45.700
 200934676.181 7                  38236609.451
        44.200
 108745788.568 8  84736992.16148  20693632.432    20693632.1514   20693635.4254
        49.800          50.0004
 104667674.444 6                  19614677.780    19614677.434
        41.000
 412733275.104 5                  78540479.567
        33.100
 202105813.585 7                  38459436.775
        45.100
 137631621.085 7                  26190424.664
        42.700
 145314092.950 5                  27652353.267
        34.900
 132787407.451 7                  25268606.312
        44.700
 136127947.364 7                  25904288.986
        42.200
 111431164.603 7  86829542.57145  21204626.643    21204625.6284   21204627.8154
        47.300          35.4004
 125625579.682 8                  23905745.304
        48.400
 117256610.127 7  91368790.41345  22313191.957    22313191.5424   22313193.4214
        45.000          31.0004
 115018341.021 8  89458755.863 7  21524110.694    21524110.710    21524118.121
        49.000          46.300
 148083556.828 6                  28179366.788
        37.400
 122676038.289 7  95414719.272 7  22916910.707    22916910.870    22916917.545
        46.100          42.000
 131638427.598 6                  24608414.390    24608414.711
        38.500
 110786567.112 8  86167328.855 7  20724921.987    20724921.759    20724930.409
        50.500          46.700
 126524455.028 7  98590451.69745  24076831.502    24076830.9394   24076844.1804
        42.100          35.8004
 102052449.139 8  79374172.418 8  19104426.085    19104426.392    19104433.046
        52.300          49.200
 148143340.208 5                  28190756.792
        34.700
 131928433.923 6 102801510.24745  25105097.204    25105096.5474   25105100.9614
        37.500          30.7004
 118246160.294 7  92139864.68745  22501498.021    22501497.6014   22501499.6624
        45.800          33.3004
 108485493.240 8  84534150.48748  20644103.691    20644103.1864   20644103.5204
        49.900          49.3004
 25  1  1 15  7  0.0000000  0 28G09G26E19E10S31S35G03R06S48S33E27E11
                                E29E04G16E21G04R15E06R07R23R05G32R16
                                E12G29G28G31
 129965795.265 6 101272056.96945  24731668.956    24731668.4604   24731672.5684
        37.400          30.6004
 106198285.588 8  82751939.65548  20208857.317    20208856.6424   20208860.7714
        50.400          51.2004
 120947174.564 7                  23015481.537
        43.500
 145564497.343 6                  27700004.540
        38.000
 198981271.511 7                  37864874.515
        45.800
 200934645.984 7                  38236600.736
        44.100
 108747531.354 8  84738350.15548  20693964.200    20693963.9194   20693967.0984
        49.200          50.1004
 104640151.488 6                  19609519.410    19609519.266
        41.000
 412733732.622 5                  78540502.935
        33.100
 202105839.194 7                  38459442.177
        45.300
 137662286.275 7                  26196259.993
        42.700
 145330640.763 5                  27655501.732
        34.400
 132812658.538 7                  25273411.376
        44.800
 136096244.110 7                  25898256.277
        42.700
 111387669.233 7  86795650.09045  21196349.251    21196348.2364   21196350.8644
        47.200          35.6004
 125616336.678 8                  23903986.397
        48.700
 117216108.068 7  91337230.33945  22305484.488    22305484.0774   22305486.1504
        44.600          31.0004
 115071793.681 8  89500330.023 7  21534113.718    21534114.383    21534121.199
        49.600          46.400
 148047882.987 6                  28172577.208
        37.000
 122617852.656 7  95369463.788 6  22906040.548    22906041.478    22906047.532
        46.500          41.600
 131648371.290 6                  24610273.044    24610272.912
        37.400
 110826205.016 8  86198158.261 7  20732336.663    20732336.894    20732345.482
        50.200          46.600
 126566586.786 6  98623281.23746  24084848.626    24084848.0684   24084862.1934
        41.600          36.0004
 102054423.472 8  79375708.035 8  19104795.991    19104796.088    19104802.639
        52.500          49.200
 148181318.062 5                  28197983.863
        34.400
 131919834.100 6 102794809.20845  25103460.514    25103459.8804   25103464.4554
        38.300          30.6004
 118283425.409 7  92168902.41945  22508589.478    22508589.0544   22508590.9634
        45.200          33.3004
 108510010.207 8  84553254.54048  20648769.150    20648768.6454   20648768.9564
        50.000          49.2004
 25  1  1 15  7 15.0000000  0 28G09G26E19E10S31S35G03R06S48S33E27E11
                                E29E04G16E21G04R15E06R07R23R05G32R16
                                E12G29G28G31
 129916999.046 6 101234033.90645  24722383.667    24722383.1584   24722386.9534
        38.000          30.6004
 106194370.104 8  82748888.62448  20208112.335    20208111.6604   20208115.7004
        50.400          51.0004
 120945451.008 7                  23015153.438
        43.500
 145595352.238 6                  27705876.020
        37.300
 198981277.642 7                  37864875.012
        45.800
 200934618.549 7                  38236596.957
        44.100
 108749435.248 8  84739833.68848  20694326.565    20694326.2934   20694329.4204
        49.200          49.9004
 104612760.249 6                  19604386.878    19604386.375
        41.300
 412734193.374 5                  78540530.713
        32.900
 202105868.778 7                  38459442.423
        45.100
 137693025.019 7                  26202109.514
        42.700
 145347281.824 5                  27658668.994
        34.600
 132837953.686 7                  25278224.943
        44.700
 136064550.037 7                  25892224.934
        42.400
 111344289.380 7  86761847.62445  21188094.646    21188093.6364   21188096.0384
        47.300          35.5004
 125607201.049 8                  23902247.929
        48.600
 117175634.808 7  91305692.71645  22297782.752    22297782.3414   22297784.4604
        44.500          31.1004
 115125314.044 8  89541956.980 7  21544129.470    21544129.682    21544136.641
        49.500          46.200
 148012199.803 6                  28165787.869
        37.000
 122559678.356 7  95324217.057 6  22895173.492    22895173.164    22895180.367
        46.100          41.400
 131658486.446 6                  24612164.808    24612164.386
        39.700
 110865966.999 8  86229084.135 7  20739775.315    20739775.206    20739784.223
        50.200          46.500
 126608768.897 6  98656150.00345  24092876.672    24092876.1224   24092889.7264
        41.300          35.6004
 102056572.684 8  79377379.637 8  19105197.970    19105198.351    19105204.991
        52.400          49.300
 148219314.166 5                  28205213.921
        34.500
 131911357.363 6 102788204.01244  25101847.517    25101846.8694   25101850.3064
        37.000          29.8004
 118320719.520 7  92197962.73145  22515686.460    22515686.0404   22515687.5984
        45.500          33.1004
 108534598.999 8  84572414.59748  20653448.182    20653447.6644   20653448.0844
        49.500          49.0004
 25  1  1 15  7 30.0000000  0 28G09G26E19E10S31S35G03R06S48S33E27E11
                                E29E04G16E21G04R15E06R07R23R05G32R16
                                E12G29G28G31
 129868189.147 6 101196000.20845  24713094.718    24713094.2094   24713099.1384
        37.000          30.6004
 106190604.814 8  82745954.63248  20207395.872    20207395.2064   20207399.2084
        50.300          51.0004
 120943769.981 7                  23014833.449
        43.500
 145626257.189 6                  27711757.286
        38.200
 198981278.190 7                  37864875.253
        45.500
 200934586.367 7                  38236588.036
        43.900
 108751492.440 8  84741436.67948  20694717.967    20694717.6954   20694720.8844
        49.200          49.9004
 104585493.141 6                  19599276.880    19599276.504
        41.500
 412734650.158 5                  78540551.591
        33.000
 202105892.965 7                  38459451.630
        45.000
 137723829.519 7                  26207971.226
        42.800
 145364008.282 5                  27661852.057
        34.900
 132863285.111 7                  25283045.573
        44.700
 136032857.518 7                  25886194.311
        42.300
 111301017.617 7  86728129.38045  21179860.187    21179859.1814   21179861.7154
        47.100          35.6004
 125598165.012 8                  23900528.489
        48.500
 117135182.639 7  91274171.53745  22290084.907    22290084.4964   22290086.6744
        44.300          31.1004
 115178893.196 8  89583629.663 7  21554156.068    21554155.900    21554162.984
        48.700          46.200
 147976499.505 6                  28158994.157
        36.600
 122501508.331 7  95278973.696 6  22884306.495    22884308.122    22884313.443
        46.500          41.200
 131668765.016 6                  24614086.448    24614086.732
        41.800
 110905844.831 8  86260100.136 7  20747235.556    20747235.907    20747244.096
        50.700          46.500
 126650993.550 6  98689051.92345  24100912.442    24100911.8974   24100925.1334
        41.100          35.6004
 102058888.674 8  79379180.958 8  19105631.632    19105631.937    19105638.560
        52.500          49.000
 148257320.590 5                  28212446.770
        34.000
 131902996.313 6 102781688.95445  25100256.589    25100255.9504   25100259.1154
        39.000          30.1004
 118358034.739 7  92227039.49545  22522787.209    22522786.7764   22522788.5434
        45.500          33.1004
 108559251.592 8  84591624.41348  20658139.572    20658139.0584   20658139.3354
        50.100          49.0004
 25  1  1 15  7 45.0000000  0 28G09G26E19E10S31S35G03R06S48S33E27E11
                                E29E04G16E21G04R15E06R07R23R05G32R16
                                E12G29G28G31
 129819370.430 6 101157959.65545  24703805.541    24703805.0274   24703809.2624
        37.100          30.5004
 106186994.509 8  82743141.42348  20206708.656    20206707.9864   20206712.1614
        50.200          51.1004
 120942136.254 7                  23014522.839
        43.800
 145657216.694 6                  27717648.510
        38.500
 198981279.374 7                  37864875.857
        45.400
 200934553.888 7                  38236586.194
        43.900
 108753707.678 8  84743162.82448  20695139.705    20695139.4374   20695142.4384
        49.200          49.9004
 104558355.451 6                  19594191.409    19594190.870
        41.000
 412735107.224 5                  78540579.373
        33.100
 202105916.872 7                  38459453.262
        45.100
 137754704.419 7                  26213846.357
        43.500
 145380824.721 5                  27665051.682
        34.800
 132888657.629 7                  25287874.002
        44.900
 136001171.239 7                  25880164.215
        43.100
 111257859.136 7  86694499.41245  21171647.446    21171646.4314   21171648.9324
        47.400          35.7004
 125589233.477 8                  23898828.752
        48.800
 117094756.520 7  91242670.65545  22282392.504    22282392.1154   22282393.8464
        44.900          31.2004
 115232535.342 8  89625351.193 7  21564195.347    21564194.527    21564201.450
        49.600          46.300
 147940786.949 6                  28152198.045
        36.900
 122443347.656 7  95233737.644 6  22873441.166    22873442.415    22873449.117
        46.900          41.400
 131679212.367 6                  24616038.569    24616038.403
        41.800
 110945843.171 8  86291209.864 7  20754717.778    20754717.964    20754726.427
        50.600          46.300
 126693265.371 6  98721990.60245  24108956.546    24108956.0014   24108969.3954
        40.800          35.2004
 102061376.293 8  79381115.762 8  19106097.369    19106097.666    19106104.136
        52.500          49.200
 148295341.768 5                  28219682.262
        35.400
 131894755.980 6 102775268.06545  25098688.308    25098687.6784   25098691.2534
        37.100          30.2004
 118395375.652 7  92256136.27945  22529893.135    22529892.6934   22529894.3494
        45.200          33.3004
 108583972.458 8  84610887.42048  20662843.657    20662843.1394   20662843.5584
        49.400          49.1004
 25  1  1 15  8  0.0000000  0 28G09G26E19E10S31S35G03R06S48S33E27E11
                                E29E04G16E21G04R15E06R07R23R05G32R16
                                E12G29G28G31
 129770540.916 6 101119910.64645  24694513.780    24694513.2894   24694516.8064
        38.100          30.6004
 106183537.050 8  82740447.29348  20206050.894    20206050.2244   20206054.2064
        50.100          51.1004
 120940547.854 7                  23014220.530
        43.600
 145688228.309 6                  27723549.836
        38.000
 198981278.524 7                  37864876.773
        45.500
 200934519.405 7                  38236575.771
        43.700
 108756078.899 8  84745010.51348  20695590.707    20695590.4354   20695593.7004
        49.500          49.9004
 104531345.301 6                  19589129.384    19589129.034
        41.600
 412733962.886 5                  78540612.839
        33.100
 202105938.589 7                  38459458.829
        44.900
 137785647.177 7                  26219734.508
        42.800
 145397728.875 5                  27668268.585
        35.700
 132914069.153 7                  25292709.354
        44.700
 135969489.384 7                  25874135.317
        42.800
 111214812.285 7  86660956.42445  21163455.651    21163454.6364   21163457.3274
        47.200          35.6004
 125580404.292 8                  23897148.735
        48.600
 117054354.556 7  91211188.57645  22274703.776    22274703.3794   22274705.4864
        44.700          31.3004
 115286238.187 8  89667119.982 7  21574243.757    21574244.222    21574251.351
        49.100          46.300
 147905060.101 6                  28145399.628
        36.300
 122385194.320 7  95188507.338 6  22862577.785    22862578.469    22862585.735
        46.200          41.800
 131689825.279 7                  24618022.307    24618022.301
        42.900
 110985959.869 8  86322411.639 7  20762222.632    20762222.818    20762231.196
        50.200          46.400
 126735582.246 6  98754964.38745  24117009.061    24117008.4944   24117022.2864
        41.800          35.1004
 102064033.023 8  79383182.105 8  19106594.569    19106595.125    19106601.492
        52.700          49.200
 148333375.368 5                  28226919.717
        34.900
 131886634.310 6 102768939.60445  25097142.501    25097141.8494   25097145.9764
        37.900          30.3004
 118432740.092 7  92285251.39245  22537003.479    22537003.0414   22537004.6234
        45.000          33.4004
 108608759.267 8  84630201.77748  20667560.672    20667560.1634   20667560.3064
        49.300          48.9004
 25  1  1 15  8 15.0000000  0 28G09G26E19E10S31S35G03R06S48S33E27E11
                                E29E04G16E21G04R15E06R07R23R05G32R16
                                E12G29G28G31
 129721709.068 6 101081859.82745  24685221.013    24685220.5084   24685224.1524
        38.300          30.8004
 106180240.694 8  82737878.69248  20205423.483    20205422.8174   20205426.9324
        50.400          51.0004
 120939013.193 7                  23013928.342
        43.700
 145719300.108 6                  27729462.474
        38.200
 198981282.845 7                  37864878.003
        45.800
 200934491.163 7                  38236570.686
        44.000
 108758614.353 8  84746986.18248  20696073.308    20696073.0404   20696076.1844
        49.400          49.8004
 104504471.628 6                  19584093.062    19584093.186
        41.500
 412734424.796 5                  78540627.139
        33.200
 202105966.773 7                  38459465.921
        45.400
 137816665.882 7                  26225637.441
        42.900
 145414728.843 5                  27671503.072
        34.900
 132939527.970 7                  25297554.196
        45.000
 135937820.261 7                  25868109.143
        42.700
 111171885.466 7  86627506.95845  21155287.212    21155286.2064   21155288.6564
        46.900          35.8004
 125571685.688 8                  23895489.760
        48.700
 117013985.258 7  91179731.97245  22267021.969    22267021.5724   22267023.4764
        45.000          31.3004
 115340009.695 8  89708942.169 7  21584307.388    21584307.689    21584314.049
        50.000          46.200
 147869327.250 6                  28138600.186
        37.200
 122327057.092 7  95143289.471 6  22851718.084    22851718.387    22851724.718
        47.000          41.600
 131700612.226 7                  24620039.571    24620039.830
        42.700
 111026203.337 8  86353712.020 7  20769751.070    20769751.336    20769759.937
        50.400          46.500
 126777952.381 6  98787979.67645  24125071.932    24125071.3424   24125085.5784
        41.500          35.0004
 102066867.078 8  79385386.382 8  19107125.116    19107125.567    19107132.059
        52.200          49.200
 148371429.464 6                  28234161.327
        36.100
 131878639.642 6 102762710.06745  25095621.718    25095621.0844   25095624.6234
        37.700          30.1004
 118470136.196 7  92314391.17745  22544119.706    22544119.2864   22544120.9244
        45.500          33.1004
 108633620.137 8  84649573.86348  20672291.555    20672291.0594   20672291.1534
        49.300          48.7004
 25  1  1 15  8 30.0000000  0 28G09G26E19E10S31S35G03R06S48S33E27E11
                                E29E04G16E21G04R15E06R07R23R05G32R16
                                E12G29G28G31
 129672865.074 6 101043799.57745  24675926.091    24675925.5644   24675929.5234
        38.100          30.6004
 106177095.495 8  82735427.87548  20204824.766    20204824.1054   20204828.4324
        50.200          50.8004
 120937522.583 7                  23013644.760
        43.500
 145750421.940 6                  27735384.943
        38.100
 198981283.969 7                  37864875.070
        45.500
 200934458.956 7                  38236572.587
        44.400
 108761304.035 8  84749082.01848  20696585.039    20696584.7764   20696588.0194
        49.300          49.7004
 104477724.821 7                  19579081.487    19579080.855
        42.100
 412734883.593 5                  78540658.534
        33.200
 202105991.094 7                  38459467.008
        45.100
 137847750.568 7                  26231552.815
        43.000
 145431814.510 5                  27674754.558
        34.700
 132965024.183 7                  25302405.977
        44.800
 135906154.009 7                  25862083.404
        42.600
 111129069.305 7  86594143.73245  21147139.963    21147138.9754   21147141.0514
        47.000          35.7004
 125563067.908 8                  23893849.601
        48.500
 116973638.750 7  91148293.09945  22259344.388    22259343.9994   22259345.7944
        45.000          31.3004
 115393839.291 8  89750809.484 7  21594380.382    21594380.806    21594387.894
        49.600          46.200
 147833578.584 6                  28131796.566
        36.800
 122268926.153 7  95098076.563 6  22840858.966    22840858.435    22840864.681
        46.800          41.400
 131711561.441 6                  24622086.233    24622086.585
        41.800
 111066563.063 8  86385102.822 7  20777301.301    20777301.340    20777309.838
        49.900          46.500
 126820365.729 6  98821028.63245  24133143.231    24133142.6414   24133156.9564
        41.200          34.8004
 102069868.136 8  79387720.526 8  19107687.058    19107687.382    19107693.870
        52.300          49.200
 148409493.837 5                  28241404.825
        34.700
 131870762.267 6 102756571.92745  25094121.585    25094120.9594   25094125.2304
        37.900          30.3004
 118507553.885 7  92343547.79245  22551239.674    22551239.2504   22551241.2724
        45.500          33.0004
 108658544.997 8  84668995.81548  20677034.611    20677034.1244   20677034.1804
        49.300          48.5004
 25  1  1 15  8 45.0000000  0 28G09G26E19E10S31S35G03R06S48S33E27E11
                                E29E04G16E21G04R15E06R07R23R05G32R16
                                E12G29G28G31
 129624008.232 6 101005729.27645  24666629.878    24666629.3644   24666632.0274
        38.000          30.4004
 106174100.667 8  82733094.25648  20204254.936    20204254.2754   20204258.5504
        50.200          50.8004
 120936075.113 7                  23013369.503
        43.400
 145781592.627 6                  27741316.730
        38.400
 198981280.574 7                  37864879.948
        45.800
 200934422.048 7                  38236555.465
        44.100
 108764147.209 8  84751297.47348  20697126.257    20697125.9984   20697129.0684
        49.700          49.6004
 104451104.268 6                  19574091.709    19574092.197
        41.400
 412735338.068 5                  78540679.667
        33.100
 202106010.682 7                  38459475.142
        45.600
 137878900.289 7                  26237480.016
        42.800
 145448984.952 5                  27678022.178
        34.400
 132990556.980 7                  25307264.961
        44.600
 135874489.846 7                  25856057.786
        42.400
 111086363.205 7  86560866.27045  21139012.817    21139011.8294   21139014.4004
        47.300          35.6004
 125554550.108 8                  23892228.709
        48.400
 116933314.616 7  91116871.71645  22251670.659    22251670.2664   22251672.4454
        45.100          31.3004
 115447725.538 8  89792720.827 7  21604464.933    21604464.806    21604472.298
        49.400          45.900
 147797813.252 6                  28124990.688
        36.400
 122210801.535 7  95052868.545 6  22830000.979    22830001.031    22830006.884
        47.500          41.800
 131722674.735 6                  24624163.915    24624163.882
        41.400
 111107038.145 8  86416583.353 7  20784873.137    20784873.447    20784881.900
        50.400          46.500
 126862821.398 6  98854110.56245  24141222.429    24141221.8124   24141236.5074
        41.200          34.5004
 102073035.295 8  79390183.892 8  19108279.876    19108280.323    19108286.632
        52.400          49.000
 148447567.226 5                  28248649.824
        34.600
 131863001.596 6 102750524.73045  25092645.158    25092644.5284   25092648.1194
        38.600          30.0004
 118544992.241 7  92372720.51645  22558364.237    22558363.8084   22558365.5464
        45.200          32.9004
 108683532.897 8  84688466.92248  20681789.674    20681789.1964   20681789.1834
        49.300          48.4004
 25  1  1 15  9  0.0000000  0 28G09G26E19E10S31S35G03R06S48S33E27E11
                                E29E04G16E21G04R15E06R07R23R05G32R16
                                E12G29G28G31
 129575147.426 6 100967655.93945  24657331.113    24657330.5994   24657334.8664
        36.900          30.7004
 106171264.830 8  82730884.51548  20203715.525    20203714.8644   20203718.9244
        50.100          50.8004
 120934679.563 7                  23013103.947
        43.200
 145812820.685 6                  27747259.212
        37.900
 198981281.038 7                  37864878.392
        45.700
 200934388.990 7                  38236553.918
        44.300
 108767152.437 8  84753639.17048  20697697.787    20697697.5194   20697700.9534
        49.500          49.5004
 104424619.352 6                  19569128.645    19569128.638
        41.500
 412735796.623 5                  78540703.801
        33.600
 202106034.398 7                  38459478.173
        45.300
 137910123.181 7                  26243421.656
        42.400
 145466248.756 5                  27681307.616
        34.700
 133016135.054 7                  25312132.089
        44.200
 135842836.577 7                  25850034.302
        42.500
 111043776.256 7  86527681.65545  21130908.635    21130907.6524   21130910.2824
        47.300          35.7004
 125546140.976 8                  23890628.462
        48.300
 116893021.644 7  91085474.63245  22244003.216    22244002.8194   22244005.0034
        45.200          31.2004
 115501677.172 8  89834683.098 7  21614561.428    21614561.659    21614568.819
        49.600          45.900
 147762039.992 6                  28118183.909
        37.400
 122152691.483 7  95007671.764 6  22819144.082    22819144.745    22819151.291
        46.600          41.600
 131733959.313 6                  24626273.717    24626273.934
        40.100
 111147637.252 8  86448160.338 7  20792467.707    20792467.952    20792476.607
        50.200          46.500
 126905328.069 6  98887232.25545  24149312.098    24149311.4904   24149325.5744
        40.300          34.6004
 102076377.097 8  79392783.071 8  19108905.717    19108905.885    19108912.253
        52.600          49.000
 148485658.209 5                  28255898.885
        35.000
 131855366.691 6 102744575.59645  25091192.390    25091191.7334   25091195.5214
        37.800          30.2004
 118582459.797 7  92401915.99145  22565494.038    22565493.6094   22565495.5354
        45.200          32.9004
 108708592.152 8  84707993.62248  20686558.088    20686557.6104   20686557.7394
        49.600          48.3004
 25  1  1 15  9 15.0000000  0 29G09G26E19E10S31S35G06G03R06S48S33E27
                                E11E29E04G16E21G04R15E06R07R23R05G32
                                R16E12G29G28G31
 129526282.263 6 100929579.19345  24648032.964    24648032.4194   24648036.2074
        36.600          30.7004
 106168587.522 8  82728798.29248  20203205.876    20203205.2104   20203209.4414
        50.100          50.8004
 120933335.589 7                  23012848.066
        43.400
 145844105.425 6                  27753212.652
        37.500
 198981285.300 7                  37864877.865
        45.700
 200934359.880 7                  38236541.406
        43.800
 135929684.004 5                  25866558.282
        30.900
 108770319.344 8  84756106.85448  20698300.552    20698300.2894   20698303.6114
        49.400          49.6004
 104398270.050 6                  19564191.347    19564191.287
        41.700
 412734659.922 5                  78540729.606
        33.200
 202106061.230 7                  38459483.302
        45.100
 137941418.748 7                  26249377.156
        42.800
 145483605.046 5                  27684610.499
        34.600
 133041758.059 7                  25317008.167
        44.500
 135811193.905 7                  25844012.828
        42.500
 111001308.241 7  86494589.70745  21122827.173    21122826.1994   21122828.8894
        46.700          35.8004
 125537840.009 8                  23889048.693
        48.400
 116852759.489 7  91054101.54745  22236341.555    22236341.1534   22236343.3654
        44.900          31.4004
 115555693.276 8  89876695.570 7  21624669.828    21624670.097    21624677.329
        49.700          46.100
 147726258.447 6                  28111374.732
        37.200
 122094596.808 7  94962487.005 6  22808292.274    22808292.426    22808298.511
        46.200          41.600
 131745415.694 6                  24628415.437    24628415.550
        37.600
 111188359.956 8  86479833.458 7  20800086.451    20800086.247    20800095.027
        50.400          46.800
 126947885.202 6  98920393.26345  24157410.533    24157409.9214   24157424.2904
        40.900          34.2004
 102079893.076 8  79395517.716 8  19109563.973    19109564.153    19109570.489
        52.300          48.800
 148523766.027 5                  28263150.606
        35.400
 131847856.892 6 102738723.85945  25089763.831    25089763.1744   25089766.5524
        38.600          30.6004
 118619956.003 7  92431133.77945  22572629.562    22572629.1424   22572630.7644
        45.200          32.9004
 108733722.204 8  84727575.49348  20691340.081    20691339.5904   20691339.7644
        49.300          48.3004
 25  1  1 15  9 30.0000000  0 29G09G26E19E10S31S35G06G03R06S48S33E27
                                E11E29E04G16E21G04R15E06R07R23R05G32
                                R16E12G29G28G31
 129477408.293 6 100891495.56245  24638731.711    24638731.1754   24638735.5634
        37.600          31.0004
 106166064.090 8  82726831.97348  20202725.828    20202725.1674   20202729.2514
        50.100          50.9004
 120932038.740 7                  23012601.232
        43.500
 145875441.964 6                  27759175.816
        37.400
 198981288.697 7                  37864882.135
        45.700
 200934329.742 7                  38236538.907
        43.900
 135924886.887 4                  25865646.326
        28.100
 108773643.315 8  84758696.94548  20698933.241    20698932.9784   20698936.1764
        49.300          49.7004
 104372051.937 6                  19559277.778    19559277.600
        41.200
 412735122.502 5                  78540748.356
        32.700
 202106088.274 7                  38459492.554
        45.100
 137972782.194 7                  26255345.413
        43.000
 145501049.292 5                  27687929.677
        34.300
 133067421.320 7                  25321891.745
        44.600
 135779557.274 7                  25837992.825
        42.700
 110958954.966 7  86461587.18546  21114767.675    21114766.7144   21114769.4194
        47.500          36.0004
 125529642.700 8                  23887488.871
        48.600
 116812523.758 7  91022749.03845  22228684.986    22228684.5754   22228686.7444
        45.200          31.7004
 115609768.582 8  89918754.015 7  21634789.547    21634789.531    21634796.570
        49.700          45.900
 147690464.008 6                  28104563.587
        36.600
 122036512.664 7  94917310.482 6  22797441.394    22797441.488    22797448.727
        46.100          41.600
 131757038.414 6                  24630588.039    24630588.540
        39.600
 111229201.208 8  86511598.786 7  20807726.247    20807726.787    20807735.111
        50.100          46.600
 126990488.037 6  98953589.86045  24165518.189    24165517.5724   24165532.0224
        40.400          34.5004
 102083577.934 8  79398383.729 8  19110253.395    19110253.968    19110260.286
        52.100          49.000
 148561885.805 5                  28270404.128
        35.600
 131840467.813 6 102732966.15745  25088356.900    25088356.2394   25088360.2044
        37.500          30.4004
 118657476.093 7  92460370.18645  22579769.151    22579768.7494   22579770.5644
        45.100          33.2004
 108758918.282 8  84747208.78648  20696134.891    20696134.4004   20696134.3904
        49.100          48.3004
 25  1  1 15  9 45.0000000  0 29G09G26E19E10S31S35G06G03R06S48S33E27
                                E11E29E04G16E21G04R15E06R07R23R05G32
                                R16E12G29G28G31
 129428523.670 6 100853403.65645  24629429.539    24629429.0034   24629432.7694
        37.800          30.5004
 106163692.490 8  82724983.98548  20202274.513    20202273.8474   20202277.9574
        50.300          50.9004
 120930787.024 7                  23012363.360
        43.400
 145906827.970 6                  27765148.926
        37.700
 198981288.274 7                  37864880.776
        45.500
 200934296.012 7                  38236531.001
        43.800
 135920212.262 5 105911867.00442  25864755.526    25864755.7184   25864759.5744
        30.400          16.3004
 108777122.230 8  84761407.77948  20699595.476    20699595.2134   20699598.2134
        49.200          49.7004
 104345963.310 6                  19554388.954    19554388.725
        41.200
 412735581.333 5                  78540781.406
        32.700
 202106111.558 7                  38459496.002
        45.100
 138004211.306 7                  26261326.030
        42.900
 145518579.196 5                  27691265.546
        34.500
 133093122.824 7                  25326782.436
        44.600
 135747924.703 7                  25831973.197
        43.200
 110916714.786 7  86428672.78446  21106729.709    21106728.7444   21106731.3924
        47.700          36.2004
 125521546.975 8                  23885948.332
        48.400
 116772312.651 7  90991415.74145  22221032.904    22221032.4894   22221034.7474
        45.200          31.8004
 115663900.719 8  89960856.745 7  21644919.472    21644919.844    21644926.633
        50.000          45.900
 147654654.660 6                  28097749.812
        38.200
 121978437.494 7  94872140.844 7  22786593.165    22786593.301    22786599.726
        46.700          42.100
 131768825.281 6                  24632792.061    24632792.473
        39.500
 111270158.624 8  86543454.446 7  20815388.487    20815388.662    20815397.147
        49.800          46.500
 127033134.461 6  98986820.42945  24173633.627    24173633.0104   24173647.8294
        40.600          34.2004
 102087429.818 8  79401379.633 8  19110974.986    19110975.044    19110981.362
        52.300          49.000
 148600015.233 6                  28277660.725
        36.200
 131833197.454 6 102727300.94345  25086973.815    25086973.1404   25086976.7914
        38.600          30.2004
 118695017.858 7  92489623.47345  22586913.105    22586912.7124   22586914.5314
        45.400          32.9004
 108784178.122 8  84766891.74048  20700941.712    20700941.2214   20700941.1564
        49.500          48.3004
 25  1  1 15 10  0.0000000  0 29G09G26E19E10S31S35G06G03R06S48S33E27
                                E11E29E04G16E21G04R15E06R07R23R05G32
                                R16E12G29G28G31
 129379633.471 6 100815307.38445  24620126.212    24620125.6714   24620129.5534
        36.600          31.1004
 106161477.665 8  82723258.14448  20201852.864    20201852.1944   20201856.4804
        50.300          50.9004
 120929585.486 7                  23012134.433
        43.600
 145938268.258 6                  27771131.741
        37.600
 198981290.443 7                  37864883.302
        45.700
 200934264.976 7                  38236525.527
        44.000
 135915665.085 5 105908323.73942  25863891.303    25863891.4374   25863894.4904
        30.400          16.4004
 108780761.100 8  84764243.25048  20700287.688    20700287.4294   20700290.6844
        49.700          49.7004
 104320009.811 6                  19549525.566    19549525.398
        41.600
 412736043.120 5                  78540800.965
        32.900
 202106136.893 7                  38459501.202
        45.300
 138035710.871 7                  26267320.241
        42.500
 145536199.511 5                  27694619.075
        34.900
 133118867.628 7                  25331681.504
        44.600
 135716301.305 7                  25825955.377
        42.800
 110874593.108 7  86395850.72046  21098714.011    21098713.0414   21098715.8254
        47.400          36.0004
 125513557.947 8                  23884428.194
        48.400
 116732131.252 7  90960105.55345  22213386.789    22213386.3604   22213388.5054
        45.000          31.8004
 115718094.164 8  90003007.214 7  21655060.351    21655060.983    21655068.202
        49.300          45.800
 147618835.525 6                  28090932.395
        37.800
 121920376.627 7  94826982.386 6  22775746.094    22775746.271    22775753.179
        47.100          41.800
 131780780.128 5                  24635027.239    24635026.518
        35.300
 111311237.242 8  86575404.384 7  20823073.054    20823073.271    20823081.729
        50.100          46.500
 127075829.490 6  99020088.86845  24181758.824    24181758.2484   24181772.7184
        39.500          34.0004
 102091453.483 8  79404509.175 8  19111727.937    19111728.088    19111734.571
        52.200          49.000
 148638159.014 5                  28284919.036
        35.400
 131826051.107 6 102721732.32145  25085613.244    25085612.5784   25085616.8234
        39.500          30.8004
 118732586.225 7  92518897.49345  22594062.356    22594061.9544   22594063.5554
        45.500          33.0004
 108809506.607 8  84786628.21548  20705761.655    20705761.1644   20705761.0244
        49.600          48.1004
 25  1  1 15 10 15.0000000  0 29G09G26E19E10S31S35G06G03R06S48S33E27
                                E11E29E04G16E21G04R15E06R07R23R05G32
                                R16E12G29G28G31
 129330736.739 6 100777206.05545  24610821.943    24610821.3894   24610824.8004
        38.500          31.3004
 106159418.436 8  82721653.54948  20201461.216    20201460.5464   20201464.6234
        50.000          50.8004
 120928433.178 7                  23011915.298
        43.300
 145969761.296 6                  27777124.440
        37.600
 198981293.149 7                  37864878.768
        45.500
 200934234.239 7                  38236520.841
        44.100
 135911244.052 4 105904878.78942  25863049.217    25863049.0884   25863052.9844
        29.500          16.6004
 108784558.691 8  84767202.39348  20701010.356    20701010.0974   20701013.3574
        49.600          49.7004
 104294190.538 6                  19544687.283    19544686.458
        41.600
 412734905.973 5                  78540827.687
        32.800
 202106162.758 7                  38459503.693
        45.400
 138067279.474 7                  26273327.911
        42.700
 145553908.961 5                  27697988.939
        34.700
 133144654.550 7                  25336588.881
        44.300
 135684685.987 7                  25819939.356
        42.300
 110832589.066 7  86363120.32846  21090721.294    21090720.3334   21090722.6034
        47.400          36.1004
 125505674.406 8                  23882927.988
        48.200
 116691978.658 7  90928817.82445  22205746.182    22205745.7624   22205747.7594
        44.800          31.8004
 115772347.507 8  90045204.370 7  21665213.291    21665213.954    21665220.864
        49.700          45.900
 147583005.406 6                  28084114.438
        37.300
 121862329.492 7  94781834.668 6  22764902.823    22764902.461    22764909.655
        46.500          41.600
 131792902.471 5                  24637291.936    24637292.191
        34.100
 111352436.063 8  86607447.788 7  20830780.025    20830780.318    20830789.170
        50.200          46.500
 127118571.800 6  99053394.15745  24189892.324    24189891.7744   24189906.3894
        41.200          34.0004
 102095647.395 8  79407771.106 8  19112513.201    19112513.242    19112519.685
        52.400          49.000
 148676315.747 5                  28292180.101
        35.100
 131819027.807 6 102716259.58745  25084277.387    25084276.7124   25084280.2424
        38.300          30.5004
 118770179.892 7  92548191.21145  22601215.986    22601215.5844   22601217.4804
        45.400          32.8004
 108834902.378 8  84806417.14648  20710594.171    20710593.6804   20710593.6684
        49.300          48.1004
 25  1  1 15 10 30.0000000  0 29G09G26E19E10S31S35G06G03R06S48S33E27
                                E11E29E04G16E21G04R15E06R07R23R05G32
                                R16E12G29G28G31
 129281834.313 6 100739100.25645  24601515.412    24601514.8404   24601518.8174
        38.500          31.1004
 106157515.556 8  82720170.79248  20201099.107    20201098.4414   20201102.5114
        50.100          50.7004
 120927330.970 7                  23011705.643
        43.200
 146001307.640 6                  27783128.120
        37.900
 198981297.407 7                  37864882.274
        45.500
 200934205.183 7                  38236515.846
        44.000
 135906949.311 4 105901531.96842  25862233.183    25862232.9914   25862235.5314
        27.600          15.4004
 108788515.777 8  84770285.81648  20701763.465    20701763.1974   20701766.3874
        49.400          49.5004
 104268506.645 6                  19539873.518    19539873.351
        41.500
 412735371.941 5                  78540855.380
        32.800
 202106190.184 7                  38459507.655
        45.000
 138098917.537 7                  26279347.746
        42.800
 145571708.184 5                  27701375.677
        35.100
 133170484.411 7                  25341504.253
        44.500
 135653079.580 7                  25813924.807
        42.900
 110790703.661 7  86330482.36846  21082750.784    21082749.8234   21082752.0214
        47.600          36.1004
 125497897.162 8                  23881447.674
        48.300
 116651855.852 7  90897553.32145  22198110.978    22198110.5674   22198112.6554
        45.200          31.8004
 115826660.714 8  90087447.990 7  21675377.192    21675377.487    21675384.983
        48.900          46.000
 147547165.188 6                  28077293.771
        36.600
 121804296.826 7  94736698.146 7  22754061.383    22754062.622    22754068.931
        47.100          42.400
 131805192.806 6                  24639590.566    24639590.833
        37.100
 111393755.203 8  86639584.764 7  20838509.794    20838510.005    20838519.040
        50.500          46.700
 127161362.117 6  99086736.85745  24198034.874    24198034.3294   24198049.0714
        40.800          33.7004
 102100012.171 8  79411165.957 8  19113330.313    19113330.503    19113336.696
        52.800          49.100
 148714485.945 5                  28299443.887
        35.800
 131812128.503 6 102710883.46545  25082964.263    25082963.6024   25082967.4184
        38.300          30.7004
 118807799.525 7  92577505.17045  22608374.825    22608374.4234   22608376.1594
        45.300          32.6004
 108860365.979 8  84826258.94147  20715439.663    20715439.1634   20715439.1854
        49.200          47.9004
 25  1  1 15 10 45.0000000  0 29G09G26E19E10S31S35G06G03R06S48S33E27
                                E11E29E04G16E21G04R15E06R07R23R05G32
                                R16E12G29G28G31
 129232918.630 6 100700984.13245  24592207.258    24592206.6914   24592210.4194
        37.900          31.1004
 106155761.273 8  82718803.83348  20200765.395    20200764.7344   20200768.6914
        50.100          50.9004
 120926271.235 7                  23011503.669
        43.300
 146032899.347 6                  27789139.333
        37.800
 198981295.391 7                  37864880.570
        45.500
 200934170.401 7                  38236512.833
        44.000
 135902774.511 4 105898279.16742  25861438.703    25861438.5114   25861441.0224
        28.900          14.5004
 108792624.596 8  84773487.47448  20702545.270    20702545.0074   20702548.2994
        49.400          49.8004
 104242950.483 6                  19535084.134    19535084.065
        41.600
 412735832.025 5                  78540879.222
        32.900
 202106211.484 7                  38459514.447
        45.200
 138130617.429 7                  26285380.559
        42.400
 145589589.211 5                  27704778.346
        34.100
 133196349.471 7                  25346425.984
        44.800
 135621474.505 7                  25807910.359
        43.000
 110748929.561 7  86297931.15046  21074801.037    21074800.0724   21074802.6214
        47.800          36.3004
 125490218.493 8                  23879986.641
        48.200
 116611755.249 7  90866306.10645  22190480.051    22190479.6404   22190481.6354
        45.200          32.1004
 115881025.490 8  90129731.624 7  21685550.847    21685551.310    21685558.519
        49.000          45.900
 147511307.160 6                  28070470.998
        36.200
 121746271.449 7  94691567.350 7  22743221.683    22743222.081    22743228.904
        46.100          42.400
 131817642.387 5                  24641918.462    24641917.870
        35.600
 111435186.973 8  86671809.319 7  20846260.879    20846261.067    20846269.761
        50.700          46.600
 127204192.625 6  99120110.87245  24206186.110    24206185.5654   24206200.1194
        39.700          33.9004
 102104539.839 8  79414687.470 8  19114177.845    19114178.027    19114184.229
        52.700          49.000
 148752661.626 5                  28306709.262
        34.900
 131805345.613 6 102705598.07145  25081673.281    25081672.6514   25081677.0024
        38.800          31.0004
 118845437.272 7  92606833.26845  22615537.112    22615536.7064   22615538.5184
        45.200          32.8004
 108885889.404 8  84846147.31248  20720296.609    20720296.1044   20720296.0784
        49.100          48.0004
 25  1  1 15 11  0.0000000  0 29G09G26E19E10S31S35G06G03R06S48S33E27
                                E11E29E04G16E21G04R15E06R07R23R05G32
                                R16E12G29G28G31
 129183999.091 6 100662865.05245  24582898.561    24582898.0164   24582901.6414
        38.000          31.7004
 106154164.658 8  82717559.71948  20200461.339    20200460.6784   20200464.8624
        50.000          51.0004
 120925263.054 7                  23011311.878
        43.500
 146064545.327 6                  27795161.751
        38.800
 198981296.572 7                  37864877.815
        45.300
 200934138.217 7                  38236502.423
        43.900
 135898727.801 5 105895125.95742  25860667.449    25860667.2444   25860670.9464
        30.500          15.5004
 108796894.312 8  84776814.51348  20703357.813    20703357.5504   20703360.8114
        49.400          49.8004
 104217532.079 6                  19530321.939    19530320.964
        41.800
 412736294.937 5                  78540904.769
        33.100
 202106236.187 7                  38459513.379
        44.800
 138162388.038 7                  26291426.471
        42.900
 145607560.979 5                  27708198.405
        35.100
 133222258.940 7                  25351356.483
        44.400
 135589879.977 7                  25801898.488
        42.900
 110707276.212 7  86265474.00546  21066874.624    21066873.6594   21066876.2454
        47.600          36.3004
 125482647.531 8                  23878545.794
        48.300
 116571686.293 7  90835083.56945  22182855.301    22182854.8954   22182856.7094
        45.000          32.2004
 115935450.845 8  90172062.365 7  21695736.221    21695736.467    21695743.892
        49.400          46.100
 147475440.520 6                  28063646.044
        37.400
 121688262.666 7  94646449.383 6  22732385.081    22732385.390    22732391.855
        46.900          41.600
 131830262.209 6                  24644275.599    24644276.069
        37.300
 111476740.290 8  86704128.429 7  20854034.035    20854034.473    20854043.047
        50.300          46.300
 127247072.419 6  99153523.28045  24214346.145    24214345.6044   24214360.6604
        39.300          33.5004
 102109239.313 8  79418342.634 8  19115057.726    19115057.671    19115064.052
        52.600          48.900
 148790851.638 5                  28313976.249
        35.900
 131798688.678 6 102700410.88645  25080405.841    25080405.1894   25080409.8704
        38.200          30.6004
 118883102.179 7  92636182.52245  22622704.533    22622704.1134   22622706.0014
        45.300          32.8004
 108911481.767 8  84866089.42447  20725166.915    20725166.4154   20725166.1224
        49.400          47.9004
 25  1  1 15 11 15.0000000  0 29G09G26E19E10S31S35G06G03R06S48S33E27
                                E11E29E04G16E21G04R15E06R07R23R05G32
                                R16E12G29G28G31
 129135072.864 6 100624740.74545  24573587.899    24573587.3764   24573591.4054
        38.300          31.9004
 106152722.821 8  82716436.20148  20200187.131    20200186.4744   20200190.4794
        50.000          50.8004
 120924303.881 7                  23011129.379
        44.000
 146096242.403 6                  27801193.302
        39.000
 198981298.037 7                  37864876.675
        45.200
 200934106.147 7                  38236496.028
        43.800
 135894806.763 5 105892070.84143  25859921.874    25859921.6424   25859924.7004
        32.400          18.5004
 108801322.020 8  84780264.67648  20704200.378    20704200.1154   20704203.3904
        49.300          49.7004
 104192248.746 6                  19525583.068    19525583.070
        41.600
 412736757.606 5                  78540934.304
        33.300
 202106260.357 7                  38459521.280
        45.000
 138194226.146 7                  26297485.310
        42.800
 145625620.500 5                  27711635.289
        35.500
 133248209.936 7                  25356294.823
        44.800
 135558293.200 7                  25795887.589
        43.800
 110665741.137 7  86233109.03046  21058970.685    21058969.7114   21058972.3434
        47.600          36.2004
 125475181.372 8                  23877124.826
        48.700
 116531646.193 7  90803883.51845  22175235.878    22175235.4634   22175237.3054
        45.700          32.1004
 115989933.787 8  90214437.916 7  21705931.988    21705931.897    21705939.620
        49.300          45.900
 147439562.420 6                  28056818.273
        37.600
 121630268.524 7  94601342.862 7  22721551.695    22721552.200    22721558.495
        47.500          42.200
 131843048.336 6                  24646667.056    24646667.086
        41.400
 111518412.300 8  86736539.854 7  20861830.027    20861830.098    20861838.900
        50.100          46.400
 127289998.521 6  99186971.77045  24222515.691    24222515.1374   24222529.5234
        40.400          33.3004
 102114107.725 8  79422129.177 8  19115968.969    19115969.176    19115975.320
        52.500          48.800
 148829052.897 5                  28321245.993
        35.700
 131792154.624 6 102695319.39445  25079163.325    25079162.6684   25079166.3204
        38.400          30.5004
 118920791.215 7  92665550.57345  22629876.611    22629876.1964   22629877.8674
        44.700          32.5004
 108937139.803 8  84886082.68147  20730049.176    20730048.6764   20730048.6784
        49.100          47.7004
 25  1  1 15 11 30.0000000  0 29G09G26E19E10S31S35G06G03R06S48S33E27
                                E11E29E04G16E21G04R15E06R07R23R05G32
                                R16E12G29G28G31
 129086139.817 6 100586611.12745  24564276.199    24564275.6634   24564279.8864
        37.200          31.2004
 106151435.527 8  82715433.12148  20199942.088    20199941.4314   20199945.5284
        50.000          51.0004
 120923393.402 7                  23010956.231
        43.700
 146127990.113 6                  27807234.707
        38.300
 198981299.047 7                  37864880.963
        45.700
 200934074.021 7                  38236492.867
        44.000
 135891010.366 5 105889112.52043  25859199.206    25859198.9564   25859202.1934
        33.400          18.9004
 108805907.352 8  84783837.64948  20705072.986    20705072.7234   20705075.9564
        49.400          49.7004
 104167100.662 6                  19520869.811    19520869.863
        41.700
 412735621.568 5                  78540960.977
        32.900
 202106285.911 7                  38459524.795
        45.300
 138226131.630 7                  26303556.596
        43.300
 145643767.386 5                  27715088.280
        35.700
 133274202.258 7                  25361241.125
        44.900
 135526713.972 7                  25789877.994
        43.600
 110624324.569 7  86200836.40746  21051089.564    21051088.5944   21051090.9484
        47.700          36.4004
 125467819.860 8                  23875724.319
        48.600
 116491634.925 7  90772705.91945  22167621.663    22167621.2344   22167623.5544
        45.700          32.2004
 116044473.188 8  90256857.386 7  21716138.850    21716139.041    21716145.625
        49.800          45.600
 147403672.743 6                  28049988.935
        38.000
 121572288.496 7  94556247.371 7  22710720.754    22710720.486    22710727.930
        46.800          42.400
 131855998.532 7                  24649088.401    24649088.483
        43.200
 111560202.511 8  86769043.220 7  20869647.684    20869647.881    20869656.996
        50.200          46.400
 127332970.615 6  99220456.09745  24230692.601    24230692.0294   24230707.2264
        39.700          33.2004
 102119144.346 8  79426046.535 8  19116911.898    19116911.977    19116918.269
        52.600          48.700
 148867264.906 6                  28328517.808
        36.600
 131785743.360 6 102690323.55645  25077943.636    25077942.9934   25077946.2384
        39.700          30.9004
 118958504.019 7  92694937.14445  22637053.587    22637053.1814   22637054.4104
        44.900          32.6004
 108962863.222 8  84906126.89347  20734944.315    20734943.8104   20734943.7014
        49.300          47.8004
 25  1  1 15 11 45.0000000  0 29G09G26E19E10S31S35G06G03R06S48S33E27
                                E11E29E04G16E21G04R15E06R07R23R05G32
                                R16E12G29G28G31
 129037200.172 6 100548476.39045  24554963.501    24554962.9744   24554966.9054
        39.000          32.4004
 106150302.600 8  82714550.33648  20199726.642    20199725.9854   20199729.9334
        50.400          51.1004
 120922531.673 7                  23010792.224
        43.500
 146159788.005 6                  27813285.972
        38.200
 198981300.202 7                  37864883.369
        45.800
 200934041.769 7                  38236482.779
        44.100
 135887338.881 5 105886251.51243  25858500.378    25858500.0884   25858503.3954
        32.600          19.5004
 108810650.242 8  84787533.38848  20705975.447    20705975.1844   20705978.4954
        49.300          49.8004
 104142087.940 6                  19516183.615    19516182.789
        41.600
 412736085.340 5                  78540983.094
        33.400
 202106309.981 7                  38459533.800
        45.500
 138258103.881 7                  26309640.214
        43.000
 145662001.294 5                  27718557.750
        34.600
 133300235.772 7                  25366195.529
        44.600
 135495142.381 7                  25783870.590
        43.400
 110583026.542 8  86168656.15046  21043230.754    21043229.7804   21043232.1434
        48.100          36.4004
 125460562.943 8                  23874343.156
        48.400
 116451652.519 7  90741550.78745  22160013.501    22160013.0774   22160015.1204
        45.100          32.3004
 116099068.782 8  90299320.696 7  21726354.862    21726355.353    21726362.795
        49.600          45.800
 147367771.357 6                  28043156.288
        37.600
 121514322.931 7  94511162.974 7  22699892.443    22699892.537    22699898.734
        47.600          42.100
 131869112.910 7                  24651540.115    24651539.975
        42.500
 111602110.743 8  86801638.344 7  20877487.480    20877488.133    20877496.721
        50.900          46.100
 127375988.558 6  99253976.14145  24238879.137    24238878.5704   24238893.4884
        40.100          33.6004
 102124349.329 8  79430094.836 8  19117886.262    19117886.523    19117892.582
        52.600          48.600
 148905487.259 5                  28335790.731
        35.500
 131779454.854 6 102685423.30945  25076746.984    25076746.3454   25076749.7934
        38.500          31.0004
 118996240.347 7  92724342.04445  22644234.427    22644234.0254   22644235.4424
        45.100          32.6004
 108988651.670 8  84926221.77747  20739851.482    20739850.9734   20739851.0964
        49.500          47.8004
 25  1  1 15 12  0.0000000  0 29G09G26E19E10S31S35G06G03R06S48S33E27
                                E11E29E04G16E21G04R15E06R07R23R05G32
                                R16E12G29G28G31
 128988255.560 6 100510337.79345  24545649.876    24545649.3494   24545652.8064
        39.100          31.9004
 106149325.666 8  82713789.09348  20199540.622    20199539.9564   20199544.0394
        50.000          51.0004
 120921720.448 7                  23010637.896
        43.500
 146191637.599 6                  27819346.804
        37.900
 198981302.503 7                  37864881.692
        45.900
 200934011.039 7                  38236478.844
        44.000
 135883794.117 5 105883489.19543  25857826.200    25857825.9104   25857828.7614
        35.000          22.5004
 108815552.368 8  84791353.22148  20706908.318    20706908.0594   20706911.3514
        49.300          49.7004
 104117212.849 6                  19511521.125    19511521.185
        41.500
 412736551.508 5                  78541011.448
        33.300
 202106335.903 7                  38459536.685
        45.100
 138290144.526 7                  26315737.738
        43.300
 145680323.767 5                  27722045.009
        34.300
 133326312.252 7                  25371157.200
        44.200
 135463580.178 7                  25777864.004
        43.300
 110541849.149 8  86136569.89846  21035395.001    21035394.0134   21035396.3894
        48.000          36.5004
 125453412.240 8                  23872982.495
        48.300
 116411701.002 7  90710419.73345  22152411.264    22152410.8624   22152412.5834
        45.400          32.4004
 116153721.609 8  90341828.526 7  21736582.424    21736582.540    21736590.205
        48.900          45.600
 147331860.010 6                  28036323.160
        37.700
 121456374.241 7  94466091.733 7  22689066.988    22689067.861    22689073.588
        47.400          42.700
 131882396.257 6                  24654023.569    24654022.999
        40.100
 111644138.320 8  86834326.335 7  20885349.689    20885349.711    20885358.933
        50.600          46.400
 127419053.912 6  99287533.13045  24247074.535    24247073.9684   24247089.0384
        40.300          33.4004
 102129723.611 8  79434274.826 8  19118892.226    19118892.490    19118898.657
        52.600          48.500
 148943721.381 6                  28343067.393
        36.300
 131773291.417 6 102680620.55845  25075574.217    25075573.5564   25075577.1774
        38.100          31.0004
 119034001.757 7  92753766.47945  22651419.890    22651419.4794   22651421.2954
        44.800          32.4004
 109014506.701 8  84946368.53647  20744771.806    20744771.2974   20744771.1734
        49.200          47.8004
 25  1  1 15 12 15.0000000  0 29G09G26E19E10S31S35G06G03R06S48S33E27
                                E11E29E04G16E21G04R15E06R07R23R05G32
                                R16E12G29G28G31
 128939305.902 6 100472195.22545  24536334.692    24536334.1474   24536337.7864
        37.900          32.3004
 106148504.452 8  82713149.18148  20199384.442    20199383.7764   20199387.7564
        50.000          51.0004
 120920959.656 7                  23010493.114
        43.300
 146223538.273 6                  27825418.173
        38.500
 198981306.468 7                  37864881.822
        45.800
 200933981.010 7                  38236472.771
        44.100
 135880376.311 5 105880825.97744  25857175.733    25857175.4474   25857178.7794
        35.000          24.5004
 108820613.371 8  84795296.84748  20707871.473    20707871.2144   20707874.4134
        49.300          49.7004
 104092475.569 6                  19506884.783    19506885.240
        41.400
 412737019.404 5                  78541031.374
        32.800
 202106363.348 7                  38459542.162
        45.400
 138322253.021 7                  26321847.867
        42.700
 145698734.357 5                  27725548.274
        34.500
 133352431.426 7                  25376127.943
        44.200
 135432027.131 7                  25771859.806
        43.500
 110500792.557 7  86104577.77346  21027582.285    21027581.2934   21027583.5344
        47.600          36.6004
 125446367.548 8                  23871641.881
        48.200
 116371780.297 7  90679312.72745  22144814.167    22144813.7564   22144815.8874
        45.600          32.3004
 116208431.074 8  90384380.315 7  21746821.095    21746821.026    21746827.958
        49.200          45.300
 147295938.460 6                  28029486.837
        36.900
 121398442.349 7  94421033.568 6  22678245.287    22678245.233    22678250.719
        47.000          41.500
 131895845.068 6                  24656537.559    24656536.856
        37.300
 111686285.079 8  86867107.020 7  20893234.330    20893234.742    20893243.732
        51.100          46.300
 127462166.386 6  99321126.82345  24255278.785    24255278.2224   24255293.5404
        39.300          33.4004
 102135267.196 8  79438586.511 8  19119930.072    19119930.211    19119936.583
        52.500          48.600
 148981966.714 5                  28350344.407
        35.900
 131767252.661 6 102675915.04945  25074425.128    25074424.4624   25074427.8584
        37.800          31.0004
 119071787.917 7  92783210.18045  22658610.536    22658610.1254   22658611.8074
        44.300          32.2004
 109040427.865 8  84966566.83747  20749704.467    20749703.9584   20749703.8564
        48.700          47.7004
 25  1  1 15 12 30.0000000  0 29G09G26E19E10S31S35G06G03R06S48S33E27
                                E11E29E04G16E21G04R15E06R07R23R05G32
                                R16E12G29G28G31
 128890344.758 6 100434043.68545  24527018.361    24527017.8114   24527021.1064
        38.100          32.4004
 106147832.305 8  82712625.43748  20199256.247    20199255.5774   20199259.8494
        49.800          51.1004
 120920242.738 7                  23010356.745
        43.600
 146255483.285 6                  27831496.495
        38.500
 198981304.901 7                  37864886.213
        45.500
 200933945.772 7                  38236465.272
        43.400
 135877078.619 5 105878256.61144  25856548.534    25856548.2264   25856551.2594
        34.600          24.6004
 108825826.644 8  84799359.13048  20708863.470    20708863.2114   20708866.4924
        48.900          49.8004
 104067869.651 6                  19502274.769    19502274.402
        41.500
 412737483.112 5                  78541059.339
        32.500
 202106384.305 7                  38459550.171
        45.200
 138354422.497 7                  26327969.355
        43.400
 145717226.326 5                  27729066.593
        35.300
 133378586.715 7                  25381105.021
        44.700
 135400476.735 7                  25765855.815
        43.700
 110459850.331 7  86072674.77546  21019791.108    21019790.1114   21019792.4524
        47.200          36.6004
 125439422.283 8                  23870320.246
        48.300
 116331883.923 7  90648224.66945  22137222.138    22137221.7184   22137223.8634
        44.600          32.3004
 116263189.733 8  90426970.291 7  21757067.742    21757067.946    21757075.580
        49.300          45.600
 147260000.256 6                  28022648.994
        37.000
 121340520.763 7  94375983.445 7  22667424.344    22667424.908    22667431.722
        47.500          42.800
 131909452.504 6                  24659080.098    24659081.250
        37.300
 111728543.980 8  86899974.934 7  20901139.271    20901139.556    20901148.926
        49.600          46.100
 127505319.213 6  99354751.97745  24263490.487    24263489.9114   24263505.9034
        39.900          33.8004
 102140972.606 8  79443024.047 8  19120998.066    19120998.222    19121004.710
        52.300          48.600
 149020216.417 5                  28357623.489
        35.500
 131761331.995 6 102671301.48445  25073298.291    25073297.6484   25073301.3404
        38.300          31.3004
 119109592.079 7  92812667.93645  22665804.517    22665804.1154   22665805.8294
        44.000          32.2004
 109066408.381 8  84986811.38047  20754648.376    20754647.8764   20754647.8074
        48.600          47.7004
 25  1  1 15 12 45.0000000  0 29G09G26E19E10S31S35G06G03R06S48S33E27
                                E11E29E04G16E21G04R15E06R07R23R05G32
                                R16E12G29G28G31
 128841380.702 6 100395889.87445  24517700.537    24517699.9744   24517703.4574
        37.700          32.1004
 106147317.638 8  82712224.39748  20199158.402    20199157.7274   20199161.9124
        50.000          51.0004
 120919578.171 7                  23010230.290
        43.300
 146287480.777 6                  27837585.597
        37.300
 198981306.357 7                  37864885.252
        45.300
 200933913.626 7                  38236460.662
        44.000
 135873908.584 5 105875786.44844  25855945.149    25855944.8504   25855947.6164
        35.000          26.0004
 108831200.581 8  84803546.59248  20709886.236    20709885.9774   20709889.1394
        49.200          49.7004
 104043404.087 6                  19497689.447    19497689.232
        41.400
 412736348.885 5                  78541084.354
        32.800
 202106410.305 7                  38459554.348
        45.200
 138386661.260 7                  26334104.611
        43.000
 145735807.862 5                  27732602.784
        34.600
 133404786.608 7                  25386090.946
        44.200
 135368937.671 7                  25759854.324
        43.300
 110419031.370 7  86040867.81746  21012023.398    21012022.4064   21012024.7784
        47.400          36.7004
 125432584.943 8                  23869019.195
        48.200
 116292020.493 7  90617162.26245  22129636.562    22129636.1564   22129637.9884
        45.100          32.3004
 116318005.988 8  90469605.004 7  21767326.444    21767326.657    21767333.889
        49.700          45.500
 147224053.891 6                  28015808.261
        37.600
 121282618.809 7  94330948.598 7  22656608.057    22656608.174    22656615.140
        47.200          42.900
 131923228.519 6                  24661656.767    24661656.439
        39.300
 111770923.273 8  86932936.464 7  20909068.290    20909068.395    20909077.157
        50.600          46.100
 127548520.855 6  99388415.15845  24271711.581    24271711.0054   24271727.5934
        39.900          33.9004
 102146848.537 8  79447594.197 8  19122098.049    19122098.331    19122104.569
        52.500          48.500
 149058478.687 5                  28364905.180
        34.600
 131755538.492 6 102666787.14945  25072195.883    25072195.2314   25072199.6314
        39.500          32.0004
 119147422.566 7  92842146.18045  22673003.751    22673003.3714   22673004.7624
        43.900          32.1004
 109092456.550 8  85007108.63647  20759605.119    20759604.6104   20759604.6194
        48.800          47.7004
 25  1  1 15 13  0.0000000  0 29G09G26E19E10S31S35G06G03R06S48S33E27
                                E11E29E04G16E21G04R15E06R07R23R05G32
                                R16E12G29G28G31
 128792411.053 6 100357731.73045  24508381.560    24508380.9844   24508384.4034
        37.400          31.7004
 106146957.522 8  82711943.80448  20199089.845    20199089.1704   20199093.3894
        49.800          51.3004
 120918963.118 7                  23010113.143
        43.500
 146319527.423 6                  27843684.461
        36.700
 198981307.797 7                  37864883.856
        45.600
 200933882.085 7                  38236452.801
        44.000
 135870864.082 5 105873414.19344  25855365.565    25855365.2704   25855368.3184
        35.500          25.8004
 108836732.129 8  84807856.86248  20710938.556    20710938.2884   20710941.7954
        49.400          49.8004
 104019076.293 6                  19493130.606    19493130.265
        41.300
 412736814.341 5                  78541110.012
        32.900
 202106435.311 7                  38459555.998
        45.100
 138418966.196 7                  26340252.276
        43.100
 145754475.913 5                  27736155.087
        35.100
 133431028.110 7                  25391084.457
        44.400
 135337406.943 7                  25753854.079
        43.000
 110378333.058 7  86009154.87546  21004278.964    21004277.9764   21004280.1344
        47.700          36.8004
 125425852.465 8                  23867738.020
        48.100
 116252187.298 7  90586123.41645  22122056.497    22122056.0914   22122057.9134
        45.200          32.5004
 116372876.629 8  90512282.153 7  21777594.565    21777594.920    21777602.215
        49.400          45.500
 147188096.337 6                  28008965.837
        37.500
 121224733.521 7  94285926.644 7  22645795.296    22645795.339    22645801.201
        47.600          42.500
 131937168.532 6                  24664261.222    24664262.202
        40.600
 111813420.165 8  86965989.477 7  20917017.708    20917017.880    20917026.929
        50.100          45.900
 127591768.244 6  99422113.98745  24279942.188    24279941.6214   24279957.6104
        39.100          33.8004
 102152891.794 8  79452294.476 8  19123229.497    19123229.674    19123236.055
        52.700          48.600
 149096750.205 6                  28372187.856
        36.400
 131749869.140 6 102662369.50545  25071117.265    25071116.6314   25071120.7724
        38.200          31.8004
 119185276.287 7  92871642.53345  22680207.111    22680206.7454   22680208.1344
        44.100          32.3004
 109118569.072 8  85027456.04247  20764574.369    20764573.8734   20764573.7004
        48.700          47.9004
 25  1  1 15 13 15.0000000  0 29G09G26E19E10S31S35G06G03R06S48S33E27
                                E11E29E04G16E21G04R15E06R07R23R05G32
                                R16E12G29G28G31
 128743436.725 6 100319569.95345  24499062.344    24499061.7864   24499065.2694
        37.600          31.9004
 106146752.611 8  82711784.14048  20199050.632    20199049.9624   20199054.4014
        49.800          51.1004
 120918398.702 7                  23010005.829
        43.500
 146351623.972 6                  27849791.567
        38.400
 198981310.211 7                  37864883.825
        45.600
 200933851.122 7                  38236449.116
        43.600
 135867945.100 5 105871139.66944  25854810.459    25854810.1514   25854813.0594
        35.200          24.9004
 108842422.306 8  84812290.76848  20712021.406    20712021.1294   20712024.6384
        49.100          49.6004
 103994887.653 6                  19488597.587    19488597.234
        41.300
 412737282.009 5                  78541131.645
        33.000
 202106460.623 7                  38459559.825
        45.100
 138451338.136 7                  26346412.272
        43.200
 145773231.149 5                  27739724.148
        34.700
 133457312.216 7                  25396086.206
        44.400
 135305885.570 7                  25747855.651
        43.500
 110337756.712 7  85977536.97546  20996557.399    20996556.4074   20996558.7154
        47.600          36.7004
 125419225.837 8                  23866477.006
        48.100
 116212385.451 7  90555109.00745  22114482.384    22114481.9824   22114483.9374
        44.800          32.4004
 116427802.129 8  90555001.996 7  21787872.852    21787873.320    21787880.427
        49.300          45.200
 147152128.551 6                  28002120.785
        36.900
 121166866.205 7  94240918.765 7  22634984.644    22634984.136    22634990.789
        46.300          42.200
 131951273.843 7                  24666898.699    24666898.894
        42.300
 111856035.179 8  86999134.373 7  20924990.279    20924990.448    20924999.590
        50.400          46.000
 127635062.196 6  99455849.10845  24288181.009    24288180.4514   24288196.3784
        40.700          33.8004
 102159103.076 8  79457125.467 8  19124392.440    19124392.546    19124398.735
        53.000          48.500
 149135031.656 5                  28379472.399
        35.600
 131744324.802 6 102658049.30645  25070061.472    25070060.8384   25070065.6034
        39.200          32.1004
 119223154.082 7  92901157.63745  22687414.821    22687414.4504   22687415.9434
        44.600          32.1004
 109144746.692 8  85047854.14147  20769555.913    20769555.4224   20769555.2044
        48.800          47.7004
 25  1  1 15 13 30.0000000  0 29G09G26E19E10S31S35G06G03R06S48S33E27
                                E11E29E04G16E21G04R15E06R07R23R05G32
                                R16E12G29G28G31
 128694453.176 6 100281400.98345  24489740.778    24489740.2114   24489743.8454
        38.600          32.2004
 106146698.155 8  82711741.70548  20199040.459    20199039.7844   20199044.0274
        49.900          51.1004
 120917880.080 7                  23009907.185
        43.400
 146383765.307 6                  27855907.902
        37.500
 198981309.378 7                  37864884.648
        45.500
 200933816.455 7                  38236443.920
        44.000
 135865147.788 5 105868959.90343  25854277.705    25854277.3884   25854280.7124
        34.300          22.2004
 108848266.076 8  84816844.33748  20713133.563    20713133.2914   20713136.6864
        49.100          49.7004
 103970833.435 6                  19484089.760    19484089.489
        41.000
 412737746.671 5                  78541170.057
        32.700
 202106484.082 7                  38459564.033
        45.000
 138483771.829 7                  26352584.128
        43.200
 145792068.590 5                  27743309.258
        34.900
 133483634.077 7                  25401094.969
        44.000
 135274368.814 7                  25741858.206
        43.300
 110297297.689 7  85946010.49546  20988858.012    20988857.0154   20988859.5784
        47.900          36.8004
 125412700.275 8                  23865235.090
        48.000
 116172610.264 7  90524115.35645  22106913.965    22106913.5684   22106915.0044
        45.100          32.3004
 116482776.880 8  90597760.134 7  21798160.757    21798160.753    21798168.790
        49.100          45.500
 147116145.805 6                  27995274.964
        37.900
 121109012.292 7  94195921.262 7  22624176.715    22624177.163    22624183.298
        47.100          42.500
 131965538.771 6                  24669565.784    24669565.644
        40.800
 111898763.267 8  87032367.204 7  20932983.411    20932983.576    20932992.468
        50.900          46.000
 127678397.812 6  99489616.68845  24296427.917    24296427.3764   24296443.3964
        40.400          33.8004
 102165477.082 8  79462083.016 8  19125585.406    19125585.772    19125591.893
        52.800          48.400
 149173317.945 6                  28386758.400
        36.000
 131738900.777 6 102653822.81045  25069029.554    25069028.9204   25069033.4454
        37.400          31.6004
 119261050.955 7  92930687.61845  22694626.326    22694625.9514   22694627.5214
        44.500          31.9004
 109170984.466 8  85068299.12247  20774548.563    20774548.0674   20774548.1644
        49.200          47.7004
 25  1  1 15 13 45.0000000  0 29G09G26E19E10S31S35G06G03R06S48S33E27
                                E11E29E04G16E21G04R15E06R07R23R05G32
                                R16E12G29G28G31
 128645465.585 6 100243228.83045  24480418.923    24480418.3604   24480421.8364
        38.800          32.8004
 106146799.312 8  82711820.52048  20199059.814    20199059.1484   20199063.2864
        50.200          51.2004
 120917412.688 7                  23009818.126
        43.900
 146415956.470 6                  27862034.187
        38.100
 198981309.672 7                  37864888.708
        45.500
 200933783.420 7                  38236431.516
        43.400
 135862476.657 5 105866878.40543  25853769.030    25853768.7174   25853771.6634
        34.400          20.5004
 108854268.698 8  84821521.67348  20714275.762    20714275.4904   20714278.9804
        49.400          49.6004
 103946919.508 6                  19479608.906    19479608.123
        41.100
 412738214.050 5                  78541189.007
        33.400
 202106507.379 7                  38459566.671
        44.700
 138516272.354 7                  26358768.634
        43.600
 145810993.250 5                  27746910.482
        34.600
 133509998.962 7                  25406111.897
        44.300
 135242862.012 7                  25735862.914
        43.600
 110256961.635 8  85914579.83046  20981182.522    20981181.5214   20981183.8144
        48.300          36.9004
 125406280.939 8                  23864013.735
        48.300
 116132867.287 7  90493146.81645  22099350.787    22099350.3814   22099352.1804
        45.500          32.4004
 116537806.245 8  90640560.882 7  21808459.477    21808459.745    21808466.333
        49.900          45.300
 147080153.470 6                  27988424.831
        38.500
 121051177.609 7  94150938.708 7  22613372.822    22613372.641    22613380.086
        47.500          42.600
 131979968.222 6                  24672263.344    24672263.486
        40.300
 111941609.530 8  87065691.965 7  20940998.401    20940998.548    20941008.196
        49.500          46.000
 127721780.259 6  99523420.75345  24304683.609    24304683.0644   24304699.1254
        39.700          33.8004
 102172018.937 8  79467171.104 8  19126810.258    19126810.455    19126816.604
        53.200          48.300
 149211614.100 5                  28394045.959
        35.100
 131733602.435 6 102649694.28445  25068021.501    25068020.8754   25068025.3044
        38.800          32.3004
 119298972.087 7  92960236.49545  22701842.455    22701842.0624   22701843.7674
        44.200          31.8004
 109197287.579 8  85088795.06947  20779553.918    20779553.4134   20779553.5334
        49.100          47.8004
 25  1  1 15 14  0.0000000  0 29G09G26E19E10S31S35G06G03R06S48S33E27
                                E11E29E04G16E21G04R15E06R07R23R05G32
                                R16E12G29G28G31
 128596473.778 6 100205053.46045  24471095.369    24471094.8114   24471098.9774
        38.600          32.1004
 106147055.442 8  82712020.10548  20199108.535    20199107.8694   20199112.0314
        50.400          51.1004
 120916995.816 7                  23009738.776
        43.900
 146448196.492 6                  27868168.928
        38.500
 198981310.495 7                  37864886.472
        45.400
 200933750.949 7                  38236425.667
        43.300
 135859931.332 5 105864894.93443  25853284.795    25853284.4694   25853287.5164
        33.300          18.8004
 108860429.486 8  84826322.26048  20715448.163    20715447.8824   20715451.3504
        49.200          49.5004
 103923145.525 6                  19475153.125    19475152.902
        41.000
 412737082.338 5                  78541213.016
        32.900
 202106531.612 7                  38459572.283
        44.800
 138548839.138 7                  26364965.972
        44.000
 145830004.407 5                  27750528.251
        35.000
 133536406.226 7                  25411137.409
        44.600
 135211364.616 7                  25729868.843
        43.600
 110216748.077 8  85883244.62246  20973529.844    20973528.8384   20973531.4114
        48.300          36.8004
 125399967.190 8                  23862812.303
        48.500
 116093155.988 7  90462202.95545  22091793.489    22091793.0694   22091795.2724
        46.400          32.4004
 116592888.771 8  90683403.066 7  21818765.728    21818766.218    21818774.277
        48.600          45.300
 147044150.958 6                  27981574.048
        38.300
 120993361.926 7  94105970.959 7  22602572.035    22602572.389    22602579.105
        47.500          42.600
 131994563.484 6                  24674991.505    24674990.917
        38.900
 111984573.024 8  87099107.883 7  20949036.543    20949036.187    20949045.298
        50.500          45.900
 127765208.777 6  99557260.72345  24312947.710    24312947.1604   24312963.8284
        40.500          33.8004
 102178727.831 8  79472389.139 8  19128065.830    19128066.235    19128072.571
        52.700          48.600
 149249919.227 6                  28401335.358
        36.700
 131728429.250 6 102645663.27745  25067036.903    25067036.2824   25067040.3674
        38.300          31.6004
 119336916.660 7  92989803.64545  22709063.178    22709062.7854   22709064.4944
        44.200          31.4004
 109223654.893 8  85109341.01447  20784571.154    20784570.6544   20784571.0964
        49.300          47.7004
 25  1  1 15 14 15.0000000  0 29G09G26E19E10S31S35G06G03R06S48S33E27
                                E11E29E04G16E21G04R15E06R07R23R05G32
                                R16E12G29G28G31
 128547477.391 6 100166874.48045  24461772.744    24461772.1724   24461775.0274
        39.000          32.4004
 106147466.237 8  82712340.20548  20199186.787    20199186.1174   20199190.2094
        50.600          51.3004
 120916629.596 7                  23009669.188
        43.800
 146480485.022 6                  27874313.388
        38.100
 198981312.055 7                  37864884.505
        45.600
 200933719.085 7                  38236420.927
        43.600
 135857511.371 5 105863009.08843  25852824.584    25852824.2584   25852827.3054
        31.200          18.0004
 108866748.168 8  84831245.88048  20716650.568    20716650.2914   20716653.8014
        49.000          49.6004
 103899511.520 6                  19470723.949    19470723.966
        40.800
 412737551.357 5                  78541237.216
        32.200
 202106557.772 7                  38459583.368
        45.000
 138581471.500 7                  26371175.566
        43.900
 145849101.506 5                  27754162.133
        35.100
 133562855.704 7                  25416170.578
        44.800
 135179876.474 7                  25723877.234
        43.900
 110176657.350 7  85852005.11846  20965901.185    20965900.1844   20965902.2684
        47.800          37.0004
 125393758.926 8                  23861630.781
        48.300
 116053476.351 7  90431283.76045  22084242.873    22084242.4404   22084244.4064
        45.600          32.5004
 116648023.681 8  90726285.876 7  21829084.376    21829084.402    21829091.491
        48.900          45.200
 147008138.101 6                  27974720.949
        38.000
 120935565.281 7  94061018.004 7  22591775.555    22591775.706    22591782.721
        47.100          42.800
 132009320.790 6                  24677750.893    24677750.395
        36.100
 112027653.751 8  87132614.985 7  20957095.273    20957095.460    20957104.392
        50.300          45.800
 127808683.136 6  99591136.40845  24321221.114    24321220.5734   24321237.2464
        40.800          34.2004
 102185603.498 8  79477736.865 8  19129352.891    19129353.405    19129359.674
        53.000          48.500
 149288232.860 5                  28408626.128
        35.900
 131723381.057 6 102641729.61045  25066075.767    25066075.1414   25066079.6844
        38.700          31.9004
 119374884.378 7  93019388.83045  22716288.234    22716287.8594   22716289.5904
        44.000          31.7004
 109250086.055 8  85129936.68647  20789601.016    20789600.5164   20789600.8134
        49.100          47.9004
 25  1  1 15 14 30.0000000  0 29G09G26E19E10S31S35G06G03R06S48S33E27
                                E11E29E04G16E21G04R15E06R07R23R05G32
                                R16E12G29G28G31
 128498475.723 6 100128691.43045  24452447.532    24452446.9694   24452450.2944
        39.200          32.6004
 106148030.564 8  82712779.95248  20199294.046    20199293.3714   20199297.6044
        50.500          51.4004
 120916312.916 7                  23009608.756
        43.700
 146512820.647 6                  27880467.489
        37.400
 198981313.551 7                  37864887.331
        45.600
 200933686.309 7                  38236411.752
        43.500
 135855216.491 5 105861220.89842  25852387.483    25852387.1444   25852391.0454
        30.900          17.8004
 108873223.607 8  84836291.65548  20717882.843    20717882.5714   20717886.0684
        49.200          49.7004
 103876017.066 6                  19466320.955    19466321.050
        41.200
 412738020.205 5                  78541261.135
        33.600
 202106581.777 7                  38459585.564
        45.300
 138614167.995 7                  26377397.585
        44.100
 145868283.384 5                  27757812.848
        35.300
 133589346.291 7                  25421211.588
        44.300
 135148396.704 7                  25717886.574
        44.300
 110136688.592 8  85820860.66646  20958295.389    20958294.3924   20958296.4274
        48.500          37.1004
 125387654.969 8                  23860469.162
        48.300
 116013827.512 7  90400388.54845  22076698.243    22076697.8054   22076699.5624
        45.400          32.6004
 116703209.428 8  90769208.194 7  21839411.660    21839411.731    21839418.945
        48.900          45.500
 146972113.806 6                  27967865.684
        38.400
 120877786.746 7  94016079.130 7  22580982.146    22580982.121    22580988.873
        47.200          42.800
 132024241.820 5                  24680539.876    24680540.987
        34.800
 112070849.907 8  87166211.863 7  20965176.075    20965176.415    20965185.561
        50.300          46.000
 127852202.079 6  99625046.83445  24329502.963    24329502.4274   24329519.4384
        40.600          34.3004
 102192644.417 8  79483213.144 8  19130671.172    19130671.424    19130677.743
        52.800          48.400
 149326553.593 6                  28415918.439
        36.900
 131718457.257 6 102637892.94345  25065139.425    25065138.8314   25065142.7454
        38.300          31.9004
 119412873.993 7  93048991.07545  22723517.740    22723517.3654   22723518.7684
        44.000          31.6004
 109276580.100 8  85150581.37848  20794642.846    20794642.3464   20794642.5094
        49.200          48.0004
 25  1  1 15 14 45.0000000  0 29G09G26E19E10S31S35G06G03R06S48S33E27
                                E11E29E04G16E21G04R15E06R07R23R05G32
                                R16E12G29G28G31
 128449467.752 6 100090503.43245  24443121.368    24443120.8234   24443124.6274
        38.700          32.7004
 106148747.338 8  82713338.46748  20199430.513    20199429.8344   20199434.0204
        50.400          51.3004
 120916044.897 7                  23009557.704
        43.500
 146545202.065 6                  27886629.406
        37.800
 198981313.179 7                  37864882.832
        45.400
 200933653.092 7                  38236409.341
        43.600
 135853044.779 5 105859528.51443  25851974.623    25851974.3064   25851977.8044
        33.900          18.5004
 108879854.783 8  84841458.79448  20719144.603    20719144.3264   20719147.9744
        48.900          49.5004
 103852661.397 6                  19461944.338    19461944.369
        40.900
 412738488.566 5                  78541295.271
        33.300
 202106604.933 7                  38459590.943
        45.000
 138646927.540 7                  26383631.676
        43.000
 145887548.844 5                  27761478.769
        34.400
 133615877.056 7                  25426260.263
        44.000
 135116924.257 7                  25711897.773
        43.700
 110096841.225 8  85789810.79646  20950712.432    20950711.4224   20950713.6964
        48.100          37.0004
 125381654.361 8                  23859327.310
        48.200
 115974208.635 7  90369516.66145  22069158.794    22069158.3654   22069160.4074
        45.900          32.4004
 116758444.817 8  90812169.142 7  21849748.447    21849748.825    21849755.480
        49.600          45.400
 146936077.146 6                  27961008.185
        38.100
 120820025.960 7  93971153.983 7  22570191.795    22570191.698    22570198.789
        47.000          43.100
 132039322.808 6                  24683358.880    24683359.572
        38.100
 112114160.878 8  87199898.060 7  20973278.058    20973278.570    20973287.990
        50.100          45.900
 127895764.590 6  99658991.21545  24337792.995    24337792.4774   24337809.3884
        40.600          34.1004
 102199849.282 8  79488816.923 8  19132019.875    19132020.276    19132026.447
        52.700          48.500
 149364880.143 5                  28423211.244
        35.600
 131713657.182 6 102634152.74645  25064225.294    25064224.6734   25064229.3264
        39.300          32.1004
 119450884.462 7  93078609.56645  22730750.749    22730750.3834   22730751.9754
        43.500          31.3004
 109303135.734 8  85171274.08347  20799696.016    20799695.5114   20799695.9174
        49.300          47.9004
 25  1  1 15 15  0.0000000  0 29G09G26E19E10S31S35G06G03R06S48S33E27
                                E11E29E04G16E21G04R15E06R07R23R05G32
                                R16E12G29G28G31
 128400454.793 6 100052311.59345  24433794.591    24433794.0374   24433797.9944
        37.700          32.7004
 106149617.554 8  82714016.53848  20199596.000    20199595.3214   20199599.6264
        50.500          51.3004
 120915826.541 7                  23009516.366
        43.100
 146577630.116 6                  27892800.229
        37.900
 198981311.945 7                  37864882.940
        45.800
 200933619.042 7                  38236405.956
        44.100
 135850997.627 5 105857933.27343  25851585.211    25851584.8944   25851588.9744
        34.300          21.7004
 108886642.624 8  84846747.99848  20720436.754    20720436.4824   20720439.6784
        49.000          49.5004
 103829445.781 6                  19457594.029    19457593.936
        41.200
 412738957.043 5                  78541309.477
        33.000
 202106628.132 7                  38459592.008
        45.400
 138679751.074 7                  26389878.001
        43.700
 145906898.731 5                  27765161.195
        33.800
 133642449.000 7                  25431316.855
        43.900
 135085460.338 7                  25705910.207
        43.300
 110057116.602 8  85758856.56846  20943153.254    20943152.2484   20943154.3374
        48.100          37.1004
 125375758.176 7                  23858205.354
        47.800
 115934620.981 7  90338669.10145  22061625.477    22061625.0394   22061627.2034
        45.600          32.4004
 116813730.361 8  90855169.125 7  21860093.690    21860094.179    21860101.549
        48.700          45.600
 146900029.238 6                  27954148.870
        37.500
 120762284.333 7  93926243.908 7  22559404.916    22559405.505    22559412.426
        47.100          43.000
 132054566.402 6                  24686209.974    24686209.695
        39.400
 112157587.245 8  87233674.018 7  20981402.586    20981402.458    20981411.443
        49.600          45.900
 127939371.603 6  99692970.26945  24346091.359    24346090.8504   24346107.8754
        39.900          34.4004
 102207219.048 8  79494548.978 8  19133399.429    19133399.861    19133406.041
        52.900          48.400
 149403213.229 5                  28430506.017
        35.900
 131708981.433 6 102630509.37445  25063335.697    25063335.0854   25063339.2864
        39.400          32.3004
 119488916.724 7  93108245.06245  22737987.726    22737987.3604   22737989.3274
        43.800          31.3004
 109329753.756 8  85192015.39047  20804761.209    20804760.7094   20804761.2014
        49.200          47.9004
 25  1  1 15 15 15.0000000  0 29G09G26E19E10S31S35G06G03R06S48S33E27
                                E11E29E04G16E21G04R15E06R07R23R05G32
                                R16E12G29G28G31
 128351438.484 6 100014117.11745  24424467.398    24424466.8534   24424470.4134
        39.200          31.9004
 106150642.745 8  82714815.37448  20199791.123    20199790.4394   20199794.7284
        50.100          51.1004
 120915659.689 7                  23009484.611
        43.300
 146610106.093 6                  27898979.909
        38.100
 198981312.814 7                  37864882.819
        45.600
 200933585.618 7                  38236395.475
        43.800
 135849076.735 5 105856436.50343  25851219.697    25851219.3894   25851224.1444
        34.500          21.9004
 108893588.682 8  84852160.49748  20721758.174    20721757.9024   20721761.4984
        48.700          49.4004
 103806372.253 6                  19453269.832    19453269.761
        41.400
 412737827.219 5                  78541330.020
        33.000
 202106652.205 7                  38459599.967
        45.400
 138712640.088 7                  26396136.376
        43.400
 145926334.492 5                  27768859.616
        34.800
 133669063.797 7                  25436381.683
        43.900
 135054006.641 7                  25699924.889
        43.300
 110017516.510 8  85727999.37046  20935617.603    20935616.5974   20935618.6744
        48.200          36.9004
 125369967.957 7                  23857103.597
        47.900
 115895066.445 7  90307847.37245  22054098.381    22054097.9394   22054100.2054
        45.100          32.3004
 116869067.230 8  90898208.989 7  21870449.672    21870449.585    21870456.674
        49.300          45.200
 146863971.671 6                  27947286.581
        37.700
 120704563.873 7  93881350.291 7  22548622.643    22548622.424    22548629.064
        46.800          43.100
 132069974.340 6                  24689089.262    24689089.545
        38.400
 112201130.153 8  87267540.585 7  20989548.437    20989548.359    20989557.510
        50.200          46.000
 127983024.635 6  99726985.17845  24354398.489    24354397.9844   24354415.2464
        40.700          34.3004
 102214755.133 8  79500410.352 8  19134810.433    19134810.555    19134816.896
        52.800          48.600
 149441554.265 5                  28437802.627
        35.900
 131704431.861 6 102626964.30645  25062470.421    25062469.8004   25062473.5484
        38.400          32.1004
 119526972.183 7  93137898.62345  22745229.526    22745229.1604   22745231.1434
        44.200          31.1004
 109356435.554 8  85212806.44247  20809838.899    20809838.3944   20809838.5764
        48.800          47.9004
 25  1  1 15 15 30.0000000  0 30G09G26E19E10E36S31S35G06G03R06S48S33
                                E27E11E29E04G16E21G04R15E06R07R23R05
                                G32R16E12G29G28G31
 128302419.018 6  99975920.19945  24415138.707    24415138.1574   24415141.7674
        39.000          32.8004
 106151822.831 8  82715734.92248  20200015.888    20200015.2044   20200019.3104
        50.000          51.2004
 120915544.330 7                  23009462.673
        43.300
 146642629.567 6                  27905169.203
        38.000
 152337663.515 5                  28988893.449
        34.600
 198981314.318 7                  37864885.824
        45.800
 200933554.010 7                  38236393.954
        44.200
 135847281.933 5 105855038.20543  25850878.148    25850877.8224   25850882.1764
        34.400          21.1004
 108900692.833 8  84857696.17748  20723110.338    20723110.0664   20723113.3954
        48.300          49.4004
 103783441.518 6                  19448972.759    19448972.751
        41.000
 412738298.361 5                  78541367.456
        33.100
 202106677.925 7                  38459606.598
        45.400
 138745594.253 7                  26402407.704
        43.400
 145945855.800 5                  27772573.852
        34.900
 133695721.316 7                  25441454.125
        44.000
 135022563.207 7                  25693941.544
        43.700
 109978041.256 7  85697239.47146  20928105.680    20928104.6704   20928106.7514
        47.900          37.2004
 125364283.679 7                  23856021.634
        47.800
 115855545.065 7  90277051.49845  22046578.284    22046577.8514   22046579.5584
        44.900          32.5004
 116924454.971 8  90941288.392 7  21880814.485    21880814.761    21880821.810
        49.000          45.600
 146827904.501 6                  27940423.792
        37.400
 120646864.722 7  93836473.124 7  22537844.132    22537843.927    22537850.446
        47.500          43.000
 132085545.102 6                  24692000.856    24692000.137
        40.300
 112244789.973 8  87301498.104 7  20997715.393    20997715.809    20997725.166
        50.300          45.900
 128026723.510 6  99761035.80845  24362714.686    24362714.1814   24362731.1004
        40.600          34.5004
 102222456.960 8  79506400.671 8  19136251.755    19136252.519    19136258.726
        52.500          48.600
 149479902.882 5                  28445100.426
        35.800
 131700008.609 6 102623517.66445  25061628.109    25061627.4834   25061631.9764
        38.500          32.2004
 119565050.656 7  93167570.12245  22752475.559    22752475.1884   22752477.2644
        43.000          31.2004
 109383180.739 8  85233646.82348  20814928.320    20814927.8334   20814928.0254
        49.000          48.1004
 25  1  1 15 15 45.0000000  0 30G09G26E19E10E36S31S35G06G03R06S48S33
                                E27E11E29E04G16E21G04R15E06R07R23R05
                                G32R16E12G29G28G31
 128253394.138 6  99937719.06345  24405809.739    24405809.1854   24405812.3044
        38.700          32.4004
 106153155.301 8  82716773.19548  20200269.280    20200268.6014   20200272.8784
        50.300          51.3004
 120915478.020 7                  23009450.058
        43.300
 146675198.079 6                  27911366.402
        37.700
 152328227.138 5                  28987098.877
        34.500
 198981314.496 7                  37864889.924
        45.400
 200933521.035 7                  38236384.600
        43.800
 135845610.190 5 105853735.58443  25850559.889    25850559.5544   25850563.4124
        34.700          20.3004
 108907952.645 8  84863353.15548  20724491.737    20724491.4654   20724494.8904
        48.500          49.5004
 103760651.063 6                  19444701.713    19444701.703
        41.300
 412738767.835 5                  78541396.021
        32.800
 202106701.528 7                  38459606.451
        45.100
 138778610.864 7                  26408689.997
        43.500
 145965460.185 5                  27776304.655
        33.700
 133722419.268 7                  25446534.613
        44.000
 134991127.796 7                  25687959.286
        43.700
 109938688.738 7  85666575.19846  20920617.033    20920616.0184   20920618.2094
        47.900          37.3004
 125358702.963 7                  23854959.761
        47.800
 115816054.726 7  90246279.80245  22039063.244    22039062.8114   22039064.6834
        45.300          32.6004
 116979890.718 8  90984405.083 7  21891188.242    21891188.420    21891195.876
        48.800          45.700
 146791825.348 6                  27933557.790
        37.800
 120589184.886 7  93791611.003 7  22527068.155    22527069.029    22527075.776
        47.300          43.200
 132101276.051 6                  24694941.769    24694941.030
        39.800
 112288563.576 8  87335544.137 7  21005904.473    21005904.727    21005913.932
        49.800          46.000
 128070465.809 6  99795120.27845  24371038.913    24371038.3954   24371055.4734
        40.800          34.3004
 102230322.020 8  79512517.915 8  19137724.691    19137724.891    19137731.084
        52.600          48.600
 149518256.591 6                  28452398.636
        36.300
 131695709.602 6 102620167.96445  25060810.317    25060809.6744   25060813.9374
        39.000          31.9004
 119603149.675 7  93197257.62945  22759725.688    22759725.3134   22759727.1864
        43.800          31.0004
 109409986.875 8  85254534.69848  20820029.306    20820028.8154   20820029.1004
        49.000          48.2004
 25  1  1 15 16  0.0000000  0 30G09G26E19E10E36S31S35G06G03R06S48S33
                                E27E11E29E04G16E21G04R15E06R07R23R05
                                G32R16E12G29G28G31
 128204366.544 6  99899515.81345  24396480.178    24396479.6244   24396482.8494
        40.100          33.0004
 106154642.736 8  82717932.21748  20200552.289    20200551.6054   20200555.9374
        50.100          51.2004
 120915463.695 7                  23009447.259
        43.100
 146707813.957 6                  27917573.705
        37.700
 152318895.067 5                  28985322.817
        34.300
 198981316.495 7                  37864886.258
        45.300
 200933488.697 7                  38236378.916
        43.500
 135844064.305 5 105852531.02343  25850265.504    25850265.1744   25850269.0234
        35.000          21.8004
 108915370.674 8  84869133.42148  20725903.154    20725902.8734   20725906.5144
        48.600          49.3004
 103738004.120 6                  19440458.410    19440457.713
        40.700
 412739239.090 5                  78541417.829
        32.900
 202106726.961 7                  38459610.994
        45.000
 138811692.385 7                  26414985.325
        43.400
 145985149.988 5                  27780052.219
        35.300
 133749160.240 7                  25451623.362
        44.000
 134959703.056 7                  25681979.358
        43.400
 109899462.070 7  85636008.98346  20913152.458    20913151.4484   20913153.5734
        47.900          37.2004
 125353228.323 7                  23853918.181
        47.800
 115776598.263 7  90215534.52545  22031555.125    22031554.6924   22031556.3734
        45.000          32.4004
 117035376.589 8  91027560.759 7  21901572.241    21901572.181    21901579.408
        49.500          45.700
 146755736.924 6                  27926690.293
        38.400
 120531527.537 7  93746766.418 7  22516297.807    22516297.932    22516304.554
        47.200          42.900
 132117170.346 6                  24697911.866    24697912.575
        37.600
 112332453.736 8  87369680.795 7  21014115.250    21014115.266    21014124.600
        49.800          45.900
 128114254.033 6  99829240.53645  24379372.037    24379371.5284   24379388.8474
        40.600          34.2004
 102238352.791 8  79518764.067 8  19139227.687    19139228.232    19139234.457
        52.500          48.500
 149556617.658 6                  28459698.895
        36.100
 131691537.268 6 102616916.89445  25060016.063    25060015.4204   25060019.6474
        38.700          32.2004
 119641271.752 7  93226963.10845  22766980.200    22766979.8254   22766981.8174
        43.300          31.0004
 109436856.326 8  85275471.91648  20825142.298    20825141.8114   20825142.2264
        49.000          48.1004
 25  1  1 15 16 15.0000000  0 30G09G26E19E10E36S31S35G06G03R06S48S33
                                E27E11E29E04G16E21G04R15E06R07R23R05
                                G32R16E12G29G28G31
 128155334.167 6  99861308.77945  24387149.268    24387148.7144   24387152.3844
        38.800          32.4004
 106156282.897 8  82719210.25748  20200864.614    20200863.9304   20200868.0654
        49.900          51.2004
 120915499.320 7                  23009454.316
        43.200
 146740474.688 6                  27923788.925
        37.600
 152309664.541 5                  28983565.855
        34.700
 198981317.082 7                  37864885.636
        45.500
 200933456.614 7                  38236373.023
        43.900
 135842641.894 5 105851422.39443  25849995.588    25849995.2584   25849998.7314
        35.400          22.6004
 108922944.669 8  84875035.21948  20727344.439    20727344.1534   20727347.7984
        48.500          49.4004
 103715498.864 6                  19436240.334    19436240.343
        41.200
 412738110.271 5                  78541447.409
        33.100
 202106752.083 7                  38459618.229
        45.400
 138844836.301 7                  26421292.453
        43.300
 146004922.954 5                  27783814.180
        34.800
 133775942.073 7                  25456719.859
        44.000
 134928286.904 7                  25676001.068
        44.000
 109860359.366 8  85605539.37146  20905711.304    20905710.2804   20905712.5254
        48.100          37.3004
 125347857.702 7                  23852896.102
        47.800
 115737173.587 7  90184813.99545  22024052.526    22024052.0794   22024054.1974
        45.300          32.5004
 117090910.204 8  91070753.618 7  21911963.604    21911964.352    21911971.772
        49.200          46.000
 146719637.138 6                  27919821.200
        37.100
 120473890.535 8  93701937.626 7  22505531.317    22505530.972    22505537.871
        48.100          43.400
 132133226.308 7                  24700913.367    24700913.798
        42.400
 112376457.844 8  87403906.120 7  21022346.884    21022347.071    21022356.437
        49.500          46.000
 128158085.950 6  99863394.84345  24387712.592    24387712.0744   24387729.8544
        40.100          34.1004
 102246546.782 8  79525137.173 8  19140761.837    19140762.209    19140768.429
        52.500          48.600
 149594983.546 5                  28466999.755
        35.700
 131687489.710 6 102613763.03645  25059245.808    25059245.1654   25059249.0884
        39.200          32.5004
 119679414.584 7  93256684.74945  22774238.445    22774238.0704   22774240.1234
        43.700          31.1004
 109463786.929 8  85296456.82548  20830267.099    20830266.6124   20830266.9694
        49.000          48.1004
 25  1  1 15 16 30.0000000  0 30G09G26E19E10E36S31S35G06G03R06S48S33
                                E27E11E29E04G16E21G04R15E06R07R23R05
                                G32R16E12G29G28G31
 128106299.991 6  99823100.34145  24377818.210    24377817.6564   24377821.2304
        38.100          32.4004
 106158078.397 8  82720609.34848  20201206.301    20201205.6224   20201209.7514
        50.300          51.3004
 120915587.506 7                  23009470.945
        43.200
 146773182.686 6                  27930013.154
        38.400
 152300538.574 5                  28981829.226
        34.800
 198981319.940 7                  37864886.826
        45.400
 200933425.682 7                  38236364.160
        43.600
 135841346.320 5 105850412.77843  25849749.145    25849748.8244   25849752.6634
        34.500          23.2004
 108930677.259 8  84881060.60448  20728815.726    20728815.4494   20728819.2894
        48.500          49.4004
 103693138.367 6                  19432049.311    19432049.873
        41.100
 412738584.214 5                  78541471.243
        32.900
 202106778.121 7                  38459624.042
        45.200
 138878045.144 7                  26427611.899
        43.100
 146024781.471 5                  27787592.664
        35.000
 133802767.485 7                  25461824.461
        43.700
 134896882.171 7                  25670025.025
        43.500
 109821383.574 8  85575168.65846  20898294.671    20898293.6434   20898295.7094
        48.500          37.5004
 125342593.757 7                  23851894.256
        47.900
 115697783.658 7  90154120.55045  22016556.762    22016556.3244   22016558.5334
        45.600          32.7004
 117146493.604 8  91113985.189 7  21922365.859    21922366.066    21922373.003
        49.000          45.400
 146683528.716 6                  27912950.338
        37.800
 120416277.571 8  93657127.593 7  22494767.063    22494768.009    22494775.408
        48.100          43.700
 132149443.491 6                  24703945.781    24703945.170
        40.700
 112420578.587 8  87438222.130 7  21030601.016    21030600.890    21030610.381
        49.100          46.200
 128201964.109 6  99897585.17345  24396063.494    24396062.9714   24396080.1844
        40.900          34.5004
 102254906.588 8  79531639.249 8  19142326.712    19142327.197    19142333.381
        52.700          48.600
 149633356.740 5                  28474302.360
        35.900
 131683569.605 6 102610708.49445  25058500.368    25058499.7294   25058503.0794
        38.800          32.2004
 119717580.713 7  93286424.53845  22781501.301    22781500.9124   22781502.9374
        44.300          30.9004
 109490781.016 8  85317491.18148  20835404.077    20835403.5814   20835403.7644
        49.200          48.2004
 25  1  1 15 16 45.0000000  0 30G09G26E19E10E36S31S35G06G03R06S48S33
                                E27E11E29E04G16E21G04R15E06R07R23R05
                                G32R16E12G29G28G31
 128057260.426 6  99784887.72945  24368486.617    24368486.0454   24368489.5534
        38.300          32.4004
 106160025.487 8  82722126.55248  20201576.722    20201576.0434   20201580.2784
        50.000          51.2004
 120915724.746 7                  23009496.935
        43.300
 146805934.061 6                  27936245.284
        38.300
 152291512.307 5                  28980111.926
        34.400
 198981320.536 7                  37864884.796
        45.500
 200933392.483 7                  38236362.380
        43.900
 135840174.062 5 105849499.53143  25849525.460    25849525.1394   25849529.3184
        34.500          23.2004
 108938564.668 8  84887206.62348  20730317.044    20730316.7764   20730320.2384
        48.100          49.3004
 103670919.173 6                  19427885.475    19427885.885
        41.600
 412739056.869 5                  78541497.514
        32.900
 202106802.729 7                  38459622.303
        45.000
 138911315.164 7                  26433942.926
        43.800
 146044721.644 5                  27791387.553
        35.400
 133829632.814 7                  25466936.926
        44.300
 134865485.191 7                  25664050.207
        43.900
 109782531.327 8  85544894.22046  20890901.268    20890900.2364   20890902.3504
        48.100          37.4004
 125337432.769 7                  23850912.264
        47.900
 115658424.944 7  90123451.40545  22009067.272    22009066.8434   22009068.7974
        44.800          32.5004
 117202122.861 8  91157252.438 7  21932776.425    21932776.384    21932783.517
        49.000          45.600
 146647407.956 6                  27906075.975
        38.100
 120358684.971 8  93612333.392 7  22484010.210    22484009.826    22484016.224
        48.000          43.400
 132165819.587 7                  24707006.956    24707007.274
        42.800
 112464812.074 8  87472625.828 7  21038875.236    21038875.579    21038885.553
        49.400          46.300
 128245884.804 6  99931808.66845  24404421.426    24404420.8854   24404438.3754
        40.800          34.3004
 102263428.254 8  79538267.223 8  19143922.053    19143922.350    19143928.583
        52.600          48.500
 149671733.297 6                  28481605.186
        36.200
 131679773.390 6 102607750.47145  25057777.538    25057776.8994   25057780.6884
        38.700          32.0004
 119755766.400 7  93316179.57845  22788767.560    22788767.1454   22788769.4584
        43.600          31.0004
 109517834.983 8  85338572.23148  20840551.930    20840551.4394   20840551.9474
        48.800          48.2004
 25  1  1 15 17  0.0000000  0 30G09G26E19E10E36S31S35G06G03R06S48S33
                                E27E11E29E04G16E21G04R15E06R07R23R05
                                G32R16E12G29G28G31
 128008219.385 6  99746673.96345  24359154.465    24359153.8934   24359157.3124
        39.000          33.0004
 106162127.780 8  82723764.69048  20201976.748    20201976.0644   20201980.3364
        50.100          51.2004
 120915914.841 7                  23009533.127
        43.400
 146838732.309 6                  27942487.247
        38.000
 152282589.706 5                  28978414.052
        35.100
 198981323.317 7                  37864883.816
        45.100
 200933361.501 7                  38236354.144
        43.400
 135839127.487 5 105848683.97243  25849327.258    25849326.9374   25849329.6834
        35.000          23.4004
 108946610.554 8  84893476.12548  20731848.150    20731847.8874   20731851.3664
        48.600          49.4004
 103648845.526 6                  19423749.232    19423749.518
        41.800
 412739531.749 5                  78541521.406
        32.800
 202106829.397 7                  38459633.366
        45.000
 138944649.915 7                  26440286.506
        44.200
 146064747.080 5                  27795198.613
        34.600
 133856541.726 7                  25472057.650
        44.300
 134834099.902 7                  25658078.023
        44.100
 109743806.658 8  85514719.19546  20883531.974    20883530.9284   20883533.2014
        48.000          37.5004
 125332378.437 8                  23849950.548
        48.200
 115619101.431 7  90092809.69245  22001584.365    22001583.9454   22001585.8194
        44.800          32.6004
 117257801.329 8  91200557.942 7  21943195.183    21943195.573    21943202.782
        49.500          45.600
 146611278.786 6                  27899201.119
        39.500
 120301116.493 7  93567557.913 7  22473254.382    22473255.104    22473261.551
        47.300          43.100
 132182358.942 6                  24710098.496    24710098.717
        41.500
 112509161.794 8  87507119.935 7  21047172.297    21047172.733    21047181.973
        49.500          46.300
 128289851.595 6  99966068.07545  24412788.520    24412787.9884   24412805.3454
        40.900          34.2004
 102272114.893 8  79545023.507 8  19145547.911    19145548.415    19145554.742
        52.500          48.700
 149710116.607 6                  28488909.218
        36.100
 131676105.364 6 102604892.48045  25057079.411    25057078.7724   25057082.6544
        38.600          32.3004
 119793975.217 7  93345952.63245  22796038.863    22796038.4574   22796040.3704
        43.600          30.8004
 109544952.086 8  85359702.46248  20845712.352    20845711.8654   20845712.1374
        49.000          48.3004
 25  1  1 15 17 15.0000000  0 30G09G26E19E10E36S31S35G06G03R06S48S33
                                E27E11E29E04G16E21G04R15E06R07R23R05
                                G32R16E12G29G28G31
 127959174.155 6  99708456.89945  24349821.709    24349821.1514   24349824.1414
        38.400          32.5004
 106164382.424 8  82725521.55748  20202405.803    20202405.1154   20202409.3894
        50.100          51.2004
 120916155.080 7                  23009578.892
        43.300
 146871574.199 6                  27948737.055
        38.100
 152273768.724 5                  28976735.015
        35.300
 198981324.725 7                  37864886.893
        45.200
 200933330.020 7                  38236355.132
        43.900
 135838205.005 6 105847965.12644  25849151.249    25849150.9234   25849154.2794
        36.600          24.5004
 108954812.041 8  84899866.88348  20733408.587    20733408.3244   20733412.1014
        48.600          49.4004
 103626914.846 6                  19419639.550    19419639.672
        41.600
 412740005.736 5                  78541554.768
        32.600
 202106855.594 7                  38459635.780
        44.900
 138978046.189 7                  26446641.801
        44.000
 146084854.759 5                  27799024.387
        34.300
 133883491.470 7                  25477185.965
        43.800
 134802723.484 7                  25652107.227
        44.100
 109705207.076 8  85484641.64346  20876186.995    20876185.9634   20876187.9314
        48.200          37.5004
 125327427.972 8                  23849008.440
        48.200
 115579810.552 7  90062193.44545  21994107.729    21994107.3234   21994108.9934
        45.200          32.7004
 117313525.588 8  91243899.033 7  21953623.895    21953624.050    21953630.875
        49.800          45.600
 146575138.307 6                  27892323.253
        38.600
 120243569.888 7  93522799.478 7  22462504.991    22462504.282    22462512.164
        46.900          43.700
 132199057.808 6                  24713219.926    24713220.504
        40.700
 112553624.665 8  87541702.045 7  21055490.035    21055490.389    21055500.076
        49.600          46.300
 128333861.630 6 100000361.17845  24421163.513    24421162.9774   24421180.9354
        39.800          34.2004
 102280963.706 8  79551905.920 8  19147204.875    19147204.977    19147211.308
        52.800          48.500
 149748503.700 5                  28496214.044
        35.900
 131672562.442 6 102602131.94945  25056404.766    25056404.1234   25056408.5974
        40.100          32.6004
 119832204.263 7  93375741.45645  22803313.238    22803312.8234   22803315.0964
        44.000          30.8004
 109572129.303 8  85380879.50548  20850883.889    20850883.4024   20850883.7884
        49.100          48.3004
 25  1  1 15 17 30.0000000  0 30G09G26E19E10E36S31S35G06G03R06S48S33
                                E27E11E29E04G16E21G04R15E06R07R23R05
                                G32R16E12G29G28G31
 127910126.246 6  99670237.77445  24340487.629    24340487.0574   24340490.8054
        38.800          32.7004
 106166790.624 8  82727398.07848  20202864.256    20202863.5724   20202867.6544
        50.100          51.1004
 120916446.812 7                  23009634.328
        43.600
 146904460.770 6                  27954994.934
        38.000
 152265049.980 6                  28975076.521
        37.000
 198981327.087 7                  37864886.133
        45.500
 200933298.361 7                  38236344.463
        43.700
 135837407.824 6 105847344.40044  25848998.571    25848998.2544   25849002.1684
        36.700          24.0004
 108963170.307 8  84906379.80248  20734999.038    20734998.7754   20735002.6404
        48.500          49.3004
 103605128.994 6                  19415557.593    19415556.808
        41.400
 412738880.996 5                  78541572.485
        32.800
 202106881.228 7                  38459643.878
        45.200
 139011505.138 7                  26453008.745
        43.900
 146105045.795 5                  27802866.703
        35.300
 133910483.316 7                  25482322.714
        44.500
 134771357.239 7                  25646138.250
        44.500
 109666734.090 8  85454662.73246  20868865.857    20868864.8204   20868866.7444
        48.100          37.5004
 125322582.659 8                  23848086.438
        48.200
 115540553.725 7  90031603.72845  21986637.134    21986636.7234   21986638.6024
        44.800          32.6004
 117369296.403 8  91287276.344 7  21964060.040    21964060.182    21964067.575
        49.100          45.400
 146538987.815 6                  27885444.265
        38.300
 120186047.079 8  93478059.481 7  22451759.877    22451759.836    22451765.979
        48.600          43.600
 132215917.551 6                  24716372.482    24716372.641
        37.400
 112598201.826 8  87576373.084 7  21063829.164    21063829.513    21063839.317
        49.500          46.300
 128377916.078 6 100034688.89145  24429547.240    24429546.7084   24429564.7274
        40.300          34.3004
 102289975.698 8  79558915.243 8  19148891.671    19148892.129    19148898.322
        52.800          48.600
 149786895.532 6                  28503520.158
        36.800
 131669146.261 6 102599470.22645  25055754.178    25055753.5214   25055757.9004
        39.800          32.7004
 119870454.701 7  93405546.97245  22810591.975    22810591.5554   22810593.9634
        43.700          30.7004
 109599367.839 8  85402104.36148  20856067.207    20856066.7164   20856067.0964
        49.100          48.3004
 25  1  1 15 17 45.0000000  0 29G09G26E19E10E36S31S35G06G03R06S48S33
                                E27E11E29E04G16E21G04R15E06R07R05G32
                                R16E12G29G28G31
 127861074.029 6  99632015.29045  24331153.541    24331152.9744   24331156.3604
        38.000          32.2004
 106169350.520 8  82729392.80048  20203351.365    20203350.6864   20203354.7844
        49.800          51.0004
 120916788.370 7                  23009699.406
        43.100
 146937390.126 6                  27961261.325
        37.800
 152256433.173 5                  28973436.511
        35.900
 198981327.880 7                  37864883.347
        45.200
 200933265.623 7                  38236332.653
        43.300
 135836733.268 6 105846819.05644  25848870.175    25848869.8314   25848873.7474
        36.100          24.0004
 108971683.580 8  84913013.52448  20736619.379    20736619.1114   20736622.6594
        48.300          49.3004
 103583486.349 6                  19411501.202    19411501.180
        41.900
 412739355.888 5                  78541612.430
        32.600
 202106906.330 7                  38459646.065
        44.900
 139045024.766 7                  26459387.193
        43.400
 146125318.134 5                  27806724.479
        34.900
 133937515.559 7                  25487466.789
        44.400
 134739999.630 7                  25640170.954
        44.300
 109628386.475 8  85424781.51346  20861568.175    20861567.1384   20861569.3964
        48.200          37.5004
 125317840.785 8                  23847184.088
        48.000
 115501329.368 7  90001039.29945  21979172.851    21979172.4454   21979174.4624
        45.300          32.5004
 117425111.687 8  91330688.161 7  21974505.867    21974505.897    21974512.538
        49.500          45.300
 146502825.677 6                  27878562.542
        38.200
 120128546.326 8  93433336.627 7  22441017.616    22441017.469    22441024.556
        48.000          43.500
 112642891.253 8  87611131.418 7  21072189.629    21072189.453    21072199.262
        48.800          46.500
 128422013.117 6 100069049.79645  24437939.066    24437938.5434   24437956.4244
        39.600          33.9004
 102299148.655 8  79566049.806 8  19150608.810    19150609.321    19150615.470
        52.500          48.600
 149825290.179 5                  28510826.638
        35.900
 131665855.029 6 102596905.84945  25055128.041    25055127.3984   25055131.5564
        39.500          32.9004
 119908724.682 7  93435367.71245  22817874.633    22817874.2004   22817876.6534
        43.600          30.8004
 109626665.767 8  85423375.47948  20861261.809    20861261.3184   20861261.7404
        49.400          48.3004
 25  1  1 15 18  0.0000000  0 29G09G26E19E10E36S31S35G06G03R06S48S33
                                E27E11E29E04G16E21G04R15E06R07R05G32
                                R16E12G29G28G31
 127812018.155 6  99593789.94545  24321818.744    24321818.1814   24321821.0574
        39.300          32.8004
 106172062.499 8  82731506.00648  20203867.311    20203866.6324   20203870.8454
        50.000          51.1004
 120917180.466 7                  23009773.940
        43.400
 146970362.395 6                  27967535.657
        37.900
 152247917.330 5                  28971815.734
        34.800
 198981328.015 7                  37864889.442
        45.900
 200933232.168 7                  38236332.595
        44.100
 135836182.429 5 105846390.16643  25848765.178    25848764.8394   25848768.5174
        35.700          23.5004
 108980352.219 8  84919768.29548  20738268.993    20738268.7254   20738272.2504
        48.300          49.5004
 103561988.041 6                  19407471.899    19407472.338
        41.800
 412739829.903 5                  78541625.635
        32.900
 202106930.142 7                  38459652.392
        45.200
 139078605.454 7                  26465777.528
        44.200
 146145672.177 5                  27810598.206
        34.500
 133964588.714 7                  25492618.568
        44.200
 134708651.261 7                  25634205.642
        43.800
 109590164.959 8  85394998.55446  20854294.877    20854293.8314   20854296.0614
        48.200          37.7004
 125313202.709 7                  23846301.452
        47.900
 115462138.332 7  89970500.85945  21971714.981    21971714.5664   21971716.6504
        45.100          32.7004
 117480971.745 8  91374134.900 7  21984958.375    21984958.524    21984965.850
        48.500          45.400
 146466652.450 6                  27871679.888
        38.100
 120071068.855 7  93388631.979 7  22430279.855    22430280.258    22430286.987
        47.000          43.200
 112687693.283 8  87645977.328 7  21080570.160    21080570.168    21080580.674
        48.300          46.400
 128466153.136 6 100103444.19345  24446338.893    24446338.3844   24446356.1354
        40.800          34.0004
 102308483.342 8  79573310.150 8  19152356.535    19152356.720    19152362.984
        52.800          48.600
 149863687.687 6                  28518134.021
        36.100
 131662689.039 6 102594438.89245  25054524.978    25054524.3304   25054528.7364
        38.900          32.6004
 119947014.515 7  93465203.91345  22825161.068    22825160.6354   22825162.9794
        43.500          30.7004
 109654023.282 8  85444693.01348  20866467.548    20866467.0524   20866467.7054
        49.100          48.4004
 25  1  1 15 18 15.0000000  0 29G09G26E19E10E36S31S35G06G03R06S48S33
                                E27E11E29E04G16E21G04R15E06R07R05G32
                                R16E12G29G28G31
 127762960.744 6  99555563.42145  24312482.943    24312482.3624   24312486.1564
        39.000          32.8004
 106174928.445 8  82733739.18248  20204412.657    20204411.9824   20204416.2264
        49.800          51.1004
 120917624.804 7                  23009858.822
        43.800
 147003379.264 6                  27973819.020
        39.100
 152239505.268 5                  28970215.252
        35.100
 198981328.828 7                  37864888.511
        45.700
 200933199.512 7                  38236325.145
        44.100
 135835756.847 6 105846058.84843  25848683.906    25848683.5444   25848687.3754
        36.500          23.7004
 108989178.081 8  84926645.57248  20739948.423    20739948.1644   20739951.7654
        48.500          49.6004
 103540636.100 6                  19403470.818    19403471.184
        41.600
 412740305.252 5                  78541658.684
        33.300
 202106954.720 7                  38459655.098
        45.000
 139112248.799 7                  26472179.688
        44.500
 146166109.677 5                  27814487.668
        35.100
 133991704.678 7                  25497778.712
        44.300
 134677314.126 7                  25628242.676
        44.200
 109552071.660 8  85365315.51246  20847045.937    20847044.8824   20847047.0464
        48.300          37.8004
 125308670.466 8                  23845439.088
        48.400
 115422982.600 7  89939989.93445  21964264.155    21964263.7534   21964265.4384
        45.100          32.7004
 117536877.787 8  91417617.347 7  21995421.056    21995421.585    21995428.258
        49.000          45.500
 146430470.076 6                  27864794.117
        37.900
 120013616.671 8  93343946.925 7  22419547.740    22419548.109    22419555.133
        48.400          44.000
 112732609.702 8  87680912.213 7  21088973.655    21088973.805    21088983.278
        49.800          46.300
 128510337.968 6 100137873.51545  24454746.748    24454746.2524   24454764.5914
        40.300          33.8004
 102317980.921 8  79580697.180 8  19154134.107    19154134.628    19154140.915
        52.800          48.400
 149902089.808 6                  28525441.366
        36.300
 131659650.501 6 102592071.23545  25053947.357    25053946.7234   25053950.4044
        39.400          32.7004
 119985326.088 7  93495057.06045  22832451.952    22832451.5054   22832453.4014
        44.300          30.6004
 109681442.220 8  85466058.41948  20871685.462    20871684.9754   20871685.3654
        48.900          48.5004
 25  1  1 15 18 30.0000000  0 29G09G26E19E10E36S31S35G06G03R06S48S33
                                E27E11E29E04G16E21G04R15E06R07R05G32
                                R16E12G29G28G31
 127713899.267 6  99517333.68845  24303147.178    24303146.5934   24303149.6224
        39.100          32.4004
 106177945.751 8  82736090.32848  20204987.046    20204986.3764   20204990.4094
        50.100          51.0004
 120918119.331 7                  23009952.577
        43.700
 147036437.965 6                  27980110.166
        37.700
 152231193.473 5                  28968633.464
        35.600
 198981328.428 7                  37864885.770
        45.400
 200933164.992 7                  38236318.384
        43.700
 135835453.856 5 105845823.14243  25848625.750    25848625.3704   25848629.1904
        34.600          23.0004
 108998158.527 8  84933643.31148  20741657.516    20741657.2574   20741660.6854
        48.600          49.5004
 103519428.159 6                  19399497.359    19399496.551
        41.800
 412740779.686 5                  78541684.794
        33.000
 202106978.421 7                  38459663.030
        45.100
 139145952.096 7                  26478592.849
        43.800
 146186627.794 5                  27818392.074
        35.200
 134018860.879 7                  25502946.084
        44.400
 134645985.751 7                  25622280.827
        44.200
 109514104.358 8  85335730.64646  20839821.086    20839820.0224   20839822.0894
        48.200          37.8004
 125304241.318 8                  23844596.054
        48.300
 115383859.877 7  89909504.73545  21956818.990    21956818.5704   21956820.6024
        45.600          32.7004
 117592827.094 8  91461133.521 7  22005891.417    22005891.701    22005898.526
        49.500          45.400
 146394276.104 6                  27857906.771
        38.600
 119956187.633 7  93299279.817 7  22408818.873    22408819.121    22408826.392
        47.000          43.500
 112777637.811 8  87715933.974 7  21097396.482    21097396.848    21097407.001
        49.000          46.600
 128554564.948 6 100172335.67945  24463163.609    24463163.1004   24463181.4014
        40.900          33.9004
 102327638.509 8  79588208.661 8  19155942.392    19155942.527    19155948.814
        53.300          48.500
 149940493.666 6                  28532749.631
        36.200
 131656737.023 6 102589801.05645  25053392.542    25053391.9034   25053395.7214
        39.200          32.2004
 120023656.623 7  93524924.96045  22839745.417    22839744.9524   22839747.3864
        44.200          30.7004
 109708919.882 8  85487469.58548  20876914.415    20876913.9334   20876914.1804
        49.300          48.4004
 25  1  1 15 18 45.0000000  0 29G09G26E19E10E36S31S35G06G03R06S48S33
                                E27E11E29E04G16E21G04R15E06R07R05G32
                                R16E12G29G28G31
 127664840.771 6  99479106.30745  24293811.370    24293810.7804   24293814.1444
        39.200          32.7004
 106181121.026 8  82738564.57248  20205591.155    20205590.4854   20205594.6514
        50.200          50.7004
 120918670.710 7                  23010057.568
        43.500
 147069544.901 6                  27986409.755
        37.600
 152222990.385 5                  28967072.479
        35.900
 198981332.894 7                  37864891.016
        45.500
 200933135.930 7                  38236311.829
        43.600
 135835280.226 5 105845688.11343  25848592.617    25848592.2554   25848595.7114
        34.200          21.7004
 109007300.215 8  84940766.69448  20743396.945    20743396.6864   20743400.3114
        48.600          49.3004
 103498371.767 6                  19395551.075    19395550.603
        41.600
 412739660.197 5                  78541707.582
        33.200
 202107006.896 7                  38459667.368
        44.900
 139179721.834 7                  26485019.198
        43.800
 146207233.106 5                  27822312.966
        35.200
 134046064.131 7                  25508123.200
        44.400
 134614672.993 7                  25616322.184
        43.900
 109476270.293 8  85306249.60146  20832621.510    20832620.4514   20832622.5674
        48.100          37.5004
 125299922.114 8                  23843774.331
        48.200
 115344776.979 7  89879050.54845  21949381.759    21949381.3264   21949383.3064
        45.500          32.5004
 117648825.872 8  91504688.118 7  22016370.625    22016370.662    22016377.505
        49.400          45.200
 146358077.310 6                  27851018.018
        38.300
 119898789.323 7  93254636.662 7  22398097.273    22398096.975    22398103.968
        47.500          43.900
 112822783.829 8  87751047.423 7  21105842.004    21105842.339    21105852.031
        49.500          46.400
 128598840.750 6 100206835.89945  24471588.670    24471588.1704   24471607.5844
        40.800          34.0004
 102337463.210 8  79595850.110 8  19157781.404    19157781.688    19157788.073
        53.000          48.500
 149978905.892 6                  28540059.176
        36.100
 131653955.369 6 102587633.52145  25052863.397    25052862.7634   25052866.0934
        39.800          31.8004
 120062012.815 7  93554812.83845  22847044.833    22847044.3864   22847046.4424
        44.500          30.5004
 109736462.824 8  85508931.63748  20882155.510    20882155.0284   20882155.4094
        49.300          48.2004
 25  1  1 15 19  0.0000000  0 29G09G26E19E10E36S31S35G06G03R06S48S33
                                E27E11E29E04G16E21G04R15E06R07R05G32
                                R16E12G29G28G31
 127615776.853 6  99440874.70245  24284474.525    24284473.9444   24284477.9334
        38.400          32.6004
 106184445.639 8  82741155.17548  20206223.866    20206223.1914   20206227.3144
        50.000          50.6004
 120919270.435 7                  23010171.706
        43.600
 147102691.214 6                  27992717.713
        37.900
 152214885.142 5                  28965530.114
        34.400
 198981334.240 7                  37864892.742
        45.600
 200933103.705 7                  38236309.745
        43.700
 135835227.052 5 105845646.79843  25848582.158    25848581.7784   25848585.7804
        34.200          22.2004
 109016594.474 8  84948008.96348  20745165.476    20745165.2264   20745168.9814
        48.500          49.2004
 103477458.285 7                  19391632.526    19391631.714
        42.100
 412740137.437 5                  78541734.353
        32.900
 202107032.648 7                  38459671.468
        45.100
 139213549.175 7                  26491456.368
        43.700
 146227916.820 5                  27826248.347
        34.100
 134073305.887 7                  25513307.233
        44.300
 134583367.397 7                  25610365.002
        44.000
 109438561.097 8  85276865.85246  20825445.554    20825444.4994   20825446.6234
        48.500          37.6004
 125295704.316 8                  23842971.607
        48.200
 115305725.656 7  89848620.93645  21941950.415    21941949.9644   21941952.0914
        45.300          32.5004
 117704865.189 8  91548274.254 7  22026857.321    22026857.351    22026864.726
        48.600          45.300
 146321865.266 6                  27844127.287
        38.100
 119841412.986 7  93210010.616 7  22387378.880    22387379.064    22387385.471
        47.900          43.700
 112868039.531 8  87786246.219 7  21114308.221    21114308.158    21114318.575
        48.400          46.500
 128643156.743 6 100241367.42445  24480022.402    24480021.8704   24480041.0284
        40.300          33.5004
 102347445.666 8  79603614.277 8  19159650.033    19159650.406    19159656.769
        53.000          48.700
 150017317.527 6                  28547369.054
        36.100
 131651297.404 6 102585562.41345  25052357.732    25052357.0934   25052360.5454
        40.200          32.3004
 120100386.046 7  93584714.00645  22854346.903    22854346.4564   22854348.6784
        43.600          30.2004
 109764062.216 8  85530437.67148  20887407.735    20887407.2574   20887407.3704
        49.100          48.1004
 25  1  1 15 19 15.0000000  0 29G09G26E19E10E36S31S35G06G03R06S48S33
                                E27E11E29E04G16E21G04R15E06R07R05G32
                                R16E12G29G28G31
 127566707.715 6  99402639.03345  24275137.266    24275136.6764   24275140.4834
        38.300          32.5004
 106187919.651 8  82743862.20648  20206884.993    20206884.3184   20206888.3944
        50.100          50.7004
 120919918.782 7                  23010295.181
        43.400
 147135876.912 6                  27999033.339
        37.700
 152206879.620 5                  28964006.859
        34.000
 198981332.470 7                  37864889.719
        45.600
 200933068.392 7                  38236298.271
        43.700
 135835294.698 5 105845699.72643  25848595.792    25848595.4214   25848598.4164
        35.100          22.4004
 109026041.389 8  84955370.18748  20746963.233    20746962.9834   20746966.6814
        48.700          49.4004
 103456688.536 7                  19387739.775    19387739.260
        42.100
 412740612.009 5                  78541761.237
        33.000
 202107054.724 7                  38459675.949
        45.200
 139247434.190 7                  26497904.411
        43.600
 146248678.918 5                  27830199.764
        34.900
 134100586.272 7                  25518498.346
        44.500
 134552069.185 7                  25604408.992
        43.800
 109400977.147 8  85247579.69946  20818293.483    20818292.4244   20818294.5404
        48.500          37.7004
 125291587.996 8                  23842188.244
        48.100
 115266706.201 7  89818216.12745  21934525.453    21934525.0064   21934526.9974
        45.300          32.5004
 117760944.622 8  91591891.577 7  22037352.120    22037352.030    22037359.346
        48.800          45.500
 146285640.013 6                  27837234.290
        37.900
 119784059.578 8  93165402.511 7  22376663.781    22376664.596    22376671.866
        48.100          44.200
 112913404.446 8  87821529.929 7  21122794.983    21122795.101    21122805.120
        49.500          46.400
 128687512.895 6 100275930.25145  24488463.742    24488463.2284   24488481.8914
        40.200          33.5004
 102357585.857 8  79611501.131 8  19161548.559    19161548.628    19161555.053
        52.800          48.700
 150055728.616 6                  28554678.446
        36.300
 131648763.084 6 102583587.62545  25051875.271    25051874.6414   25051878.2904
        39.700          32.2004
 120138776.312 7  93614628.46745  22861652.693    22861652.2784   22861654.1784
        43.600          30.4004
 109791718.009 8  85551987.62748  20892670.422    20892669.9444   20892670.0724
        49.300          48.3004
 25  1  1 15 19 30.0000000  0 30G09G26E19E10E36S31S35G06G03R06S48S33
                                E27E11E29E04G16G27E21G04R15E06R07R05
                                G32R16E12G29G28G31
 127517638.517 6  99364403.26145  24265799.886    24265799.2924   24265802.6894
        39.000          32.3004
 106191547.932 8  82746689.42948  20207575.204    20207574.5254   20207578.8224
        49.900          50.8004
 120920620.897 7                  23010428.724
        43.300
 147169106.652 6                  28005356.279
        37.000
 152198978.358 5                  28962503.094
        31.900
 198981332.572 7                  37864891.574
        45.600
 200933034.831 7                  38236294.926
        43.800
 135835487.494 5 105845849.88143  25848632.217    25848631.8334   25848634.9054
        33.300          21.8004
 109035645.878 8  84962854.18948  20748790.894    20748790.6444   20748794.3634
        48.800          49.6004
 103436067.873 6                  19383874.863    19383875.058
        41.700
 412741088.944 5                  78541784.185
        32.100
 202107078.703 7                  38459682.884
        44.900
 139281381.650 7                  26504364.583
        43.600
 146269524.210 5                  27834166.501
        34.500
 134127910.344 7                  25523698.261
        43.800
 134520783.485 7                  25598455.784
        44.200
 109363523.753 8  85218395.27046  20811166.409    20811165.3414   20811167.3464
        48.300          38.0004
 135117297.227 4                  25711967.714
        28.500
 125287578.158 7                  23841425.412
        47.700
 115227723.982 7  89787840.37045  21927107.412    21927106.9434   21927109.0054
        45.200          32.7004
 117817068.853 8  91635543.700 7  22047855.217    22047855.545    22047862.159
        49.100          45.200
 146249406.786 6                  27830338.477
        37.900
 119726734.133 8  93120816.000 7  22365955.517    22365956.325    22365963.023
        48.500          44.300
 112958883.401 8  87856902.342 7  21131302.744    21131302.944    21131312.820
        49.700          46.100
 128731914.200 6 100310528.27645  24496913.659    24496913.1414   24496931.0174
        40.700          33.6004
 102367888.615 8  79619514.400 8  19163477.117    19163477.301    19163483.722
        52.900          48.600
 150094143.741 6                  28561989.024
        36.000
 131646357.783 6 102581713.42845  25051417.466    25051416.8274   25051420.6644
        40.000          32.6004
 120177188.463 7  93644559.94545  22868962.068    22868961.6444   22868963.7434
        44.000          30.6004
 109819435.089 8  85573585.34648  20897944.593    20897944.1114   20897944.4544
        49.000          48.4004
 25  1  1 15 19 45.0000000  0 30G09G26E19E10E36S31S35G06G03R06S48S33
                                E27E11E29E04G16G27E21G04R15E06R07R05
                                G32R16E12G29G28G31
 127468567.205 6  99326165.85245  24256461.340    24256460.7554   24256464.7964
        38.800          33.0004
 106195328.112 8  82749635.02048  20208294.658    20208293.9794   20208298.1634
        49.800          50.7004
 120921374.527 7                  23010572.189
        43.000
 147202377.785 6                  28011687.103
        37.800
 152191179.751 5                  28961020.136
        33.200
 198981331.862 7                  37864890.667
        45.800
 200933000.242 7                  38236283.438
        43.900
 135835804.433 5 105846097.04743  25848692.015    25848691.6354   25848695.5984
        35.300          22.1004
 109045405.481 8  84970459.05648  20750648.154    20750647.9094   20750651.5844
        49.000          49.6004
 103415594.176 6                  19380038.620    19380038.277
        41.800
 412741566.692 5                  78541811.645
        32.900
 202107102.523 7                  38459686.211
        45.200
 139315388.980 7                  26510836.086
        43.200
 146290450.193 5                  27838148.790
        34.600
 134155275.725 7                  25528905.596
        43.700
 134489508.028 7                  25592503.583
        43.800
 109326198.908 8  85189311.00946  20804063.680    20804062.6164   20804064.6524
        48.700          37.9004
 135069798.504 6 105249274.63544  25702929.492    25702929.6304   25702948.4694
        36.800          25.1004
 125283672.427 7                  23840681.927
        47.700
 115188776.826 7  89757491.95545  21919695.963    21919695.4764   21919697.6084
        45.500          32.6004
 117873235.039 8  91679228.469 7  22058365.774    22058365.700    22058372.713
        49.600          45.200
 146213163.210 6                  27823442.337
        38.000
 119669434.825 8  93076249.946 7  22355251.573    22355251.739    22355259.407
        48.300          44.400
 113004474.044 8  87892361.610 7  21139831.176    21139831.478    21139841.823
        48.700          46.300
 128776358.167 6 100345159.52745  24505371.146    24505370.6414   24505388.9534
        40.700          33.7004
 102378351.084 8  79627651.859 8  19165435.772    19165435.984    19165442.391
        53.300          48.700
 150132560.136 6                  28569299.468
        36.000
 131644079.039 6 102579937.72445  25050984.507    25050983.8644   25050987.0554
        40.500          33.1004
 120215620.151 7  93674506.68145  22876275.217    22876274.7884   22876276.9344
        44.300          30.5004
 109847210.850 8  85595228.80948  20903230.452    20903229.9704   20903229.9884
        49.100          48.3004
 25  1  1 15 20  0.0000000  0 30G09G26E19E10E36S31S35G06G03R06S48S33
                                E27E11E29E04G16G27E21G04R15E06R07R05
                                G32R16E12G29G28G31
 127419497.767 6  99287929.89845  24247124.689    24247124.0954   24247127.2484
        37.800          32.8004
 106199264.011 8  82752701.97248  20209043.764    20209043.0854   20209047.1284
        49.800          50.8004
 120922183.605 7                  23010726.232
        43.100
 147235694.057 6                  28018027.823
        37.600
 152183487.180 5                  28959555.546
        34.500
 198981334.650 7                  37864890.846
        45.600
 200932969.636 7                  38236288.634
        44.300
 135836248.683 5 105846443.51943  25848776.908    25848776.5244   25848779.7724
        34.800          21.1004
 109055324.091 8  84978187.83148  20752535.555    20752535.3054   20752539.0474
        48.900          49.8004
 103395271.878 7                  19376229.844    19376229.671
        42.100
 412740447.414 5                  78541833.113
        33.100
 202107129.204 7                  38459691.148
        45.200
 139349459.932 7                  26517319.629
        43.400
 146311460.536 5                  27842146.941
        34.200
 134182686.355 7                  25534121.858
        44.200
 134458246.806 7                  25586555.130
        43.700
 109289007.096 8  85160330.41546  20796986.342    20796985.2834   20796987.2954
        48.200          38.1004
 135022249.755 4 105212223.61442  25693881.125    25693880.9204   25693903.6644
        28.700          17.4004
 125279874.722 7                  23839959.285
        47.900
 115149868.778 7  89727173.98345  21912291.906    21912291.4194   21912293.6114
        45.300          32.9004
 117929446.909 8  91722948.795 7  22068885.496    22068885.787    22068892.138
        49.600          45.400
 146176913.342 6                  27816543.777
        37.800
 119612166.239 7  93031707.754 7  22344552.953    22344553.244    22344559.763
        46.900          43.700
 113050179.978 8  87927910.571 7  21148381.654    21148381.886    21148392.249
        49.400          46.400
 128820848.646 6 100379827.02145  24513837.380    24513836.8664   24513855.8274
        40.200          33.6004
 102388977.349 8  79635916.741 8  19167425.022    19167425.257    19167431.615
        53.400          48.700
 150170981.764 5                  28576611.118
        35.800
 131641930.937 6 102578263.90645  25050575.097    25050574.4714   25050578.5054
        40.400          33.1004
 120254075.159 7  93704471.59245  22883593.233    22883592.8004   22883594.7894
        44.500          30.8004
 109875049.063 8  85616920.92148  20908527.800    20908527.3314   20908527.4304
        48.800          48.4004
 25  1  1 15 20 15.0000000  0 30G09G26E19E10E36S31S35G06G03R06S48S33
                                E27E11E29E04G16G27E21G04R15E06R07R05
                                G32R16E12G29G28G31
 127370426.925 6  99249692.87845  24237786.773    24237786.2104   24237789.1504
        38.000          32.8004
 106203351.970 8  82755887.40248  20209821.510    20209820.8354   20209825.0214
        50.000          50.8004
 120923044.642 7                  23010890.060
        43.000
 147269051.616 6                  28024375.330
        36.600
 152175897.668 5                  28958111.483
        35.100
 198981337.489 7                  37864887.930
        45.500
 200932938.974 7                  38236267.448
        43.400
 135836816.088 5 105846885.74443  25848884.208    25848883.8334   25848887.1584
        34.900          21.2004
 109065398.044 8  84986037.66048  20754452.503    20754452.2494   20754456.0504
        49.200          49.9004
 103375097.632 7                  19372448.836    19372449.075
        42.200
 412740929.484 5                  78541866.659
        32.800
 202107155.761 7                  38459690.289
        45.000
 139383590.798 7                  26523814.577
        43.300
 146332551.489 5                  27846159.704
        33.600
 134210138.754 7                  25539346.074
        44.200
 134426996.444 7                  25580608.490
        44.000
 109251944.839 8  85131450.77046  20789933.784    20789932.7294   20789934.6434
        48.500          38.3004
 134974648.217 5 105175131.47343  25684822.359    25684822.0644   25684846.4954
        34.400          23.0004
 125276181.529 8                  23839256.716
        48.000
 115110996.606 7  89696884.00045  21904894.814    21904894.3324   21904896.5014
        45.000          33.1004
 117985700.406 8  91766701.496 7  22079411.581    22079411.888    22079419.464
        48.800          45.400
 146140653.618 6                  27809643.501
        38.100
 119554924.831 8  92987186.609 7  22333860.127    22333860.159    22333867.474
        48.100          44.100
 113095997.410 8  87963546.239 7  21156952.707    21156953.133    21156963.348
        49.500          46.300
 128865382.049 6 100414527.95545  24522311.925    24522311.4254   24522330.7954
        40.700          33.6004
 102399763.437 8  79644305.943 8  19169443.919    19169444.418    19169450.754
        53.200          48.800
 150209404.689 5                  28583922.524
        35.700
 131639909.921 6 102576689.09245  25050190.861    25050190.2224   25050193.7004
        39.200          32.5004
 120292549.858 7  93734451.86745  22890914.665    22890914.2274   22890916.4004
        43.400          30.7004
 109902946.160 8  85638658.90848  20913836.333    20913835.8734   20913836.0684
        49.400          48.5004
 25  1  1 15 20 30.0000000  0 30G09G26E19E10E36S31S35G06G03R06S48S33
                                E27E11E29E04G16G27E21G04R15E06R07R05
                                G32R16E12G29G28G31
 127321352.848 6  99211453.32045  24228447.865    24228447.3024   24228450.9534
        39.200          33.2004
 106207589.958 8  82759189.73648  20210628.161    20210627.4864   20210631.4514
        49.800          50.7004
 120923955.877 7                  23011063.336
        43.100
 147302448.255 6                  28030730.607
        36.500
 152168408.287 5                  28956686.868
        34.400
 198981337.796 7                  37864891.194
        45.600
 200932905.759 7                  38236268.369
        44.000
 135837505.200 5 105847422.68443  25849015.754    25849015.3884   25849018.5884
        33.900          20.8004
 109075625.290 8  84994006.93748  20756398.798    20756398.5444   20756402.2164
        49.300          49.8004
 103355070.010 7                  19368696.269    19368696.203
        42.400
 412741409.247 5                  78541894.330
        32.900
 202107181.118 7                  38459699.957
        45.400
 139417779.360 7                  26530320.768
        43.600
 146353720.949 5                  27850188.618
        33.600
 134237630.976 7                  25544577.774
        44.400
 134395755.082 7                  25574663.443
        44.100
 109215010.420 8  85102670.74046  20782905.067    20782904.0084   20782906.2314
        48.700          38.3004
 134926991.869 5 105137996.70444  25675753.702    25675753.1304   25675778.7294
        34.100          24.5004
 125272590.840 8                  23838573.282
        48.100
 115072158.500 7  89666620.55845  21897504.467    21897503.9854   21897505.8444
        45.200          32.8004
 118041993.172 8  91810484.706 7  22089946.575    22089946.798    22089954.079
        49.000          45.400
 146104382.194 6                  27802741.814
        38.800
 119497709.094 8  92942685.436 7  22323171.947    22323172.194    22323179.299
        48.300          44.500
 113141924.208 8  87999266.958 7  21165544.671    21165544.913    21165554.882
        49.300          46.100
 128909956.247 6 100449260.68245  24530794.348    24530793.8574   24530813.1504
        40.200          33.6004
 102410706.868 8  79652817.495 8  19171492.685    19171493.043    19171499.517
        53.300          48.700
 150247826.888 6                  28591234.792
        36.000
 131638014.199 6 102575211.86545  25049830.261    25049829.6314   25049832.7154
        40.200          32.2004
 120331042.152 7  93764445.85045  22898240.098    22898239.6694   22898241.3654
        44.200          30.4004
 109930899.843 8  85660440.99848  20919155.696    20919155.2274   20919155.4794
        49.200          48.4004
 25  1  1 15 20 45.0000000  0 30G09G26E19E10E36S31S35G06G03R06S48S33
                                E27E11E29E04G16G27E21G04R15E06R07R05
                                G32R16E12G29G28G31
 127272277.096 6  99173212.43545  24219109.087    24219108.5464   24219112.1664
        39.400          33.3004
 106211979.342 8  82762610.03848  20211463.175    20211462.4964   20211466.7144
        49.900          50.7004
 120924918.811 7                  23011246.605
        43.500
 147335885.169 6                  28037093.493
        36.800
 152161022.546 5                  28955280.908
        35.000
 198981337.878 7                  37864883.195
        45.100
 200932872.171 7                  38236265.346
        43.600
 135838317.155 5 105848055.48443  25849170.382    25849170.0114   25849173.1454
        32.900          20.1004
 109086007.153 8  85002096.67748  20758374.506    20758374.2434   20758377.8244
        48.900          50.0004
 103335190.611 7                  19364970.797    19364970.590
        42.400
 412741888.383 5                  78541913.710
        32.400
 202107204.801 7                  38459698.598
        44.800
 139452026.851 7                  26536837.594
        43.700
 146374970.195 5                  27854232.324
        34.000
 134265164.444 7                  25549816.949
        44.100
 134364524.247 7                  25568720.313
        44.600
 109178205.624 8  85073991.69446  20775901.612    20775900.5534   20775902.4504
        48.600          38.3004
 134879282.524 5 105100820.62643  25666675.242    25666674.5814   25666700.3474
        32.100          19.6004
 125269104.125 8                  23837909.724
        48.300
 115033356.211 7  89636385.04845  21890120.227    21890119.7454   21890122.0324
        45.200          33.0004
 118098326.097 8  91854299.130 7  22100488.538    22100488.528    22100495.657
        48.900          45.200
 146068100.577 6                  27795837.020
        38.100
 119440521.045 8  92898205.772 7  22312488.822    22312489.233    22312496.351
        48.700          44.300
 113187961.675 8  88035073.771 7  21174157.229    21174157.356    21174167.500
        49.400          46.300
 128954572.654 6 100484026.29745  24539284.992    24539284.4924   24539303.5994
        41.300          33.5004
 102421809.166 8  79661452.602 8  19173571.023    19173571.421    19173577.771
        53.200          48.900
 150286249.401 5                  28598546.064
        35.400
 131636245.551 6 102573833.70745  25049493.624    25049492.9904   25049496.0914
        39.400          32.5004
 120369553.374 7  93794454.58345  22905568.052    22905567.6194   22905569.7954
        44.200          30.7004
 109958911.358 8  85682268.16248  20924486.257    20924485.7884   20924485.8904
        49.300          48.5004
 25  1  1 15 21  0.0000000  0 30G09G26E19E10E36S31S35G06G03R06S48S33
                                E27E11E29E04G16G27E21G04R15E06R07R05
                                G32R16E12G29G28G31
 127223201.407 6  99134971.59645  24209769.939    24209769.3894   24209773.6704
        39.100          33.4004
 106216521.601 8  82766149.47748  20212327.661    20212326.9864   20212331.0704
        49.800          50.6004
 120925935.249 7                  23011439.989
        43.400
 147369363.701 6                  28043464.572
        36.800
 152153739.322 5                  28953894.964
        34.300
 198981339.131 7                  37864890.515
        45.600
 200932839.669 7                  38236258.804
        43.900
 135839253.844 5 105848785.49243  25849348.631    25849348.2694   25849351.0854
        32.800          19.5004
 109096545.142 8  85010308.07748  20760379.721    20760379.4624   20760383.1594
        49.100          49.9004
 103315461.505 7                  19361273.405    19361273.332
        42.000
 412740768.407 5                  78541936.363
        31.900
 202107230.184 7                  38459710.184
        45.300
 139486334.768 7                  26543366.110
        43.500
 146396300.506 5                  27858291.164
        34.800
 134292740.756 7                  25555064.712
        44.200
 134333305.672 7                  25562779.488
        44.400
 109141532.664 8  85045415.39446  20768922.860    20768921.8054   20768923.7764
        48.700          38.4004
 134831522.258 5 105063604.86443  25657586.214    25657585.5354   25657611.6314
        34.300          23.1004
 125265722.863 8                  23837266.136
        48.300
 114994591.382 7  89606178.70145  21882743.764    21882743.2774   21882745.2054
        45.300          33.0004
 118154700.595 8  91898145.846 7  22111038.721    22111038.700    22111045.493
        49.400          44.700
 146031810.374 6                  27788931.722
        38.200
 119383362.369 8  92853749.033 7  22301810.401    22301811.020    22301817.866
        48.400          44.200
 113234111.334 8  88070967.836 7  21182789.947    21182790.356    21182800.442
        49.000          46.000
 128999232.744 6 100518825.95145  24547783.959    24547783.4634   24547802.3384
        40.600          33.1004
 102433071.320 8  79670212.060 8  19175679.698    19175679.707    19175686.123
        53.200          48.700
 150324673.438 5                  28605858.179
        35.900
 131634605.587 6 102572555.80945  25049181.445    25049180.8244   25049184.2044
        39.400          32.1004
 120408085.034 7  93824479.24645  22912900.289    22912899.8834   22912902.0714
        44.500          30.7004
 109986982.096 8  85704141.45948  20929827.919    20929827.4594   20929827.5524
        49.600          48.5004
 25  1  1 15 21 15.0000000  0 30G09G26E19E10E36S31S35G06G03R06S48S33
                                E27E11E29E04G16G27E21G04R15E06R07R05
                                G32R16E12G29G28G31
 127174123.213 6  99096728.81945  24200431.269    24200430.6974   24200434.0964
        40.200          32.7004
 106221213.767 8  82769805.74648  20213220.483    20213219.8084   20213223.9244
        49.500          50.6004
 120927002.364 7                  23011643.127
        43.400
 147402880.736 6                  28049842.502
        37.100
 152146558.045 5                  28952527.963
        35.100
 198981337.572 7                  37864890.971
        45.500
 200932805.091 7                  38236247.133
        43.400
 135840311.588 5 105849609.53643  25849549.948    25849549.6094   25849552.0354
        35.500          21.7004
 109107236.291 8  85018638.83548  20762414.283    20762414.0114   20762417.6354
        49.200          50.0004
 103295880.199 7                  19357604.515    19357603.842
        42.100
 412741247.237 5                  78541966.632
        32.000
 202107253.602 7                  38459706.982
        44.900
 139520699.915 7                  26549905.669
        43.900
 146417708.883 5                  27862365.104
        34.300
 134320357.021 7                  25560320.083
        44.300
 134302096.556 7                  25556840.523
        44.400
 109104988.605 8  85016939.52746  20761968.688    20761967.6334   20761969.6564
        48.800          38.4004
 134783708.181 5 105026347.20744  25648487.965    25648487.2684   25648512.5284
        35.300          26.4004
 125262444.249 8                  23836642.432
        48.300
 114955861.456 7  89575999.56245  21875373.548    21875373.0574   21875375.1264
        45.500          32.9004
 118211113.247 8  91942022.343 7  22121595.329    22121595.583    22121602.480
        49.800          45.000
 145995508.808 6                  27782024.186
        37.800
 119326230.707 8  92809313.241 7  22291138.613    22291138.532    22291145.484
        48.400          44.400
 113280369.783 8  88106946.505 7  21191444.156    21191443.943    21191454.301
        49.500          45.900
 129043933.569 6 100553657.34445  24556290.252    24556289.7614   24556309.2464
        41.300          33.2004
 102444490.386 8  79679093.567 8  19177817.208    19177817.267    19177823.657
        53.100          48.800
 150363096.026 5                  28613170.006
        35.500
 131633091.354 6 102571375.89045  25048893.198    25048892.5554   25048895.9644
        39.400          32.1004
 120446634.101 7  93854517.46645  22920235.850    22920235.4304   22920237.6434
        44.600          30.5004
 110015109.069 8  85726058.55748  20935180.099    20935179.6214   20935179.9374
        49.600          48.4004
 25  1  1 15 21 30.0000000  0 30G09G26E19E10E36S31S35G06G03R06S48S33
                                E27E11E29E04G16G27E21G04R15E06R07R05
                                G32R16E12G29G28G31
 127125047.188 6  99058487.74545  24191091.541    24191090.9744   24191094.9474
        39.900          33.2004
 106226060.232 8  82773582.22948  20214142.747    20214142.0814   20214146.1424
        49.800          50.5004
 120928124.746 7                  23011856.499
        43.300
 147436440.409 6                  28056228.837
        36.700
 152139481.603 5                  28951181.205
        34.300
 198981339.459 7                  37864888.820
        45.800
 200932773.182 7                  38236242.577
        44.100
 135841495.324 5 105850531.82143  25849774.927    25849774.5884   25849777.3244
        35.800          23.2004
 109118085.008 8  85027092.36748  20764479.024    20764478.7614   20764482.0894
        49.200          49.9004
 103276451.533 6                  19353963.028    19353963.047
        41.800
 412741729.460 5                  78541992.679
        33.200
 202107278.981 7                  38459717.271
        45.500
 139555126.559 7                  26556456.823
        43.800
 146439199.601 5                  27866454.815
        34.600
 134348017.801 7                  25565583.725
        44.000
 134270901.532 7                  25550904.524
        44.300
 109068578.416 8  84988567.98846  20755040.129    20755039.0834   20755040.9714
        48.600          38.5004
 134735845.215 5 104989051.51143  25639379.525    25639378.8284   25639404.1104
        32.200          20.6004
 125259272.719 8                  23836038.988
        48.300
 114917171.156 7  89545851.29745  21868010.709    21868010.2044   21868012.7614
        45.100          32.9004
 118267567.987 8  91985931.469 7  22132160.513    22132160.802    22132167.131
        49.400          44.800
 145959200.426 6                  27775114.161
        37.600
 119269131.349 8  92764902.565 7  22280472.286    22280472.062    22280478.889
        48.700          44.400
 113326741.589 8  88143013.380 7  21200118.312    21200119.168    21200129.079
        49.600          46.100
 129088679.519 6 100588523.91045  24564805.471    24564804.9934   24564824.8354
        40.800          33.9004
 102456070.381 8  79688100.257 8  19179984.708    19179985.088    19179991.594
        53.000          48.700
 150401521.379 5                  28620482.304
        35.000
 131631707.465 6 102570297.45545  25048630.439    25048629.7964   25048632.5814
        38.900          31.8004
 120485205.090 7  93884572.79245  22927575.814    22927575.3904   22927577.5304
        43.300          30.4004
 110043296.747 8  85748022.97248  20940544.048    20940543.5704   20940543.8764
        49.300          48.4004
 25  1  1 15 21 45.0000000  0 30G09G26E19E10E36S31S35G06G03R06S48S33
                                E27E11E29E04G16G27E21G04R15E06R07R05
                                G32R16E12G29G28G31
 127075967.126 6  99020243.52245  24181751.618    24181751.0244   24181755.0914
        38.700          33.0004
 106231054.631 8  82777473.97448  20215093.063    20215092.3974   20215096.5104
        49.500          50.5004
 120929296.258 7                  23012079.538
        43.400
 147470036.248 6                  28062621.878
        37.900
 152132504.413 5                  28949853.477
        35.000
 198981337.417 7                  37864885.430
        45.100
 200932737.659 7                  38236232.574
        43.700
 135842799.990 5 105851548.79043  25850023.250    25850022.8794   25850025.8264
        34.000          21.8004
 109129084.963 8  85035663.74548  20766572.141    20766571.8734   20766575.3414
        48.800          50.0004
 103257169.378 6                  19350349.881    19350349.337
        41.800
 412742208.666 5                  78542030.817
        33.100
 202107302.393 7                  38459723.496
        45.300
 139589608.381 7                  26563018.647
        43.700
 146460766.205 5                  27870558.482
        34.100
 134375716.894 7                  25570854.888
        44.500
 134239714.408 7                  25544969.824
        44.400
 109032296.017 8  84960296.03146  20748135.686    20748134.6404   20748136.6924
        48.600          38.7004
 134687927.486 5 104951713.10843  25630260.831    25630260.1254   25630285.1074
        34.500          23.4004
 125256202.039 8                  23835454.686
        48.300
 114878514.438 7  89515729.19045  21860654.932    21860654.4324   21860656.6474
        45.000          33.0004
 118324058.599 8  92029868.522 7  22142731.458    22142731.705    22142738.628
        48.800          44.600
 145922879.104 6                  27768202.486
        38.400
 119212057.929 8  92720512.056 7  22269810.542    22269810.623    22269817.508
        48.700          44.200
 113373220.015 8  88179163.148 7  21208813.607    21208813.746    21208824.055
        49.400          46.000
 129133464.283 6 100623420.71045  24573328.574    24573328.1234   24573347.3984
        40.100          33.0004
 102467805.050 8  79697227.208 8  19182181.663    19182181.777    19182188.122
        53.100          48.900
 150439943.039 5                  28627793.771
        35.100
 131630447.836 6 102569315.84245  25048390.714    25048390.0714   25048393.3044
        39.200          32.2004
 120523791.536 7  93914640.14345  22934919.194    22934918.7884   22934920.2834
        43.400          30.6004
 110071538.504 8  85770029.50648  20945918.496    20945918.0144   20945918.1544
        48.900          48.5004
 25  1  1 15 22  0.0000000  0 30G09G26E19E10E36S31S35G06G03R06S48S33
                                E27E11E29E04G16G27E21G04R15E06R07R05
                                G32R16E12G29G28G31
 127026885.775 6  98981998.26645  24172413.669    24172413.0794   24172415.4014
        38.600          33.2004
 106236199.443 8  82781482.92648  20216072.223    20216071.5574   20216075.5094
        49.600          50.5004
 120930519.479 7                  23012312.392
        43.400
 147503670.529 6                  28069022.625
        37.600
 152125629.026 5                  28948545.512
        35.500
 198981334.454 7                  37864890.050
        45.400
 200932700.919 7                  38236227.816
        43.700
 135844226.156 5 105852660.18443  25850294.322    25850293.9474   25850296.9314
        35.100          23.7004
 109140238.564 8  85044354.85148  20768694.599    20768694.3364   20768697.8104
        49.000          50.1004
 103238036.860 6                  19346763.658    19346763.896
        41.900
 412742687.105 5                  78542061.050
        33.400
 202107323.528 7                  38459729.541
        45.200
 139624147.525 7                  26569591.130
        43.800
 146482411.161 5                  27874677.075
        35.100
 134403456.809 7                  25576133.610
        43.600
 134208537.855 7                  25539036.930
        44.400
 108996144.294 8  84932125.88346  20741256.336    20741255.2904   20741257.2264
        48.400          38.7004
 134639957.730 5 104914334.25043  25621130.598    25621129.8924   25621156.9114
        33.600          22.2004
 125253234.721 8                  23834889.913
        48.400
 114839894.083 7  89485635.44545  21853305.680    21853305.1754   21853307.3784
        45.100          33.2004
 118380586.804 8  92073834.760 7  22153309.917    22153310.227    22153317.373
        49.200          44.800
 145886547.421 6                  27761288.900
        38.400
 119155013.534 8  92676144.184 7  22259153.613    22259153.700    22259160.500
        48.200          44.000
 113419807.573 8  88215397.786 7  21217528.814    21217529.064    21217539.257
        49.300          45.900
 129178290.293 6 100658349.63445  24581858.680    24581858.2244   24581877.6944
        40.500          32.9004
 102479696.320 8  79706475.967 8  19184407.634    19184407.961    19184414.337
        52.900          48.700
 150478363.122 5                  28635104.971
        35.500
 131629315.404 6 102568433.49045  25048174.742    25048174.0944   25048178.1304
        39.500          32.2004
 120562395.854 7  93944721.38945  22942264.774    22942264.3724   22942266.5284
        43.800          30.7004
 110099836.900 8  85792080.20348  20951303.373    20951302.8914   20951303.1864
        49.100          48.5004
 25  1  1 15 22 15.0000000  0 30G09G26E19E10E36S31S35G06G03R06S48S33
                                E27E11E29E04G16G27E21G04R15E06R07R05
                                G32R16E12G29G28G31
 126977812.671 6  98943759.45945  24163074.899    24163074.3054   24163078.0854
        38.600          33.4004
 106241503.862 8  82785616.27248  20217081.509    20217080.8434   20217084.8884
        49.900          50.5004
 120931803.699 7                  23012556.695
        43.500
 147537352.353 5                  28075431.816
        35.900
 152118865.575 5                  28947257.987
        34.600
 198981339.665 7                  37864889.875
        45.500
 200932672.394 7                  38236218.998
        43.500
 135845783.471 5 105853873.70543  25850590.314    25850589.9664   25850593.3334
        34.500          23.7004
 109151555.000 8  85053172.83848  20770847.864    20770847.5924   20770851.2774
        49.000          50.1004
 103219063.705 6                  19343207.932    19343208.536
        41.700
 412741574.539 5                  78542078.579
        33.600
 202107352.304 7                  38459734.371
        45.300
 139658753.251 7                  26576176.479
        43.900
 146504143.538 5                  27878812.870
        34.500
 134431246.833 7                  25581421.906
        44.200
 134177381.246 7                  25533108.211
        44.500
 108960132.887 8  84904065.07646  20734403.587    20734402.5414   20734404.4424
        48.500          38.8004
 134591945.590 5 104876922.33344  25611995.408    25611994.7384   25612020.5464
        34.500          24.9004
 125250380.016 8                  23834346.518
        48.500
 114801319.523 7  89455577.35345  21845965.561    21845965.0614   21845966.8794
        44.600          33.1004
 118437161.734 8  92117837.406 7  22163897.985    22163898.336    22163904.611
        49.600          44.800
 145850214.630 6                  27754375.480
        38.800
 119098008.191 8  92631806.605 7  22248504.426    22248505.429    22248511.823
        49.100          44.200
 113466513.448 8  88251724.480 7  21226266.162    21226266.717    21226276.794
        49.500          45.900
 129223166.680 6 100693317.81945  24590398.824    24590398.3734   24590417.5854
        40.800          33.0004
 102491753.920 8  79715854.149 8  19186665.170    19186665.138    19186671.545
        53.000          48.800
 150516790.668 5                  28642417.536
        35.600
 131628319.215 6 102567657.24645  25047984.524    25047983.8904   25047988.1174
        40.300          32.4004
 120601027.278 7  93974823.74545  22949616.165    22949615.7724   22949617.8804
        44.300          30.6004
 110128200.866 8  85814181.97948  20956701.002    20956700.5154   20956700.6674
        49.100          48.5004
 25  1  1 15 22 30.0000000  0 30G09G26E19E10E36S31S35G06G03R06S48S33
                                E27E11E29E04G16G27E21G04R15E06R07R05
                                G32R16E12G29G28G31
 126928737.048 6  98905518.69645  24153735.713    24153735.1234   24153739.0704
        39.100          33.4004
 106246956.838 8  82789865.36048  20218119.071    20218118.4054   20218122.5424
        49.900          50.4004
 120933138.279 7                  23012810.841
        43.300
 147571070.452 6                  28081848.345
        36.100
 152112202.045 5                  28945989.611
        35.200
 198981341.975 7                  37864888.431
        45.400
 200932641.712 7                  38236217.325
        43.900
 135847461.042 5 105855180.90943  25850909.897    25850909.5714   25850912.4684
        35.100          23.5004
 109163023.263 8  85062109.13048  20773030.539    20773030.2714   20773033.6304
        49.100          50.0004
 103200239.172 6                  19339681.972    19339680.806
        41.400
 412742060.395 5                  78542107.850
        32.700
 202107379.474 7                  38459736.240
        45.300
 139693414.443 7                  26582772.331
        43.500
 146525952.087 5                  27882962.401
        35.000
 134459076.104 7                  25586717.725
        44.200
 134146233.866 7                  25527180.953
        44.500
 108924251.217 8  84876105.36046  20727575.378    20727574.3324   20727576.3284
        48.500          38.7004
 134543880.378 5 104839469.13444  25602848.823    25602848.1484   25602873.9044
        35.300          24.1004
 125247627.018 8                  23833822.801
        48.400
 114762780.111 7  89425546.65545  21838631.588    21838631.0924   21838633.1104
        44.900          32.9004
 118493772.043 8  92161867.576 7  22174491.520    22174491.838    22174498.412
        49.600          44.700
 145813870.061 6                  27747458.540
        38.500
 119041030.843 7  92587490.808 7  22237861.064    22237860.432    22237868.369
        47.900          44.400
 113513326.164 8  88288134.248 7  21235023.661    21235023.558    21235034.131
        48.900          45.600
 129268082.513 6 100728316.74645  24598946.159    24598945.7084   24598965.6374
        40.900          33.4004
 102503966.082 8  79725352.500 8  19188951.269    19188951.281    19188957.667
        53.000          48.700
 150555214.680 5                  28649729.510
        35.100
 131627448.509 6 102566978.71545  25047819.188    25047818.5494   25047822.5644
        39.000          32.2004
 120639674.826 7  94004938.66945  22956970.703    22956970.3144   22956972.1834
        43.500          30.5004
 110156619.452 8  85836326.31648  20962108.854    20962108.3764   20962108.5534
        49.300          48.3004
 25  1  1 15 22 45.0000000  0 30G09G26E19E10E36S31S35G06G03R06S48S33
                                E27E11E29E04G16G27E21G04R15E06R07R05
                                G32R16E12G29G28G31
 126879660.314 6  98867277.05745  24144397.235    24144396.6414   24144399.8894
        39.700          33.3004
 106252559.498 8  82794231.08648  20219185.116    20219184.4504   20219188.6754
        49.500          50.2004
 120934524.612 7                  23013074.586
        43.200
 147604825.814 6                  28088271.987
        36.600
 152105639.977 6                  28944741.262
        36.000
 198981343.130 7                  37864890.144
        45.500
 200932608.439 7                  38236213.422
        43.800
 135849260.372 5 105856583.00443  25851252.688    25851252.3714   25851254.8344
        35.100          23.1004
 109174644.457 8  85071164.58548  20775241.782    20775241.5144   20775245.0934
        49.400          49.9004
 103181564.866 6                  19336181.305    19336181.207
        41.500
 412742544.748 5                  78542132.386
        33.000
 202107404.609 7                  38459742.487
        45.200
 139728132.081 7                  26589378.770
        43.400
 146547837.888 5                  27887127.721
        33.800
 134486945.851 7                  25592021.074
        44.000
 134115096.801 7                  25521255.763
        44.500
 108888500.727 8  84848247.88346  20720772.227    20720771.1774   20720773.2064
        48.700          38.7004
 134495763.666 5 104801975.78643  25593692.342    25593691.6764   25593717.1354
        33.500          22.2004
 125244976.978 8                  23833318.559
        48.300
 114724277.314 7  89395544.47545  21831304.891    21831304.4004   21831306.1684
        44.800          32.9004
 118550418.694 8  92205926.037 7  22185091.658    22185092.414    22185099.167
        48.900          44.600
 145777514.926 6                  27740540.410
        38.500
 118984083.926 8  92543198.759 7  22227223.051    22227223.234    22227229.328
        49.600          44.000
 113560247.009 8  88324628.116 7  21243801.901    21243801.349    21243811.801
        48.600          45.900
 129313038.935 6 100763347.27845  24607501.391    24607500.9224   24607521.3364
        40.500          32.7004
 102516333.791 8  79734971.841 8  19191266.130    19191266.486    19191272.791
        53.000          48.700
 150593636.195 5                  28657041.112
        34.900
 131626704.742 6 102566399.15945  25047677.975    25047677.3454   25047681.0464
        39.100          31.6004
 120678339.650 7  94035067.05445  22964328.445    22964328.0614   22964329.8674
        44.000          30.2004
 110185093.718 8  85858514.04748  20967527.238    20967526.7654   20967527.0334
        49.300          48.2004
 25  1  1 15 23  0.0000000  0 30G09G26E19E10E36S31S35G06G03R06S48S33
                                E27E11E29E04G16G27E21G04R15E06R07R05
                                G32R16E12G29G28G31
 126830583.684 6  98829035.52945  24135058.067    24135057.4644   24135060.7184
        38.600          32.9004
 106258312.802 8  82798714.19048  20220279.912    20220279.2424   20220283.4764
        49.500          50.3004
 120935963.812 7                  23013348.168
        43.100
 147638619.265 6                  28094702.538
        36.100
 152099180.741 5                  28943511.906
        35.800
 198981343.633 7                  37864892.786
        45.400
 200932575.378 7                  38236204.613
        43.400
 135851181.912 5 105858080.20144  25851618.352    25851618.0174   25851620.3494
        34.900          24.2004
 109186419.539 8  85080339.94048  20777482.335    20777482.0724   20777485.8144
        49.000          49.9004
 103163042.101 6                  19332710.786    19332709.913
        41.600
 412743028.280 5                  78542158.021
        33.600
 202107429.756 7                  38459738.019
        44.700
 139762906.829 7                  26595996.197
        43.800
 146569801.824 5                  27891307.622
        34.100
 134514857.110 7                  25597332.445
        43.700
 134083971.639 7                  25515332.713
        44.200
 108852882.743 8  84820493.63746  20713994.269    20713993.2324   20713995.3804
        48.400          38.9004
 134447596.816 5 104764443.36943  25584527.109    25584526.4254   25584550.6444
        33.000          22.9004
 125242430.883 8                  23832834.189
        48.100
 114685812.417 7  89365571.84945  21823985.203    21823984.7214   21823986.4534
        44.700          33.1004
 118607102.230 8  92250013.244 7  22195699.632    22195699.563    22195706.616
        48.900          44.700
 145741150.297 6                  27733620.278
        37.300
 118927168.274 8  92498931.101 7  22216590.215    22216590.413    22216597.562
        49.000          44.300
 113607276.879 8  88361206.807 7  21252599.633    21252599.405    21252609.987
        48.900          46.000
 129358036.851 6 100798410.16645  24616064.283    24616063.8054   24616083.8894
        40.400          32.3004
 102528857.877 8  79744712.820 8  19193610.733    19193611.079    19193617.326
        53.100          48.700
 150632055.884 5                  28664352.929
        34.400
 131626089.056 6 102565919.45745  25047561.144    25047560.5234   25047564.0114
        38.900          32.1004
 120717022.714 7  94065209.66945  22971689.671    22971689.2784   22971691.0924
        44.200          30.4004
 110213624.490 8  85880745.81748  20972956.494    20972956.0164   20972956.2404
        48.900          48.3004
 25  1  1 15 23 15.0000000  0 30G09G26E19E10E36S31S35G06G03R06S48S33
                                E27E11E29E04G16G27E21G04R15E06R07R05
                                G32R16E12G29G28G31
 126781508.665 6  98790795.23945  24125719.322    24125718.7284   24125721.9934
        39.800          33.7004
 106264217.976 8  82803315.64048  20221403.693    20221403.0234   20221407.1684
        49.100          50.3004
 120937457.147 7                  23013632.532
        42.900
 147672451.813 5                  28101141.445
        34.900
 152092825.396 6                  28942302.506
        36.100
 198981345.126 7                  37864893.193
        45.600
 200932543.349 7                  38236204.568
        44.000
 135853226.943 5 105859673.43644  25852007.347    25852007.0174   25852009.7694
        34.500          24.1004
 109198349.771 8  85089636.21048  20779752.743    20779752.4754   20779756.0664
        48.900          50.0004
 103144672.905 6                  19329267.840    19329267.654
        41.300
 412743512.575 5                  78542193.177
        33.400
 202107455.703 7                  38459748.693
        45.100
 139797740.140 7                  26602624.745
        43.200
 146591845.008 5                  27895501.969
        34.600
 134542811.265 7                  25602652.319
        43.300
 134052859.569 7                  25509412.365
        44.000
 108817398.998 8  84792843.98946  20707242.058    20707241.0264   20707243.0604
        48.300          38.9004
 134399381.386 5 104726873.12043  25575351.385    25575350.7014   25575375.0274
        34.000          22.2004
 125239989.993 8                  23832369.547
        48.000
 114647387.018 7  89335630.02745  21816672.649    21816672.1534   21816674.3804
        44.600          33.1004
 118663823.560 8  92294129.820 7  22206314.535    22206314.779    22206321.546
        49.200          45.100
 145704777.657 6                  27726699.051
        38.200
 118870285.594 8  92454688.948 7  22205964.750    22205964.836    22205971.834
        49.500          44.400
 113654416.733 8  88397870.988 7  21261418.240    21261418.415    21261428.044
        49.400          45.800
 129403077.545 6 100833506.37345  24624636.004    24624635.5264   24624655.5744
        39.200          33.1004
 102541539.535 8  79754576.316 8  19195984.985    19195985.126    19195991.408
        53.100          48.900
 150670474.648 5                  28671663.332
        34.200
 131625602.716 6 102565540.53245  25047467.995    25047467.3694   25047470.9474
        38.600          31.4004
 120755725.224 7  94095367.45145  22979054.290    22979053.8934   22979055.9624
        44.200          30.4004
 110242212.863 8  85903022.45848  20978396.879    20978396.4104   20978396.4614
        48.700          48.3004
 25  1  1 15 23 30.0000000  0 30G09G26E19E10E36S31S35G06G03R06S48S33
                                E27E11E29E04G16G27E21G04R15E06R07R05
                                G32R16E12G29G28G31
 126732431.384 6  98752553.18845  24116379.888    24116379.2944   24116383.1984
        38.400          33.3004
 106270270.857 8  82808032.17748  20222555.396    20222554.7264   20222558.9864
        49.200          50.2004
 120939000.925 7                  23013926.418
        42.800
 147706319.228 5                  28107585.639
        35.700
 152086570.673 5                  28941111.817
        35.700
 198981343.659 7                  37864889.357
        45.300
 200932508.091 7                  38236189.606
        43.500
 135855392.261 5 105861360.75343  25852419.339    25852418.9954   25852422.0754
        35.100          22.3004
 109210430.972 8  85099050.11748  20782051.844    20782051.5724   20782055.0704
        48.900          49.9004
 103126453.193 6                  19325853.191    19325853.454
        41.500
 412742395.361 5                  78542210.085
        32.400
 202107478.379 7                  38459757.346
        44.800
 139832627.605 7                  26609263.896
        43.400
 146613963.233 5                  27899710.509
        33.500
 134570804.292 7                  25607979.184
        43.600
 134021756.702 7                  25503493.803
        44.000
 108782045.793 8  84765296.07446  20700514.616    20700513.5754   20700515.5134
        48.400          38.9004
 134351113.695 5 104689262.16243  25566165.817    25566165.1074   25566190.0014
        34.000          23.6004
 125237650.379 8                  23831924.306
        48.000
 114608997.241 7  89305715.96145  21809367.560    21809367.0734   21809369.0684
        44.300          33.0004
 118720578.178 8  92338272.233 7  22216935.980    22216936.027    22216942.427
        50.000          44.900
 145668393.029 6                  27719775.116
        37.100
 118813432.180 8  92410469.602 7  22195343.416    22195343.427    22195350.697
        48.700          44.400
 113701662.471 8  88434617.587 7  21270255.964    21270256.335    21270266.725
        48.600          45.900
 129448156.907 6 100868632.70145  24633214.859    24633214.3944   24633234.7664
        39.900          32.8004
 102554374.075 8  79764558.745 8  19198387.470    19198387.805    19198394.074
        53.000          48.600
 150708888.556 5                  28678973.491
        34.400
 131625241.755 6 102565259.32845  25047399.317    25047398.6784   25047402.1434
        38.700          31.5004
 120794443.081 7  94125537.20045  22986422.048    22986421.6424   22986423.8904
        43.500          30.4004
 110270854.645 8  85925340.71748  20983847.119    20983846.6414   20983846.8324
        49.200          48.3004
 25  1  1 15 23 45.0000000  0 30G09G26E19E10E36S31S35G06G03R06S48S33
                                E27E11E29E04G16G27E21G04R15E06R07R05
                                G32R16E12G29G28G31
 126683355.648 6  98714312.33345  24107041.655    24107041.0794   24107044.0174
        38.900          33.1004
 106276474.970 8  82812866.56448  20223736.069    20223735.4084   20223739.5804
        49.400          50.2004
 120940598.613 7                  23014230.507
        43.000
 147740224.926 5                  28114038.429
        35.800
 152080419.333 5                  28939941.195
        34.700
 198981342.384 7                  37864891.579
        45.500
 200932473.093 7                  38236187.808
        43.700
 135857680.464 5 105863143.70843  25852854.376    25852854.0144   25852857.8574
        33.700          20.7004
 109222666.629 8  85108584.36948  20784380.189    20784379.9174   20784383.4584
        48.800          50.0004
 103108387.182 6                  19322468.058    19322467.903
        41.600
 412742879.821 5                  78542233.757
        32.700
 202107501.714 7                  38459760.418
        44.900
 139867572.548 7                  26615913.521
        42.800
 146636159.890 5                  27903935.201
        33.900
 134598839.804 7                  25613314.320
        43.700
 133990666.713 7                  25497577.324
        44.100
 108746827.017 8  84737852.90846  20693812.660    20693811.6284   20693813.5354
        48.600          39.0004
 134302797.634 5 104651613.51743  25556971.727    25556970.9944   25556996.0184
        33.500          22.8004
 125235415.508 8                  23831499.036
        48.200
 114570646.912 7  89275832.65445  21802069.758    21802069.2764   21802071.2194
        44.900          33.2004
 118777369.272 8  92382443.008 7  22227562.921    22227563.308    22227570.227
        49.200          44.600
 145632000.071 6                  27712850.289
        37.700
 118756612.614 8  92366276.571 7  22184729.843    22184729.816    22184736.304
        49.400          44.200
 113749017.338 8  88471449.033 7  21279115.351    21279115.264    21279126.042
        48.800          46.000
 129493278.400 6 100903791.88245  24641801.528    24641801.0724   24641821.3194
        39.900          32.7004
 102567365.135 8  79774662.923 8  19200819.498    19200819.728    19200825.894
        53.000          48.700
 150747300.751 5                  28686283.448
        33.800
 131625009.866 6 102565078.63445  25047355.129    25047354.4864   25047358.1514
        39.100          31.8004
 120833179.704 7  94155721.53645  22993793.763    22993793.3794   22993795.2484
        43.000          30.2004
 110299553.319 8  85947703.32048  20989308.104    20989307.6314   20989308.0114
        49.000          48.3004
 25  1  1 15 24  0.0000000  0 30G09G26E19E10E36S31S35G06G03R06S48S33
                                E27E11E29E04G16G27E21G04R15E06R07R05
                                G32R16E12G29G28G31
 126634283.280 6  98676074.12945  24097703.050    24097702.4384   24097706.0714
        39.700          33.4004
 106282831.831 8  82817819.97548  20224945.717    20224945.0604   20224949.2384
        49.500          50.3004
 120942252.118 7                  23014544.988
        43.000
 147774170.237 5                  28120497.756
        34.900
 152074373.353 5                  28938790.997
        34.800
 198981343.620 7                  37864886.204
        45.200
 200932440.392 7                  38236183.694
        43.900
 135860093.836 5 105865024.26343  25853313.727    25853313.3744   25853316.8694
        34.900          22.4004
 109235058.272 8  85118240.18248  20786738.107    20786737.8394   20786741.5324
        49.200          50.1004
 103090476.787 6                  19319111.408    19319111.454
        41.200
 412743367.132 5                  78542263.239
        33.100
 202107527.455 7                  38459766.803
        45.300
 139902576.555 7                  26622574.540
        43.000
 146658436.360 5                  27908174.447
        32.700
 134626919.410 7                  25618657.484
        43.300
 133959591.397 7                  25491664.161
        44.100
 108711744.427 8  84710515.85646  20687136.620    20687135.5884   20687137.5594
        48.900          39.2004
 134254435.193 5 104613928.70644  25547768.789    25547768.0654   25547793.1424
        33.500          24.4004
 125233287.013 7                  23831094.038
        47.900
 114532337.869 7  89245981.49145  21794779.969    21794779.4824   21794781.1774
        44.300          33.3004
 118834198.098 8  92426643.087 7  22238197.782    22238198.342    22238205.024
        49.300          44.900
 145595600.591 6                  27705924.170
        36.700
 118699828.314 8  92322110.991 7  22174121.247    22174121.598    22174128.479
        48.800          44.100
 113796482.778 8  88508366.490 7  21287994.595    21287995.061    21288004.919
        49.100          45.800
 129538443.565 6 100938985.06545  24650396.235    24650395.7704   24650416.4394
        39.900          32.7004
 102580514.095 8  79784889.897 8  19203281.001    19203281.209    19203287.496
        52.800          48.700
 150785712.628 5                  28693592.970
        34.000
 131624908.832 6 102564999.91245  25047336.392    25047335.7494   25047339.0174
        39.200          31.7004
 120871936.692 7  94185921.74545  23001168.650    23001168.2754   23001170.5374
        43.800          30.3004
 110328310.370 8  85970111.44248  20994780.623    20994780.1584   20994780.2714
        49.400          48.5004
 25  1  1 15 24 15.0000000  0 30G09G26E19E10E36S31S35G06G03R06S48S33
                                E27E11E29E04G16G27E21G04R15E06R07R05
                                G32R16E12G29G28G31
 126585212.167 6  98637836.89145  24088364.746    24088364.1384   24088368.2594
        39.800          34.0004
 106289339.007 8  82822890.50848  20226183.938    20226183.2814   20226187.4984
        49.500          50.3004
 120943959.088 7                  23014869.744
        43.200
 147808152.394 6                  28126964.596
        36.700
 152068430.499 5                  28937659.600
        34.800
 198981345.221 7                  37864890.014
        45.300
 200932407.850 7                  38236171.116
        43.700
 135862629.626 6 105867000.25744  25853796.871    25853796.4964   25853799.5404
        36.500          24.3004
 109247603.474 8  85128015.64148  20789125.459    20789125.1914   20789128.8284
        48.900          50.1004
 103072719.984 6                  19315783.390    19315783.543
        41.200
 412743854.699 5                  78542297.648
        32.200
 202107552.736 7                  38459771.078
        45.200
 139937636.972 7                  26629246.421
        43.600
 146680790.259 5                  27912428.000
        34.000
 134655040.888 7                  25624009.084
        43.900
 133928528.497 7                  25485753.106
        44.700
 108676796.166 8  84683283.47846  20680485.968    20680484.9364   20680487.0804
        48.600          39.3004
 134206024.336 5 104576206.23244  25538556.706    25538555.9784   25538580.8354
        33.900          24.5004
 125231262.606 8                  23830708.830
        48.300
 114494068.037 7  89216160.88145  21787497.198    21787496.7204   21787498.5944
        45.000          33.3004
 118891062.118 8  92470870.634 7  22248839.078    22248839.659    22248846.167
        49.400          44.500
 145559192.210 6                  27698995.376
        37.900
 118643077.686 8  92277971.610 7  22163519.547    22163520.034    22163526.732
        48.300          44.100
 113844056.274 8  88545367.994 7  21296894.396    21296894.364    21296904.825
        48.000          45.700
 129583650.029 6 100974210.44245  24658998.974    24658998.5014   24659019.4394
        40.800          32.9004
 102593818.163 8  79795237.497 8  19205771.337    19205771.710    19205778.038
        52.500          48.700
 150824121.672 5                  28700901.821
        34.100
 131624936.485 6 102565021.42645  25047341.472    25047340.8384   25047344.4274
        38.700          32.1004
 120910711.587 7  94216135.88745  23008547.151    23008546.7804   23008549.1934
        44.200          30.3004
 110357123.310 8  85992563.07348  21000263.199    21000262.7304   21000263.1744
        49.400          48.5004
 25  1  1 15 24 30.0000000  0 30G09G26E19E10E36S31S35G06G03R06S48S33
                                E27E11E29E04G16G27E21G04R15E06R07R05
                                G32R16E12G29G28G31
 126536143.482 6  98599601.54845  24079027.451    24079026.8434   24079030.6304
        39.200          33.6004
 106295997.460 8  82828078.91548  20227451.172    20227450.5114   20227454.5554
        49.600          50.4004
 120945720.816 7                  23015205.151
        43.000
 147842172.439 6                  28133438.277
        36.500
 152062591.816 5                  28936548.906
        35.500
 198981346.426 7                  37864889.084
        45.200
 200932376.235 7                  38236166.635
        43.700
 135865288.495 6 105869072.01444  25854302.497    25854302.1404   25854305.3524
        36.000          24.1004
 109260303.179 8  85137911.49948  20791542.184    20791541.9164   20791545.5214
        49.200          50.1004
 103055118.307 6                  19312485.088    19312485.256
        41.400
 412742743.585 5                  78542319.062
        32.500
 202107579.011 7                  38459772.701
        45.000
 139972754.670 7                  26635929.072
        43.200
 146703222.369 5                  27916696.856
        33.500
 134683205.257 7                  25629368.622
        43.700
 133897479.218 7                  25479844.364
        44.800
 108641983.510 8  84656156.77046  20673861.586    20673860.5544   20673862.4434
        48.700          39.4004
 134157566.491 5 104538447.16344  25529334.771    25529334.0294   25529358.9544
        34.600          25.1004
 125229343.334 8                  23830343.735
        48.200
 114455838.674 7  89186371.80945  21780221.995    21780221.5084   21780223.7744
        44.600          33.7004
 118947961.779 8  92515125.829 7  22259487.102    22259487.192    22259494.714
        48.500          44.800
 145522776.042 6                  27692065.519
        38.000
 118586362.262 8  92233859.607 7  22152925.008    22152925.405    22152931.861
        49.500          44.100
 113891738.704 8  88582454.221 7  21305814.631    21305814.732    21305824.876
        49.300          45.800
 129628898.779 6 101009468.77045  24667609.748    24667609.2974   24667630.6664
        40.300          33.2004
 102607278.270 8  79805706.488 8  19208291.591    19208291.568    19208297.748
        52.800          48.600
 150862528.702 5                  28708210.723
        34.200
 131625093.728 6 102565143.88245  25047371.439    25047370.7824   25047374.6694
        39.000          31.8004
 120949505.448 7  94246364.81945  23015929.699    23015929.3194   23015931.4214
        44.200          30.3004
 110385993.064 8  86015058.98348  21005757.204    21005756.7354   21005756.9064
        49.300          48.5004
 25  1  1 15 24 45.0000000  0 30G09G26E19E10E36S31S35G06G03R06S48S33
                                E27E11E29E04G16G27E21G04R15E06R07R05
                                G32R16E12G29G28G31
 126487072.746 6  98561364.61545  24069690.240    24069689.6234   24069692.6884
        40.300          33.8004
 106302802.389 8  82833381.46848  20228746.131    20228745.4704   20228749.5144
        49.800          50.3004
 120947532.672 7                  23015550.021
        43.200
 147876225.426 6                  28139918.374
        36.100
 152056852.745 6                  28935456.006
        36.500
 198981344.429 7                  37864892.858
        45.800
 200932340.488 7                  38236162.302
        43.900
 135868065.717 6 105871235.97944  25854831.289    25854830.9364   25854833.8634
        36.700          25.4004
 109273152.595 8  85147924.01548  20793987.379    20793987.1114   20793990.6994
        49.400          50.1004
 103037667.096 6                  19309214.472    19309214.815
        41.500
 412743227.917 5                  78542342.163
        32.800
 202107601.839 7                  38459776.082
        45.100
 140007924.873 7                  26642621.708
        43.100
 146725727.733 5                  27920979.330
        34.400
 134711407.873 7                  25634735.474
        43.800
 133866438.982 7                  25473937.664
        44.600
 108607302.124 8  84629132.35046  20667261.856    20667260.8244   20667262.7664
        48.900          39.4004
 134109057.239 5 104500648.04444  25520103.621    25520102.8844   25520127.2174
        33.900          24.1004
 125227524.435 8                  23829997.549
        48.500
 114417645.364 7  89156610.80545  21772954.507    21772954.0204   21772955.8134
        45.300          33.5004
 119004892.270 8  92559405.086 7  22270141.034    22270141.539    22270148.270
        49.600          44.900
 145486347.567 6                  27685133.151
        37.400
 118529677.635 8  92189771.535 7  22142336.472    22142336.102    22142343.234
        48.800          44.500
 113939524.997 8  88619621.226 7  21314753.638    21314753.760    21314764.414
        48.100          45.800
 129674184.960 6 101044756.26545  24676227.768    24676227.2954   24676248.7394
        39.800          32.9004
 102620889.248 8  79816292.810 8  19210839.347    19210839.526    19210845.826
        53.200          48.800
 150900928.666 5                  28715518.320
        34.100
 131625376.344 6 102565364.14945  25047425.391    25047424.7254   25047428.6334
        39.000          31.8004
 120988313.489 7  94276604.81845  23023314.595    23023314.2024   23023316.3374
        43.700          30.2004
 110414914.714 8  86037595.32148  21011260.797    21011260.3244   21011260.5354
        49.600          48.5004
 25  1  1 15 25  0.0000000  0 30G09G26E19E10E36S31S35G06G03R06S48S33
                                E27E11E29E04G16G27E21G04R15E06R07R05
                                G32R16E12G29G28G31
 126438009.004 6  98523133.09445  24060353.156    24060352.5174   24060356.0924
        37.800          33.3004
 106309762.534 8  82838804.96248  20230070.660    20230070.0034   20230073.9824
        49.500          50.4004
 120949403.562 7                  23015906.049
        43.200
 147910319.847 6                  28146406.486
        36.200
 152051221.498 5                  28934385.057
        35.500
 198981348.288 7                  37864886.329
        45.400
 200932310.046 7                  38236157.271
        43.900
 135870970.585 5 105873499.46944  25855384.079    25855383.7314   25855386.7254
        35.900          25.5004
 109286160.465 8  85158059.99648  20796462.637    20796462.3744   20796466.0324
        49.100          50.1004
 103020375.995 6                  19305974.836    19305974.279
        41.100
 412743718.243 5                  78542373.080
        33.500
 202107629.350 7                  38459783.040
        45.100
 140043156.262 7                  26649326.411
        43.100
 146748315.152 5                  27925277.244
        33.800
 134739657.587 7                  25640110.964
        43.700
 133835416.876 7                  25468034.491
        44.700
 108572761.216 8  84602217.39946  20660688.671    20660687.6394   20660689.7724
        48.800          39.4004
 134060505.732 5 104462815.99543  25510863.564    25510862.8134   25510887.3964
        34.700          23.7004
 125225814.816 8                  23829672.040
        48.500
 114379497.174 7  89126884.96045  21765694.956    21765694.4654   21765696.4254
        45.100          33.8004
 119061862.016 8  92603714.787 7  22280801.821    22280802.299    22280809.709
        48.900          44.700
 145449915.712 6                  27678200.760
        38.200
 118473033.063 8  92145714.582 7  22131754.511    22131754.007    22131761.434
        48.700          44.200
 113987424.135 8  88656875.984 7  21323714.820    21323714.811    21323725.027
        48.600          45.800
 129719517.445 6 101080079.83745  24684854.907    24684854.4344   24684875.5994
        39.200          32.5004
 102634659.877 8  79827003.306 8  19213417.205    19213417.456    19213423.631
        52.600          48.700
 150939330.297 5                  28722825.829
        34.200
 131625793.040 6 102565688.83745  25047504.705    25047504.0354   25047507.5754
        38.500          31.7004
 121027144.442 7  94306862.66045  23030704.072    23030703.6754   23030705.7874
        44.300          30.4004
 110443896.999 8  86060178.92648  21016775.997    21016775.5284   21016775.7094
        49.200          48.5004
 25  1  1 15 25 15.0000000  0 30G09G26E19E10E36S31S35G06G03R06S48S33
                                E27E11E29E04G16G27E21G04R15E06R07R05
                                G32R16E12G29G28G31
 126388945.065 6  98484901.46045  24051017.805    24051017.2024   24051019.4074
        40.100          33.6004
 106316870.342 8  82844343.52048  20231423.119    20231422.4674   20231426.5544
        49.600          50.2004
 120951326.232 7                  23016271.732
        43.400
 147944447.998 6                  28152900.743
        36.200
 152045689.904 5                  28933332.795
        35.200
 198981348.739 7                  37864891.758
        45.200
 200932277.704 7                  38236151.499
        43.900
 135873994.522 6 105875855.45144  25855959.755    25855959.4114   25855962.2724
        36.800          24.8004
 109299319.211 8  85168313.54448  20798966.802    20798966.5434   20798970.0694
        49.200          50.0004
 103003237.409 6                  19302763.178    19302762.643
        41.500
 412744206.450 5                  78542396.511
        32.100
 202107654.698 7                  38459790.932
        44.900
 140078440.969 7                  26656040.842
        43.900
 146770976.898 5                  27929590.064
        35.000
 134767946.968 7                  25645494.712
        44.100
 133804405.383 7                  25462133.283
        45.300
 108538353.527 8  84575406.25446  20654141.052    20654140.0154   20654142.1314
        48.700          39.4004
 134011904.851 5 104424945.46843  25501615.280    25501614.5704   25501638.7044
        33.700          23.7004
 125224206.907 8                  23829366.073
        48.500
 114341386.835 7  89097188.57145  21758442.847    21758442.3514   21758444.2854
        45.200          33.6004
 119118863.055 8  92648048.860 7  22291469.475    22291469.779    22291476.599
        49.100          44.800
 145413473.074 6                  27671265.289
        38.000
 118416421.494 8  92101683.313 7  22121178.592    22121179.058    22121185.640
        48.900          43.700
 114035428.278 8  88694212.428 7  21332694.742    21332694.858    21332705.382
        49.300          45.600
 129764888.604 6 101115433.55345  24693489.292    24693488.8414   24693509.6544
        38.900          32.2004
 102648582.290 8  79837831.861 8  19216023.611    19216023.737    19216029.939
        52.400          48.700
 150977725.778 5                  28730132.904
        34.400
 131626336.518 6 102566112.29345  25047607.498    25047606.8144   25047610.7174
        39.300          31.5004
 121065990.805 7  94337132.53145  23038096.250    23038095.8304   23038098.0644
        44.000          30.4004
 110472932.212 8  86082803.76348  21022301.108    21022300.6354   21022300.9224
        49.500          48.4004
 25  1  1 15 25 30.0000000  0 30G09G26E19E10E36S31S35G06G03R06S48S33
                                E27E11E29E04G16G27E21G04R15E06R07R05
                                G32R16E12G29G28G31
 126339881.030 6  98446669.73345  24041679.936    24041679.3334   24041683.3484
        39.000          34.0004
 106324125.633 8  82849996.99548  20232803.605    20232802.9534   20232807.1904
        49.400          50.3004
 120953300.625 7                  23016647.582
        43.300
 147978609.643 6                  28159401.907
        36.200
 152040262.157 5                  28932299.441
        34.300
 198981347.246 7                  37864889.285
        45.100
 200932241.829 7                  38236147.796
        43.700
 135877137.868 6 105878304.20144  25856558.338    25856558.0034   25856560.7904
        36.100          24.5004
 109312628.687 8  85178684.54948  20801499.440    20801499.1724   20801502.8144
        49.200          50.1004
 102986251.968 6                  19299579.698    19299579.756
        41.200
 412744692.754 5                  78542428.935
        32.000
 202107678.173 7                  38459796.303
        45.100
 140113778.855 7                  26662765.230
        42.900
 146793712.735 5                  27933915.859
        34.800
 134796276.006 7                  25650885.126
        44.100
 133773404.829 7                  25456234.017
        44.800
 108504079.320 8  84548699.11946  20647619.043    20647618.0154   20647619.9174
        48.800          39.4004
 133963254.888 5 104387036.73843  25492357.600    25492356.8764   25492380.7644
        34.700          23.4004
 125222700.727 8                  23829079.614
        48.400
 114303314.734 7  89067522.03345  21751197.961    21751197.4834   21751199.3624
        45.400          33.9004
 119175894.740 8  92692406.758 7  22302141.807    22302142.348    22302149.607
        49.200          44.900
 145377019.744 6                  27664328.744
        38.000
 118359843.520 8  92057678.288 7  22110609.799    22110609.292    22110616.642
        48.800          44.200
 114083537.089 8  88731630.271 7  21341694.323    21341694.589    21341705.162
        48.600          45.500
 129810298.369 6 101150817.36845  24702131.133    24702130.7004   24702151.0554
        39.600          32.5004
 102662656.281 8  79848778.286 8  19218658.705    19218658.323    19218664.480
        52.600          48.800
 151016114.804 5                  28737438.389
        34.700
 131627006.957 6 102566634.71945  25047734.919    25047734.2534   25047738.3244
        39.200          31.9004
 121104852.420 7  94367414.27845  23045491.123    23045490.7084   23045493.0684
        43.500          30.4004
 110502020.152 8  86105469.62848  21027836.432    21027835.9544   21027836.2094
        49.700          48.5004
 25  1  1 15 25 45.0000000  0 30G09G26E19E10E36S31S35G06G03R06S48S33
                                E27E11E29E04G16G27E21G04R15E06R07R05
                                G32R16E12G29G28G31
 126290823.310 6  98408442.96045  24032344.867    24032344.2774   24032348.0134
        38.900          33.7004
 106331534.579 8  82855770.20448  20234213.672    20234213.0244   20234217.0794
        49.600          50.2004
 120955333.270 7                  23017034.315
        43.100
 148012810.605 6                  28165909.692
        36.000
 152034940.512 5                  28931286.797
        35.400
 198981349.874 7                  37864888.941
        45.300
 200932211.184 7                  38236136.818
        43.900
 135880407.489 6 105880851.52344  25857180.970    25857180.6444   25857183.6064
        36.200          24.3004
 109326095.004 8  85189177.76348  20804061.943    20804061.6714   20804065.3854
        49.200          49.9004
 102969426.180 6                  19296426.595    19296426.591
        40.900
 412743583.180 5                  78542454.530
        32.500
 202107705.257 7                  38459798.225
        45.300
 140149176.204 7                  26669501.338
        42.600
 146816528.693 5                  27938257.824
        33.100
 134824650.939 7                  25656285.098
        43.400
 133742421.337 7                  25450338.059
        44.800
 108469945.014 8  84522100.98646  20641123.496    20641122.4684   20641124.3884
        48.800          39.4004
 133914562.472 6 104349094.93144  25483090.972    25483090.2394   25483115.1244
        36.100          24.7004
 125221302.493 8                  23828813.348
        48.200
 114265287.128 7  89037890.13845  21743961.649    21743961.1764   21743962.9264
        44.900          33.7004
 119232963.468 8  92736793.584 7  22312821.826    22312822.027    22312828.776
        49.200          44.300
 145340561.968 6                  27657390.923
        37.700
 118303305.564 8  92013704.376 7  22100047.499    22100047.301    22100054.455
        49.300          44.400
 114131756.659 7  88769134.271 7  21350715.033    21350714.683    21350725.390
        47.700          45.300
 129855752.858 6 101186236.03545  24710780.929    24710780.5054   24710801.1594
        40.600          32.6004
 102676887.689 8  79859847.157 8  19221322.398    19221322.623    19221328.691
        52.800          48.700
 151054503.662 5                  28744743.193
        33.600
 131627810.628 6 102567260.97545  25047888.382    25047887.7074   25047891.2454
        38.200          31.5004
 121143735.431 7  94397712.70044  23052890.768    23052890.3574   23052892.3914
        43.800          29.9004
 110531166.985 8  86128181.40548  21033383.000    21033382.5094   21033382.7254
        49.900          48.4004
 25  1  1 15 26  0.0000000  0 30G09G26E19E10E36S31S35G06G03R06S48S33
                                E27E11E29E04G16G27E21G04R15E06R07R05
                                G32R16E12G29G28G31
 126241764.791 6  98370215.56645  24023009.595    24023009.0014   24023012.2134
        39.400          33.8004
 106339089.749 8  82861657.37748  20235651.116    20235650.4684   20235654.7684
        49.700          50.3004
 120957416.893 7                  23017430.862
        43.400
 148047043.439 6                  28172424.134
        36.700
 152029718.506 6                  28930293.346
        36.200
 198981349.257 7                  37864890.823
        45.500
 200932176.730 7                  38236126.981
        43.500
 135883796.226 5 105883492.05444  25857825.704    25857825.3834   25857828.9514
        35.800          24.2004
 109339710.710 8  85199787.38048  20806652.973    20806652.7054   20806656.3914
        48.900          50.0004
 102952753.152 6                  19293301.906    19293301.907
        41.200
 412744071.720 5                  78542479.147
        33.200
 202107728.532 7                  38459803.922
        45.400
 140184625.175 7                  26676247.054
        42.900
 146839417.203 5                  27942613.553
        33.900
 134853064.484 7                  25661692.395
        43.700
 133711447.807 7                  25444443.992
        44.900
 108435943.778 8  84495606.54346  20634653.249    20634652.2254   20634654.1524
        48.700          39.5004
 133865820.516 5 104311114.52744  25473815.620    25473814.8874   25473839.2254
        35.300          24.7004
 125220004.792 8                  23828566.499
        48.300
 114227297.094 7  89008287.53545  21736732.321    21736731.8704   21736733.7704
        44.900          33.9004
 119290061.283 8  92781202.970 7  22323506.412    22323506.674    22323514.067
        48.900          44.300
 145304092.621 6                  27650451.487
        37.900
 118246800.878 8  91969756.346 7  22089491.994    22089492.090    22089498.667
        48.500          43.800
 114180079.428 8  88806718.534 7  21359755.231    21359755.061    21359765.571
        48.300          45.600
 129901244.682 6 101221683.80645  24719437.674    24719437.2544   24719458.5564
        39.600          32.6004
 102691268.893 8  79871032.532 8  19224014.449    19224014.728    19224020.921
        52.700          48.600
 151092884.482 5                  28752047.253
        34.300
 131628740.150 6 102567985.26445  25048065.325    25048064.6594   25048068.0444
        38.900          31.5004
 121182632.477 7  94428022.05645  23060292.557    23060292.1464   23060294.2414
        43.500          30.1004
 110560365.305 8  86150933.32348  21038939.144    21038938.6444   21038939.0564
        49.600          48.4004
 25  1  1 15 26 15.0000000  0 30G09G26E19E10E36S31S35G06G03R06S48S33
                                E27E11E29E04G16G27E21G04R15E06R07R05
                                G32R16E12G29G28G31
 126192710.517 6  98331991.46345  24013674.299    24013673.6914   24013677.3834
        40.100          34.1004
 106346795.810 8  82867662.11948  20237117.456    20237116.8044   20237121.1704
        49.300          50.2004
 120959556.399 7                  23017837.798
        43.000
 148081312.754 6                  28178945.191
        36.000
 152024601.765 6                  28929319.677
        36.400
 198981350.155 7                  37864891.279
        45.500
 200932143.727 7                  38236124.521
        43.600
 135887308.727 5 105886229.29643  25858493.542    25858493.2294   25858497.1504
        35.400          23.6004
 109353480.550 8  85210517.10948  20809273.402    20809273.1394   20809276.7174
        49.100          50.0004
 102936237.993 6                  19290207.759    19290206.976
        41.100
 412744562.016 5                  78542518.001
        32.900
 202107753.491 7                  38459802.862
        45.000
 140220130.443 7                  26683003.369
        42.700
 146862383.040 5                  27946983.161
        33.200
 134881521.491 7                  25667107.032
        43.300
 133680489.160 7                  25438552.625
        44.500
 108402080.819 8  84469219.85146  20628209.350    20628208.3314   20628210.2264
        49.000          39.4004
 133817034.188 5 104273099.59244  25464531.442    25464530.7094   25464554.9344
        35.400          24.6004
 125218812.436 7                  23828339.681
        47.900
 114189349.619 7  88978718.11545  21729510.976    21729510.5344   21729512.6014
        45.000          34.0004
 119347192.591 8  92825638.418 7  22334197.974    22334198.239    22334205.681
        49.400          44.900
 145267616.448 6                  27643510.188
        38.000
 118190334.716 8  91925838.208 7  22078943.361    22078943.376    22078951.142
        48.700          44.400
 114228509.848 8  88844386.513 7  21368814.897    21368815.096    21368825.629
        48.800          45.800
 129946778.548 6 101257164.32245  24728103.044    24728102.6244   24728124.0064
        39.500          32.5004
 102705804.593 8  79882338.081 8  19226735.621    19226735.813    19226742.127
        52.600          48.700
 151131262.024 5                  28759349.979
        33.900
 131629800.431 6 102568811.48045  25048266.649    25048265.9884   25048269.8174
        39.100          31.9004
 121221548.263 7  94458346.00945  23067697.671    23067697.2474   23067699.8384
        43.700          30.0004
 110589619.701 8  86173728.98148  21044506.093    21044505.6024   21044505.9894
        49.500          48.5004
 25  1  1 15 26 30.0000000  0 30G09G26E19E10E36S31S35G06G03R06S48S33
                                E27E11E29E04G16G27E21G04R15E06R07R05
                                G32R16E12G29G28G31
 126143657.820 6  98293768.60145  24004340.069    24004339.4484   24004342.9114
        40.100          34.2004
 106354649.892 8  82873782.22148  20238612.190    20238611.5384   20238615.7294
        49.600          50.3004
 120961749.033 7                  23018255.206
        43.200
 148115615.319 6                  28185472.855
        37.100
 152019588.776 6                  28928364.893
        36.400
 198981349.007 7                  37864892.317
        45.600
 200932109.278 7                  38236121.172
        43.900
 135890940.644 5 105889059.17443  25859185.378    25859185.0524   25859188.5754
        35.500          22.1004
 109367401.553 8  85221364.62548  20811922.510    20811922.2424   20811925.8144
        49.200          50.0004
 102919878.123 6                  19287141.187    19287141.147
        41.100
 412745051.037 5                  78542542.809
        33.100
 202107777.904 7                  38459812.441
        45.100
 140255689.147 7                  26689769.970
        43.100
 146885423.020 5                  27951368.958
        33.700
 134910019.139 7                  25672530.029
        43.500
 133649542.744 7                  25432663.687
        44.800
 108368353.373 8  84442938.75546  20621791.177    20621790.1584   20621792.0574
        48.800          39.4004
 133768200.992 5 104235048.11243  25455238.809    25455238.0634   25455261.6284
        35.000          23.5004
 125217722.658 8                  23828132.110
        48.100
 114151442.113 7  88949179.83245  21722297.434    21722296.9964   21722298.9214
        45.700          34.1004
 119404354.171 8  92870097.383 7  22344895.039    22344895.187    22344901.896
        49.300          44.400
 145231130.878 6                  27636566.794
        38.000
 118133904.443 8  91881947.989 7  22068402.363    22068402.053    22068409.319
        49.000          44.200
 114277045.139 8  88882136.058 7  21377894.676    21377894.506    21377905.325
        48.300          45.500
 129992351.556 6 101292675.36445  24736775.590    24736775.1704   24736796.5664
        39.300          32.1004
 102720491.409 8  79893761.149 8  19229484.784    19229485.186    19229491.446
        52.100          48.700
 151169633.167 5                  28766652.311
        34.100
 131630988.576 6 102569737.26545  25048493.275    25048492.6234   25048495.8044
        39.700          31.1004
 121260479.875 7  94488682.28645  23075106.230    23075105.8064   23075108.2754
        43.700          30.1004
 110618927.100 8  86196565.91548  21050083.317    21050082.8214   21050082.9834
        49.300          48.4004
 25  1  1 15 26 45.0000000  0 30G09G26E19E10E36S31S35G06G03R06S48S33
                                E27E11E29E04G16G27E21G04R15E06R07R05
                                G32R16E12G29G28G31
 126094609.202 6  98255548.89945  23995006.591    23995005.9704   23995009.3874
        39.600          33.8004
 106362654.109 8  82880019.30348  20240135.109    20240134.4614   20240138.8624
        49.500          50.1004
 120963997.178 7                  23018683.035
        43.100
 148149953.317 6                  28192007.385
        36.900
 152014679.046 6                  28927430.411
        36.300
 198981349.467 7                  37864889.200
        45.200
 200932075.757 7                  38236116.374
        44.100
 135894695.090 5 105891984.47443  25859900.135    25859899.8054   25859902.9794
        35.200          21.7004
 109381475.913 8  85232331.63848  20814600.577    20814600.3094   20814604.0834
        49.200          49.8004
 102903676.409 6                  19284105.226    19284104.888
        41.400
 412743941.516 5                  78542561.966
        32.900
 202107802.360 7                  38459821.782
        45.500
 140291303.445 7                  26696547.273
        42.700
 146908539.358 5                  27955766.718
        33.900
 134938559.769 7                  25677961.297
        43.300
 133618610.909 7                  25426777.640
        45.100
 108334764.116 8  84416765.35846  20615399.172    20615398.1574   20615400.2264
        48.700          39.2004
 133719323.567 6 104196962.19944  25445937.435    25445936.7024   25445959.9154
        36.100          24.9004
 125216737.676 8                  23827944.786
        48.000
 114113577.045 7  88919674.57145  21715091.794    21715091.3524   21715093.4024
        45.800          33.9004
 119461547.892 8  92914581.304 7  22355597.730    22355597.976    22355606.017
        48.300          44.700
 145194638.246 6                  27629622.551
        37.300
 118077513.214 8  91838088.190 7  22057867.651    22057867.630    22057874.834
        48.600          44.400
 114325687.261 8  88919968.711 7  21386994.259    21386993.811    21387004.840
        48.200          45.400
 130037965.928 6 101328218.63045  24745455.906    24745455.4824   24745477.2104
        40.500          32.0004
 102735331.649 8  79905303.556 8  19232263.129    19232263.503    19232269.674
        52.500          48.600
 151207999.985 5                  28773952.901
        34.400
 131632307.188 6 102570764.72145  25048744.176    25048743.4924   25048746.7564
        38.500          30.6004
 121299429.609 7  94519032.70944  23082518.326    23082517.9064   23082520.2044
        43.500          29.9004
 110648289.507 8  86219445.68948  21055670.673    21055670.1774   21055670.4814
        49.400          48.3004
 25  1  1 15 27  0.0000000  0 30G09G26E19E10E36S31S35G06G03R06S48S33
                                E27E11E29E04G16G27E21G04R15E06R07R05
                                G32R16E12G29G28G31
 126045563.769 6  98217331.69445  23985673.945    23985673.3154   23985676.5574
        39.600          34.1004
 106370807.206 8  82886372.38048  20241686.914    20241686.2664   20241690.3194
        49.600          50.1004
 120966299.978 7                  23019121.316
        43.100
 148184325.373 6                  28198548.206
        36.600
 152009872.566 6                  28926515.276
        36.200
 198981350.015 7                  37864891.713
        45.400
 200932042.363 7                  38236107.815
        44.100
 135898570.154 5 105895003.51743  25860637.677    25860637.3204   25860640.2964
        33.100          20.3004
 109395702.414 8  85243417.21348  20817308.008    20817307.7454   20817311.3294
        48.800          49.7004
 102887631.899 6                  19281098.044    19281098.209
        41.300
 412744433.243 5                  78542595.073
        32.500
 202107827.438 7                  38459823.991
        45.200
 140326971.793 7                  26703335.039
        42.700
 146931730.719 5                  27960180.359
        33.000
 134967142.304 7                  25683400.490
        43.400
 133587692.788 7                  25420894.106
        44.800
 108301312.173 8  84390698.96346  20609033.623    20609032.6174   20609034.4334
        48.900          39.2004
 133670401.088 6 104158841.18044  25436627.982    25436627.2544   25436650.1184
        36.300          25.2004
 125215856.414 8                  23827777.091
        48.300
 114075753.643 7  88890201.78845  21707894.278    21707893.8364   21707895.9234
        45.700          33.9004
 119518772.448 8  92959089.203 7  22366307.590    22366307.118    22366314.587
        49.300          44.500
 145158137.429 6                  27622676.617
        37.500
 118021160.245 8  91794258.165 7  22047340.615    22047340.197    22047347.212
        48.700          44.400
 114374435.142 8  88957883.609 7  21396113.888    21396113.806    21396124.048
        48.200          45.200
 130083620.500 6 101363793.24545  24754144.335    24754143.9024   24754165.3274
        40.100          32.2004
 102750323.705 8  79916964.005 8  19235069.650    19235069.974    19235076.158
        52.500          48.600
 151246361.017 5                  28781253.464
        34.400
 131633755.196 6 102571892.98345  25049019.785    25049019.0794   25049022.3154
        38.800          31.1004
 121338396.242 7  94549396.29245  23089933.483    23089933.0684   23089935.2544
        43.900          30.0004
 110677706.069 8  86242367.66648  21061268.691    21061268.2044   21061268.2734
        49.500          48.2004
 25  1  1 15 27 15.0000000  0 30G09G26E19E10E36S31S35G06G03R06S48S33
                                E27E11E29E04G16G27E21G04R15E06R07R05
                                G32R16E12G29G28G31
 125996519.861 6  98179115.67945  23976340.578    23976339.9524   23976343.8514
        40.700          34.1004
 106379107.240 8  82892839.92848  20243266.120    20243265.4724   20243269.7454
        49.600          50.1004
 120968655.688 7                  23019569.543
        43.200
 148218729.495 6                  28205094.487
        36.600
 152005166.834 6                  28925620.257
        36.400
 198981347.609 7                  37864894.767
        45.300
 200932006.551 7                  38236096.457
        43.700
 135902565.811 5 105898116.93843  25861398.188    25861397.8444   25861401.1294
        32.300          18.9004
 109410079.027 8  85254619.75248  20820043.877    20820043.6184   20820047.1124
        48.600          49.8004
 102871743.007 6                  19278121.066    19278120.838
        41.700
 412744923.044 5                  78542626.773
        33.500
 202107850.352 7                  38459828.556
        45.200
 140362692.408 7                  26710132.275
        42.300
 146954995.014 5                  27964607.855
        33.100
 134995764.878 7                  25688847.383
        43.300
 133556786.587 7                  25415012.801
        44.600
 108267996.001 8  84364738.35946  20602693.673    20602692.6634   20602694.5094
        48.700          39.3004
 133621432.093 6 104120683.94444  25427308.626    25427307.9024   25427331.9584
        36.200          25.3004
 125215076.961 8                  23827628.722
        48.300
 114037970.226 7  88860760.13745  21700704.576    21700704.1434   21700706.0194
        45.600          34.2004
 119576025.652 8  93003619.460 7  22377021.393    22377021.224    22377028.308
        49.100          44.100
 145121626.765 6                  27615729.237
        37.700
 117964843.794 8  91750456.500 7  22036820.539    22036820.338    22036826.942
        48.700          44.100
 114423286.199 7  88995878.788 7  21405251.626    21405252.095    21405263.200
        47.900          45.200
 130129313.313 6 101399397.65845  24762839.637    24762839.2044   24762860.5624
        39.700          31.9004
 102765465.428 8  79928740.933 8  19237904.475    19237904.558    19237910.720
        52.400          48.800
 151284714.330 5                  28788551.451
        33.200
 131635330.882 6 102573120.73145  25049318.968    25049318.2714   25049322.5404
        39.000          31.1004
 121377377.845 7  94579771.54045  23097350.791    23097350.3714   23097353.2384
        44.200          30.2004
 110707174.688 8  86265330.22148  21066876.133    21066875.6464   21066876.0104
        49.600          48.4004
