     2.11           OBSERVATION DATA    M (MIXED)           RINEX VERSION / TYPE
teqc  2019Feb25                         20260317 16:20:08UTCPGM / RUN BY / DATE
Linux 2.4.21-27.ELsmp|Opteron|gcc -static|Linux 64|=+       COMMENT
BIT 2 OF LLI FLAGS DATA COLLECTED UNDER A/S CONDITION       COMMENT
-Unknown-                                                   MARKER NAME
-Unknown-           -Unknown-                               OBSERVER / AGENCY
-Unknown-           -Unknown-           -Unknown-           REC # / TYPE / VERS
-Unknown-           -Unknown-                               ANT # / TYPE
        0.0000        0.0000        0.0000                  APPROX POSITION XYZ
        0.0000        0.0000        0.0000                  ANTENNA: DELTA H/E/N
     1     1                                                WAVELENGTH FACT L1/2
     7    L1    L2    C1    P1    P2    S1    S2            # / TYPES OF OBSERV
 SNR is mapped to RINEX snr flag value [0-9]                COMMENT
  L1 & L2: min(max(int(snr_dBHz/6), 0), 9)                  COMMENT
  2025     1     1     5     0    0.0000000     GPS         TIME OF FIRST OBS
    18                                                      LEAP SECONDS
                                                            END OF HEADER
 25  1  1  5  0  0.0000000  0 34E34G25E03E08S31S35G13E21E13S48S33R02
                                G12G20E15G05G11G26G18G06G29G15R07R23
                                E27R15E26E05R24R17E30R14R01R08
 145170336.318 6                  27624947.269
        38.100
 118748853.826 7  92531658.69446  22597130.420    22597129.4414   22597132.9794
        43.800          40.4004
 133979201.916 7                  25495381.016
        44.100
 138753001.883 6                  26403814.364
        41.100
 198980215.999 7                  37864669.518
        45.600
 200945970.615 7                  38238758.316
        44.600
 120110249.952 7  93592421.19244  22856215.457    22856214.9034   22856216.2054
        43.000          26.0004
 134525313.881 7                  25599300.015
        44.100
 128071843.345 7                  24371240.027
        47.400
 412883357.205 5                  78569150.461
        34.100
 202122879.813 7                  38462678.120
        45.100
 123813033.769 7  96299063.025 6  23202509.450    23202510.066    23202516.382
        44.400          41.700
 126181184.517 7  98323127.22345  24011436.092    24011435.5254   24011436.1744
        42.100          34.7004
 111689546.961 8  87030869.40546  21253788.790    21253787.5034   21253788.0854
        48.500          38.2004
 126699754.874 7                  24110123.686
        47.300
 105491697.180 8  82201373.98848  20074381.796    20074381.3144   20074380.9724
        51.200          53.5004
 118371925.777 7  92237965.32645  22525392.820    22525392.4364   22525393.0474
        46.500          33.9004
 133200059.268 5 103792276.66143  25347128.276    25347127.6284   25347133.5904
        34.900          23.9004
 128281181.612 6  99959362.78844  24411094.337    24411093.9804   24411095.6454
        40.900          25.1004
 133902440.590 5 104339702.04843  25480751.204    25480750.8474   25480757.3124
        35.000          23.6004
 111390366.092 8  86797726.99548  21196865.462    21196864.8324   21196864.9664
        49.400          48.7004
 124742917.337 7  97202285.13645  23737785.592    23737785.1454   23737786.0094
        42.100          34.7004
 131529401.388 7 102300707.049 6  24570782.621    24570782.695    24570790.855
        42.900          38.500
 113708551.747 7                  21256582.285    21256582.129
        47.900
 135710134.326 7                  25824727.080
        43.200
 121970907.555 7  94866307.712 7  22825192.301    22825192.578    22825199.417
        47.000          43.000
 148992114.264 6                  28352257.001
        36.100
 137118632.204 6                  26092795.740
        39.800
 106962809.835 8  83193371.422 7  20002568.778    20002568.942    20002574.807
        53.100          47.500
 124103639.899 7  96525092.469 6  23191730.562    23191730.410    23191737.897
        44.000          41.900
 152221899.896 5                  28966818.870
        34.200
 122429477.408 7  95222972.322 6  22967451.995    22967452.310    22967459.416
        46.300          41.500
 106175185.565 8  82580751.684 6  19862252.118    19862252.030    19862259.151
        48.900          41.400
 111347996.345 8  86604067.150 7  20793438.686    20793439.033    20793444.708
        48.400          47.400
 25  1  1  5  0 15.0000000  0 34E34G25E03E08S31S35G13E21E13S48S33R02
                                G12G20E15G05G11G26G18G06G29G15R07R23
                                E27R15E26E05R24R17E30R14R01R08
 145199798.031 6                  27630553.784
        37.700
 118785758.224 7  92560415.35446  22604152.853    22604151.8744   22604155.6944
        43.500          40.5004
 133964817.697 7                  25492643.764
        44.100
 138710819.749 6                  26395788.031
        41.600
 198980204.623 7                  37864669.107
        45.700
 200945988.040 7                  38238765.922
        44.400
 120063774.031 7  93556206.22144  22847371.186    22847370.6284   22847372.3554
        42.600          26.1004
 134529818.972 7                  25600157.379
        44.300
 128056226.160 7                  24368268.342
        47.700
 412883132.555 5                  78569118.078
        32.700
 202122858.466 7                  38462673.407
        45.000
 123745613.020 7  96246624.688 7  23189873.912    23189873.990    23189882.524
        44.200          42.700
 126234517.842 7  98364685.65045  24021584.969    24021584.3884   24021585.1024
        42.100          34.6004
 111721538.786 8  87055798.09946  21259876.494    21259875.2074   21259875.9004
        48.600          38.2004
 126712777.646 7                  24112602.003
        47.800
 105493132.016 8  82202492.04348  20074654.936    20074654.4494   20074654.0054
        51.200          53.6004
 118403341.637 7  92262445.21945  22531371.170    22531370.7864   22531371.2534
        46.300          34.1004
 133173254.162 6 103771389.62144  25342027.771    25342027.1234   25342032.6354
        36.500          24.8004
 128241955.884 6  99928797.31444  24403630.408    24403630.0424   24403630.7504
        40.500          24.9004
 133942221.477 5 104370700.08943  25488321.166    25488320.8274   25488327.3444
        32.500          22.9004
 111359093.822 8  86773359.00348  21190914.827    21190914.2014   21190914.0324
        49.100          48.7004
 124685397.082 6  97157464.17145  23726839.502    23726839.0554   23726840.4874
        41.800          34.7004
 131591694.060 6 102349156.893 6  24582419.900    24582419.842    24582427.940
        41.900          39.500
 113736503.376 7                  21261807.119    21261807.328
        47.400
 135748669.238 7                  25832060.044
        43.500
 121976523.956 7  94870676.040 7  22826242.787    22826242.896    22826250.150
        45.500          42.500
 148962138.773 6                  28346552.940
        36.500
 137139813.025 6                  26096826.069
        38.700
 106943367.018 8  83178249.241 7  19998932.768    19998932.883    19998938.860
        52.900          47.600
 124057828.365 7  96489461.311 6  23183169.209    23183170.017    23183176.506
        44.900          41.200
 152266173.771 5                  28975243.416
        33.400
 122475622.830 7  95258863.163 6  22976109.670    22976109.318    22976116.384
        46.200          41.700
 106139665.074 8  82553124.655 6  19855606.969    19855606.980    19855614.213
        49.000          41.000
 111379913.497 8  86628891.603 7  20799398.959    20799399.205    20799404.790
        48.100          47.500
 25  1  1  5  0 30.0000000  0 34E34G25E03E08S31S35G13E21E13S48S33R02
                                G12G20E15G05G11G26G18G06G29G15R07R23
                                E27R15E26E05R24R17E30R14R01R08
 145229262.203 6                  27636160.806
        38.000
 118822748.146 7  92589238.65846  22611191.485    22611190.5064   22611194.5424
        43.800          40.3004
 133950533.105 7                  25489925.587
        44.100
 138668665.120 6                  26387766.244
        41.600
 198980193.574 7                  37864665.628
        45.800
 200946006.600 7                  38238763.905
        44.300
 120017355.859 7  93520036.23944  22838538.177    22838537.6104   22838539.0764
        42.400          26.3004
 134534431.597 7                  25601035.183
        44.200
 128040630.737 7                  24365300.343
        47.500
 412882909.032 5                  78569076.518
        32.600
 202122837.930 7                  38462667.961
        45.000
 123678218.501 7  96194206.694 7  23177244.288    23177245.488    23177252.694
        44.100          42.300
 126287863.627 6  98406253.79445  24031736.483    24031735.9074   24031736.6294
        41.800          34.7004
 111753596.792 8  87080778.35446  21265976.863    21265975.5714   21265976.3734
        48.400          38.2004
 126725822.081 7                  24115084.083
        47.500
 105494694.432 8  82203709.51948  20074952.203    20074951.7124   20074951.3504
        51.400          53.7004
 118434791.524 7  92286951.62645  22537355.726    22537355.3334   22537355.9024
        46.800          34.2004
 133146560.368 6 103750589.31344  25336948.480    25336947.8374   25336953.1764
        37.500          26.5004
 128202738.854 6  99898238.61544  24396167.025    24396166.6724   24396167.7864
        40.900          25.5004
 133982005.081 5 104401700.23243  25495892.261    25495891.9314   25495897.8104
        33.400          23.6004
 111327915.410 8  86749064.14748  21184981.606    21184980.9804   21184980.9544
        49.200          48.8004
 124627888.003 7  97112651.91545  23715895.536    23715895.0854   23715897.1934
        42.800          35.1004
 131654030.227 6 102397640.633 6  24594064.788    24594064.471    24594072.581
        41.400          38.500
 113764523.568 7                  21267045.567    21267045.637
        47.400
 135787252.297 7                  25839401.889
        43.700
 121982321.037 7  94875184.871 7  22827327.687    22827327.622    22827335.077
        46.000          42.800
 148932166.638 5                  28340849.731
        35.900
 137161086.102 6                  26100874.408
        39.200
 106923987.194 8  83163176.034 7  19995308.779    19995308.726    19995314.574
        52.800          47.500
 124012006.225 7  96453821.902 6  23174605.763    23174606.278    23174614.007
        44.000          41.500
 152310415.846 5                  28983662.775
        35.000
 122521848.984 7  95294816.856 6  22984781.685    22984780.917    22984787.361
        45.800          41.100
 106104319.502 8  82525633.677 6  19848994.847    19848994.787    19849002.297
        48.700          41.500
 111412003.394 8  86653850.404 7  20805391.642    20805391.993    20805397.386
        48.200          47.400
 25  1  1  5  0 45.0000000  0 34E34G25E03E08S31S35G13E21E13S48S33R02
                                G12G20E15G05G11G26G18G06G29G15R07R23
                                E27R15E26E05R24R17E30R14R01R08
 145258728.590 6                  27641768.082
        38.000
 118859823.009 7  92618128.14946  22618246.912    22618245.9334   22618249.5824
        43.400          40.1004
 133936348.024 7                  25487226.566
        44.000
 138626538.026 7                  26379749.515
        42.100
 198980183.558 7                  37864663.781
        45.600
 200946025.647 7                  38238768.516
        44.100
 119970995.638 7  93483911.41144  22829715.936    22829715.3694   22829716.8374
        42.400          26.0004
 134539151.558 7                  25601933.458
        44.400
 128025056.897 7                  24362337.078
        47.800
 412882686.076 5                  78569047.426
        32.000
 202122817.532 7                  38462666.248
        44.900
 123610850.435 7  96141809.308 6  23164620.072    23164620.314    23164627.430
        43.600          41.800
 126341221.217 6  98447831.14245  24041889.911    24041889.3394   24041890.2354
        41.100          34.2004
 111785720.610 7  87105809.89246  21272089.720    21272088.4334   21272089.2874
        47.900          38.0004
 126738888.001 7                  24117570.639
        47.500
 105496384.398 8  82205026.37748  20075273.816    20075273.3254   20075272.9274
        50.900          53.5004
 118466275.255 7  92311484.40845  22543347.161    22543346.7774   22543347.1844
        45.700          34.2004
 133119977.709 5 103729875.51144  25331889.162    25331888.5284   25331894.4344
        35.700          25.5004
 128163530.312 6  99867686.53544  24388706.105    24388705.7484   24388707.0004
        40.400          25.2004
 134021791.203 5 104432702.34843  25503463.564    25503463.2434   25503469.1524
        32.200          23.0004
 111296830.887 8  86724842.44748  21179066.634    21179066.0044   21179065.7664
        49.100          48.6004
 124570390.262 6  97067848.49345  23704954.335    23704953.8884   23704955.2444
        41.700          34.4004
 131716409.679 7 102446158.143 6  24605717.635    24605716.938    24605725.022
        42.500          39.000
 113792612.715 7                  21272296.204    21272296.440
        47.200
 135825883.112 7                  25846753.061
        43.300
 121988298.337 7  94879833.898 7  22828447.288    22828447.169    22828453.198
        45.500          42.200
 148902197.638 6                  28335146.930
        36.000
 137182451.256 6                  26104940.219
        39.500
 106904670.393 8  83148151.858 7  19991696.057    19991696.559    19991702.303
        53.100          47.600
 123966173.598 7  96418174.346 6  23166041.127    23166041.332    23166049.128
        42.300          41.600
 152354625.722 6                  28992075.567
        36.900
 122568154.580 7  95330832.312 6  22993469.132    22993468.626    22993474.999
        47.300          41.800
 106069149.019 8  82498278.874 6  19842415.164    19842415.389    19842423.007
        48.700          41.200
 111444265.638 8  86678943.266 7  20811416.476    20811416.695    20811422.249
        48.100          47.400
 25  1  1  5  1  0.0000000  0 34E34G25E03E08S31S35G13E21E13S48S33R02
                                G12G20E15G05G11G26G18G06G29G15R07R23
                                E27R15E26E05R24R17E30R14R01R08
 145288196.130 6                  27647375.468
        38.200
 118896981.290 7  92647082.64346  22625318.185    22625317.2064   22625320.4874
        43.900          40.0004
 133922261.478 7                  25484545.724
        44.200
 138584437.662 6                  26371737.686
        41.500
 198980172.867 7                  37864660.910
        45.500
 200946043.834 7                  38238775.138
        44.200
 119924692.634 7  93447831.17244  22820904.799    22820904.2494   22820905.5184
        42.500          26.0004
 134543977.544 7                  25602851.820
        44.400
 128009503.403 7                  24359377.119
        47.600
 412882462.427 5                  78569026.959
        32.600
 202122796.835 7                  38462659.939
        44.900
 123543508.098 7  96089431.918 6  23152000.758    23152000.393    23152007.545
        42.700          41.800
 126394588.985 6  98489416.41145  24052045.690    24052045.1274   24052046.1174
        40.900          34.2004
 111817908.791 8  87130891.58646  21278215.196    21278213.9184   21278214.4894
        48.200          37.7004
 126751974.235 7                  24120060.669
        47.800
 105498200.405 8  82206441.44948  20075619.326    20075618.8354   20075618.4984
        51.300          53.4004
 118497791.622 7  92336042.61245  22549344.379    22549344.0084   22549344.6004
        46.400          34.0004
 133093505.718 6 103709248.09244  25326852.650    25326852.0204   25326856.8384
        36.700          25.3004
 128124329.112 6  99837140.17444  24381246.085    24381245.7014   24381247.3814
        41.000          25.2004
 134061578.686 5 104463705.51643  25511035.410    25511035.0844   25511040.4544
        33.000          22.6004
 111265839.295 8  86700693.16048  21173168.792    21173168.1584   21173168.2594
        49.200          48.5004
 124512903.120 6  97023053.33345  23694014.948    23694014.5014   23694015.9564
        41.800          34.6004
 131778830.069 6 102494707.511 6  24617377.554    24617377.955    24617386.200
        41.500          37.000
 113820769.154 7                  21277559.677    21277559.826
        47.500
 135864560.197 7                  25854113.502
        43.600
 121994454.376 7  94884621.942 7  22829598.954    22829599.139    22829605.481
        46.100          42.400
 148872230.547 6                  28329443.948
        36.400
 137203907.012 6                  26109022.913
        38.600
 106885415.644 8  83133175.950 7  19988095.334    19988095.771    19988101.520
        52.700          47.700
 123920329.320 7  96382517.646 6  23157475.195    23157475.434    23157482.036
        44.800          41.500
 152398802.064 5                  29000481.471
        34.700
 122614538.326 7  95366908.555 6  23002169.674    23002169.885    23002175.663
        47.200          41.300
 106034152.720 8  82471059.561 6  19835868.611    19835868.465    19835876.377
        48.400          41.300
 111476698.443 8  86704168.793 7  20817473.055    20817473.445    20817478.628
        48.600          47.300
 25  1  1  5  1 15.0000000  0 34E34G25E03E08S31S35G13E21E13S48S33R02
                                G12G20E15G05G11G26G18G06G29G15R07R23
                                E27R15E26E05R24R17E30R14R01R08
 145317665.501 6                  27652983.270
        37.500
 118934223.298 7  92676102.36946  22632404.865    22632403.8684   22632407.4814
        43.600          40.0004
 133908274.271 7                  25481884.117
        44.100
 138542365.002 6                  26363731.628
        41.300
 198980162.469 7                  37864662.954
        45.900
 200946062.104 7                  38238774.078
        44.300
 119878447.895 7  93411796.36144  22812104.790    22812104.2234   22812105.4954
        42.600          26.1004
 134548910.297 7                  25603790.332
        44.400
 127993970.986 7                  24356421.321
        47.500
 412882238.884 5                  78569009.873
        32.900
 202122777.293 7                  38462655.203
        45.000
 123476192.576 7  96037075.402 7  23139383.957    23139385.369    23139393.644
        44.300          42.600
 126447967.291 6  98531009.89345  24062202.999    24062202.4494   24062203.4084
        40.600          33.8004
 111850161.785 8  87156023.79246  21284352.468    21284351.1904   21284352.0464
        48.100          37.8004
 126765081.519 7                  24122554.891
        47.600
 105500143.153 8  82207955.28248  20075989.158    20075988.6714   20075988.1724
        51.000          53.4004
 118529341.317 7  92360626.79045  22555348.028    22555347.6574   22555348.3884
        46.600          34.2004
 133067144.833 6 103688707.18144  25321836.727    25321836.0974   25321840.6134
        36.400          25.4004
 128085135.976 6  99806600.10044  24373787.650    24373787.2614   24373788.9654
        40.200          25.2004
 134101368.248 5 104494710.32043  25518607.951    25518607.6214   25518612.2574
        34.000          23.3004
 111234941.715 8  86676617.13748  21167289.419    21167288.7854   21167288.6354
        49.200          48.5004
 124455427.806 7  96978267.39145  23683077.495    23683077.0484   23683078.6984
        42.400          34.5004
 131841291.393 6 102543288.427 6  24629045.669    24629045.303    24629053.955
        41.700          38.700
 113848993.723 7                  21282835.826    21282836.412
        47.200
 135903284.088 7                  25861482.109
        43.200
 122000789.697 7  94889549.431 7  22830783.949    22830784.088    22830791.369
        45.800          42.500
 148842266.058 5                  28323742.128
        34.200
 137225454.014 6                  26113123.349
        38.900
 106866223.946 8  83118249.082 7  19984506.491    19984506.789    19984512.569
        52.900          47.700
 123874474.166 7  96346852.543 6  23148904.184    23148905.440    23148912.708
        44.000          41.500
 152442945.250 5                  29008882.038
        33.100
 122661000.278 7  95403045.637 6  23010886.099    23010886.777    23010891.969
        47.200          41.300
 105999331.930 8  82443976.755 6  19829354.803    19829354.621    19829361.768
        48.800          41.600
 111509302.271 8  86729527.335 7  20823561.286    20823561.917    20823567.463
        48.600          47.300
 25  1  1  5  1 30.0000000  0 34E34G25E03E08S31S35G13E21E13S48S33R02
                                G12G20E15G05G11G26G18G06G29G15R07R23
                                E27R15E26E05R24R17E30R14R01R08
 145347135.280 6                  27658591.604
        38.600
 118971547.218 7  92705185.92846  22639507.208    22639506.2164   22639510.0824
        43.800          40.0004
 133894385.089 7                  25479240.825
        44.300
 138500318.698 6                  26355730.487
        41.600
 198980150.668 7                  37864656.139
        45.500
 200946080.057 7                  38238778.335
        44.100
 119832260.462 6  93375806.22644  22803315.463    22803314.8874   22803316.3114
        41.700          26.2004
 134553948.258 7                  25604749.260
        44.600
 127978458.111 7                  24353469.648
        47.600
 412882014.075 5                  78568967.116
        32.300
 202122755.451 7                  38462656.424
        45.000
 123408902.829 7  95984738.903 7  23126774.971    23126775.550    23126783.078
        44.100          42.200
 126501354.339 6  98572610.19045  24072362.457    24072361.9124   24072362.4564
        41.400          33.7004
 111882477.895 8  87181205.17146  21290502.475    21290501.1924   21290501.5424
        48.200          37.8004
 126778208.312 7                  24125052.618
        47.600
 105502211.070 8  82209566.65048  20076382.589    20076382.0984   20076381.6934
        51.400          53.5004
 118560922.842 7  92385235.76745  22561357.626    22561357.2514   22561358.1464
        46.800          34.3004
 133040893.800 5 103668251.81644  25316840.914    25316840.2664   25316844.8624
        35.900          24.8004
 128045949.444 6  99776065.17344  24366331.656    24366331.3124   24366331.7214
        41.200          25.3004
 134141158.335 5 104525715.50343  25526178.022    25526177.6654   25526184.5304
        32.800          23.6004
 111204136.973 8  86652613.44748  21161427.439    21161426.7964   21161426.6774
        49.200          48.5004
 124397963.005 7  96933489.61945  23672142.540    23672142.1164   23672143.3054
        43.100          34.6004
 131903792.322 6 102591899.934 6  24640722.224    24640721.792    24640730.171
        39.300          38.100
 113877285.181 7                  21288124.383    21288124.834
        47.300
 135942053.009 7                  25868859.694
        43.600
 122007302.820 7  94894615.164 7  22832003.484    22832003.830    22832010.360
        46.400          42.700
 148812302.639 6                  28318040.653
        36.700
 137247090.780 6                  26117240.723
        38.800
 106847093.791 8  83103370.079 7  19980929.112    19980929.392    19980935.168
        52.600          47.700
 123828606.537 7  96311177.710 6  23140334.211    23140333.840    23140341.931
        44.700          41.700
 152487053.796 5                  29017275.495
        35.500
 122707538.270 7  95439241.827 6  23019616.330    23019616.041    23019622.123
        46.500          41.300
 105964685.325 8  82417029.411 6  19822873.169    19822873.214    19822880.889
        48.600          41.400
 111542075.274 7  86755017.452 7  20829681.404    20829682.030    20829687.383
        47.500          47.200
 25  1  1  5  1 45.0000000  0 34E34G25E03E08S31S35G13E21E13S48S33R02
                                G12G20E15G05G11G26G18G06G29G15R07R23
                                E27R15E26E05R24R17E30R14R01R08
 145376606.914 6                  27664199.910
        38.500
 119008954.004 7  92734334.06146  22646625.867    22646624.8844   22646628.2124
        43.600          40.0004
 133880595.407 7                  25476616.972
        44.200
 138458300.407 6                  26347734.419
        41.600
 198980138.590 7                  37864658.791
        45.700
 200946096.744 7                  38238778.693
        44.200
 119786132.079 7  93339862.06044  22794537.364    22794536.8064   22794538.4044
        42.700          26.5004
 134559092.764 7                  25605728.104
        43.900
 127962966.166 7                  24350521.520
        47.700
 412881789.351 5                  78568950.785
        33.300
 202122734.058 7                  38462649.600
        44.700
 123341641.073 7  95932424.200 7  23114169.585    23114171.052    23114177.864
        44.900          42.200
 126554751.102 6  98614218.05845  24082523.440    24082522.8774   24082523.3914
        40.900          34.1004
 111914858.242 7  87206436.61046  21296663.776    21296662.4934   21296663.3214
        47.900          37.7004
 126791356.032 7                  24127554.825
        47.400
 105504405.282 8  82211276.42748  20076800.084    20076799.5974   20076799.2444
        50.800          53.5004
 118592537.550 7  92409870.61045  22567374.047    22567373.6814   22567374.2764
        46.400          34.3004
 133014754.183 6 103647883.19944  25311865.711    25311865.0634   25311870.5134
        36.100          24.2004
 128006770.899 6  99745536.47744  24358875.595    24358875.2424   24358876.5514
        41.100          25.9004
 134180950.450 5 104556722.28644  25533750.158    25533749.8054   25533756.9684
        32.900          24.3004
 111173426.681 8  86628683.35048  21155583.313    21155582.6704   21155582.6744
        48.800          48.5004
 124340510.424 7  96888721.38245  23661209.446    23661209.0264   23661210.5144
        42.000          34.6004
 131966334.091 7 102640543.366 6  24652405.858    24652405.636    24652413.555
        43.100          38.700
 113905645.008 7                  21293426.680    21293426.721
        47.200
 135980868.121 7                  25876245.846
        43.400
 122013994.965 7  94899820.184 7  22833255.771    22833255.880    22833262.705
        46.700          42.500
 148782341.684 5                  28312338.951
        35.300
 137268818.522 6                  26121375.245
        39.300
 106828026.894 8  83088540.268 7  19977363.593    19977363.506    19977369.666
        52.500          47.500
 123782728.098 7  96275494.442 6  23131761.118    23131760.250    23131767.814
        43.800          41.300
 152531128.842 5                  29025662.567
        35.300
 122754153.126 7  95475497.844 6  23028361.253    23028361.346    23028367.772
        46.500          41.700
 105930214.735 8  82390218.985 6  19816424.754    19816424.812    19816432.389
        48.500          41.400
 111575018.313 8  86780639.820 7  20835833.421    20835833.789    20835839.308
        48.200          47.300
 25  1  1  5  2  0.0000000  0 34E34G25E03E08S31S35G13E21E13S48S33R02
                                G12G20E15G05G11G26G18G06G29G15R07R23
                                E27R15E26E05R24R17E30R14R01R08
 145406083.557 6                  27669808.483
        38.300
 119046446.521 7  92763548.99346  22653760.232    22653759.2494   22653762.8964
        43.400          40.0004
 133866908.542 7                  25474012.703
        44.100
 138416313.799 6                  26339744.539
        41.800
 198980129.828 7                  37864657.677
        45.900
 200946116.857 7                  38238782.132
        44.600
 119740066.424 7  93303966.74144  22785771.358    22785770.7824   22785772.6284
        43.300          26.6004
 134564346.984 7                  25606728.035
        44.500
 127947498.356 7                  24347577.979
        47.800
 412881568.224 5                  78568924.313
        33.100
 202122715.756 7                  38462650.410
        45.200
 123274410.688 7  95880133.894 6  23101571.042    23101570.856    23101578.683
        43.300          41.900
 126608160.404 6  98655835.70045  24092687.055    24092686.5014   24092686.9064
        41.300          34.1004
 111947305.700 7  87231720.34046  21302838.577    21302837.2944   21302837.8684
        47.800          37.7004
 126804527.886 7                  24130061.500
        47.500
 105506728.878 8  82213087.02548  20077242.424    20077241.9424   20077241.4024
        51.200          53.6004
 118624188.609 7  92434533.77345  22573396.789    22573396.4144   22573397.2614
        46.700          34.5004
 132988729.600 6 103627604.27143  25306913.239    25306912.5914   25306917.6994
        36.500          23.4004
 127967603.654 6  99715016.58344  24351422.248    24351421.8774   24351423.2784
        40.900          26.0004
 134220747.687 5 104587733.07243  25541323.729    25541323.4034   25541330.2784
        32.700          23.8004
 111142814.472 8  86604829.69748  21149758.034    21149757.3864   21149757.3484
        49.200          48.6004
 124283073.818 7  96843965.60345  23650280.144    23650279.7514   23650280.6844
        42.300          34.4004
 132028918.879 6 102689220.037 5  24664097.540    24664097.472    24664105.028
        40.600          33.200
 113934076.392 7                  21298741.452    21298741.303
        46.400
 136019732.407 7                  25883641.430
        43.200
 122020869.076 7  94905166.722 7  22834542.509    22834542.786    22834549.151
        46.400          42.900
 148752386.352 6                  28306638.452
        36.100
 137290640.089 6                  26125528.058
        38.400
 106809026.847 8  83073762.459 7  19973810.243    19973810.556    19973816.560
        52.700          47.600
 123736842.407 7  96239805.565 6  23123185.374    23123185.820    23123192.717
        44.400          41.500
 152575173.381 5                  29034043.869
        35.000
 122800847.751 7  95511815.869 6  23037120.739    23037121.482    23037127.515
        46.700          41.500
 105895923.939 8  82363548.394 6  19810009.575    19810009.863    19810017.328
        48.300          41.400
 111608134.504 8  86806396.861 7  20842017.770    20842018.177    20842023.436
        48.200          47.400
 25  1  1  5  2 15.0000000  0 33E34G25E03E08S31S35G13E21E13S48S33R02
                                G12G20E15G05G11G26G18G06G29G15R23E27
                                R15E26E05R24R17E30R14R01R08
 145435558.636 6                  27675417.507
        37.500
 119084017.651 7  92792825.17546  22660910.129    22660909.1464   22660912.6184
        44.200          39.8004
 133853317.929 7                  25471426.566
        44.100
 138374352.323 7                  26331759.673
        42.100
 198980118.234 7                  37864656.609
        45.700
 200946134.301 7                  38238785.079
        44.300
 119694057.162 7  93268115.34944  22777016.440    22777015.8464   22777017.2094
        42.600          26.5004
 134569704.117 7                  25607747.223
        44.300
 127932047.936 7                  24344637.830
        47.900
 412881342.798 5                  78568901.521
        33.100
 202122693.442 7                  38462642.960
        45.500
 123207205.328 7  95827863.020 7  23088977.467    23088978.177    23088984.278
        45.000          42.300
 126661575.212 6  98697457.62245  24102851.178    24102850.5974   24102851.5574
        41.900          33.9004
 111979813.480 7  87257051.07746  21309024.584    21309023.3014   21309023.8614
        47.800          37.4004
 126817717.166 7                  24132571.070
        47.500
 105509174.878 8  82214992.99948  20077707.844    20077707.3624   20077706.8544
        51.300          53.3004
 118655869.292 7  92459220.02245  22579425.308    22579424.9374   22579425.7594
        46.400          34.2004
 132962813.702 6 103607410.14644  25301982.244    25301981.5924   25301986.2064
        36.300          24.0004
 127928440.877 6  99684500.17244  24343969.670    24343969.2954   24343970.7064
        41.000          25.4004
 134260543.497 5 104618742.72143  25548895.756    25548895.4394   25548902.8684
        34.000          23.0004
 111112293.972 8  86581047.49748  21143950.235    21143949.5924   21143949.4934
        48.900          48.3004
 124225646.759 7  96799217.24345  23639351.612    23639351.2154   23639352.2084
        42.500          34.0004
 113962572.550 7                  21304068.402    21304068.499
        46.900
 136058638.840 7                  25891045.291
        43.300
 122027918.306 7  94910649.442 7  22835860.265    22835861.034    22835867.953
        45.900          42.400
 148722429.876 5                  28300938.144
        35.600
 137312548.797 6                  26129697.322
        39.600
 106790086.961 8  83059031.425 7  19970268.521    19970268.655    19970274.664
        52.900          47.600
 123690942.466 7  96204105.606 6  23114607.934    23114607.862    23114615.398
        43.600          41.300
 152619180.589 5                  29042418.238
        33.200
 122847614.514 7  95548189.998 6  23045894.780    23045895.293    23045900.360
        46.800          41.500
 105861806.292 8  82337012.473 6  19803627.512    19803627.355    19803635.053
        48.200          41.700
 111641416.342 8  86832282.751 7  20848233.075    20848233.232    20848238.572
        48.300          47.200
 25  1  1  5  2 30.0000000  0 34E34G25E03E08S31S35G13E21E13S48S33R02
                                G12G20E15R16G05G11G26G18G06G29G15R23
                                E27R15E26E05R24R17E30R14R01R08
 145465037.197 6                  27681027.314
        38.100
 119121672.160 7  92822166.33746  22668075.439    22668074.4564   22668077.9954
        44.400          39.8004
 133839828.799 7                  25468859.184
        44.100
 138332421.139 6                  26323780.345
        41.500
 198980107.684 7                  37864646.078
        45.700
 200946152.100 7                  38238795.055
        44.700
 119648109.962 7  93232312.36344  22768273.411    22768272.8214   22768273.7654
        43.600          26.5004
 134575169.232 7                  25608787.440
        44.300
 127916620.021 7                  24341701.975
        47.600
 412881118.770 5                  78568869.272
        33.100
 202122673.417 7                  38462641.399
        45.200
 123140030.933 7  95775616.263 7  23076389.052    23076389.472    23076396.857
        45.200          42.500
 126715000.312 6  98739087.56645  24113017.592    24113016.9934   24113018.1624
        41.300          33.9004
 112012386.364 8  87282432.54246  21315222.916    21315221.6384   21315222.3044
        48.100          37.4004
 126830928.989 7                  24135085.453
        47.500
 131975374.822 6                  24706066.249    24706066.341
        39.500
 105511748.456 8  82216998.38848  20078197.452    20078196.9654   20078196.5994
        51.800          53.3004
 118687584.684 7  92483933.31345  22585460.944    22585460.5734   22585460.9114
        46.800          34.3004
 132937011.495 5 103587304.60844  25297072.899    25297072.2334   25297076.4414
        35.600          24.7004
 127889287.820 6  99653991.33744  24336519.389    24336519.0144   24336519.9594
        41.500          25.5004
 134300342.982 5 104649755.24043  25556469.820    25556469.4994   25556476.4504
        33.100          22.9004
 111081870.314 8  86557340.76648  21138160.839    21138160.2004   21138160.0384
        49.700          48.3004
 124168234.791 7  96754480.66345  23628426.284    23628425.8914   23628427.5744
        42.500          34.3004
 113991138.772 7                  21309408.510    21309408.761
        46.900
 136097592.334 7                  25898457.915
        43.500
 122035147.493 7  94916272.166 7  22837214.148    22837213.123    22837220.977
        44.600          42.700
 148692477.343 5                  28295237.993
        35.100
 137334549.588 6                  26133883.790
        38.100
 106771212.570 8  83044351.355 7  19966738.875    19966739.248    19966745.002
        52.800          47.800
 123645033.682 7  96168398.734 6  23106028.640    23106028.929    23106036.371
        44.300          41.600
 152663155.337 5                  29050786.863
        34.500
 122894458.118 7  95584623.918 6  23054682.848    23054683.078    23054688.802
        47.400          41.800
 105827867.369 8  82310615.556 7  19797278.555    19797278.478    19797286.243
        48.500          42.000
 111674868.790 8  86858301.354 7  20854479.839    20854480.057    20854485.504
        48.200          47.300
 25  1  1  5  2 45.0000000  0 34E34G25E03E08S31S35G13E21E13S48S33R02
                                G12G20E15R16G05G11G26G18G06G29G15R23
                                E27R15E26E05R24R17E30R14R01R08
 145494517.133 6                  27686637.216
        38.200
 119159407.433 7  92851570.42146  22675256.308    22675255.3344   22675258.8804
        44.100          40.0004
 133826439.104 7                  25466311.455
        44.300
 138290518.634 6                  26315806.734
        41.100
 198980096.799 7                  37864647.800
        45.300
 200946170.550 7                  38238797.425
        44.300
 119602222.905 7  93196556.22744  22759541.058    22759540.4734   22759541.7334
        42.200          26.8004
 134580740.090 7                  25609847.516
        44.400
 127901212.382 7                  24338770.094
        47.900
 412880894.238 5                  78568842.541
        33.300
 202122652.971 7                  38462635.801
        45.000
 123072885.546 7  95723392.072 7  23063805.674    23063806.447    23063813.251
        43.600          42.200
 126768433.056 6  98780723.46445  24123185.836    24123185.2194   24123186.2024
        41.700          34.1004
 112045021.995 8  87307862.90046  21321433.364    21321432.0864   21321432.7034
        48.100          37.6004
 126844161.168 7                  24137603.348
        47.600
 131940245.476 6 102620221.703 6  24699489.575    24699490.109    24699499.137
        41.100          36.500
 105514447.508 8  82219101.54748  20078711.038    20078710.5474   20078710.2054
        51.800          53.6004
 118719332.559 7  92508671.90445  22591502.151    22591501.7714   22591502.3694
        46.600          34.5004
 132911320.877 6 103567285.96744  25292183.647    25292182.9724   25292187.8754
        36.400          24.5004
 127850142.238 7  99623488.32844  24329069.951    24329069.5804   24329071.1794
        42.000          26.1004
 134340143.850 5 104680768.86143  25564044.807    25564044.4774   25564049.8814
        34.400          23.6004
 111051541.678 8  86533708.06548  21132389.185    21132388.5334   21132388.6634
        49.200          48.5004
 124110836.016 7  96709754.35845  23617504.308    23617503.9064   23617505.0184
        42.300          34.2004
 114019772.923 7                  21314761.698    21314761.566
        47.500
 136136590.454 7                  25905879.007
        43.200
 122042554.656 7  94922033.282 7  22838600.176    22838600.592    22838606.809
        47.200          42.200
 148662526.541 6                  28289538.415
        36.000
 137356640.045 6                  26138087.713
        38.600
 106752401.719 8  83029720.691 7  19963221.185    19963221.436    19963227.351
        52.800          47.800
 123599113.927 7  96132683.339 6  23097447.492    23097447.979    23097454.706
        44.100          41.200
 152707095.266 5                  29059147.240
        32.800
 122941376.078 7  95621115.661 6  23063483.953    23063484.403    23063488.964
        47.100          40.500
 105794105.142 8  82284356.083 6  19790962.386    19790962.441    19790970.045
        48.300          41.700
 111708489.130 8  86884450.537 7  20860758.102    20860758.484    20860764.119
        48.100          47.500
 25  1  1  5  3  0.0000000  0 34E34G25E03E08S31S35G13E21E13S48S33R02
                                G12G20E15R16G05G11G26G18G06G29G15R23
                                E27R15E26E05R24R17E30R14R01R08
 145523997.551 6                  27692247.092
        37.300
 119197222.278 7  92881036.51246  22682452.031    22682451.0524   22682454.7184
        44.400          39.9004
 133813148.045 7                  25463782.009
        44.100
 138248644.101 6                  26307838.297
        41.700
 198980084.647 7                  37864644.768
        45.400
 200946187.161 7                  38238800.926
        43.900
 119556395.539 7  93160846.59944  22750820.497    22750819.9344   22750820.7854
        43.500          26.5004
 134586415.767 7                  25610927.498
        44.400
 127885824.145 8                  24335841.890
        48.000
 412880668.619 5                  78568814.826
        32.600
 202122630.700 7                  38462629.871
        44.900
 123005768.975 7  95671190.285 7  23051228.079    23051227.970    23051236.222
        44.100          42.600
 126821872.171 6  98822364.34145  24133355.066    24133354.4274   24133355.2854
        41.900          34.1004
 112077719.258 7  87333341.29146  21327655.569    21327654.3004   21327654.7474
        47.900          37.4004
 126857412.792 7                  24140125.069
        47.400
 131905253.904 6 102593005.864 5  24692939.688    24692939.902    24692948.599
        41.200          35.800
 105517270.806 8  82221301.52148  20079248.211    20079247.7114   20079247.4574
        51.600          53.4004
 118751112.015 7  92533435.11345  22597549.718    22597549.3434   22597549.8944
        46.400          34.3004
 132885741.321 6 103547353.88444  25287316.042    25287315.3454   25287320.4564
        37.200          26.1004
 127811003.307 6  99592990.48744  24321621.860    24321621.4764   24321623.3614
        41.700          26.1004
 134379945.235 5 104711782.88943  25571617.786    25571617.4204   25571624.1744
        33.400          22.5004
 111021307.500 8  86510148.97048  21126635.854    21126635.2024   21126635.2594
        49.100          48.4004
 124053449.907 6  96665037.91245  23606583.642    23606583.2404   23606584.5344
        41.500          34.0004
 114048474.014 7                  21320127.334    21320127.473
        47.700
 136175632.063 7                  25913308.602
        42.800
 122050138.330 7  94927931.690 7  22840018.785    22840018.798    22840025.400
        46.300          42.000
 148632576.593 6                  28283840.253
        36.500
 137378819.202 6                  26142308.087
        38.300
 106733653.659 8  83015138.859 7  19959714.977    19959715.376    19959721.326
        52.800          47.600
 123553182.358 7  96096958.739 6  23088864.585    23088864.024    23088871.963
        44.300          41.600
 152750999.317 5                  29067502.608
        33.400
 122988366.535 7  95657663.790 6  23072298.371    23072298.257    23072305.247
        46.200          41.200
 105760519.078 8  82258233.597 6  19784679.767    19784679.762    19784686.924
        48.000          41.600
 111742275.990 8  86910729.177 7  20867067.914    20867068.404    20867073.180
        48.400          47.300
 25  1  1  5  3 15.0000000  0 34E34G25E03E08S31S35G13E21E13S48S33R02
                                G12G20E15R16G05G11G26G18G06G29G15R23
                                E27R15E26E05R24R17E30R14R01R08
 145553481.367 6                  27697858.142
        37.500
 119235119.112 7  92910566.49746  22689663.474    22689662.4954   22689666.0814
        44.300          39.9004
 133799958.627 7                  25461272.393
        44.400
 138206800.597 6                  26299875.564
        41.800
 198980073.818 7                  37864642.201
        45.600
 200946205.202 7                  38238803.578
        44.200
 119510631.204 7  93125186.08844  22742111.188    22742110.6214   22742112.0464
        43.400          26.8004
 134592199.068 7                  25612027.981
        44.800
 127870458.128 8                  24332917.729
        48.100
 412880444.245 5                  78568785.358
        33.000
 202122610.001 7                  38462629.201
        45.200
 122938684.376 7  95619013.378 7  23038656.452    23038657.085    23038664.036
        44.000          42.200
 126875319.957 6  98864011.96545  24143525.723    24143525.0804   24143525.9054
        40.600          34.2004
 112110480.680 7  87358869.66546  21333889.633    21333888.3644   21333889.0434
        47.900          37.5004
 126870686.780 7                  24142650.900
        47.800
 131870403.807 7 102565900.084 6  24686415.644    24686415.845    24686424.632
        42.600          37.500
 105520220.989 8  82223600.36848  20079809.826    20079809.3264   20079808.8614
        51.500          53.5004
 118782925.953 7  92558225.19445  22603603.710    22603603.3354   22603603.8724
        46.300          34.4004
 132860275.755 6 103527510.58244  25282470.252    25282469.5684   25282474.5364
        36.400          26.4004
 127771873.884 6  99562500.07544  24314175.699    24314175.3154   24314177.3494
        41.400          26.1004
 134419750.092 5 104742799.58843  25579193.321    25579192.9734   25579198.9064
        32.800          22.3004
 110991170.968 8  86486665.96848  21120901.083    21120900.4264   21120900.4564
        49.000          48.4004
 123996079.588 6  96620333.76945  23595666.551    23595666.1454   23595667.1744
        41.900          34.2004
 114077245.009 7                  21325505.020    21325505.377
        47.200
 136214719.769 7                  25920746.705
        43.700
 122057901.524 7  94933969.748 7  22841471.714    22841471.763    22841478.748
        46.000          42.400
 148602630.308 6                  28278140.799
        36.200
 137401089.911 6                  26146546.090
        39.300
 106714971.632 8  83000608.398 7  19956221.634    19956221.599    19956227.835
        52.700          47.800
 123507242.057 7  96061227.357 7  23080279.592    23080280.651    23080287.516
        45.500          42.200
 152794870.176 6                  29075850.988
        36.200
 123035432.277 7  95694270.480 6  23081127.869    23081128.697    23081135.029
        46.600          41.300
 105727112.740 8  82232250.921 6  19778430.311    19778430.317    19778437.536
        48.100          41.500
 111776232.198 8  86937139.589 7  20873408.654    20873409.107    20873414.688
        48.400          47.400
 25  1  1  5  3 30.0000000  0 33E34G25E03E08S31S35G13E21E13S48S33R02
                                G12G20E15G05G11G26G18G06G29G15R23E27
                                R15E26E05R24R17E30R14R01R08
 145582966.737 6                  27703468.876
        38.000
 119273095.738 7  92940158.65046  22696890.642    22696889.6684   22696892.7464
        43.600          39.8004
 133786869.111 7                  25458781.529
        44.400
 138164986.482 6                  26291918.833
        41.600
 198980062.153 7                  37864638.668
        45.800
 200946222.979 7                  38238805.509
        44.500
 119464928.611 6  93089573.70444  22733414.884    22733414.3214   22733415.3844
        41.900          26.7004
 134598088.029 7                  25613148.710
        44.400
 127855112.486 8                  24329997.590
        48.000
 412880220.146 5                  78568745.265
        33.000
 202122589.379 7                  38462625.722
        45.300
 122871630.416 7  95566860.264 7  23026090.899    23026091.441    23026098.289
        45.900          42.000
 126928774.537 6  98905664.87845  24153697.545    24153696.9064   24153698.4754
        41.000          34.2004
 112143304.257 8  87384446.47546  21340135.727    21340134.4534   21340135.1574
        48.000          37.3004
 126883981.242 7                  24145180.883
        47.500
 105523296.085 8  82225996.54948  20080394.974    20080394.4744   20080394.0314
        51.300          53.4004
 118814772.411 7  92583040.62245  22609663.935    22609663.5554   22609663.9804
        46.400          34.3004
 132834922.530 6 103507754.82444  25277645.561    25277644.8684   25277650.1794
        36.900          26.5004
 127732752.138 6  99532015.63944  24306731.301    24306730.9124   24306732.4644
        40.700          26.3004
 134459556.525 5 104773817.52843  25586766.855    25586766.4844   25586773.9964
        33.400          21.9004
 110961130.604 8  86463257.90448  21115184.765    21115184.1134   21115183.9614
        49.000          48.3004
 123938723.780 6  96575640.93745  23584752.347    23584751.9544   23584752.6504
        41.800          34.0004
 114106084.361 7                  21330896.588    21330896.642
        46.700
 136253851.472 7                  25928192.993
        43.300
 122065841.900 7  94940145.575 7  22842958.484    22842958.662    22842964.409
        46.400          42.100
 148572685.744 5                  28272443.276
        35.800
 137423450.054 6                  26150801.058
        38.500
 106696353.745 8  82986127.816 7  19952740.137    19952740.078    19952746.136
        52.900          47.800
 123461291.279 7  96025487.904 6  23071691.890    23071692.971    23071699.828
        44.700          41.200
 152838705.782 5                  29084192.433
        31.700
 123082570.479 7  95730933.508 6  23089971.105    23089971.277    23089977.622
        46.500          40.600
 105693884.349 8  82206406.648 6  19772213.713    19772214.207    19772221.699
        48.600          41.500
 111810355.180 8  86963679.701 7  20879780.662    20879781.379    20879786.495
        48.000          47.300
 25  1  1  5  3 45.0000000  0 33E34G25E03E08S31S35G13E21E13S48S33R02
                                G12G20E15G05G11G26G18G06G29G15R23E27
                                R15E26E05R24R17E30R14R01R08
 145612456.947 6                  27709080.245
        37.600
 119311154.986 7  92969815.19246  22704133.060    22704132.0814   22704135.2284
        43.900          39.5004
 133773882.823 7                  25456310.080
        44.300
 138123205.340 7                  26283968.022
        42.100
 198980054.093 7                  37864640.453
        45.900
 200946243.034 7                  38238809.355
        44.600
 119419291.285 7  93054012.13244  22724730.340    22724729.7774   22724731.0144
        43.300          26.6004
 134604085.848 7                  25614290.021
        44.600
 127839790.407 8                  24327081.814
        48.000
 412879999.521 5                  78568722.026
        33.200
 202122571.376 7                  38462614.811
        45.100
 122804610.632 7  95514733.782 7  23013530.825    23013531.203    23013538.910
        44.800          42.300
 126982238.861 6  98947325.38645  24163871.913    24163871.2744   24163871.9314
        41.400          34.0004
 112176192.878 7  87410073.96146  21346394.156    21346392.8784   21346393.6764
        47.900          37.0004
 126897299.383 7                  24147715.180
        47.700
 105526499.186 8  82228492.47048  20081004.640    20081004.1444   20081003.5624
        51.300          53.1004
 118846654.615 7  92607883.90045  22615730.637    22615730.2484   22615730.9794
        46.500          34.0004
 132809685.307 6 103488089.51744  25272843.290    25272842.6024   25272847.9824
        36.900          26.1004
 127693641.304 6  99501539.69744  24299288.717    24299288.3334   24299289.9674
        41.000          26.2004
 134499367.845 5 104804839.26043  25594344.664    25594344.2934   25594350.0784
        33.700          22.2004
 110931189.955 8  86439927.53748  21109487.247    21109486.5954   21109486.4304
        48.700          48.0004
 123881386.057 6  96530962.19245  23573841.413    23573841.0024   23573841.6774
        41.600          33.7004
 114134995.046 7                  21336301.233    21336301.175
        47.200
 136293030.124 7                  25935648.627
        43.300
 122073962.583 7  94946461.682 6  22844477.426    22844477.292    22844484.256
        46.500          41.800
 148542746.143 5                  28266745.737
        35.900
 137445902.676 6                  26155073.850
        39.500
 106677803.697 8  82971700.018 7  19949271.177    19949270.949    19949277.020
        52.600          47.700
 123415333.324 7  95989742.861 6  23063104.081    23063104.228    23063111.357
        44.300          41.700
 152882509.213 5                  29092528.590
        33.100
 123129783.893 7  95767655.066 6  23098828.543    23098827.611    23098834.793
        45.100          40.700
 105660837.630 8  82180703.681 6  19766032.080    19766032.041    19766039.489
        48.500          41.500
 111844647.855 8  86990351.789 7  20886184.734    20886185.360    20886190.780
        48.000          47.500
 25  1  1  5  4  0.0000000  0 34E34G25E03E08S31S35G13E21E13S48S33R02
                                G12G20E15G05G11G26G18G06G29G15R23E27
                                R15E26E05R24R16R17E30R14R01R08
 145641946.399 6                  27714692.346
        37.800
 119349290.882 7  92999531.47046  22711390.162    22711389.2014   22711392.4164
        44.000          39.9004
 133760994.270 7                  25453857.484
        44.500
 138081451.842 6                  26276022.374
        41.400
 198980043.319 7                  37864640.591
        45.800
 200946260.781 7                  38238813.388
        44.300
 119373714.037 7  93018497.39444  22716056.748    22716056.1764   22716057.8554
        42.500          26.6004
 134610186.843 7                  25615450.895
        44.300
 127824486.278 7                  24324169.576
        47.900
 412879776.027 5                  78568692.071
        32.800
 202122550.590 7                  38462610.719
        45.100
 122737619.984 7  95462629.941 7  23000976.783    23000977.655    23000984.673
        45.200          42.100
 127035706.752 6  98988988.67345  24174045.716    24174045.0864   24174046.7104
        41.700          34.4004
 112209140.745 8  87435747.61546  21352663.914    21352662.6314   21352663.4684
        48.200          37.2004
 126910635.636 7                  24150252.982
        47.600
 105529824.577 8  82231083.68748  20081637.505    20081637.0144   20081636.3684
        51.300          53.4004
 118878566.932 7  92632750.64445  22621803.400    22621803.0074   22621803.7474
        46.300          34.3004
 132784558.298 6 103468510.04744  25268061.655    25268060.9714   25268066.1634
        36.500          25.9004
 127654535.775 6  99471067.89144  24291847.382    24291847.0074   24291848.1504
        40.700          25.9004
 134539178.364 5 104835860.42244  25601919.458    25601919.1014   25601925.4904
        34.800          24.2004
 110901343.624 8  86416670.66648  21103807.544    21103806.8964   21103806.8394
        49.200          48.3004
 123824061.072 7  96486293.37545  23562932.540    23562932.1344   23562932.9034
        42.100          34.1004
 114163971.632 7                  21341718.327    21341718.143
        47.100
 136332249.902 7                  25943111.607
        43.200
 122082257.697 7  94952913.432 6  22846030.315    22846030.502    22846036.396
        46.800          41.900
 148512805.846 5                  28261048.071
        35.800
 137468442.129 6                  26159362.938
        38.600
 106659316.021 8  82957320.707 8  19945813.883    19945813.776    19945819.803
        53.000          48.000
 131766684.558 7                  24667001.737
        42.800
 123369362.629 7  95953987.890 6  23054513.496    23054512.872    23054520.377
        44.700          41.200
 152926274.699 6                  29100856.710
        36.100
 123177066.328 7  95804430.256 6  23107698.823    23107698.573    23107705.218
        46.500          40.700
 105627967.060 8  82155137.714 6  19759882.732    19759882.814    19759890.368
        48.500          41.200
 111879104.135 7  87017151.112 7  20892619.198    20892619.497    20892625.225
        47.700          47.200
 25  1  1  5  4 15.0000000  0 34E34G25E03E08S31S35G13E21E13S48S33R02
                                G12G20E15G05G11G26G18G06G29G15R23E27
                                R15E26E05R24R16R17E30R14R01R08
 145671436.472 6                  27720304.175
        38.300
 119387504.379 7  93029308.20546  22718661.868    22718660.9074   22718664.2404
        44.100          39.7004
 133748204.940 7                  25451423.908
        44.500
 138039727.498 7                  26268082.598
        42.300
 198980030.482 7                  37864639.983
        46.200
 200946277.219 7                  38238814.497
        44.600
 119328198.636 7  92983030.84744  22707395.779    22707395.2214   22707396.5914
        43.600          26.8004
 134616392.342 7                  25616631.626
        44.600
 127809201.462 8                  24321261.098
        48.200
 412881150.790 5                  78568665.075
        32.800
 202122527.833 7                  38462605.725
        45.300
 122670660.365 7  95410550.224 6  22988429.460    22988428.740    22988436.455
        44.000          41.700
 127089179.207 6  99030655.52045  24184221.943    24184221.3224   24184222.4644
        41.200          34.5004
 112242148.918 8  87461468.27146  21358945.089    21358943.8024   21358944.7114
        48.300          37.3004
 126923991.370 7                  24152794.540
        47.900
 105533273.097 8  82233770.84948  20082293.635    20082293.1444   20082292.6014
        51.500          53.3004
 118910510.669 7  92657641.85945  22627882.473    22627882.0894   22627882.3594
        46.400          34.1004
 132759542.972 5 103449017.44443  25263301.494    25263300.7974   25263305.7284
        35.200          23.9004
 127615436.984 6  99440601.32744  24284407.184    24284406.7874   24284407.7374
        41.300          25.9004
 134578989.461 5 104866882.00943  25609495.333    25609494.9804   25609501.2234
        33.800          22.3004
 110871593.198 8  86393488.53148  21098146.226    21098145.5744   21098145.5144
        49.000          48.2004
 123766750.535 7  96441635.81945  23552026.408    23552025.9884   23552026.9734
        42.000          34.1004
 114193015.402 7                  21347147.360    21347147.762
        47.100
 136371511.926 7                  25950583.187
        43.300
 122090728.530 7  94959501.824 7  22847615.102    22847615.186    22847622.409
        46.000          42.200
 148482866.216 6                  28255351.031
        37.400
 137491069.539 6                  26163668.609
        38.300
 106640892.050 8  82942990.934 7  19942368.322    19942368.543    19942374.234
        53.000          47.700
 131732396.009 6 102458581.950 5  24660583.153    24660583.478    24660591.782
        39.000          35.600
 123323380.444 7  95918223.941 6  23045920.736    23045920.958    23045927.412
        44.400          41.500
 152970003.390 5                  29109177.796
        30.400
 123224418.668 7  95841259.871 6  23116581.613    23116581.956    23116588.440
        46.400          40.800
 105595274.499 8  82129710.194 6  19753767.093    19753766.882    19753774.365
        48.300          41.300
 111913724.991 8  87044078.449 7  20899084.586    20899085.177    20899090.101
        48.200          47.200
 25  1  1  5  4 30.0000000  0 34E34G25E03E08S31S35G13E21E13S48S33R02
                                G12G20E15G05G11G26G18G06G29G15R23E27
                                R15E26E05R24R16R17E30R14R01R08
 145700931.165 6                  27725916.726
        37.900
 119425799.032 7  93059148.17246  22725948.736    22725947.7714   22725951.4874
        44.200          39.7004
 133735518.927 7                  25449009.849
        44.200
 137998036.436 6                  26260148.547
        41.600
 198980020.516 7                  37864630.427
        45.700
 200946295.611 7                  38238817.073
        44.300
 119282749.453 7  92947615.88344  22698746.904    22698746.3414   22698748.1954
        43.000          27.0004
 134622706.208 7                  25617833.129
        44.300
 127793939.891 8                  24318356.905
        48.200
 412880927.881 5                  78568646.523
        32.900
 202122508.055 7                  38462604.200
        44.800
 122603736.333 7  95358498.190 6  22975887.682    22975887.676    22975894.699
        45.200          41.800
 127142659.739 6  99072328.65745  24194398.934    24194398.3084   24194399.7164
        40.800          34.4004
 112275221.179 7  87487238.86046  21365238.635    21365237.3344   21365238.1494
        47.600          37.2004
 126937370.546 7                  24155340.530
        47.700
 105536849.210 8  82236557.43048  20082974.268    20082973.7724   20082973.1064
        51.300          53.3004
 118942489.786 7  92682560.64745  22633967.695    22633967.3114   22633967.7854
        46.200          34.2004
 132734643.741 6 103429615.31744  25258563.454    25258562.7664   25258567.3864
        36.100          25.3004
 127576348.905 6  99410143.10944  24276968.694    24276968.3014   24276969.6354
        41.800          26.4004
 134618805.134 5 104897907.16843  25617073.365    25617073.0034   25617077.9904
        32.300          21.3004
 110841942.877 8  86370384.39248  21092504.193    21092503.5504   21092503.2394
        49.000          48.2004
 123709458.776 7  96396992.89445  23541124.435    23541123.9934   23541124.9344
        42.000          34.1004
 114222130.367 7                  21352590.237    21352590.370
        47.100
 136410819.871 7                  25958063.264
        42.900
 122099378.791 7  94966229.847 7  22849233.702    22849233.820    22849241.611
        46.100          42.700
 148452931.157 6                  28249654.125
        36.400
 137513788.596 6                  26167992.694
        38.300
 106622536.276 8  82928714.246 7  19938935.485    19938935.880    19938941.848
        53.000          47.600
 131698251.250 6 102432024.638 6  24654191.897    24654191.629    24654200.720
        39.800          36.100
 123277391.290 7  95882454.613 6  23037326.342    23037326.263    23037332.860
        45.400          41.400
 153013698.922 5                  29117493.215
        34.200
 123271844.399 7  95878146.556 6  23125478.916    23125478.276    23125484.975
        45.900          40.900
 105562764.158 8  82104424.408 6  19747685.244    19747685.292    19747692.775
        48.500          41.300
 111948514.102 8  87071136.666 7  20905580.439    20905581.367    20905586.881
        48.000          46.900
 25  1  1  5  4 45.0000000  0 35E34G25E03E08S31S35G13E21E13S48S33R02
                                G12G20E15G23G05G11G26G18G06G29G15R23
                                E27R15E26E05R24R16R17E30R14R01R08
 145730424.628 6                  27731529.700
        38.400
 119464168.595 7  93089046.51846  22733250.550    22733249.5804   22733252.9274
        43.700          39.6004
 133722930.421 7                  25446614.416
        44.200
 137956373.181 6                  26252220.837
        41.900
 198980007.116 7                  37864631.183
        45.900
 200946310.793 7                  38238823.204
        44.200
 119237361.065 7  92912248.29944  22690110.334    22690109.7894   22690110.8454
        42.700          26.6004
 134629122.480 7                  25619054.545
        44.400
 127778695.650 8                  24315455.700
        48.000
 412880701.402 5                  78568609.851
        32.800
 202122485.359 7                  38462602.438
        45.000
 122536842.306 7  95306469.508 6  22963351.200    22963351.903    22963358.956
        44.500          41.600
 127196142.178 6  99114003.28445  24204576.230    24204575.6094   24204576.4854
        40.700          34.0004
 112308351.493 7  87513054.67946  21371543.548    21371542.2614   21371542.6584
        47.900          37.1004
 126950767.252 7                  24157889.817
        47.700
 135025579.079 6 105214739.22642  25694513.469    25694513.5944   25694514.0134
        36.100          14.9004
 105540546.638 8  82239438.54448  20083677.694    20083677.2034   20083676.6944
        51.300          53.2004
 118974498.387 7  92707502.41145  22640058.622    22640058.2334   22640058.8154
        46.000          34.0004
 132709854.763 6 103410299.10344  25253845.742    25253845.0494   25253850.6614
        37.600          26.3004
 127537265.613 6  99379688.63744  24269531.524    24269531.1274   24269532.3564
        41.500          26.4004
 134658619.510 5 104928931.30943  25624649.303    25624648.9284   25624654.4034
        34.200          22.4004
 110812387.177 8  86347353.98348  21086879.760    21086879.1174   21086878.9574
        48.700          48.2004
 123652180.314 6  96352360.33045  23530224.741    23530224.2944   23530225.4574
        41.300          34.1004
 114251310.974 7                  21358044.932    21358045.365
        46.900
 136450167.606 7                  25965550.641
        43.400
 122108202.406 7  94973092.643 7  22850884.180    22850884.385    22850891.313
        45.200          42.000
 148422994.711 6                  28243957.832
        37.200
 137536593.192 6                  26172332.029
        38.500
 106604242.881 8  82914486.058 7  19935514.632    19935514.767    19935520.941
        52.600          47.600
 131664246.208 6 102405576.599 5  24647825.308    24647825.684    24647834.641
        39.800          32.700
 123231388.848 7  95846674.924 6  23028729.864    23028729.841    23028736.912
        45.200          41.600
 153057355.449 5                  29125800.725
        31.100
 123319336.974 7  95915085.208 6  23134388.062    23134388.476    23134393.936
        46.100          40.300
 105530430.438 8  82079275.996 6  19741636.304    19741636.492    19741643.989
        48.300          41.600
 111983465.000 7  87098320.709 7  20912107.525    20912108.094    20912113.652
        47.500          47.300
 25  1  1  5  5  0.0000000  0 35E34G25E03E08S31S35G13E21E13S48S33R02
                                G12G20E15G23G05G11G26G18G06G29G15R23
                                E27R15E26E05R24R16R17E30R14R01R08
 145759925.159 6                  27737143.051
        37.900
 119502621.018 7  93119009.42646  22740567.843    22740566.8784   22740570.2594
        43.900          39.9004
 133710447.841 7                  25444239.044
        44.500
 137914746.238 6                  26244298.982
        41.600
 198979998.872 7                  37864627.869
        45.600
 200946331.234 7                  38238824.536
        44.100
 119192042.214 7  92876934.92144  22681486.115    22681485.5744   22681486.9144
        42.700          27.5004
 134635649.464 7                  25620296.005
        44.400
 127763477.053 8                  24312560.101
        48.200
 412880481.024 5                  78568592.492
        33.100
 202122467.238 7                  38462602.729
        44.900
 122469987.271 7  95254471.141 7  22950822.722    22950823.485    22950830.619
        44.700          42.300
 127249634.162 6  99155685.34745  24214755.403    24214754.7774   24214756.1124
        41.100          34.8004
 112341547.827 7  87538921.94546  21377860.273    21377858.9774   21377859.7514
        47.500          37.4004
 126964189.798 7                  24160444.205
        47.700
 134975073.969 4 105175384.58041  25684903.274    25684902.9574   25684903.4854
        28.500           6.8004
 105544373.182 8  82242420.26648  20084406.028    20084405.5414   20084404.8624
        51.200          53.6004
 119006544.759 7  92732473.62145  22646157.173    22646156.7894   22646157.0484
        46.100          34.3004
 132685185.006 6 103391075.93144  25249151.417    25249150.7294   25249155.9714
        37.400          26.2004
 127498195.482 6  99349244.41344  24262096.729    24262096.3184   24262097.7214
        41.100          26.6004
 134698440.889 5 104959960.91443  25632227.046    25632226.6534   25632231.7824
        33.500          23.2004
 110782934.723 8  86324404.03348  21081275.145    21081274.5024   21081274.3154
        48.700          48.5004
 123594924.058 6  96307745.06745  23519329.250    23519328.7994   23519329.9424
        41.000          34.6004
 114280565.325 7                  21363514.552    21363514.383
        47.400
 136489563.173 7                  25973047.766
        42.900
 122117207.473 7  94980096.567 6  22852570.415    22852570.312    22852576.864
        45.600          41.800
 148393065.258 5                  28238261.932
        35.900
 137559492.055 6                  26176689.890
        38.300
 106586020.506 8  82900313.084 7  19932107.103    19932107.292    19932113.296
        52.800          47.600
 131630388.443 6 102379242.965 5  24641487.597    24641487.253    24641495.472
        39.200          32.300
 123185381.867 7  95810891.709 6  23020132.865    23020132.404    23020139.458
        44.100          41.400
 153100981.053 5                  29134102.222
        35.100
 123366904.017 7  95952081.791 6  23143311.206    23143311.858    23143317.345
        46.400          40.600
 105498282.273 8  82054271.901 6  19735622.328    19735622.522    19735629.544
        48.200          41.400
 112018585.748 8  87125636.846 7  20918666.692    20918666.931    20918672.373
        48.100          47.200
 25  1  1  5  5 15.0000000  0 35E34G25E03E08S31S35G13E21E13S48S33R02
                                G12G20E15G23G05G11G26G18G06G29G15R23
                                E27R15E26E05R24R16R17E30R14R01R08
 145789421.516 6                  27742755.846
        38.500
 119541144.565 7  93149027.75946  22747898.286    22747897.3164   22747901.0414
        44.000          39.8004
 133698060.021 7                  25441881.491
        44.500
 137873144.622 6                  26236382.469
        41.800
 198979983.694 7                  37864628.044
        45.300
 200946344.801 7                  38238830.846
        44.300
 119146782.100 7  92841667.33144  22672873.687    22672873.1514   22672874.1354
        42.300          27.4004
 134642275.707 7                  25621557.171
        44.400
 127748272.755 8                  24309666.650
        48.200
 412880253.267 5                  78568557.734
        32.800
 202122442.221 7                  38462595.565
        44.800
 122403160.054 7  95202494.414 6  22938299.373    22938299.950    22938306.673
        44.400          41.500
 127303124.432 6  99197366.06945  24224934.668    24224934.0384   24224934.9294
        41.200          34.6004
 112374798.559 7  87564831.59646  21384187.658    21384186.3574   21384187.1464
        47.700          37.4004
 126977626.854 7                  24163000.780
        47.800
 134924581.102 6 105136039.55643  25675294.411    25675294.2014   25675295.7214
        36.300          18.2004
 105548317.600 8  82245493.84148  20085156.570    20085156.0834   20085155.4554
        51.000          53.5004
 119038617.530 7  92757465.39145  22652260.142    22652259.7584   22652260.2634
        45.700          34.2004
 132660623.040 6 103371936.84844  25244477.081    25244476.3974   25244481.6594
        37.000          26.1004
 127459127.179 6  99318801.60944  24254662.509    24254662.0944   24254663.0494
        40.800          26.3004
 134738257.913 5 104990987.11043  25639803.433    25639803.0444   25639808.4194
        33.300          22.5004
 110753574.396 8  86301525.86448  21075688.013    21075687.3704   21075687.2154
        48.700          48.5004
 123537678.817 6  96263138.39345  23508435.412    23508434.9744   23508436.5954
        41.200          34.5004
 114309882.083 7                  21368994.563    21368994.665
        47.200
 136528995.045 7                  25980551.295
        43.300
 122126382.366 7  94987232.601 6  22854286.799    22854287.111    22854293.404
        46.400          41.300
 148363131.324 6                  28232566.310
        36.600
 137582473.657 6                  26181063.307
        37.600
 106567857.649 8  82886186.432 7  19928710.157    19928710.630    19928716.593
        52.700          47.600
 131596666.973 6 102353015.351 5  24635173.245    24635174.333    24635182.990
        41.300          33.700
 123139359.323 7  95775096.470 6  23011531.775    23011531.609    23011538.636
        44.900          41.100
 153144564.098 5                  29142395.991
        32.800
 123414533.797 7  95989127.171 6  23152246.843    23152246.589    23152253.176
        45.600          41.100
 105466308.411 8  82029403.373 6  19729640.981    19729641.114    19729648.423
        48.200          41.300
 112053864.337 7  87153075.751 7  20925254.247    20925254.602    20925260.267
        47.800          47.200
 25  1  1  5  5 30.0000000  0 35E34G25E03E08S31S35G13E21E13S48S33R02
                                G12G20E15G23G05G11G26G18G06G29G15R23
                                E27R15E26E05R24R16R17E30R14R01R08
 145818927.449 6                  27748370.909
        38.500
 119579752.552 7  93179111.88546  22755245.463    22755244.4984   22755247.7744
        43.700          39.6004
 133685780.774 7                  25439545.041
        44.600
 137831582.174 7                  26228473.613
        42.200
 198979977.021 7                  37864626.653
        45.300
 200946366.294 7                  38238834.217
        44.200
 119101594.893 7  92806456.54744  22664274.407    22664273.8714   22664275.4694
        43.000          27.3004
 134649014.862 7                  25622839.971
        44.500
 127733096.416 8                  24306778.792
        48.100
 412880031.831 5                  78568533.543
        32.500
 202122425.256 7                  38462588.446
        44.400
 122336375.239 7  95150550.671 6  22925783.677    22925784.071    22925791.451
        45.100          41.600
 127356626.358 6  99239055.87945  24235114.988    24235114.3454   24235115.9284
        41.200          34.7004
 112408117.107 7  87590794.09746  21390528.210    21390526.9054   21390527.5044
        47.900          37.2004
 126991092.164 7                  24165563.424
        47.600
 134874113.953 5 105096714.55142  25665690.881    25665690.6854   25665691.8924
        34.800          13.7004
 105552393.778 8  82248670.08748  20085932.172    20085931.6904   20085931.1294
        51.100          53.4004
 119070730.383 7  92782488.39345  22658371.077    22658370.6934   22658371.1744
        46.000          34.1004
 132636182.980 6 103352892.89944  25239825.981    25239825.2934   25239830.5194
        37.900          26.0004
 127420074.465 6  99288370.94944  24247230.766    24247230.3514   24247231.0154
        40.100          26.3004
 134778084.339 5 105022020.65643  25647381.826    25647381.4374   25647387.4614
        33.600          23.4004
 110724320.376 8  86278730.53648  21070121.313    21070120.6794   21070120.3534
        48.800          48.4004
 123480458.572 6  96218551.19745  23497546.946    23497546.5444   23497548.0334
        41.400          34.7004
 114339275.338 7                  21374489.217    21374489.234
        47.000
 136568476.631 7                  25988064.228
        43.300
 122135740.872 7  94994511.434 6  22856038.548    22856038.673    22856045.435
        46.400          41.300
 148333206.596 6                  28226871.606
        36.800
 137605551.517 6                  26185454.518
        38.300
 106549768.617 8  82872117.190 7  19925327.978    19925327.923    19925333.668
        52.600          47.800
 131563096.204 6 102326905.018 5  24628889.958    24628890.107    24628898.397
        40.400          34.300
 123093334.773 7  95739299.679 6  23002931.432    23002931.450    23002937.394
        44.900          40.900
 153188118.316 5                  29150683.729
        33.000
 123462239.380 7  96026231.505 6  23161195.649    23161195.527    23161203.272
        45.200          41.300
 105434523.013 8  82004681.412 6  19723695.076    19723695.055    19723702.359
        48.200          41.100
 112089314.528 7  87180648.140 7  20931873.677    20931874.494    20931880.187
        47.200          47.200
 25  1  1  5  5 45.0000000  0 35E34G25E03E08S31S35G13E21E13S48S33R02
                                G12G20E15G23G05G11G26G18G06G29G15R23
                                E27R15E26E05R24R16R17E30R14R01R08
 145848429.485 6                  27753984.791
        38.800
 119618431.190 7  93209251.06546  22762605.481    22762604.5164   22762608.1814
        44.000          39.3004
 133673596.732 7                  25437226.379
        44.600
 137790045.733 7                  26220569.365
        42.000
 198979963.482 7                  37864620.496
        45.400
 200946381.232 7                  38238829.388
        44.200
 119056467.226 7  92771292.15744  22655686.913    22655686.3864   22655687.8344
        42.600          27.1004
 134655853.471 7                  25624141.199
        44.300
 127717934.627 8                  24303893.492
        48.300
 412879804.375 5                  78568504.468
        32.900
 202122401.449 7                  38462590.230
        44.900
 122269619.521 7  95098629.538 6  22913273.866    22913274.465    22913281.756
        44.700          41.900
 127410125.909 6  99280743.82245  24245295.849    24245295.2064   24245296.6684
        41.100          34.5004
 112441490.014 7  87616798.94546  21396878.657    21396877.3474   21396878.1254
        47.100          37.0004
 127004572.316 7                  24168128.472
        47.800
 134823659.401 5 105057399.30542  25656090.156    25656089.8524   25656090.8054
        34.800          15.5004
 105556587.882 8  82251938.22048  20086730.277    20086729.7954   20086729.2514
        50.800          53.1004
 119102869.853 7  92807532.13345  22664487.023    22664486.6434   22664487.1334
        45.700          33.9004
 132611851.018 6 103333933.13444  25235196.385    25235195.7014   25235199.9614
        36.100          26.0004
 127381023.884 6  99257941.95644  24239799.497    24239799.0824   24239800.1314
        40.900          26.3004
 134817906.814 5 105053051.12344  25654960.566    25654960.1864   25654966.0924
        34.600          24.1004
 110695159.530 8  86256007.80648  21064571.900    21064571.2664   21064571.1994
        48.700          48.3004
 123423250.449 6  96173973.44345  23486660.897    23486660.4914   23486661.7074
        41.400          34.5004
 114368731.404 7                  21379996.418    21379995.818
        47.500
 136607994.291 7                  25995584.344
        43.100
 122145269.214 7  95001922.358 6  22857820.998    22857820.977    22857827.954
        45.900          41.600
 148303277.685 6                  28221176.550
        37.300
 137628711.654 6                  26189862.053
        38.500
 106531740.006 8  82858094.914 7  19921956.419    19921956.414    19921962.248
        52.700          47.600
 131529662.956 6 102300901.824 5  24622631.218    24622631.034    24622638.546
        40.300          34.700
 123047294.784 7  95703490.799 6  22994327.738    22994327.574    22994333.701
        45.500          41.200
 153231629.970 5                  29158963.979
        34.500
 123510006.759 7  96063383.889 6  23170157.977    23170158.094    23170163.523
        46.500          40.500
 105402912.784 8  81980095.721 6  19717781.408    19717781.405    19717788.893
        48.000          41.300
 112124921.949 8  87208342.792 7  20938523.862    20938524.361    20938529.740
        48.000          47.100
 25  1  1  5  6  0.0000000  0 35E34G25E03E08S31S35G13E21E13S48S33R02
                                G12G20E15G23G05G11G26G18G06G29G15R23
                                E27R15E26E05R24R16R17E30R14R01R08
 145877938.165 6                  27759600.261
        38.900
 119657190.519 7  93239453.11746  22769981.418    22769980.4534   22769983.8634
        43.600          39.8004
 133661518.494 7                  25434927.886
        44.800
 137748546.097 7                  26212672.095
        42.200
 198979954.038 7                  37864623.720
        45.900
 200946400.343 7                  38238841.600
        44.600
 119011410.137 7  92736182.76844  22647112.943    22647112.4074   22647113.9854
        42.700          27.6004
 134662801.862 7                  25625463.517
        44.600
 127702797.839 8                  24301013.050
        48.300
 412879580.525 5                  78568477.079
        32.900
 202122383.038 7                  38462579.619
        44.800
 122202903.904 7  95046739.614 6  22900771.347    22900772.435    22900779.265
        45.700          41.400
 127463633.047 6  99322437.69345  24255478.104    24255477.4564   24255478.5754
        41.000          34.5004
 112474927.359 7  87642854.01746  21403241.592    21403240.2824   21403241.0564
        47.500          37.4004
 127018077.746 7                  24170698.641
        47.600
 134773227.942 5 105018102.08242  25646493.104    25646492.8094   25646493.9074
        35.400          12.0004
 105560910.425 8  82255306.43648  20087552.607    20087552.1254   20087551.8114
        51.000          53.5004
 119135046.384 7  92832604.75745  22670609.964    22670609.5844   22670610.1214
        45.400          34.1004
 132587637.782 6 103315065.75544  25230588.643    25230587.9594   25230592.3754
        36.000          26.0004
 127341985.983 6  99227522.84544  24232370.679    24232370.2464   24232371.7474
        41.700          26.7004
 134857735.621 5 105084086.51044  25662539.234    25662538.8454   25662545.5604
        34.300          24.9004
 110666102.240 8  86233365.77248  21059042.545    21059041.9114   21059041.7834
        48.600          48.5004
 123366065.198 6  96129413.50345  23475778.548    23475778.1334   23475779.7684
        41.500          35.0004
 114398261.044 7                  21385516.137    21385516.059
        46.500
 136647558.215 7                  26003112.893
        43.400
 122154977.649 7  95009473.374 6  22859637.818    22859637.851    22859645.521
        45.200          41.800
 148273354.994 6                  28215481.975
        37.600
 137651964.521 6                  26194286.567
        38.800
 106513782.468 8  82844127.948 7  19918598.253    19918598.163    19918604.126
        52.600          47.700
 131496377.965 7 102275014.074 6  24616399.131    24616398.866    24616407.559
        42.300          37.300
 123001250.227 7  95667678.429 6  22985722.560    22985722.401    22985729.258
        44.600          41.000
 153275109.407 5                  29167237.855
        33.200
 123557846.136 7  96100592.313 6  23179131.390    23179131.581    23179138.118
        45.200          40.700
 105371488.696 8  81955654.790 6  19711903.127    19711902.975    19711910.181
        48.300          41.200
 112160696.929 7  87236167.776 7  20945204.867    20945205.005    20945210.635
        47.700          47.100
 25  1  1  5  6 15.0000000  0 35E34G25E03E08S31S35G13E21E13S48S33R02
                                G12G20E15G23G05G11G26G18G06G29G15R23
                                E27R15E26E05R24R16R17E30R14R01R08
 145907446.169 6                  27765215.707
        38.200
 119696022.879 7  93269712.08546  22777370.862    22777369.8974   22777373.4124
        44.100          39.5004
 133649538.822 7                  25432648.194
        44.900
 137707076.195 7                  26204780.324
        42.800
 198979942.226 7                  37864619.373
        45.800
 200946416.967 7                  38238843.536
        44.200
 118966416.921 7  92701123.16544  22638551.057    22638550.5164   22638551.8124
        43.300          27.4004
 134669852.704 7                  25626805.219
        44.600
 127687678.735 8                  24298136.037
        48.400
 412879352.941 5                  78568447.862
        33.300
 202122360.118 7                  38462575.751
        44.700
 122136221.789 7  94994875.742 7  22888274.965    22888274.782    22888282.936
        43.200          42.100
 127517140.347 6  99364131.68345  24265660.178    24265659.5304   24265660.8884
        41.100          34.4004
 112508421.693 7  87668953.50546  21409615.388    21409614.0784   21409614.8534
        47.600          37.2004
 127031601.116 8                  24173272.047
        48.000
 134722812.438 6 104978817.33042  25636899.178    25636898.8614   25636900.1394
        38.200          15.8004
 105565353.654 8  82258768.69348  20088398.200    20088397.7224   20088397.3374
        51.000          53.3004
 119167252.649 7  92857700.55745  22676738.725    22676738.3454   22676738.7344
        45.200          33.9004
 132563536.539 6 103296285.71244  25226001.884    25226001.1914   25226005.8324
        37.300          25.2004
 127302953.424 6  99197107.88944  24224942.804    24224942.3624   24224944.0554
        41.000          26.4004
 134897563.521 5 105115121.20943  25670119.414    25670119.0254   25670124.8034
        31.900          21.4004
 110637141.529 8  86210798.98848  21053531.611    21053530.9774   21053530.7414
        49.000          48.4004
 123308895.848 6  96084865.96645  23464899.803    23464899.3744   23464901.0344
        41.700          34.9004
 114427856.661 7                  21391048.580    21391049.075
        47.400
 136687160.864 7                  26010649.147
        43.300
 122164858.535 7  95017158.479 6  22861487.461    22861487.421    22861493.951
        45.300          41.500
 148243431.192 6                  28209787.704
        37.100
 137675302.426 6                  26198728.112
        39.000
 106495889.143 8  82830210.918 7  19915252.052    19915252.226    19915258.159
        53.000          47.800
 131463233.871 7 102249235.765 5  24610193.523    24610193.976    24610202.284
        42.200          34.700
 122955193.552 7  95631856.585 6  22977115.505    22977116.017    22977122.243
        45.800          41.000
 153318549.220 5                  29175504.196
        35.000
 123605749.343 7  96137850.343 6  23188118.324    23188118.268    23188124.376
        45.100          40.700
 105340243.543 8  81931353.034 6  19706058.051    19706057.947    19706064.987
        48.400          41.100
 112196631.653 8  87264117.003 7  20951915.091    20951915.529    20951920.900
        48.100          47.100
 25  1  1  5  6 30.0000000  0 35E34G25E03E08S31S35G13E21E13S48S33R02
                                G12G20E15G23G05G11G26G18G06G29G15R23
                                E27R15E26E05R24R16R17E30R14R01R08
 145936955.509 6                  27770830.613
        38.000
 119734929.849 7  93300029.18246  22784774.467    22784773.5064   22784777.2254
        43.400          39.7004
 133637659.837 7                  25430387.625
        44.900
 137665638.212 7                  26196895.182
        42.100
 198979929.187 7                  37864616.628
        45.600
 200946432.721 7                  38238851.934
        44.300
 118921490.043 7  92666115.25844  22630001.506    22630000.9614   22630002.3604
        43.500          28.0004
 134677007.888 7                  25628166.541
        44.600
 127672579.265 8                  24295262.504
        48.300
 412879123.283 5                  78568414.132
        32.100
 202122338.183 7                  38462574.853
        44.900
 122069575.399 7  94943039.616 7  22875786.540    22875786.515    22875793.672
        45.100          42.100
 127570649.470 6  99405827.08145  24275842.535    24275841.8834   24275843.5734
        40.800          34.8004
 112541974.765 7  87695098.76746  21416000.371    21415999.0614   21415999.8124
        47.500          37.5004
 127045144.456 8                  24175849.237
        48.000
 134672414.921 5 104939546.54442  25627309.230    25627308.9314   25627309.8904
        34.400          15.5004
 105569919.367 8  82262326.39048  20089267.149    20089266.6714   20089266.1644
        51.100          53.6004
 119199490.603 7  92882821.04745  22682873.291    22682872.9204   22682873.4884
        45.700          34.1004
 132539549.234 6 103277594.45244  25221437.086    25221436.4114   25221441.4274
        37.500          26.6004
 127263928.180 6  99166698.63144  24217517.047    24217516.6004   24217517.8574
        41.800          27.0004
 134937392.586 5 105146156.80543  25677698.456    25677698.0764   25677703.2874
        33.200          21.1004
 110608279.873 8  86188309.38848  21048039.352    21048038.7224   21048038.5114
        48.900          48.7004
 123251744.729 7  96040332.62645  23454023.746    23454023.3174   23454025.2524
        42.200          35.2004
 114457520.358 7                  21396593.588    21396593.466
        46.600
 136726803.953 7                  26018193.124
        43.100
 122174913.767 7  95024979.228 7  22863368.711    22863368.731    22863376.231
        44.600          42.000
 148213508.179 6                  28204093.737
        36.100
 137698727.549 6                  26203185.645
        37.900
 106478061.812 8  82816345.199 7  19911918.292    19911918.404    19911924.390
        53.100          47.700
 131430232.651 6 102223568.156 5  24604016.380    24604016.367    24604023.852
        37.900          33.600
 122909127.020 7  95596027.078 6  22968506.976    22968507.634    22968514.034
        45.500          41.500
 153361951.074 5                  29183763.078
        34.100
 123653717.858 7  96175159.176 6  23197116.870    23197117.041    23197123.280
        44.600          40.500
 105309179.853 8  81907192.424 6  19700246.860    19700246.761    19700254.136
        48.400          41.300
 112232727.763 8  87292191.757 7  20958655.858    20958656.276    20958661.884
        48.000          47.100
 25  1  1  5  6 45.0000000  0 34E34G25E03E08S31S35G13E21E13S48S33R02
                                G12G20E15G23G05G11G26G18G06G29G15R23
                                E27R15E26E05R24R16R17R14R01R08
 145966469.102 6                  27776447.451
        39.200
 119773913.865 7  93330406.31846  22792193.115    22792192.1454   22792195.5084
        43.700          39.6004
 133625884.524 7                  25428146.822
        45.000
 137624235.255 7                  26189016.527
        42.600
 198979918.325 7                  37864615.094
        46.000
 200946449.896 7                  38238852.301
        44.400
 118876632.593 7  92631161.44544  22621465.174    22621464.6164   22621466.2204
        44.000          27.9004
 134684270.169 7                  25629548.591
        44.700
 127657502.258 8                  24292393.656
        48.600
 412878895.497 5                  78568390.017
        32.900
 202122317.679 7                  38462567.215
        45.100
 122002968.119 7  94891233.980 6  22863303.501    22863303.735    22863310.958
        44.600          41.900
 127624162.713 6  99447525.70645  24286025.913    24286025.2614   24286026.4604
        41.200          34.4004
 112575589.148 8  87721291.79546  21422396.946    21422395.6324   21422396.3924
        48.100          37.4004
 127058710.596 8                  24178430.775
        48.000
 134622038.556 6 104900292.22842  25617721.854    25617721.5334   25617723.4384
        36.000          14.0004
 105574610.316 8  82265981.67448  20090159.804    20090159.3264   20090158.8254
        51.600          53.5004
 119231763.086 7  92907968.44045  22689014.367    22689013.9964   22689014.6314
        45.900          34.0004
 132515678.911 6 103258994.35244  25216894.579    25216893.9004   25216898.8764
        37.400          27.8004
 127224913.173 7  99136297.35544  24210092.227    24210091.7854   24210093.4974
        42.400          26.9004
 134977225.662 5 105177195.48244  25685278.448    25685278.0824   25685283.1664
        35.600          25.0004
 110579520.312 8  86165899.34948  21042566.652    21042566.0184   21042565.7324
        49.500          48.7004
 123194615.177 6  95995816.08445  23443152.679    23443152.2644   23443153.9604
        41.700          35.1004
 114487255.300 7                  21402153.071    21402152.628
        47.000
 136766490.067 7                  26025744.956
        43.300
 122185145.819 7  95032937.503 6  22865283.488    22865283.704    22865290.900
        45.000          41.600
 148183588.791 6                  28198400.381
        38.300
 137722242.620 6                  26207660.604
        39.300
 106460304.012 8  82802533.583 7  19908597.455    19908597.692    19908603.459
        52.800          47.800
 131397378.201 6 102198014.885 6  24597865.252    24597865.440    24597873.538
        40.500          36.400
 122863053.646 7  95560192.270 6  22959896.556    22959897.265    22959904.926
        46.100          41.800
 123701753.823 7  96212520.492 6  23206129.377    23206128.559    23206134.364
        44.900          40.900
 105278300.682 8  81883175.311 6  19694470.513    19694470.216    19694477.234
        48.800          41.000
 112268987.564 8  87320393.843 7  20965427.732    20965427.735    20965432.985
        48.000          47.100
 25  1  1  5  7  0.0000000  0 34E34G25E03E08S31S35G13E21E13S48S33R02
                                G12G20E15G23G05G11G26G18G06G29G15R23
                                E27R15E26E05R24R16R17R14R01R08
 145995985.527 6                  27782064.382
        37.900
 119812973.149 7  93360842.09946  22799625.834    22799624.8644   22799628.3964
        44.200          39.5004
 133614211.507 7                  25425925.766
        44.900
 137582866.169 7                  26181144.243
        42.500
 198979907.583 7                  37864615.353
        45.900
 200946467.834 7                  38238852.891
        44.800
 118831843.556 7  92596260.89344  22612942.676    22612942.1224   22612943.1874
        42.800          28.1004
 134691638.076 7                  25630950.417
        44.700
 127642446.286 8                  24289528.626
        48.500
 412878669.666 5                  78568358.362
        32.600
 202122296.716 7                  38462558.621
        44.200
 121936398.908 7  94839457.947 6  22850828.820    22850828.382    22850835.936
        44.300          41.800
 127677678.352 6  99489226.19245  24296209.506    24296208.8634   24296210.4014
        41.300          34.6004
 112609262.986 7  87747531.15246  21428804.766    21428803.4524   21428804.2804
        47.900          37.3004
 127072298.131 8                  24181016.381
        48.100
 134571682.026 6 104861053.39042  25608139.525    25608139.1994   25608141.3144
        36.800          16.4004
 105579425.212 8  82269733.54248  20091076.054    20091075.5764   20091075.0704
        51.300          53.4004
 119264068.581 7  92933141.54845  22695162.102    22695161.7404   22695162.1504
        45.200          33.7004
 132491924.327 6 103240484.47144  25212373.934    25212373.2594   25212378.5624
        38.500          28.5004
 127185906.950 6  99105902.91544  24202669.799    24202669.3664   24202671.0604
        41.700          26.8004
 135017061.360 5 105208236.27243  25692858.101    25692857.7574   25692863.9254
        32.300          21.5004
 110550861.755 8  86143568.01148  21037113.075    21037112.4414   21037112.1994
        49.200          48.6004
 123137506.050 7  95951315.47645  23432285.361    23432284.9464   23432286.7684
        42.700          35.5004
 114517059.817 7                  21407724.474    21407724.399
        47.100
 136806217.530 7                  26033305.029
        43.300
 122195553.330 7  95041032.218 6  22867231.232    22867231.560    22867238.300
        45.400          41.400
 148153671.593 6                  28192707.715
        38.200
 137745846.214 6                  26212151.722
        38.800
 106442614.425 8  82788775.009 7  19905289.621    19905289.541    19905295.478
        52.900          47.700
 131364669.436 6 102172575.187 6  24591742.098    24591742.519    24591749.915
        39.700          36.400
 122816971.947 7  95524350.968 6  22951285.342    22951285.287    22951292.215
        45.600          41.200
 123749855.407 7  96249932.808 6  23215152.282    23215152.222    23215159.162
        44.900          41.000
 105247604.953 8  81859300.893 6  19688727.824    19688727.950    19688734.933
        48.600          41.000
 112305409.267 7  87348721.848 7  20972228.478    20972229.261    20972234.511
        47.800          47.100
 25  1  1  5  7 15.0000000  0 34E34G25E03E08S31S35G13E21E13S48S33R02
                                G12G20E15G23G05G11G26G18G06G29G15R23
                                E27R15E26E05R24R16R17R14R01R08
 146025503.782 6                  27787681.227
        37.800
 119852106.243 7  93391335.40446  22807072.529    22807071.5594   22807075.2394
        44.400          39.6004
 133602639.868 7                  25423723.709
        44.800
 137541530.081 7                  26173278.140
        42.600
 198979896.518 7                  37864613.118
        46.000
 200946484.677 7                  38238852.721
        44.100
 118787122.227 7  92561413.07644  22604432.131    22604431.5734   22604433.1174
        43.500          28.0004
 134699110.496 7                  25632372.462
        44.700
 127627410.258 8                  24286667.077
        48.300
 412878443.209 5                  78568339.899
        33.100
 202122275.360 7                  38462559.649
        45.000
 121869867.421 7  94787711.208 7  22838361.716    22838361.011    22838368.923
        44.400          42.400
 127731195.044 7  99530927.50645  24306393.281    24306392.6334   24306393.9894
        42.100          34.3004
 112642994.908 8  87773815.78046  21435223.526    21435222.2074   21435223.2234
        48.300          37.4004
 127085905.987 8                  24183605.982
        48.000
 134521344.446 6 104821829.28142  25598560.576    25598560.2284   25598562.0844
        36.100          17.8004
 105584362.512 8  82273580.78748  20092015.613    20092015.1354   20092014.6204
        52.000          53.6004
 119296406.090 7  92958339.61145  22701315.910    22701315.5534   22701315.7334
        45.600          33.8004
 132468284.166 6 103222063.55244  25207875.376    25207874.7064   25207879.9134
        38.000          27.3004
 127146908.542 6  99075514.56944  24195248.504    24195248.0754   24195249.6424
        41.500          27.0004
 135056898.558 5 105239278.18943  25700438.449    25700438.0874   25700444.9894
        33.700          22.9004
 110522303.573 8  86121314.89148  21031678.549    21031677.9194   21031677.7614
        49.300          48.8004
 123080416.748 7  95906830.30845  23421421.278    23421420.8584   23421423.2834
        42.300          35.7004
 114546933.105 7                  21413308.630    21413309.062
        46.600
 136845985.041 7                  26040872.503
        43.500
 122206134.785 7  95049262.253 6  22869211.824    22869211.555    22869218.558
        44.700          41.800
 148123755.451 6                  28187014.264
        37.800
 137769536.870 6                  26216660.093
        38.300
 106424991.883 8  82775068.591 7  19901994.017    19901994.125    19902000.057
        52.900          47.900
 131332105.363 6 102147247.776 5  24585645.783    24585645.555    24585653.877
        38.000          34.900
 122770881.081 7  95488502.566 6  22942672.595    22942672.745    22942679.977
        45.800          41.700
 123798020.915 7  96287394.869 6  23224188.058    23224187.806    23224194.711
        44.600          41.100
 105217091.904 8  81835568.552 6  19683020.014    19683019.893    19683026.813
        48.500          40.900
 112341991.347 7  87377174.577 7  20979060.166    20979060.393    20979066.229
        47.600          47.100
 25  1  1  5  7 30.0000000  0 34E34G25E03E08S31S35G13E21E13S48S33R02
                                G12G20E15G23G05G11G26G18G06G29G15R23
                                E27R15E26E05R24R16R17R14R01R08
 146055024.827 6                  27793298.826
        38.400
 119891313.730 7  93421886.67546  22814533.592    22814532.6134   22814536.1104
        43.600          39.3004
 133591170.684 7                  25421541.204
        44.900
 137500228.189 7                  26165418.411
        42.400
 198979885.542 7                  37864611.137
        45.800
 200946501.753 7                  38238863.082
        44.100
 118742470.102 7  92526619.19544  22595935.200    22595934.6554   22595936.1354
        43.500          28.1004
 134706688.303 7                  25633814.541
        44.600
 127612395.164 8                  24283809.720
        48.400
 412878216.004 5                  78568314.970
        33.200
 202122256.051 7                  38462557.740
        44.700
 121803374.782 7  94735994.714 7  22825900.347    22825900.915    22825907.615
        45.500          42.300
 127784713.318 6  99572630.04045  24316577.377    24316576.7384   24316578.0204
        40.300          34.1004
 112676786.029 7  87800146.53146  21441654.075    21441652.7564   21441653.4254
        47.700          37.2004
 127099535.173 8                  24186199.526
        48.100
 134471026.790 6 104782620.72442  25588986.425    25588986.0414   25588986.7884
        36.000          14.8004
 105589423.007 8  82277524.03148  20092978.607    20092978.1254   20092977.6024
        51.200          53.4004
 119328776.514 7  92983563.32345  22707475.818    22707475.4704   22707475.7604
        45.300          33.5004
 132444760.388 6 103203733.46144  25203399.217    25203398.5474   25203403.6534
        38.800          28.1004
 127107918.890 6  99045133.04044  24187829.178    24187828.7494   24187830.2944
        41.400          26.9004
 135096738.238 5 105270322.03844  25708021.868    25708021.5024   25708026.1644
        34.400          24.2004
 110493846.969 8  86099140.92248  21026263.451    21026262.8124   21026262.6124
        49.500          48.7004
 123023348.468 6  95862361.50845  23410561.623    23410561.1854   23410563.1164
        41.900          35.5004
 114576875.869 7                  21418906.804    21418906.443
        46.600
 136885793.325 7                  26048447.826
        43.100
 122216891.095 7  95057628.274 6  22871224.310    22871225.055    22871231.231
        46.400          41.500
 148093841.379 6                  28181322.233
        37.400
 137793315.563 6                  26221185.000
        37.900
 106407437.811 8  82761415.430 7  19898711.040    19898711.498    19898717.359
        53.200          47.800
 131299686.924 6 102122033.365 5  24579577.377    24579576.714    24579585.277
        39.700          32.300
 122724782.214 7  95452647.925 6  22934058.524    22934058.535    22934064.721
        45.600          41.000
 123846250.803 7  96324906.995 6  23233236.314    23233236.702    23233242.829
        44.900          41.400
 105186762.861 8  81811979.322 6  19677345.985    19677346.204    19677353.290
        48.500          41.000
 112378734.525 7  87405752.615 7  20985921.461    20985922.183    20985927.782
        47.800          47.000
 25  1  1  5  7 45.0000000  0 34E34G25E03E08S31S35G13E21E13S48S33R02
                                G12G20E15G23G05G11G26G18G06G29G15R23
                                E27R15E26E05R24R16R17R14R01R08
 146084553.431 6                  27798918.233
        38.800
 119930599.932 7  93452499.27546  22822009.426    22822008.4344   22822012.1934
        43.900          39.6004
 133579808.759 7                  25419378.891
        45.300
 137458965.828 7                  26157566.717
        42.300
 198979880.186 7                  37864611.392
        45.600
 200946524.392 7                  38238863.802
        44.200
 118697892.327 7  92491883.28144  22587452.524    22587451.9744   22587453.2754
        43.700          28.2004
 134714376.103 7                  25635277.608
        44.500
 127597405.661 8                  24280957.509
        48.300
 412877993.378 5                  78568287.424
        33.000
 202122239.200 7                  38462553.393
        44.900
 121736926.474 7  94684312.706 6  22813447.488    22813446.833    22813454.679
        44.200          41.700
 127838237.407 6  99614337.10345  24326763.033    24326762.4034   24326763.5314
        40.800          34.3004
 112710640.811 7  87826526.89746  21448096.432    21448095.1224   21448095.7684
        47.300          37.3004
 127113190.405 8                  24188798.096
        48.000
 134420733.992 6 104743431.51843  25579415.087    25579414.7034   25579416.4874
        38.800          19.1004
 105594611.556 8  82281567.05748  20093965.909    20093965.4184   20093964.9594
        51.400          53.6004
 119361184.584 7  93008816.37445  22713642.585    22713642.2324   22713642.7584
        44.800          33.5004
 132421357.235 6 103185497.38944  25198945.816    25198945.1464   25198950.1594
        36.800          28.1004
 127068942.694 6  99014761.99644  24180412.823    24180412.4034   24180413.1074
        40.900          27.1004
 135136585.206 5 105301371.57443  25715602.302    25715601.9184   25715608.7174
        33.600          21.7004
 110465496.925 8  86077049.98348  21020868.529    21020867.8864   21020867.7834
        49.100          48.8004
 122966306.385 6  95817913.12745  23399707.214    23399706.7634   23399708.5964
        41.800          35.9004
 114606893.457 7                  21424517.515    21424517.734
        46.700
 136925646.812 7                  26056031.602
        43.200
 122227826.723 7  95066133.773 6  22873270.891    22873270.925    22873277.678
        44.400          41.000
 148063933.919 6                  28175630.945
        37.600
 137817186.419 6                  26225727.279
        38.200
 106389957.105 8  82747819.304 7  19895442.350    19895442.473    19895448.290
        53.100          47.600
 131267419.367 6 102096936.146 5  24573536.315    24573536.616    24573544.437
        38.900          34.400
 122678680.151 7  95416790.803 6  22925442.503    22925442.854    22925449.044
        45.500          41.000
 123894549.476 7  96362472.620 6  23242296.495    23242296.693    23242303.222
        44.500          41.300
 105156622.804 8  81788537.072 6  19671707.624    19671707.721    19671714.739
        48.800          41.100
 112415642.940 7  87434459.174 7  20992814.032    20992814.465    20992819.661
        47.900          47.000
 25  1  1  5  8  0.0000000  0 34E34G25E03E08S31S35G13E21E13S48S33R02
                                G12G20E15G23G05G11G26G18G06G29G15R23
                                E27R15E26E05R24R16R17R14R01R08
 146114077.545 6                  27804536.194
        38.100
 119969952.437 7  93483163.55146  22829497.790    22829496.7984   22829500.8384
        43.500          39.6004
 133568542.141 7                  25417235.091
        44.800
 137417730.973 7                  26149719.690
        42.900
 198979867.223 7                  37864603.164
        45.500
 200946539.979 7                  38238860.953
        44.200
 118653377.238 7  92457196.17344  22578981.167    22578980.6134   22578982.3274
        43.600          28.4004
 134722161.810 7                  25636759.124
        44.700
 127582429.721 8                  24278107.657
        48.500
 412877765.268 5                  78568256.517
        32.700
 202122216.401 7                  38462554.958
        45.100
 121670510.904 7  94632656.121 7  22801002.275    22801002.527    22801008.628
        45.600          42.100
 127891755.033 6  99656039.13845  24336946.811    24336946.1994   24336947.6074
        41.600          34.6004
 112744546.845 7  87852947.19246  21454548.344    21454547.0394   21454547.8504
        47.600          37.2004
 127126859.611 8                  24191399.057
        48.000
 134370454.133 5 104704252.43742  25569846.886    25569846.5114   25569848.7764
        35.300          15.5004
 105599915.707 8  82285700.16048  20094975.157    20094974.6704   20094974.3294
        51.300          53.5004
 119393618.181 7  93034089.31245  22719814.240    22719813.8924   22719814.6264
        45.000          33.6004
 132398062.888 6 103167345.91544  25194513.026    25194512.3514   25194517.3194
        36.500          27.5004
 127029968.041 6  98984392.15244  24172995.903    24172995.4884   24172996.5634
        41.900          27.1004
 135176427.371 5 105332417.38243  25723184.817    25723184.4244   25723190.8414
        33.800          22.9004
 110437241.567 8  86055032.83348  21015492.046    21015491.4074   21015490.9484
        48.800          48.8004
 122909278.745 7  95773476.00345  23388855.082    23388854.6314   23388856.4294
        42.500          35.9004
 114636973.174 7                  21430140.717    21430140.947
        46.700
 136965533.242 7                  26063621.972
        43.500
 122238929.078 7  95074768.954 6  22875347.922    22875348.021    22875355.820
        45.300          41.500
 148034021.151 6                  28169938.649
        37.100
 137841137.925 6                  26230285.027
        38.200
 106372537.849 8  82734270.995 7  19892184.774    19892185.147    19892190.932
        53.400          47.900
 131235291.421 6 102071947.594 6  24567522.343    24567522.583    24567530.655
        40.500          36.300
 122632562.774 7  95380921.775 6  22916823.332    22916823.994    22916831.718
        45.600          41.800
 123942904.115 7  96400081.769 6  23251367.354    23251367.956    23251374.498
        44.700          41.200
 105126659.888 8  81765232.631 6  19666102.346    19666102.359    19666109.507
        48.200          41.400
 112452703.907 7  87463284.411 7  20999734.741    20999735.271    20999740.959
        47.600          47.100
 25  1  1  5  8 15.0000000  0 34E34G25E03E08S31S35G13E21E13S48S33R02
                                G12G20E15G23G05G11G26G18G06G29G15R23
                                E27R15E26E05R24R16R17R14R01R08
 146143602.366 6                  27810154.619
        37.600
 120009375.958 7  93513883.15246  22837000.325    22836999.3554   22837002.6784
        43.900          39.3004
 133557376.057 7                  25415110.339
        44.500
 137376528.651 7                  26141879.024
        42.600
 198979852.941 7                  37864604.961
        45.800
 200946553.729 7                  38238862.979
        44.300
 118608930.372 7  92422562.20544  22570523.462    22570522.9044   22570524.3654
        43.600          28.3004
 134730050.475 7                  25638260.204
        44.300
 127567472.472 8                  24275261.430
        48.300
 412877534.724 5                  78568232.763
        32.700
 202122192.855 7                  38462539.562
        44.700
 121604133.384 7  94581029.191 7  22788562.282    22788562.330    22788570.139
        45.300          42.100
 127945270.892 6  99697739.79245  24347130.679    24347130.0624   24347131.1104
        41.600          34.1004
 112778508.963 7  87879411.17946  21461011.289    21461009.9844   21461010.5884
        47.800          37.2004
 127140547.955 7                  24194003.819
        47.700
 134320192.517 6 104665087.48042  25560282.866    25560282.4604   25560284.2074
        36.800          15.9004
 105605340.774 8  82289927.48248  20096007.515    20096007.0244   20096006.6844
        51.300          53.5004
 119426082.415 7  93059386.12145  22725992.143    22725991.7994   22725992.4324
        45.200          33.4004
 132374882.911 6 103149283.67444  25190102.228    25190101.5584   25190106.4614
        36.800          26.9004
 126990999.961 7  98954027.42344  24165580.366    24165579.9464   24165581.1334
        42.200          27.1004
 135216269.934 5 105363463.50043  25730766.779    25730766.3994   25730772.5974
        33.200          22.9004
 110409086.435 8  86033093.77748  21010134.256    21010133.6224   21010133.2104
        48.900          48.8004
 122852271.158 7  95729054.50946  23378006.425    23378005.9604   23378008.3984
        42.200          36.1004
 114667120.321 7                  21435776.030    21435776.126
        46.800
 137005457.466 7                  26071219.184
        43.200
 122250203.457 7  95083537.888 6  22877458.368    22877458.770    22877464.669
        45.700          41.300
 148004108.067 6                  28164246.185
        37.300
 137865174.527 6                  26234859.096
        38.200
 106355185.471 8  82720774.709 7  19888939.942    19888939.961    19888945.835
        53.200          47.900
 131203308.399 6 102047071.787 6  24561534.900    24561535.354    24561543.487
        41.100          36.700
 122586435.322 7  95345044.877 6  22908204.328    22908204.754    22908211.092
        46.400          41.800
 123991319.131 7  96437737.901 6  23260449.817    23260449.280    23260456.900
        43.500          41.200
 105096879.567 8  81742070.174 6  19660531.743    19660531.509    19660538.580
        48.500          41.100
 112489922.382 7  87492232.151 7  21006685.252    21006685.460    21006691.028
        47.700          47.000
 25  1  1  5  8 30.0000000  0 34E34G25E03E08S31S35G13E21E13S48S33R02
                                G12G20E15G23G05G11G26G18G06G29G15R23
                                E27R15E26E05R24R16R17R14R01R08
 146173135.028 6                  27815774.563
        37.600
 120048877.212 7  93544663.33646  22844516.906    22844515.9364   22844519.5244
        44.000          39.4004
 133546317.737 7                  25413005.639
        44.700
 137335366.484 7                  26134046.703
        42.300
 198979843.938 7                  37864596.845
        45.600
 200946572.876 7                  38238872.043
        44.500
 118564559.292 7  92387987.31144  22562080.155    22562079.5884   22562080.9134
        43.600          28.2004
 134738049.132 7                  25639782.443
        44.300
 127552540.981 8                  24272420.111
        48.200
 412877308.759 5                  78568198.819
        32.900
 202122173.139 7                  38462535.028
        44.600
 121537801.853 7  94529437.985 6  22776131.750    22776131.939    22776139.060
        44.600          41.900
 127998791.572 6  99739444.20645  24357314.807    24357314.1814   24357315.8754
        41.200          34.2004
 112812534.060 7  87905924.25446  21467485.831    21467484.5264   21467485.3234
        47.600          37.3004
 127154262.540 7                  24196613.947
        47.700
 134269956.450 5 104625942.50942  25550722.756    25550722.3324   25550724.6484
        35.200          15.7004
 105610893.492 8  82294254.27148  20097064.306    20097063.8104   20097063.3514
        51.100          53.6004
 119458584.396 7  93084712.34645  22732177.027    22732176.6794   22732177.3974
        45.000          33.4004
 132351825.001 6 103131316.82844  25185713.532    25185712.8624   25185718.2484
        38.600          28.3004
 126952045.654 6  98923673.42944  24158167.480    24158167.0334   24158168.1754
        41.700          27.4004
 135256119.840 5 105394515.32744  25738350.358    25738349.9654   25738355.7004
        34.500          24.0004
 110381038.844 8  86011238.50948  21004796.642    21004796.0034   21004795.9354
        49.200          49.0004
 122795291.044 7  95684654.41646  23367163.688    23367163.2104   23367165.4024
        42.000          36.0004
 114697342.461 7                  21441426.420    21441426.281
        47.000
 137045426.352 7                  26078825.081
        43.100
 122261656.439 7  95092445.756 6  22879602.127    22879601.540    22879608.561
        45.400          41.800
 147974201.795 6                  28158555.349
        37.900
 137889303.049 6                  26239450.376
        38.200
 106337907.392 8  82707336.193 7  19885708.713    19885708.856    19885714.645
        53.200          47.600
 131171477.998 6 102022314.755 5  24555576.085    24555576.322    24555584.393
        39.100          34.100
 122540305.167 7  95309165.807 6  22899584.023    22899584.127    22899590.425
        45.800          41.500
 124039801.246 7  96475446.194 6  23269545.155    23269545.669    23269552.019
        44.900          41.100
 105067289.576 8  81719055.752 6  19654996.245    19654996.056    19655003.128
        48.600          41.100
 112527305.030 7  87521307.537 7  21013666.638    21013666.602    21013671.964
        47.700          46.800
 25  1  1  5  8 45.0000000  0 34E34G25E03E08S31S35G13E21E13S48S33R02
                                G12G20E15G23G05G11G26G18G06G29G15R23
                                E27R15E26E05R24R16R17R14R01R08
 146202669.319 6                  27821394.314
        37.800
 120088449.653 7  93575498.98446  22852047.331    22852046.3574   22852049.9204
        43.500          39.4004
 133535361.068 7                  25410920.994
        44.800
 137294238.728 7                  26126220.072
        42.600
 198979833.740 7                  37864602.363
        45.900
 200946590.753 7                  38238874.211
        44.200
 118520258.290 7  92353467.04644  22553649.885    22553649.3184   22553650.7564
        43.800          28.6004
 134746151.517 7                  25641324.401
        44.600
 127537629.073 8                  24269582.298
        48.400
 412877082.655 5                  78568176.390
        33.700
 202122153.272 7                  38462540.273
        44.800
 121471510.363 7  94477877.937 6  22763708.582    22763709.123    22763716.114
        44.700          41.600
 128052310.902 6  99781147.56045  24367499.778    24367499.1754   24367500.5144
        41.000          34.1004
 112846615.733 7  87932481.40946  21473971.361    21473970.0564   21473970.8034
        47.900          37.1004
 127167997.150 7                  24199227.390
        47.700
 134219739.920 6 104586812.70942  25541167.302    25541166.8964   25541168.4504
        37.400          17.7004
 105616567.376 8  82298675.47448  20098143.950    20098143.4594   20098143.0644
        51.100          53.5004
 119491117.886 7  93110063.11345  22738367.719    22738367.3574   22738368.3454
        45.000          33.3004
 132328882.366 6 103113439.70644  25181347.517    25181346.8244   25181352.1154
        36.400          27.0004
 126913098.947 6  98893325.35144  24150755.933    24150755.4734   24150757.3194
        41.700          27.6004
 135295971.012 5 105425568.15743  25745933.217    25745932.8024   25745939.3044
        33.900          21.3004
 110353092.783 8  85989462.36848  20999478.731    20999478.0924   20999477.9824
        49.000          49.0004
 122738332.576 6  95640271.20546  23356325.037    23356324.5594   23356326.4034
        41.500          36.1004
 114727633.156 7                  21447088.360    21447088.643
        46.600
 137085433.463 7                  26086438.191
        43.800
 122273282.082 7  95101487.914 6  22881777.231    22881776.609    22881783.845
        45.100          41.500
 147944296.115 6                  28152863.802
        38.100
 137913517.315 6                  26244058.061
        38.400
 106320697.508 8  82693950.740 7  19882490.578    19882490.419    19882496.351
        53.100          47.900
 131139793.710 6 101997671.247 5  24549645.332    24549644.826    24549653.559
        40.300          34.800
 122494166.079 7  95273279.790 6  22890961.321    22890961.837    22890969.132
        46.100          41.900
 124088343.742 7  96513201.443 6  23278651.400    23278650.998    23278658.443
        44.000          41.500
 105037883.651 8  81696184.498 6  19649494.853    19649495.155    19649502.106
        48.700          41.200
 112564845.010 7  87550505.323 7  21020676.349    21020676.694    21020682.114
        47.100          46.900
 25  1  1  5  9  0.0000000  0 34E34G25E03E08S31S35G13E21E13S48S33R02
                                G12G20E15G23G05G11G26G18G06G29G15R23
                                E27R15E26E05R24R16R17R14R01R08
 146232204.003 6                  27827015.202
        37.800
 120128091.519 7  93606388.72646  22859590.701    22859589.7274   22859593.6374
        43.800          39.6004
 133524504.841 7                  25408854.742
        44.700
 137253144.241 7                  26118400.174
        42.200
 198979821.373 7                  37864595.768
        45.800
 200946606.005 7                  38238878.907
        44.300
 118476026.449 7  92319000.68444  22545232.676    22545232.1044   22545233.6734
        44.000          28.5004
 134754356.177 7                  25642885.628
        44.400
 127522735.379 8                  24266748.220
        48.200
 412876855.262 5                  78568147.431
        33.400
 202122131.007 7                  38462533.320
        45.000
 121405258.186 7  94426348.479 7  22751292.626    22751293.033    22751301.486
        45.200          42.700
 128105826.890 6  99822848.32545  24377683.571    24377682.9594   24377684.0574
        41.800          34.2004
 112880752.123 7  87959081.20746  21480467.310    21480466.0094   21480466.7604
        47.500          37.2004
 127181750.507 7                  24201844.719
        47.600
 134169541.543 6 104547697.09143  25531615.217    25531614.8204   25531616.4564
        37.600          18.7004
 105622361.027 8  82303190.00448  20099246.521    20099246.0304   20099245.5654
        51.200          53.6004
 119523681.559 7  93135437.40445  22744564.720    22744564.3634   22744564.9724
        44.900          33.1004
 132306054.065 6 103095651.66244  25177003.022    25177002.3164   25177007.5854
        37.300          27.8004
 126874158.505 6  98862982.16044  24143346.065    24143345.6094   24143347.3314
        41.500          27.5004
 135335822.235 5 105456621.01243  25753516.129    25753515.7094   25753522.5274
        34.700          23.4004
 110325247.213 8  85967764.52548  20994180.022    20994179.3834   20994179.1634
        49.100          49.2004
 122681394.810 7  95595904.13146  23345490.326    23345489.8844   23345491.5994
        42.200          36.3004
 114757991.190 7                  21452763.612    21452763.700
        46.400
 137125477.159 7                  26094058.291
        43.000
 122285078.253 7  95110662.727 6  22883984.894    22883984.870    22883991.776
        46.000          41.600
 147914389.645 6                  28147173.796
        37.300
 137937815.846 6                  26248682.355
        38.600
 106303554.568 8  82680617.324 7  19879284.680    19879284.838    19879290.471
        53.800          47.900
 131108256.373 6 101973142.753 5  24543741.904    24543741.198    24543749.135
        40.000          33.200
 122448016.870 7  95237385.903 6  22882337.870    22882338.264    22882344.226
        45.900          41.400
 124136944.425 7  96551001.988 6  23287769.086    23287768.265    23287775.379
        44.200          40.900
 105008660.769 8  81673455.627 6  19644028.275    19644028.226    19644035.418
        48.400          41.100
 112602540.905 7  87579824.376 7  21027715.470    21027716.177    21027721.606
        47.400          46.800
 25  1  1  5  9 15.0000000  0 34E34G25E03E08S31S35G13E21E13S48S33R02
                                G12G20E15G23G05G11G26G18G06G29G15R23
                                E27R15E26E05R24R16R17R14R01R08
 146261741.037 6                  27832635.196
        37.900
 120167804.420 7  93637333.82546  22867147.768    22867146.7674   22867150.6974
        43.300          39.5004
 133513751.079 7                  25406808.640
        44.900
 137212085.170 7                  26110586.894
        42.800
 198979809.027 7                  37864597.798
        46.000
 200946621.575 7                  38238882.296
        44.200
 118431866.062 7  92284590.02244  22536829.125    22536828.5494   22536830.3274
        43.500          28.5004
 134762665.032 7                  25644466.495
        44.400
 127507861.846 8                  24263917.731
        48.300
 412878225.418 5                  78568107.607
        32.600
 202122108.287 7                  38462527.740
        44.600
 121339047.654 7  94374851.411 7  22738885.284    22738885.335    22738892.912
        44.900          42.100
 128159341.235 6  99864547.79145  24387867.172    24387866.5694   24387867.3284
        41.800          34.0004
 112914945.286 7  87985725.23846  21486974.244    21486972.9524   21486973.5034
        47.700          37.1004
 127195524.579 7                  24204465.703
        47.800
 134119363.604 6 104508597.40442  25522066.535    25522066.1334   25522068.2014
        36.600          16.5004
 105628276.160 8  82307799.19848  20100372.088    20100371.5974   20100371.1894
        51.300          53.6004
 119556277.323 7  93160836.69945  22750767.338    22750766.9724   22750767.6894
        44.500          33.1004
 132283341.619 6 103077953.68144  25172681.709    25172681.0034   25172685.4274
        37.400          26.9004
 126835226.318 7  98832645.40144  24135937.408    24135936.9484   24135938.5414
        42.100          27.4004
 135375675.371 5 105487675.39343  25761100.830    25761100.4284   25761106.4804
        30.800          18.7004
 110297504.524 8  85946146.85648  20988900.855    20988900.2074   20988899.9034
        49.200          49.2004
 122624480.092 7  95551555.00746  23334659.504    23334659.0574   23334661.0704
        42.000          36.3004
 114788418.540 7                  21458452.455    21458452.010
        47.000
 137165559.200 7                  26101685.670
        43.300
 122297046.977 7  95119971.716 6  22886224.400    22886224.420    22886231.451
        45.700          41.700
 147884484.287 6                  28141482.874
        36.900
 137962200.741 6                  26253322.198
        37.900
 106286481.019 8  82667337.913 7  19876091.447    19876091.849    19876097.598
        53.200          47.600
 131076865.993 6 101948728.252 5  24537864.576    24537864.784    24537872.819
        40.200          34.500
 122401859.904 7  95201486.001 6  22873711.897    22873712.432    22873718.945
        45.500          41.500
 124185604.857 7  96588848.962 6  23296897.701    23296898.021    23296904.693
        45.500          41.300
 104979623.214 8  81650870.860 6  19638596.178    19638596.183    19638603.184
        48.500          41.500
 112640394.006 7  87609265.686 7  21034784.939    21034785.074    21034790.476
        47.600          46.800
 25  1  1  5  9 30.0000000  0 34E34G25E03E08S31S35G13E21E13S48S33R02
                                G12G20E15G23G05G11G26G18G06G29G15R23
                                E27R15E26E05R24R16R17R14R01R08
 146291282.804 6                  27838257.291
        38.400
 120207590.261 7  93668335.75546  22874719.009    22874717.9944   22874721.8074
        44.200          39.2004
 133503102.246 7                  25404782.186
        45.000
 137171064.171 7                  26102780.646
        43.100
 198979798.303 7                  37864590.934
        45.800
 200946638.802 7                  38238884.255
        44.200
 118387779.918 7  92250237.19044  22528440.199    22528439.6234   22528441.1114
        43.600          28.4004
 134771080.349 7                  25646067.944
        44.300
 127493010.845 8                  24261091.910
        48.300
 412877997.931 5                  78568085.638
        33.100
 202122087.474 7                  38462525.401
        44.700
 121272881.792 7  94323389.066 7  22726486.070    22726486.112    22726493.698
        45.400          42.700
 128212855.971 6  99906247.57945  24398050.507    24398049.9044   24398050.6214
        40.300          33.5004
 112949197.482 7  88012415.27946  21493491.940    21493490.6484   21493491.4934
        47.500          36.8004
 127209321.703 7                  24207090.970
        47.500
 134069208.592 6 104469515.56842  25512521.863    25512521.4744   25512523.9874
        36.800          16.1004
 105634314.656 8  82312504.51348  20101521.094    20101520.6124   20101520.2974
        50.800          53.2004
 119588907.530 7  93186262.83645  22756976.460    22756976.0984   22756976.9894
        44.200          32.5004
 132260748.643 6 103060348.90444  25168382.296    25168381.5944   25168385.9264
        37.000          27.0004
 126796304.805 7  98802316.95344  24128530.793    24128530.3424   24128532.0584
        42.300          27.5004
 135415532.861 6 105518733.13344  25768685.188    25768684.7954   25768690.7764
        36.300          25.7004
 110269867.273 8  85924611.34148  20983641.607    20983640.9644   20983640.6944
        49.000          49.0004
 122567591.023 7  95507225.87546  23323833.553    23323833.1024   23323835.5404
        42.800          36.3004
 114818917.576 7                  21464153.430    21464153.289
        46.700
 137205681.710 7                  26109320.522
        43.200
 122309190.370 7  95129416.598 7  22888496.332    22888496.948    22888504.586
        45.300          42.000
 147854582.409 6                  28135792.709
        38.200
 137986674.052 6                  26257979.409
        38.000
 106269479.349 8  82654114.388 7  19872912.408    19872912.583    19872918.221
        53.400          47.900
 131045625.876 7 101924430.442 6  24532016.105    24532016.702    24532024.603
        42.000          36.300
 122355697.489 7  95165581.941 7  22865085.824    22865086.096    22865093.033
        46.300          42.000
 124234326.979 7  96626743.939 6  23306037.668    23306038.411    23306044.328
        45.500          41.500
 104950773.623 8  81628432.313 6  19633199.607    19633199.360    19633206.476
        48.900          41.200
 112678406.297 7  87638830.817 7  21041882.683    21041883.435    21041888.940
        47.500          47.000
 25  1  1  5  9 45.0000000  0 34E34G25E03E08S31S35G13E21E13S48S33R02
                                G12G20E15G23G05G11G26G18G06G29G15R23
                                E27R15E26E05R24R16R17R14R01R08
 146320827.101 6                  27843879.425
        37.700
 120247446.471 7  93699392.52446  22882303.434    22882302.4284   22882305.9834
        43.200          38.8004
 133492556.209 7                  25402775.442
        44.900
 137130079.147 7                  26094981.317
        42.900
 198979787.499 7                  37864589.230
        45.800
 200946655.898 7                  38238891.526
        44.300
 118343766.295 7  92215940.86144  22520064.839    22520064.2724   22520065.3384
        44.300          28.2004
 134779599.766 7                  25647689.122
        44.300
 127478180.098 8                  24258269.526
        48.300
 412877770.052 5                  78568064.680
        32.700
 202122067.067 7                  38462526.268
        45.100
 121206758.684 7  94271959.985 7  22714094.679    22714093.980    22714101.691
        44.500          42.300
 128266368.597 6  99947945.70345  24408233.811    24408233.2354   24408233.9724
        40.500          33.9004
 112983506.041 7  88039149.22446  21500020.579    21500019.2964   21500020.2004
        47.700          36.7004
 127223139.616 7                  24209720.707
        47.600
 134019074.408 6 104430449.98342  25502982.253    25502981.8964   25502983.9694
        36.700          17.4004
 105640474.559 8  82317304.43348  20102693.465    20102692.9834   20102692.4934
        51.100          53.1004
 119621569.902 7  93211714.03645  22763191.926    22763191.5554   22763192.5404
        44.400          32.5004
 132238272.694 6 103042835.55644  25164104.627    25164103.9344   25164108.6854
        37.600          27.8004
 126757391.659 6  98771995.02344  24121126.599    24121126.1574   24121127.1144
        41.600          27.1004
 135455392.300 5 105549792.43843  25776270.580    25776270.1784   25776275.9764
        30.700          20.2004
 110242333.559 8  85903156.50648  20978401.913    20978401.2654   20978401.2184
        49.100          48.8004
 122510725.967 7  95462915.44346  23313012.942    23313012.4864   23313014.3974
        42.000          36.0004
 114849486.036 7                  21469867.857    21469867.723
        46.500
 137245842.133 7                  26116963.306
        43.200
 122321505.832 7  95138995.274 6  22890801.155    22890801.868    22890809.069
        46.100          41.700
 147824681.689 6                  28130102.627
        38.400
 138011233.073 6                  26262653.180
        38.500
 106252547.500 8  82640945.161 8  19869746.145    19869746.196    19869752.106
        53.400          48.000
 131014534.436 6 101900248.360 6  24526195.034    24526195.665    24526204.326
        41.400          36.200
 122309527.630 7  95129672.119 6  22856457.738    22856457.885    22856465.055
        46.500          41.600
 124283108.115 7  96664684.804 6  23315189.081    23315188.514    23315196.093
        44.500          41.300
 104922110.102 8  81606138.472 6  19627837.073    19627837.057    19627844.236
        48.700          41.400
 112716575.036 8  87668517.628 7  21049011.009    21049011.483    21049016.675
        48.100          46.700
 25  1  1  5 10  0.0000000  0 34E34G25E03E08S31S35G13E21E13S48S33R02
                                G12G20E15G23G05G11G26G18G06G29G15R23
                                E27R15E26E05R24R16R17R14R01R08
 146350374.555 6                  27849502.415
        37.500
 120287373.242 7  93730504.27346  22889901.615    22889900.6094   22889903.8424
        43.900          39.0004
 133482113.709 7                  25400788.145
        44.900
 137089131.027 7                  26087189.285
        43.000
 198979777.203 7                  37864591.784
        45.600
 200946673.838 7                  38238891.213
        44.600
 118299826.343 7  92181701.93144  22511703.101    22511702.5204   22511703.7084
        44.000          28.4004
 134788223.854 7                  25649330.348
        44.300
 127463370.209 8                  24255451.431
        48.200
 412877542.042 5                  78568035.466
        33.000
 202122046.842 7                  38462518.752
        45.000
 121140679.538 7  94220565.105 7  22701711.490    22701711.548    22701719.049
        44.000          42.600
 128319879.351 6  99989642.38345  24418416.773    24418416.1884   24418416.7424
        40.800          33.5004
 113017871.383 7  88065927.41146  21506560.346    21506559.0634   21506559.6754
        47.800          36.8004
 127236978.994 7                  24212354.136
        47.400
 133968961.782 6 104391401.18042  25493445.959    25493445.5934   25493447.8184
        36.500          17.3004
 105646756.419 8  82322199.38148  20103888.852    20103888.3744   20103887.8964
        51.200          53.2004
 119654265.037 7  93237190.76645  22769413.817    22769413.4424   22769414.1364
        44.700          32.6004
 132215913.971 6 103025413.30144  25159849.619    25159848.9224   25159853.7124
        37.900          27.2004
 126718487.595 6  98741680.17344  24113722.714    24113722.2724   24113723.4264
        41.400          27.0004
 135495254.512 5 105580853.82243  25783856.602    25783856.2054   25783861.6644
        33.800          21.4004
 110214904.297 8  85881783.05948  20973182.324    20973181.6674   20973181.6364
        49.400          49.0004
 122453885.853 7  95418624.44746  23302196.695    23302196.2444   23302198.0784
        42.700          36.1004
 114880124.730 7                  21475595.200    21475595.353
        46.500
 137286040.891 7                  26124612.692
        43.200
 122333993.828 7  95148708.186 6  22893138.924    22893139.114    22893145.612
        46.200          41.900
 147794782.765 6                  28124412.658
        37.200
 138035878.532 6                  26267342.506
        37.400
 106235686.273 8  82627830.889 8  19866592.632    19866593.014    19866599.031
        53.200          48.100
 130983592.198 7 101876182.251 6  24520403.386    24520403.586    24520410.753
        42.000          36.300
 122263350.960 7  95093757.006 6  22847828.781    22847828.790    22847834.779
        45.700          41.300
 124331947.940 7  96702671.328 6  23324351.035    23324351.369    23324358.640
        44.300          41.400
 104893633.777 8  81583990.248 6  19622510.357    19622510.130    19622517.183
        49.000          41.100
 112754900.546 7  87698326.394 7  21056168.072    21056168.275    21056173.682
        47.900          47.000
 25  1  1  5 10 15.0000000  0 34E34G25E03E08S31S35G13E21E13S48S33R02
                                G12G20E15G23G05G11G26G18G06G29G15R23
                                E27R15E26E05R24R16R17R14R01R08
 146379925.905 6                  27855125.380
        37.700
 120327370.899 7  93761671.25246  22897512.684    22897511.6834   22897515.2864
        44.200          39.2004
 133471775.483 7                  25398820.797
        45.100
 137048220.742 7                  26079404.239
        43.000
 198979768.227 7                  37864586.641
        46.000
 200946692.257 7                  38238898.273
        44.300
 118255960.975 7  92147521.15044  22503355.336    22503354.7694   22503356.4224
        43.500          28.7004
 134796953.249 7                  25650991.369
        44.600
 127448581.943 8                  24252637.204
        48.400
 412877316.888 5                  78568001.013
        33.400
 202122027.370 7                  38462513.815
        44.600
 121074645.449 7  94169205.256 7  22689337.011    22689337.763    22689344.482
        46.400          42.600
 128373388.415 6 100031337.74545  24428598.731    24428598.1554   24428599.1864
        41.600          33.8004
 113052293.904 7  88092750.17146  21513110.461    21513109.1834   21513110.0614
        47.600          36.9004
 127250840.558 7                  24214991.930
        47.700
 133918871.602 6 104352369.90142  25483913.253    25483912.9184   25483915.5704
        36.600          16.5004
 105653160.583 8  82327189.63448  20105107.401    20105106.9234   20105106.5884
        51.000          53.4004
 119686993.637 7  93262693.57045  22775641.658    22775641.2784   22775642.1324
        44.600          32.6004
 132193673.569 5 103008083.17744  25155617.392    25155616.6994   25155621.4334
        35.800          27.1004
 126679593.358 7  98711372.97644  24106321.735    24106321.3064   24106322.2924
        42.000          27.3004
 135535120.116 5 105611917.86143  25791442.215    25791441.8314   25791447.5434
        33.900          23.4004
 110187580.464 8  85860491.76248  20967982.909    20967982.2524   20967982.1054
        49.100          49.3004
 122397071.697 7  95374353.66946  23291384.797    23291384.3284   23291386.7104
        42.100          36.4004
 114910834.190 7                  21481336.043    21481336.322
        46.600
 137326278.396 7                  26132269.602
        43.200
 122346654.749 7  95158555.542 6  22895507.357    22895508.327    22895515.027
        45.800          41.800
 147764886.307 6                  28118724.006
        38.200
 138060610.915 6                  26272049.216
        39.000
 106218896.608 8  82614772.249 8  19863452.992    19863453.313    19863459.281
        53.500          48.200
 130952800.206 6 101852232.939 5  24514638.941    24514638.479    24514646.582
        38.400          35.000
 122217168.191 7  95057837.126 6  22839198.678    22839197.776    22839204.963
        45.900          41.700
 124380847.016 7  96740703.934 6  23333524.007    23333524.103    23333531.508
        43.700          41.400
 104865345.412 8  81561988.205 6  19617218.355    19617218.175    19617225.036
        48.700          41.700
 112793382.923 7  87728257.141 7  21063354.258    21063354.678    21063359.830
        47.700          46.700
 25  1  1  5 10 30.0000000  0 34E34G25E03E08S31S35G13E21E13S48S33R02
                                G12G20E15G23G05G11G26G18G06G29G15R23
                                E27R15E26E05R24R16R17R14R01R08
 146409477.368 6                  27860748.686
        37.400
 120367435.203 7  93792890.16946  22905136.571    22905135.5654   22905139.3664
        43.300          39.3004
 133461537.805 7                  25396872.524
        45.000
 137007344.705 7                  26071625.645
        43.000
 198979756.082 7                  37864584.584
        46.100
 200946708.513 7                  38238901.149
        44.900
 118212166.746 7  92113395.80244  22495021.707    22495021.1444   22495022.7404
        44.100          28.5004
 134805783.931 7                  25652671.781
        44.100
 127433811.322 8                  24249826.514
        48.200
 412877087.709 5                  78567981.932
        32.800
 202122005.207 7                  38462506.750
        44.900
 121008652.986 7  94117877.784 7  22676969.138    22676969.041    22676976.604
        44.500          42.300
 128426891.643 6 100073028.56345  24438780.255    24438779.6974   24438780.4674
        40.500          33.7004
 113086769.440 7  88119614.23146  21519671.333    21519670.0504   21519670.5224
        47.300          36.9004
 127264720.381 7                  24217633.047
        47.500
 133868800.057 5 104313353.14342  25474385.033    25474384.6944   25474387.1114
        35.800          16.2004
 105659683.064 8  82332272.07748  20106348.701    20106348.2284   20106347.7904
        50.900          53.4004
 119719751.786 7  93288219.40545  22781875.527    22781875.1524   22781875.7934
        44.100          32.5004
 132171548.013 6 102990842.55544  25151406.732    25151406.0484   25151411.2354
        37.400          27.8004
 126640705.018 6  98681070.37044  24098921.369    24098920.9274   24098922.5254
        41.200          27.6004
 135574985.294 5 105642981.58543  25799029.324    25799028.9494   25799033.6644
        34.000          22.1004
 110160358.275 8  85839279.67348  20962802.813    20962802.1654   20962801.9044
        49.000          49.3004
 122340280.036 6  95330100.43546  23280578.201    23280577.7454   23280579.6484
        41.800          36.5004
 114941610.888 7                  21487089.036    21487089.346
        46.400
 137366550.538 7                  26139933.061
        42.700
 122359484.512 7  95168534.223 7  22897909.445    22897909.566    22897916.163
        46.400          42.000
 147734988.348 6                  28113034.056
        37.300
 138085426.070 6                  26276771.284
        39.600
 106202174.868 8  82601766.456 8  19860325.871    19860326.115    19860332.110
        53.300          48.000
 130922154.569 6 101828397.030 5  24508902.655    24508902.555    24508911.109
        40.600          35.300
 122170975.556 7  95021909.494 7  22830566.083    22830566.507    22830573.390
        46.300          42.100
 124429800.450 7  96778778.835 6  23342708.459    23342708.489    23342715.371
        44.500          40.600
 104837241.274 8  81540129.431 6  19611960.717    19611960.548    19611968.063
        48.800          41.400
 112832017.851 7  87758306.532 7  21070568.646    21070569.355    21070574.833
        47.400          46.700
 25  1  1  5 10 45.0000000  0 34E34G25E03E08S31S35G13E21E13S48S33R02
                                G12G20E15G23G05G11G26G18G06G29G15R23
                                E27R15E26E05R24R16R17R14R01R08
 146439030.531 6                  27866372.202
        37.300
 120407567.367 7  93824161.96246  22912773.420    22912772.4234   22912776.2094
        43.700          39.1004
 133451402.381 7                  25394943.883
        44.900
 136966504.790 7                  26063854.233
        42.900
 198979743.308 7                  37864580.828
        46.000
 200946723.077 7                  38238895.733
        44.500
 118168445.616 7  92079327.36944  22486702.261    22486701.7074   22486702.8034
        43.500          28.3004
 134814717.521 7                  25654372.037
        44.300
 127419060.067 8                  24247019.343
        48.200
 412876856.899 5                  78567953.859
        33.700
 202121982.876 7                  38462506.320
        45.600
 120942704.327 7  94066584.415 7  22664610.821    22664610.638    22664618.783
        45.500          42.800
 128480389.964 6 100114715.55445  24448960.382    24448959.8324   24448960.7594
        41.100          33.4004
 113121299.533 7  88146520.81446  21526241.957    21526240.6744   21526241.3664
        47.500          36.8004
 127278620.202 7                  24220278.304
        47.400
 133818749.145 6 104274352.44242  25464861.285    25464860.9504   25464862.5814
        36.300          16.4004
 105666325.190 8  82337447.75748  20107612.675    20107612.2024   20107611.7654
        51.200          53.3004
 119752541.120 7  93313769.53045  22788115.182    22788114.8164   22788115.3524
        44.300          32.3004
 132149539.013 6 102973692.77544  25147218.656    25147217.9814   25147222.7964
        38.700          28.0004
 126601824.305 7  98650773.71444  24091522.529    24091522.0734   24091523.6854
        42.000          27.4004
 135614851.605 5 105674046.23443  25806614.324    25806613.9534   25806620.5544
        32.700          20.0004
 110133239.951 8  85818148.52748  20957642.317    20957641.6654   20957641.5094
        49.200          49.3004
 122283512.847 7  95285866.26146  23269775.588    23269775.1194   23269777.1784
        42.800          36.5004
 114972456.155 7                  21492855.760    21492855.897
        46.500
 137406858.704 7                  26147603.463
        42.900
 122372484.511 7  95178645.333 6  22900341.648    22900341.820    22900349.235
        46.200          41.200
 147705090.573 6                  28107345.294
        38.100
 138110325.882 6                  26281509.620
        37.900
 106185522.766 8  82588814.831 7  19857211.933    19857212.149    19857217.996
        53.500          47.800
 130891658.455 7 101804677.806 6  24503193.450    24503193.415    24503201.799
        42.100          36.600
 122124774.653 7  94985975.443 6  22821932.695    22821932.921    22821938.924
        46.600          41.800
 124478809.712 7  96816897.139 6  23351901.042    23351901.022    23351908.875
        43.900          40.700
 104809323.510 8  81518415.658 6  19606738.069    19606738.189    19606745.382
        49.100          41.400
 112870806.624 7  87788475.597 7  21077812.778    21077812.851    21077818.088
        47.800          46.400
 25  1  1  5 11  0.0000000  0 34E34G25E03E08S31S35G13E21E13S48S33R02
                                G12G20E15G23G05G11G26G18G06G29G15R23
                                E27R15E26E05R24R16R17R14R01R08
 146468585.913 6                  27871997.223
        36.300
 120447767.463 7  93855486.68946  22920423.623    22920422.6264   22920426.0734
        43.700          39.4004
 133441369.745 7                  25393034.817
        44.600
 136925701.781 7                  26056089.305
        43.300
 198979729.853 7                  37864577.492
        46.200
 200946737.070 7                  38238907.494
        44.800
 118124798.472 7  92045316.57244  22478396.321    22478395.7674   22478397.0914
        43.900          28.6004
 134823754.341 7                  25656091.366
        43.600
 127404328.535 7                  24244215.977
        47.900
 412876625.455 5                  78567922.728
        32.800
 202121959.331 7                  38462497.297
        45.000
 120876800.152 7  94015325.624 7  22652260.014    22652261.551    22652267.630
        45.700          42.300
 128533883.884 6 100156399.11545  24459140.617    24459140.0904   24459140.3954
        40.700          33.6004
 113155884.295 7  88173469.98146  21532823.322    21532822.0484   21532822.6104
        47.800          36.8004
 127292540.388 7                  24222927.055
        47.400
 133768719.283 6 104235368.15943  25455340.956    25455340.5904   25455342.1754
        36.200          18.4004
 105673087.191 8  82342716.84748  20108899.365    20108898.8924   20108898.5204
        51.100          53.5004
 119785362.017 7  93339344.25545  22794360.645    22794360.2614   22794361.0734
        44.600          32.5004
 132127646.910 6 102956633.94244  25143053.250    25143052.5664   25143056.3984
        39.800          28.6004
 126562951.640 6  98620483.32044  24084125.676    24084125.2434   24084126.4504
        41.500          27.4004
 135654719.919 5 105705112.34743  25814200.961    25814200.5864   25814207.5164
        30.800          18.5004
 110106226.127 8  85797098.80548  20952501.548    20952500.9004   20952500.9584
        49.200          49.5004
 122226770.980 7  95241651.82946  23258977.930    23258977.4614   23258979.4754
        42.900          36.5004
 115003370.620 7                  21498634.751    21498635.348
        47.000
 137447203.062 7                  26155280.607
        42.900
 122385654.804 7  95188888.898 6  22902806.830    22902807.106    22902813.462
        47.100          41.000
 147675193.349 6                  28101655.814
        37.600
 138135310.063 6                  26286264.036
        38.100
 106168941.174 8  82575918.036 8  19854110.948    19854111.396    19854117.226
        53.600          48.000
 130861311.979 7 101781074.968 6  24497512.664    24497512.988    24497520.576
        43.300          37.400
 122078566.392 7  94950035.699 7  22813296.414    22813296.756    22813303.961
        45.900          42.400
 124527874.406 7  96855058.542 6  23361106.017    23361106.439    23361114.005
        45.100          41.300
 104781592.764 8  81496847.302 6  19601550.530    19601550.562    19601557.598
        48.900          41.600
 112909749.238 7  87818764.314 7  21085084.470    21085085.225    21085090.645
        47.900          46.600
 25  1  1  5 11 15.0000000  0 34E34G25E03E08S31S35G13E21E13S48S33R02
                                G12G20E15G23G05G11G26G18G06G29G15R23
                                E27R15E26E05R24R16R17R14R01R08
 146498148.395 6                  27877623.134
        37.500
 120488039.944 7  93886867.82246  22928087.119    22928086.1224   22928089.7824
        43.400          39.4004
 133431444.849 7                  25391146.101
        44.800
 136884940.739 7                  26048332.902
        43.100
 198979720.504 7                  37864573.293
        45.800
 200946755.155 7                  38238903.492
        44.500
 118081230.860 7  92011367.78844  22470105.669    22470105.1154   22470106.3904
        43.700          28.9004
 134832899.166 7                  25657831.845
        44.200
 127389621.604 8                  24241417.358
        48.100
 412876398.663 5                  78567892.947
        32.800
 202121939.431 7                  38462496.438
        44.900
 120810946.431 7  93964106.064 7  22639919.805    22639919.434    22639926.756
        44.900          42.100
 128587377.915 6 100198082.76345  24469320.084    24469319.5524   24469320.2224
        40.800          33.9004
 113190528.405 7  88200465.40246  21539415.844    21539414.5704   21539415.1774
        47.600          36.9004
 127306485.811 7                  24225580.765
        47.600
 133718715.477 5 104196404.20642  25445825.749    25445825.3564   25445826.6074
        35.600          16.0004
 105679973.632 8  82348082.90548  20110209.846    20110209.3774   20110208.9784
        50.900          53.6004
 119818219.356 7  93364947.37645  22800613.384    22800612.9954   22800613.7334
        44.400          32.5004
 132105877.024 6 102939670.40145  25138910.187    25138909.5084   25138914.0124
        38.300          30.0004
 126524091.955 6  98590203.03544  24076730.208    24076729.7754   24076731.8354
        41.400          27.8004
 135694594.574 5 105736183.46344  25821789.358    25821788.9834   25821795.1354
        34.700          25.3004
 110079321.834 8  85776134.42948  20947382.024    20947381.3764   20947381.2554
        49.400          49.7004
 122170059.657 7  95197461.19746  23248186.222    23248185.7624   23248187.6214
        43.000          37.0004
 115034359.366 7                  21504427.653    21504428.071
        46.300
 137487588.236 7                  26162965.757
        42.800
 122399000.152 7  95199268.607 6  22905303.647    22905303.457    22905310.442
        46.000          41.000
 147645301.522 6                  28095967.988
        39.200
 138160383.618 6                  26291035.202
        38.900
 106152435.175 8  82563080.038 8  19851024.423    19851024.774    19851030.545
        53.300          48.100
 130831119.954 7 101757591.999 6  24491860.975    24491860.902    24491870.417
        42.500          38.400
 122032355.712 7  94914094.053 6  22804661.485    22804661.744    22804667.796
        46.100          41.600
 124576999.067 7  96893266.608 6  23370322.411    23370322.243    23370329.129
        44.200          40.700
 104754054.198 8  81475428.430 6  19596398.637    19596398.770    19596405.962
        48.500          41.400
 112948850.006 7  87849176.015 7  21092386.524    21092386.902    21092392.143
        46.900          46.700
 25  1  1  5 11 30.0000000  0 34E34G25E03E08S31S35G13E21E13S48S33R02
                                G12G20E15G23G05G11G26G18G06G29G15R23
                                E27R15E26E05R24R16R17R14R01R08
 146527714.910 6                  27883248.909
        37.600
 120528381.338 7  93918302.66146  22935763.954    22935762.9664   22935766.5384
        43.800          39.3004
 133421624.655 7                  25389277.275
        44.900
 136844218.770 7                  26040583.764
        43.300
 198979711.767 7                  37864575.306
        46.100
 200946774.690 7                  38238912.140
        44.900
 118037739.964 7  91977478.78944  22461829.639    22461829.0894   22461830.5434
        43.800          28.8004
 134842148.826 7                  25659591.762
        44.200
 127374936.166 8                  24238622.933
        48.200
 412876173.931 5                  78567868.210
        33.100
 202121921.608 7                  38462491.484
        45.100
 120745139.970 7  93912923.272 7  22627587.339    22627587.911    22627594.866
        46.600          42.700
 128640868.469 6 100239763.70245  24479499.063    24479498.5184   24479499.1334
        40.500          33.6004
 113225228.555 8  88227504.48246  21546019.275    21546017.9924   21546018.3464
        48.000          36.7004
 127320453.422 7                  24228238.773
        47.600
 133668734.915 6 104157458.37642  25436314.594    25436314.1924   25436315.5334
        36.700          16.4004
 105686981.895 8  82353543.88948  20111543.518    20111543.0494   20111542.5994
        50.900          53.4004
 119851110.007 7  93390576.45645  22806872.136    22806871.7434   22806872.5384
        44.200          32.2004
 132084226.802 6 102922800.29944  25134790.239    25134789.5604   25134794.0154
        37.200          28.7004
 126485242.103 7  98559930.41644  24069337.445    24069337.0254   24069338.9504
        42.200          27.7004
 135734472.877 5 105767257.42942  25829377.997    25829377.6224   25829383.2734
        30.900          17.7004
 110052524.334 8  85755253.26748  20942282.376    20942281.7284   20942281.8704
        49.400          49.6004
 122113376.106 7  95153292.21246  23237399.405    23237398.9494   23237401.3164
        42.700          36.8004
 115065419.012 7                  21510234.692    21510234.388
        46.500
 137528010.868 7                  26170658.159
        43.200
 122412517.223 7  95209781.854 6  22907833.127    22907833.729    22907840.446
        47.100          41.700
 147615411.923 6                  28090279.949
        38.000
 138185543.325 6                  26295822.723
        38.800
 106136001.851 8  82550298.557 7  19847951.401    19847951.392    19847957.302
        53.400          47.900
 130801080.424 6 101734227.900 6  24486236.277    24486236.370    24486246.721
        39.200          37.000
 121986139.635 7  94878148.227 7  22796025.072    22796025.319    22796031.684
        45.600          42.100
 124626179.792 7  96931518.271 6  23379547.679    23379547.522    23379556.171
        43.100          41.200
 104726704.986 8  81454156.817 6  19591282.564    19591282.675    19591289.804
        49.100          41.800
 112988105.721 7  87879708.249 7  21099717.416    21099717.479    21099723.051
        47.500          46.600
 25  1  1  5 11 45.0000000  0 34E34G25E03E08S31S35G13E21E13S48S33R02
                                G12G20E15G23G05G11G26G18G06G29G15R23
                                E27R15E26E05R24R16R17R14R01R08
 146557282.727 6                  27888875.512
        37.800
 120568788.456 7  93949788.69646  22943453.000    22943452.0034   22943455.5514
        44.300          39.0004
 133411906.549 7                  25387427.923
        44.900
 136803533.403 7                  26032841.309
        43.400
 198979701.810 7                  37864572.104
        46.200
 200946792.085 7                  38238914.876
        44.900
 117994323.370 7  91943647.67044  22453567.718    22453567.1684   22453568.6214
        43.700          28.4004
 134851500.403 7                  25661371.563
        44.300
 127360269.399 8                  24235831.783
        48.200
 412875946.425 5                  78567836.555
        33.400
 202121901.211 7                  38462492.490
        45.600
 120679378.645 7  93861775.587 7  22615263.036    22615263.726    22615271.325
        46.000          42.400
 128694352.436 6 100281439.50745  24489676.734    24489676.1804   24489676.4664
        40.400          33.2004
 113259981.745 7  88254584.90546  21552632.459    21552631.1724   21552631.6394
        47.400          36.4004
 127334440.467 7                  24230900.449
        47.500
 133618774.859 6 104118528.46142  25426806.807    25426806.4104   25426808.4124
        36.000          15.5004
 105694108.711 8  82359097.25048  20112899.645    20112899.1804   20112898.7844
        51.100          53.2004
 119884031.197 7  93416229.32845  22813136.629    22813136.2274   22813137.2104
        44.300          32.1004
 132062692.998 6 102906020.87644  25130692.035    25130691.3654   25130696.6004
        38.100          28.7004
 126446399.445 6  98529663.39944  24061945.973    24061945.5354   24061947.3634
        41.600          27.3004
 135774351.919 5 105798332.01143  25836967.115    25836966.7534   25836971.8314
        34.000          21.0004
 110025831.156 8  85734453.39448  20937202.668    20937202.0254   20937202.3124
        48.900          49.4004
 122056717.865 7  95109142.94146  23226618.174    23226617.7234   23226619.3984
        42.900          36.6004
 115096547.074 7                  21516053.409    21516053.628
        47.300
 137568467.922 7                  26178356.781
        43.000
 122426202.981 7  95220426.309 6  22910394.893    22910395.195    22910401.760
        46.500          41.700
 147585521.826 6                  28084591.784
        38.500
 138210786.312 6                  26300626.738
        38.500
 106119638.486 8  82537571.493 7  19844891.343    19844891.469    19844897.375
        53.400          47.700
 130771190.573 7 101710980.364 6  24480642.622    24480642.271    24480650.235
        42.000          36.800
 121939915.378 7  94842196.071 6  22787387.115    22787385.984    22787393.574
        45.900          41.900
 124675413.372 7  96969811.077 6  23388783.730    23388783.793    23388791.162
        42.600          40.600
 104699542.487 8  81433030.458 7  19586201.069    19586201.409    19586208.378
        49.000          42.000
 113027512.725 7  87910358.132 7  21107076.366    21107076.518    21107081.786
        47.300          46.200
 25  1  1  5 12  0.0000000  0 34E34G25E03E08S31S35G13E21E13S48S33R02
                                G12G20E15G23G05G11G26G18G06G29G15R23
                                E27R15E26E05R24R16R17R14R01R08
 146586850.239 6                  27894502.139
        37.100
 120609259.356 7  93981324.43946  22951154.255    22951153.2544   22951156.8884
        43.000          38.9004
 133402288.999 7                  25385598.093
        44.900
 136762883.293 7                  26025105.953
        42.900
 198979688.758 7                  37864570.512
        45.700
 200946806.650 7                  38238915.851
        44.300
 117950980.073 7  91909873.68944  22445319.944    22445319.3814   22445320.4994
        43.900          28.5004
 134860952.288 7                  25663170.250
        44.100
 127345619.765 8                  24233044.087
        48.100
 412875715.359 5                  78567806.975
        33.200
 202121877.945 7                  38462490.419
        45.200
 120613661.593 7  93810662.329 7  22602948.075    22602948.600    22602955.734
        45.600          42.500
 128747827.922 6 100323108.70145  24499852.075    24499851.5214   24499852.7794
        39.900          33.5004
 113294786.105 7  88281705.20046  21559255.517    21559254.2214   21559254.6714
        47.000          36.5004
 127348445.338 7                  24233565.422
        47.400
 133568833.861 5 104079613.50242  25417303.481    25417303.0574   25417304.9174
        35.500          16.2004
 105701352.363 8  82364741.64848  20114277.952    20114277.4874   20114277.2114
        50.700          53.2004
 119916981.277 7  93441904.71645  22819406.926    22819406.5244   22819407.3554
        43.600          32.0004
 132041274.064 6 102889330.84444  25126616.736    25126616.0614   25126620.3324
        36.400          27.8004
 126407562.310 6  98499400.68444  24054555.719    24054555.2774   24054556.7454
        41.500          27.5004
 135814230.028 5 105829405.80943  25844554.891    25844554.5114   25844560.6314
        34.100          22.0004
 109999241.030 8  85713733.82048  20932143.116    20932142.4774   20932142.4034
        48.500          49.6004
 122000083.629 7  95065012.38046  23215840.639    23215840.1794   23215842.3004
        43.500          36.9004
 115127741.853 7                  21521884.932    21521884.955
        46.400
 137608957.570 7                  26186061.658
        43.100
 122440055.434 7  95231200.437 6  22912987.316    22912987.426    22912993.813
        46.500          41.700
 147555629.523 6                  28078903.633
        38.400
 138236110.585 6                  26305445.824
        38.300
 106103343.810 8  82524897.851 8  19841844.224    19841844.260    19841850.170
        53.400          48.100
 130741448.282 7 101687847.155 6  24475074.983    24475074.829    24475083.387
        43.100          37.100
 121893681.546 7  94806236.428 7  22778747.125    22778747.319    22778754.233
        46.500          42.100
 124724697.678 7  97008143.300 6  23398028.435    23398029.145    23398037.633
        44.100          40.800
 104672565.584 8  81412048.426 6  19581154.584    19581154.485    19581161.736
        48.300          41.700
 113067068.988 7  87941124.136 7  21114462.740    21114463.312    21114468.768
        47.100          46.400
 25  1  1  5 12 15.0000000  0 33E34G25E03E08S31S35G13E21E13S48S33R02
                                G12G20E15G23G05G11G26G18G29G15R23E27
                                R15E26E05R24R16R17R14R01R08
 146616420.826 6                  27900129.312
        37.200
 120649796.909 7  94012912.11346  22958868.602    22958867.6014   22958871.0854
        43.400          39.2004
 133392775.390 7                  25383787.224
        44.800
 136722271.953 7                  26017377.960
        43.000
 198979675.427 7                  37864569.416
        46.100
 200946821.047 7                  38238918.838
        44.400
 117907713.683 7  91876159.62344  22437086.057    22437085.4584   22437087.0484
        43.700          28.7004
 134870507.668 7                  25664988.620
        44.000
 127330990.594 8                  24230260.351
        48.100
 412875483.663 5                  78567779.542
        32.800
 202121855.407 7                  38462486.829
        45.200
 120547992.293 7  93759586.223 7  22590642.402    22590642.422    22590648.845
        46.400          42.400
 128801297.720 6 100364773.47045  24510027.880    24510027.3304   24510028.2244
        40.800          34.0004
 113329644.707 7  88308867.76746  21565888.821    21565887.5294   21565887.9654
        47.700          36.4004
 127362471.362 7                  24236234.405
        47.500
 133518915.496 5 104040716.11242  25407804.298    25407803.8564   25407805.6084
        35.900          16.8004
 105708715.918 8  82370479.48048  20115679.127    20115678.6674   20115678.4614
        50.900          53.3004
 119949963.544 7  93467605.18145  22825683.287    22825682.8944   22825683.6534
        44.300          32.3004
 132019973.834 6 102872733.29544  25122563.245    25122562.5754   25122566.8734
        37.400          27.4004
 126368734.122 6  98469144.94744  24047166.678    24047166.2404   24047168.0064
        41.500          27.5004
 109972757.391 8  85693097.22748  20927103.502    20927102.8684   20927102.7554
        49.300          49.7004
 121943477.484 7  95020903.70246  23205068.927    23205068.4544   23205070.4434
        42.900          36.9004
 115159006.692 7                  21527729.663    21527729.473
        46.900
 137649482.887 7                  26193772.938
        42.600
 122454077.534 7  95242106.498 6  22915610.988    22915611.665    22915617.372
        47.400          41.400
 147525738.368 6                  28073215.656
        38.400
 138261519.595 6                  26310280.614
        37.800
 106087121.413 8  82512280.414 7  19838810.420    19838810.760    19838816.612
        53.100          47.700
 130711858.606 6 101664833.045 6  24469534.735    24469534.555    24469543.391
        41.300          36.200
 121847441.539 7  94770271.987 7  22770105.953    22770106.141    22770112.501
        46.800          42.400
 124774035.374 7  97046517.035 6  23407285.842    23407285.395    23407292.778
        43.600          40.600
 104645777.638 8  81391213.366 6  19576143.648    19576143.549    19576150.657
        48.900          41.500
 113106777.669 7  87972008.649 7  21121877.822    21121878.492    21121883.983
        47.600          46.300
 25  1  1  5 12 30.0000000  0 33E34G25E03E08S31S35G13E21E13S48S33R02
                                G12G20E15G23G05G11G26G18G29G15R23E27
                                R15E26E05R24R16R17R14R01R08
 146645998.482 6                  27905757.612
        37.000
 120690404.712 7  94044554.53646  22966595.865    22966594.8644   22966598.6894
        43.600          39.2004
 133383369.756 7                  25381997.469
        44.600
 136681703.579 7                  26009657.994
        43.000
 198979666.264 7                  37864562.897
        45.500
 200946839.256 7                  38238916.030
        44.200
 117864528.497 7  91842508.82844  22428868.672    22428868.0784   22428869.0424
        43.700          28.8004
 134880170.396 7                  25666827.088
        44.100
 127316385.777 7                  24227481.094
        47.900
 412875255.829 5                  78567750.951
        32.200
 202121834.651 7                  38462480.175
        45.300
 120482375.264 7  93708550.762 7  22578345.731    22578346.408    22578352.670
        47.000          42.400
 128854765.349 6 100406436.53545  24520202.024    24520201.4704   24520202.8244
        40.100          33.5004
 113364561.347 7  88336075.55746  21572533.156    21572531.8644   21572532.3764
        47.200          36.5004
 127376522.516 7                  24238908.491
        47.300
 133469023.800 6 104001839.53142  25398310.943    25398310.5144   25398311.7984
        36.200          17.0004
 105716202.804 8  82376313.41048  20117103.942    20117103.4774   20117103.1874
        51.100          53.3004
 119982981.927 7  93493333.77945  22831966.394    22831965.9974   22831966.8644
        43.800          32.2004
 131998796.372 6 102856231.49844  25118533.168    25118532.4894   25118537.2214
        36.400          27.9004
 126329918.814 6  98438899.24344  24039780.437    24039779.9814   24039781.7224
        41.400          27.6004
 109946384.626 8  85672547.01948  20922084.747    20922084.1174   20922084.1814
        49.000          49.8004
 121886903.690 7  94976820.23846  23194303.532    23194303.0724   23194304.8554
        42.300          37.0004
 115190345.634 7                  21533588.358    21533588.153
        46.600
 137690047.520 7                  26201492.539
        42.500
 122468273.288 7  95253147.610 6  22918267.220    22918267.567    22918274.553
        47.000          41.500
 147495852.244 6                  28067528.297
        37.800
 138287016.822 6                  26315133.376
        38.100
 106070975.524 8  82499722.511 8  19835791.096    19835791.311    19835797.078
        53.000          48.000
 130682425.146 7 101641940.476 6  24464024.760    24464024.738    24464032.639
        42.600          38.400
 121801199.578 7  94734306.034 7  22761464.729    22761464.681    22761471.542
        45.700          42.400
 124823429.992 7  97084935.079 6  23416551.841    23416551.813    23416558.856
        44.400          41.000
 104619183.131 8  81370528.767 6  19571168.196    19571168.561    19571175.646
        48.800          41.900
 113146642.113 8  88003014.337 7  21129322.588    21129323.319    21129328.104
        48.000          46.100
 25  1  1  5 12 45.0000000  0 33E34G25E03E08S31S35G13E21E13S48S33R02
                                G12G20E15G23G05G11G26G18G29G15R23E27
                                R15E26E05R24R16R17R14R01R08
 146675575.504 6                  27911385.912
        36.400
 120731074.677 7  94076245.39646  22974335.025    22974334.0154   22974337.9004
        43.200          39.0004
 133374064.509 7                  25380226.929
        44.700
 136641170.702 7                  26001944.849
        43.400
 198979653.310 7                  37864566.282
        46.000
 200946854.140 7                  38238930.433
        44.200
 117821417.274 7  91808915.66544  22420665.074    22420664.4804   22420665.3854
        43.600          28.6004
 134889932.731 7                  25668684.731
        44.000
 127301797.629 8                  24224705.090
        48.000
 412875024.884 5                  78567724.344
        32.300
 202121812.798 7                  38462473.181
        45.400
 120416803.106 7  93657550.201 7  22566056.807    22566057.812    22566064.714
        47.200          42.500
 128908222.776 6 100448091.67045  24530374.730    24530374.1584   24530375.2204
        40.500          33.3004
 113399528.009 7  88363322.33046  21579187.368    21579186.0764   21579186.3384
        47.100          36.3004
 127390591.079 7                  24241585.557
        47.200
 133419151.189 5 103962977.83042  25388820.691    25388820.2404   25388821.0084
        35.900          16.8004
 105723805.707 8  82382237.73948  20118550.698    20118550.2254   20118549.9724
        51.000          53.1004
 120016028.756 7  93519084.55245  22838255.141    22838254.7394   22838255.4904
        44.700          32.1004
 131977733.911 6 102839819.20444  25114525.373    25114524.6764   25114529.1854
        38.300          27.8004
 126291108.747 7  98408657.62544  24032395.448    24032395.0064   24032396.4934
        42.100          27.4004
 109920115.189 8  85652077.33848  20917085.920    20917085.2864   20917085.2884
        49.500          49.7004
 121830354.743 7  94932756.13846  23183542.304    23183541.8534   23183543.8964
        42.700          36.8004
 115221751.200 7                  21539459.530    21539459.344
        46.900
 137730643.573 7                  26209217.572
        42.800
 122482634.472 7  95264317.420 6  22920955.271    22920955.446    22920961.193
        47.500          41.300
 147465963.458 6                  28061840.718
        38.100
 138312594.606 6                  26319999.479
        38.100
 106054898.529 8  82487218.194 8  19832784.385    19832784.762    19832790.613
        53.200          48.000
 130653140.337 7 101619163.451 6  24458542.561    24458543.025    24458551.812
        42.300          38.300
 121754947.811 7  94698332.423 7  22752820.584    22752820.896    22752827.793
        46.000          42.100
 124872873.103 7  97123390.830 6  23425827.000    23425828.091    23425834.276
        44.600          40.800
 104592774.202 8  81349988.506 6  19566228.247    19566228.133    19566235.424
        49.300          41.800
 113186654.082 7  88034134.751 7  21136794.364    21136795.136    21136800.377
        47.800          45.800
 25  1  1  5 13  0.0000000  0 33E34G25E03E08S31S35G13E21E13S48S33R02
                                G12G20E15G23G05G11G26G18G29G15R23E27
                                R15E26E05R24R16R17R14R01R08
 146705160.460 6                  27917015.997
        36.600
 120771814.900 7  94107990.99846  22982087.328    22982086.3314   22982090.5044
        43.900          39.1004
 133364868.250 7                  25378476.830
        44.900
 136600682.194 7                  25994239.952
        43.200
 198979645.137 7                  37864559.391
        45.600
 200946873.681 7                  38238931.336
        44.400
 117778389.159 7  91775387.29844  22412476.810    22412476.2204   22412477.4194
        44.300          28.8004
 134899803.025 7                  25670563.319
        44.100
 127287234.639 7                  24221933.820
        47.800
 412874798.698 5                  78567694.130
        32.200
 202121794.984 7                  38462472.488
        44.600
 120351285.215 7  93606591.869 7  22553779.162    22553779.215    22553786.765
        46.300          42.100
 128961678.558 6 100489745.50945  24540547.004    24540546.4234   24540547.2314
        40.800          33.3004
 113434552.864 7  88390614.40946  21585852.087    21585850.8004   21585851.3234
        47.700          36.2004
 127404685.616 7                  24244267.535
        47.200
 133369306.331 5 103924137.73042  25379335.234    25379334.7924   25379335.8824
        35.000          15.4004
 105731532.799 8  82388258.84148  20120021.214    20120020.7414   20120020.3934
        51.000          53.0004
 120049112.527 7  93544864.11945  22844551.069    22844550.6764   22844551.0294
        44.500          32.0004
 131956795.216 6 102823503.37344  25110541.012    25110540.3104   25110544.6524
        38.600          28.0004
 126252312.434 7  98378426.72944  24025012.781    24025012.3484   24025013.6254
        42.200          27.3004
 109893957.884 8  85631695.02648  20912108.300    20912107.6664   20912107.7194
        49.300          49.8004
 121773839.601 7  94888718.38946  23172788.176    23172787.7254   23172789.4474
        43.300          37.0004
 115253231.817 7                  21545344.478    21545344.334
        47.300
 137771279.263 7                  26216950.303
        42.500
 122497169.462 7  95275622.418 6  22923675.399    22923675.463    22923682.046
        46.100          41.300
 147436080.464 6                  28056154.186
        37.800
 138338261.339 6                  26324884.168
        38.200
 106038899.090 8  82474774.207 7  19829792.581    19829792.763    19829798.597
        53.000          47.900
 130624012.862 6 101596508.632 6  24453089.063    24453089.408    24453098.248
        40.300          36.600
 121708695.160 7  94662358.157 7  22744177.781    22744178.099    22744184.616
        46.500          42.400
 124922372.918 7  97161890.681 6  23435112.149    23435113.018    23435119.980
        43.400          40.300
 104566560.048 8  81329599.725 7  19561323.805    19561324.271    19561331.356
        48.900          42.100
 113226821.819 7  88065376.345 7  21144295.961    21144296.305    21144301.551
        47.800          45.900
 25  1  1  5 13 15.0000000  0 33E34G25E03E08S31S35G13E21E13S48S33R02
                                G12G20E15G23G05G11G26G18G29G15R23E27
                                R15E26E05R24R16R17R14R01R08
 146734744.521 6                  27922645.686
        36.900
 120812616.144 7  94139784.14946  22989851.829    22989850.8374   22989854.6504
        43.700          38.9004
 133355772.172 7                  25376745.911
        44.900
 136560229.449 7                  25986542.292
        43.400
 198979632.881 7                  37864559.780
        46.100
 200946888.239 7                  38238935.267
        44.500
 117735435.521 7  91741916.96644  22404302.614    22404302.0154   22404303.5894
        43.600          28.4004
 134909772.342 7                  25672460.237
        44.300
 127272687.929 8                  24219165.763
        48.300
 412874568.652 5                  78567667.532
        32.900
 202121772.271 7                  38462464.417
        44.700
 120285812.846 7  93555668.917 7  22541509.495    22541509.848    22541516.995
        46.300          42.100
 129015123.087 6 100531390.58145  24550717.018    24550716.4194   24550717.3384
        40.600          32.7004
 113469627.079 7  88417944.97946  21592526.306    21592525.0054   21592525.6854
        47.700          36.0004
 127418797.238 7                  24246952.971
        47.600
 133319480.615 6 103885312.56842  25369852.893    25369852.4284   25369854.4194
        36.700          16.7004
 105739374.781 8  82394369.46348  20121513.588    20121513.1194   20121512.6854
        51.000          52.8004
 120082224.306 7  93570665.50445  22850851.537    22850851.1484   22850852.0424
        44.600          31.8004
 131935971.488 6 102807277.07944  25106577.994    25106577.2884   25106581.9144
        37.800          27.6004
 126213521.042 6  98348199.64844  24017631.258    24017630.8114   24017631.8484
        40.700          27.1004
 109867904.172 8  85611393.43748  20907150.452    20907149.8184   20907149.8794
        49.400          49.5004
 121717349.796 7  94844700.37146  23162038.275    23162037.8284   23162039.8184
        43.200          36.9004
 115284778.430 7                  21551241.078    21551241.300
        46.500
 137811945.513 7                  26224689.097
        42.800
 122511868.935 7  95287055.309 6  22926425.273    22926425.922    22926432.514
        46.500          41.400
 147406194.361 6                  28050467.189
        37.700
 138364008.031 6                  26329783.629
        38.900
 106022968.744 8  82462383.934 8  19826813.568    19826813.826    19826819.616
        53.400          48.000
 130595034.632 7 101573970.064 6  24447665.705    24447665.625    24447674.317
        42.800          37.600
 121662432.955 7  94626376.498 7  22735532.000    22735532.311    22735540.021
        46.400          42.200
 124971919.622 7  97200426.990 6  23444408.393    23444407.844    23444415.513
        43.200          41.000
 104540531.759 8  81309355.513 6  19556455.018    19556455.063    19556462.175
        48.800          41.900
 113267136.045 7  88096731.877 7  21151824.350    21151824.421    21151829.827
        47.400          46.000
 25  1  1  5 13 30.0000000  0 33E34G25E03E08S31S35G13E21E13S48S33R02
                                G12G20E15G23G05G11G26G18G29G15R23E27
                                R15E26E05R24R16R17R14R01R08
 146764332.418 6                  27928275.919
        37.800
 120853482.729 7  94171628.21546  22997628.534    22997627.5334   22997631.5304
        44.100          39.1004
 133346781.112 7                  25375035.010
        45.100
 136519817.392 7                  25978851.757
        43.400
 198979621.794 7                  37864551.320
        45.800
 200946905.066 7                  38238935.030
        44.300
 117692561.586 7  91708508.74744  22396144.421    22396143.8184   22396145.0064
        43.800          28.8004
 134919845.329 7                  25674377.074
        44.000
 127258162.230 8                  24216401.519
        48.000
 412874339.141 5                  78567642.245
        32.600
 202121751.680 7                  38462459.887
        45.400
 120220391.301 7  93504785.498 7  22529249.668    22529250.684    22529257.045
        46.700          42.500
 129068560.964 6 100573030.48145  24560885.921    24560885.3274   24560885.9824
        41.100          33.0004
 113504755.062 7  88445317.45646  21599211.253    21599209.9524   21599210.3094
        47.300          36.0004
 127432930.719 7                  24249642.328
        47.300
 133269678.762 6 103846505.97542  25360376.227    25360375.7454   25360377.2404
        36.500          16.0004
 105747336.417 8  82400573.32948  20123028.543    20123028.0704   20123027.7384
        50.900          52.9004
 120115368.804 7  93596492.38845  22857159.123    22857158.7304   22857159.1094
        44.900          32.0004
 131915267.805 6 102791144.32344  25102638.353    25102637.6434   25102641.9234
        38.100          27.3004
 126174739.285 6  98317980.09544  24010251.468    24010251.0264   24010252.1774
        41.900          27.2004
 109841959.171 8  85591176.56148  20902213.308    20902212.6744   20902212.7074
        49.300          49.7004
 121660890.326 7  94800706.00046  23151294.306    23151293.8594   23151295.8604
        42.800          36.9004
 115316396.086 7                  21557151.661    21557152.030
        47.100
 137852646.746 7                  26232434.015
        42.800
 122526737.596 7  95298619.806 6  22929209.232    22929208.465    22929215.514
        46.500          41.500
 147376309.844 6                  28044779.649
        37.500
 138389838.873 6                  26334699.134
        38.200
 106007112.409 8  82450051.253 8  19823848.350    19823848.658    19823854.331
        53.200          48.000
 130566210.693 6 101551551.650 6  24442267.632    24442268.587    24442278.290
        41.900          38.900
 121616165.720 7  94590390.860 7  22726886.000    22726886.634    22726892.811
        46.700          42.300
 125021517.733 7  97239003.312 6  23453711.822    23453712.061    23453719.265
        43.500          40.200
 104514694.425 8  81289259.812 6  19551621.629    19551621.659    19551628.802
        48.800          41.800
 113307600.779 7  88128204.480 7  21159381.040    21159381.096    21159386.047
        47.700          45.700
 25  1  1  5 13 45.0000000  0 33E34G25E03E08S31S35G13E21E13S48S33R02
                                G12G20E15G23G05G11G26G18G29G15R23E27
                                R15E26E05R24R16R17R14R01R08
 146793923.309 6                  27933906.974
        36.900
 120894413.324 7  94203522.16346  23005417.544    23005416.5434   23005420.5424
        43.400          39.2004
 133337894.200 7                  25373343.632
        45.100
 136479445.344 7                  25971169.426
        43.500
 198979610.080 7                  37864558.103
        46.000
 200946920.558 7                  38238933.769
        44.600
 117649766.761 7  91675162.17644  22388000.584    22387999.9944   22388001.3054
        43.900          28.6004
 134930020.931 7                  25676313.324
        44.100
 127243656.634 8                  24213641.143
        48.000
 412874108.868 5                  78567618.170
        33.100
 202121729.455 7                  38462460.044
        45.200
 120155020.122 7  93453941.273 7  22516998.872    22516999.458    22517006.597
        46.200          42.500
 129121990.918 6 100614664.19745  24571053.542    24571052.9524   24571053.8264
        39.900          33.3004
 113539935.578 7  88472730.86446  21605905.825    21605904.5204   21605904.8914
        47.700          36.0004
 127447085.112 7                  24252335.832
        47.400
 133219900.096 6 103807717.44542  25350903.238    25350902.7474   25350904.4704
        36.500          15.9004
 105755416.765 8  82406869.69648  20124566.224    20124565.7514   20124565.3824
        50.900          52.7004
 120148545.070 7  93622344.02445  22863472.092    22863471.6994   22863472.3654
        44.200          31.8004
 131894683.162 6 102775104.37444  25098720.663    25098719.9614   25098724.6434
        39.000          28.2004
 126135966.319 6  98287767.38144  24002872.426    24002871.9794   24002873.8354
        41.400          27.3004
 109816122.132 8  85571043.80948  20897296.686    20897296.0564   20897296.0644
        49.300          49.6004
 121604460.696 7  94756734.87746  23140556.286    23140555.8574   23140557.4644
        42.200          36.8004
 115348083.816 7                  21563075.297    21563075.659
        46.500
 137893381.794 7                  26240185.802
        42.500
 122541774.051 7  95310314.796 6  22932021.837    22932022.426    22932029.318
        47.100          41.500
 147346425.911 6                  28039093.302
        37.800
 138415753.031 6                  26339630.636
        38.100
 105991329.264 8  82437775.479 8  19820896.550    19820896.917    19820902.841
        52.800          48.100
 130537540.493 6 101529252.885 6  24436902.194    24436901.271    24436910.362
        40.600          38.700
 121569892.826 7  94554400.843 7  22718238.676    22718239.200    22718246.853
        47.200          42.900
 125071165.656 7  97277618.336 6  23463026.507    23463026.527    23463033.230
        44.600          40.000
 104489047.460 8  81269312.175 6  19546823.959    19546823.818    19546831.078
        48.800          41.900
 113348214.715 7  88159793.110 7  21166964.860    21166965.447    21166970.469
        47.600          45.700
 25  1  1  5 14  0.0000000  0 33E34G25E03E08S31S35G13E21E13S48S33R02
                                G12G20E15G23G05G11G26G18G29G15R23E27
                                R15E26E05R24R16R17R14R01R08
 146823517.373 6                  27939538.558
        37.100
 120935407.752 7  94235465.84946  23013218.398    23013217.4014   23013221.5474
        43.100          39.2004
 133329111.735 7                  25371672.497
        44.800
 136439113.817 7                  25963494.447
        43.700
 198979597.917 7                  37864552.880
        46.000
 200946936.265 7                  38238947.220
        44.400
 117607051.658 7  91641877.71444  22379872.560    22379871.9664   22379872.7984
        43.100          28.7004
 134940299.286 7                  25678269.258
        44.400
 127229171.311 8                  24210884.717
        48.100
 412873877.430 5                  78567576.012
        32.300
 202121707.689 7                  38462452.518
        45.200
 120089700.070 7  93403136.787 7  22504758.335    22504758.481    22504765.521
        46.900          42.600
 129175412.550 6 100656291.42045  24581219.513    24581218.9104   24581220.1004
        40.200          33.2004
 113575168.543 7  88500185.13146  21612610.312    21612608.9984   21612609.5624
        47.400          36.0004
 127461260.624 7                  24255033.365
        47.100
 133170144.977 6 103768947.28342  25341435.265    25341434.8054   25341436.5114
        36.000          17.2004
 105763615.719 8  82413258.48748  20126126.512    20126126.0394   20126125.5944
        50.800          52.8004
 120181753.303 7  93648220.56345  22869791.728    22869791.3534   22869791.5864
        44.800          32.1004
 131874217.200 6 102759156.51644  25094826.932    25094826.2484   25094830.0744
        38.300          28.6004
 126097202.349 6  98257561.68644  23995496.152    23995495.7014   23995497.4154
        40.900          27.1004
 109790393.459 8  85550995.49748  20892400.665    20892400.0314   20892400.0624
        49.200          49.8004
 121548061.486 7  94712787.45946  23129823.890    23129823.4614   23129825.1004
        42.600          37.2004
 115379841.559 7                  21569012.073    21569012.458
        46.600
 137934150.631 7                  26247944.005
        42.400
 122556978.415 8  95322140.401 6  22934867.016    22934868.524    22934874.433
        48.200          41.400
 147316542.820 6                  28033407.177
        37.400
 138441750.579 6                  26344577.655
        38.600
 105975619.794 8  82425557.013 8  19817959.271    19817959.196    19817965.311
        53.000          48.000
 130509024.074 6 101507073.695 6  24431562.955    24431563.813    24431571.772
        41.700          38.000
 121523614.414 7  94518406.483 6  22709590.630    22709591.462    22709597.425
        47.200          41.800
 125120862.901 7  97316271.759 6  23472349.554    23472349.976    23472356.666
        44.000          40.400
 104463591.382 8  81249513.003 6  19542061.615    19542061.643    19542068.983
        48.800          41.700
 113388977.713 8  88191497.669 7  21174577.273    21174577.852    21174582.762
        48.000          45.600
 25  1  1  5 14 15.0000000  0 33E34G25E03E08S31S35G13E21E13S48S33R02
                                G12G20E15G23G05G11G26G18G29G15R23E27
                                R15E26E05R24R16R17R14R01R08
 146853115.313 6                  27945170.921
        36.400
 120976466.262 7  94267459.47046  23021031.583    23021030.5954   23021034.6704
        43.600          39.2004
 133320434.442 7                  25370021.302
        44.500
 136398823.663 7                  25955827.292
        43.200
 198979587.130 7                  37864552.473
        45.700
 200946951.974 7                  38238933.841
        44.200
 117564417.284 7  91608656.15544  22371759.297    22371758.7074   22371759.6124
        44.000          28.9004
 134950680.931 7                  25680245.131
        43.900
 127214706.915 7                  24208132.108
        47.900
 412875246.882 5                  78567554.123
        33.000
 202121686.408 7                  38462453.551
        45.100
 120024432.128 7  93352372.852 7  22492526.902    22492527.135    22492534.538
        46.300          42.600
 129228826.298 6 100697912.52545  24591384.224    24591383.6344   24591383.9864
        40.200          33.0004
 113610454.427 7  88527680.61045  21619324.865    21619323.5464   21619324.1724
        47.200          35.9004
 127475457.906 7                  24257735.084
        46.900
 133120414.173 6 103730196.06642  25331972.133    25331971.6774   25331972.9844
        36.300          16.8004
 105771933.623 8  82419739.96148  20127709.020    20127708.5334   20127708.4324
        50.600          52.7004
 120214994.141 7  93674122.52145  22876116.896    22876116.5074   22876117.2684
        44.700          31.9004
 131853872.407 6 102743303.41944  25090955.604    25090954.9074   25090958.9324
        39.200          29.3004
 126058448.067 6  98227363.54244  23988121.114    23988120.6414   23988122.7124
        41.600          27.1004
 109764774.226 8  85531032.45948  20887525.320    20887524.6864   20887524.8894
        49.300          49.8004
 121491693.720 7  94668864.54346  23119096.712    23119096.2884   23119098.6844
        43.200          37.0004
 115411670.436 7                  21574962.322    21574962.471
        47.000
 137974953.625 7                  26255708.249
        42.000
 122572351.080 7  95334096.919 6  22937744.287    22937745.124    22937751.041
        47.400          41.200
 147286661.139 6                  28027721.160
        38.500
 138467831.849 6                  26349540.854
        38.300
 105959984.884 8  82413396.540 8  19815035.203    19815035.483    19815041.442
        52.700          48.100
 130480662.208 7 101485014.691 6  24426253.521    24426254.177    24426262.458
        43.400          39.200
 121477331.670 7  94482408.810 7  22700941.842    22700942.499    22700948.752
        47.500          42.200
 125170609.707 7  97354963.735 6  23481682.258    23481681.586    23481688.303
        43.900          39.500
 104438326.666 8  81229862.678 6  19537335.706    19537335.514    19537342.594
        48.600          41.900
 113429889.878 7  88223318.263 7  21182216.921    21182217.440    21182223.048
        47.200          45.700
 25  1  1  5 14 30.0000000  0 33E34G25E03E08S31S35G13E21E13S48S33R02
                                G12G20E15G23G05G11G26G18G29G15R23E27
                                R15E26E05R24R16R17R14R01R08
 146882717.099 6                  27950803.774
        37.100
 121017588.450 7  94299502.70946  23028857.195    23028856.2034   23028859.8934
        43.000          39.2004
 133311862.363 7                  25368390.049
        44.900
 136358575.047 7                  25948168.305
        43.300
 198979576.725 7                  37864549.518
        46.100
 200946968.802 7                  38238941.800
        44.500
 117521864.126 7  91575497.86944  22363661.625    22363661.0174   22363661.9234
        43.700          28.9004
 134961165.753 7                  25682240.123
        44.100
 127200263.417 8                  24205383.749
        48.000
 412875017.697 5                  78567520.608
        32.400
 202121666.256 7                  38462444.688
        45.000
 119959217.052 7  93301650.000 7  22480304.924    22480306.191    22480312.757
        46.500          42.500
 129282231.952 6 100739527.31145  24601546.623    24601546.0384   24601547.0184
        40.600          33.4004
 113645793.095 7  88555217.24545  21626049.716    21626048.3934   21626048.8134
        47.300          35.9004
 127489676.998 7                  24260440.948
        47.300
 133070707.802 6 103691463.87442  25322512.932    25322512.4904   25322514.0004
        36.500          16.5004
 105780370.366 8  82426314.05148  20129314.823    20129314.3414   20129313.8874
        50.800          52.8004
 120248267.517 7  93700049.82545  22882448.957    22882448.5684   22882448.9384
        44.400          32.0004
 131833648.575 6 102727544.91144  25087106.507    25087105.8194   25087110.8014
        39.700          29.4004
 126019703.479 6  98197172.94044  23980748.776    23980748.2984   23980749.7264
        41.500          27.2004
 109739264.624 8  85511154.85348  20882670.962    20882670.3234   20882670.5764
        49.300          49.9004
 121435357.866 7  94624966.50746  23108376.641    23108376.2214   23108378.2774
        42.900          37.1004
 115443570.210 7                  21580925.702    21580926.341
        47.100
 138015790.499 7                  26263479.292
        42.700
 122587891.643 7  95346184.015 6  22940652.390    22940652.953    22940659.000
        47.100          41.300
 147256780.823 6                  28022034.353
        38.800
 138493996.828 6                  26354519.430
        37.400
 105944424.671 8  82401294.181 8  19812125.461    19812125.638    19812131.378
        52.800          48.200
 130452455.899 7 101463076.811 6  24420973.065    24420972.690    24420981.669
        43.000          38.700
 121431044.550 7  94446407.739 7  22692292.237    22692292.329    22692298.640
        47.000          42.000
 125220405.416 7  97393693.736 6  23491021.935    23491022.770    23491030.792
        43.100          40.200
 104413254.100 8  81210361.789 6  19532644.848    19532644.952    19532652.274
        48.700          41.800
 113470950.724 7  88255254.477 7  21189885.372    21189885.683    21189890.405
        47.600          45.300
 25  1  1  5 14 45.0000000  0 33E34G25E03E08S31S35G13E21E13S48S33R02
                                G12G20E15G23G05G11G26G18G29G15R23E27
                                R15E26E05R24R16R17R14R01R08
 146912320.709 6                  27956436.908
        36.800
 121058771.814 7  94331593.62046  23036693.883    23036692.8734   23036696.9984
        43.700          39.5004
 133303393.514 7                  25366778.639
        44.700
 136318366.263 7                  25940516.789
        43.200
 198979564.079 7                  37864546.835
        46.000
 200946984.056 7                  38238953.127
        44.400
 117479390.598 7  91542401.63744  22355579.140    22355578.5234   22355579.4434
        43.900          29.0004
 134971751.524 7                  25684254.473
        43.900
 127185838.669 7                  24202638.644
        47.700
 412874786.489 5                  78567499.560
        33.100
 202121643.957 7                  38462444.679
        45.200
 119894052.915 7  93250966.803 7  22468093.681    22468094.051    22468101.793
        47.100          43.200
 129335626.851 6 100781133.70645  24611707.788    24611707.1894   24611708.1994
        40.100          33.5004
 113681182.103 7  88582793.11245  21632783.964    21632782.6504   21632783.1934
        46.900          35.9004
 127503915.781 7                  24263150.423
        47.000
 133021023.922 6 103652749.21442  25313058.169    25313057.7364   25313059.7734
        36.500          16.1004
 105788923.462 8  82432978.79548  20130942.233    20130941.7514   20130941.4914
        50.700          52.8004
 120281571.310 7  93726000.83445  22888786.268    22888785.8754   22888786.3544
        44.900          32.0004
 131813543.029 6 102711878.58244  25083280.508    25083279.8384   25083284.7434
        38.600          29.3004
 125980966.476 6  98166988.24944  23973377.712    23973377.2304   23973378.4714
        41.600          27.4004
 109713862.660 8  85491361.12148  20877837.270    20877836.6274   20877836.7484
        49.100          50.0004
 121379052.010 7  94581091.83346  23097662.884    23097662.4694   23097663.5904
        42.400          37.2004
 115475538.801 7                  21586901.741    21586901.775
        46.400
 138056658.879 7                  26271256.201
        42.400
 122603597.694 7  95358399.813 6  22943592.135    22943592.258    22943598.631
        47.300          41.300
 147226899.720 6                  28016348.430
        37.800
 138520243.121 6                  26359514.168
        36.600
 105928937.325 8  82389248.480 8  19809229.143    19809229.457    19809235.085
        52.900          48.200
 130424402.703 7 101441257.889 6  24415721.167    24415721.811    24415729.842
        42.700          39.600
 121384750.973 7  94410401.655 7  22683641.443    22683640.870    22683648.666
        46.100          43.100
 125270247.590 7  97432459.845 6  23500373.991    23500373.340    23500380.843
        42.800          40.200
 104388371.434 8  81191008.592 6  19527990.209    19527990.243    19527997.391
        48.600          41.500
 113512157.796 7  88287304.409 7  21197580.377    21197580.612    21197585.728
        47.600          45.200
 25  1  1  5 15  0.0000000  0 33E34G25E03E08S31S35G13E21E13S48S33R02
                                G12G20E15G23G05G11G26G18G29G15R23E27
                                R15E26E05R24R16R17R14R01R08
 146941929.314 6                  27962071.693
        37.400
 121100019.158 7  94363734.38046  23044542.987    23044542.0044   23044546.2694
        43.700          39.4004
 133295031.125 7                  25365187.037
        44.700
 136278200.618 7                  25932873.584
        43.500
 198979554.113 7                  37864548.440
        45.800
 200947000.972 7                  38238953.247
        44.400
 117437000.028 7  91509370.05544  22347512.132    22347511.5294   22347512.8294
        43.900          28.9004
 134982441.368 7                  25686288.884
        44.100
 127171435.915 7                  24199898.078
        47.800
 412874556.401 5                  78567476.554
        33.100
 202121623.635 7                  38462439.152
        45.000
 119828943.617 7  93200326.240 7  22455892.319    22455892.978    22455899.151
        47.300          42.500
 129389013.909 6 100822734.00145  24621866.491    24621865.8794   24621867.3194
        40.400          33.1004
 113716624.432 7  88610410.52245  21639528.758    21639527.4574   21639527.6884
        47.400          35.7004
 127518177.460 7                  24265864.299
        46.900
 132971365.912 6 103614054.68942  25303609.353    25303608.9244   25303610.0954
        37.100          16.7004
 105797596.231 8  82439736.79448  20132592.599    20132592.1174   20132591.8604
        50.700          52.6004
 120314908.691 7  93751978.01445  22895129.966    22895129.5734   22895130.2774
        45.300          31.9004
 131793559.009 6 102696306.75944  25079477.430    25079476.7554   25079481.5704
        38.800          29.3004
 125942240.335 7  98136812.02944  23966007.960    23966007.4694   23966008.9564
        42.100          27.1004
 109688571.884 8  85471654.02148  20873024.746    20873024.1074   20873024.0744
        49.400          49.9004
 121322779.802 7  94537243.38746  23086953.925    23086953.5054   23086955.4714
        42.900          37.3004
 115507579.441 7                  21592891.251    21592891.710
        46.900
 138097561.748 7                  26279040.053
        42.200
 122619472.224 7  95370746.648 6  22946561.960    22946562.891    22946569.827
        47.000          41.600
 147197021.041 6                  28010662.302
        37.900
 138546573.460 6                  26364525.151
        36.800
 105913526.336 8  82377262.162 8  19806347.189    19806347.331    19806353.362
        52.600          48.100
 130396505.791 7 101419560.462 6  24410498.148    24410498.438    24410507.689
        42.600          38.700
 121338454.368 7  94374393.233 7  22674989.766    22674990.324    22674996.054
        46.800          42.600
 125320138.682 7  97471264.027 6  23509733.609    23509732.665    23509739.650
        44.100          39.800
 104363682.059 8  81171805.757 6  19523371.469    19523371.455    19523378.817
        48.600          41.800
 113553513.637 7  88319470.079 7  21205303.008    21205303.493    21205308.757
        47.600          45.300
 25  1  1  5 15 15.0000000  0 33E34G25E03E08S31S35G13E21E13S48S33R02
                                G12G20E15G23G05G11G26G18G29G15R23E27
                                R15E26E05R24R16R17R14R01R08
 146971540.018 6                  27967705.931
        36.200
 121141327.068 7  94395922.33946  23052403.910    23052402.9224   23052406.7024
        43.700          39.5004
 133286772.309 7                  25363615.532
        44.800
 136238075.421 7                  25925238.050
        43.200
 198979542.398 7                  37864544.858
        45.500
 200947016.585 7                  38238960.554
        44.200
 117394689.525 7  91476400.86944  22339460.954    22339460.3604   22339461.3864
        44.500          29.2004
 134993232.179 7                  25688341.869
        44.000
 127157052.147 7                  24197160.893
        47.800
 412874326.007 5                  78567451.262
        33.200
 202121601.247 7                  38462433.241
        44.700
 119763886.636 7  93149726.396 7  22443700.906    22443701.117    22443708.386
        47.000          43.200
 129442389.796 6 100864325.60245  24632023.646    24632023.0434   24632023.6934
        40.200          33.1004
 113752116.922 7  88638067.03346  21646282.651    21646281.3464   21646281.6044
        47.400          36.0004
 127532459.063 7                  24268581.994
        47.100
 132921730.901 6 103575378.09342  25294163.721    25294163.2884   25294164.6284
        36.800          17.6004
 105806385.450 8  82446585.52848  20134265.183    20134264.7014   20134264.3854
        50.700          52.8004
 120348276.679 7  93777979.04845  22901480.052    22901479.6684   22901480.0664
        44.600          32.1004
 131773694.065 6 102680827.90145  25075696.688    25075696.0274   25075701.3184
        39.300          30.5004
 125903522.051 6  98106641.93544  23958639.835    23958639.3484   23958640.9744
        41.200          27.2004
 109663389.542 8  85452031.41548  20868232.614    20868231.9804   20868232.0334
        49.100          50.1004
 121266538.607 7  94493419.10046  23076251.880    23076251.4564   23076252.9834
        42.600          37.3004
 115539689.297 7                  21598894.755    21598894.546
        46.600
 138138495.824 7                  26286829.384
        42.400
 122635511.568 7  95383221.663 6  22949565.145    22949565.080    22949571.011
        47.200          41.400
 147167141.738 6                  28004976.716
        37.700
 138572985.106 6                  26369550.649
        37.800
 105898188.864 8  82365333.012 8  19803478.963    19803479.241    19803485.178
        52.600          48.200
 130368763.412 6 101397983.319 6  24405305.401    24405304.872    24405313.537
        41.500          39.600
 121292151.815 7  94338380.140 7  22666336.746    22666337.350    22666343.156
        46.900          42.800
 125370075.046 7  97510103.426 6  23519100.603    23519100.446    23519108.213
        42.700          40.100
 104339183.435 8  81152751.264 7  19518789.195    19518788.534    19518795.802
        48.500          42.000
 113595014.964 7  88351748.898 7  21213052.591    21213053.499    21213058.602
        47.800          45.300
 25  1  1  5 15 30.0000000  0 33E34G25E03E08S31S35G13E21E13S48S33R02
                                G12G20E15G23G05G11G26G18G29G15R23E27
                                R15E26E05R24R16R17R14R01R08
 147001157.265 6                  27973342.261
        36.200
 121182699.600 7  94428160.65246  23060276.614    23060275.6224   23060279.6384
        43.500          39.4004
 133278621.554 7                  25362064.357
        44.900
 136197995.386 7                  25917610.797
        43.600
 198979533.019 7                  37864540.320
        45.300
 200947034.531 7                  38238960.017
        44.100
 117352464.917 7  91443498.62244  22331425.598    22331424.9904   22331426.2874
        44.400          28.9004
 135004128.262 7                  25690415.590
        43.800
 127142691.713 7                  24194428.148
        47.800
 412874100.407 5                  78567415.319
        32.600
 202121583.753 7                  38462427.320
        44.500
 119698886.642 7  93099170.861 7  22431519.599    22431519.479    22431526.850
        46.500          43.000
 129495758.459 6 100905911.56845  24642179.074    24642178.4664   24642179.4184
        40.600          33.3004
 113787663.669 7  88665765.80745  21653046.785    21653045.4804   21653045.9264
        47.400          35.8004
 127546765.030 7                  24271304.380
        47.000
 132872123.411 6 103536722.93642  25284723.610    25284723.1324   25284724.5774
        36.100          17.1004
 105815295.342 8  82453528.29848  20135960.707    20135960.2204   20135959.8904
        51.000          52.6004
 120381679.655 7  93804007.34345  22907836.054    22907835.6614   22907836.2184
        45.400          31.9004
 131753952.064 6 102665444.61045  25071939.919    25071939.2624   25071944.2384
        39.700          30.0004
 125864816.097 6  98076481.44144  23951274.754    23951274.2814   23951275.3574
        41.500          27.2004
 109638320.408 8  85432497.02748  20863462.003    20863461.3734   20863461.5234
        49.400          50.0004
 121210333.313 7  94449622.80446  23065556.246    23065555.8224   23065557.4744
        43.700          37.3004
 115571872.943 7                  21604910.678    21604910.689
        46.600
 138179465.279 7                  26294625.622
        42.700
 122651720.267 7  95395828.409 6  22952597.455    22952597.144    22952603.893
        46.800          41.100
 147137266.192 6                  27999291.004
        37.300
 138599482.212 6                  26374593.223
        37.500
 105882929.559 8  82353464.669 8  19800625.288    19800625.680    19800631.581
        52.600          48.000
 130341179.420 6 101376529.199 6  24400141.022    24400140.385    24400149.739
        40.700          38.900
 121245848.030 7  94302366.203 7  22657683.166    22657683.115    22657690.387
        45.800          42.400
 125420060.768 7  97548981.222 6  23528478.694    23528478.055    23528485.268
        44.200          40.100
 104314880.256 8  81133848.786 6  19514241.807    19514242.097    19514249.477
        48.400          41.800
 113636665.607 7  88384143.868 7  21220831.097    21220831.399    21220836.690
        47.500          45.700
 25  1  1  5 15 45.0000000  0 33E34G25E03E08S31S35G13E21E13S48S33R02
                                G12G20E15G23G05G11G26G18G29G15R23E27
                                R15E26E05R24R16R17R14R01R08
 147030774.969 6                  27978978.715
        37.400
 121224130.275 7  94460444.27046  23068160.648    23068159.6514   23068163.7254
        44.200          39.5004
 133270572.850 7                  25360532.774
        44.800
 136157954.608 7                  25909991.425
        43.600
 198979521.840 7                  37864538.330
        45.800
 200947050.042 7                  38238959.481
        44.600
 117310320.245 7  91410658.67744  22323405.514    22323404.8974   22323406.3344
        43.800          28.9004
 135015123.462 7                  25692507.962
        43.700
 127128348.622 7                  24191698.609
        47.600
 412873869.443 5                  78567386.339
        32.700
 202121561.041 7                  38462422.840
        44.800
 119633938.162 7  93048655.380 7  22419348.701    22419349.005    22419355.742
        47.000          42.800
 129549113.541 6 100947486.94745  24652332.673    24652332.0654   24652332.7694
        40.200          33.2004
 113823258.493 7  88693502.04745  21659820.101    21659818.8004   21659819.3434
        47.800          35.7004
 127561089.282 7                  24274030.166
        46.700
 132822537.610 5 103498084.67842  25275287.600    25275287.1444   25275288.9974
        35.900          17.2004
 105824319.506 8  82460560.11048  20137677.864    20137677.3774   20137677.1364
        51.100          52.6004
 120415111.541 7  93830058.16745  22914198.107    22914197.7234   22914198.1254
        45.300          32.1004
 131734327.382 6 102650152.60944  25068206.256    25068205.5994   25068209.2934
        40.300          29.8004
 125826116.439 6  98046325.86644  23943910.446    23943909.9774   23943911.5034
        41.400          27.4004
 109613358.715 8  85413046.35548  20858712.015    20858711.3854   20858711.4754
        49.500          50.0004
 121154158.159 7  94405849.98646  23054866.151    23054865.7134   23054867.7884
        43.700          37.5004
 115604123.951 7                  21610940.068    21610939.791
        46.500
 138220463.816 7                  26302427.372
        42.200
 122668091.936 7  95408561.908 6  22955660.756    22955660.765    22955667.697
        47.000          41.100
 147107388.328 6                  27993606.354
        37.700
 138626058.615 6                  26379650.698
        37.900
 105867742.594 8  82341652.592 8  19797785.398    19797785.538    19797791.609
        52.300          48.100
 130313748.383 6 101355193.935 6  24395006.328    24395006.121    24395015.051
        41.700          38.300
 121199536.803 7  94266346.384 7  22649029.415    22649029.801    22649036.434
        46.600          43.000
 125470089.033 7  97587892.115 6  23537863.723    23537863.615    23537870.989
        43.600          40.900
 104290766.566 8  81115093.710 7  19509731.054    19509730.972    19509738.571
        48.600          42.100
 113678458.933 7  88416649.806 7  21228634.889    21228635.798    21228640.825
        46.900          45.100
 25  1  1  5 16  0.0000000  0 33E34G25E03E08S31S35G13E21E13S48S33R02
                                G12G20E15G23G05G11G26G18G29G15R23E27
                                R15E26E05R24R16R17R14R01R08
 147060398.912 6                  27984615.838
        36.800
 121265624.426 7  94492777.35046  23076056.953    23076055.9614   23076059.8554
        44.000          39.6004
 133262632.009 7                  25359021.363
        45.200
 136117959.056 7                  25902380.468
        43.300
 198979513.555 7                  37864536.993
        46.000
 200947068.308 7                  38238966.269
        44.600
 117268261.743 7  91377885.88044  22315402.208    22315401.5824   22315402.7154
        44.200          29.0004
 135026223.417 7                  25694620.305
        44.500
 127114028.569 8                  24188973.733
        48.400
 412873639.645 5                  78567368.381
        33.100
 202121541.916 7                  38462426.024
        45.300
 119569047.536 7  92998184.902 7  22407188.096    22407188.374    22407195.186
        47.100          43.100
 129602460.527 6 100989056.02845  24662483.873    24662483.2654   24662484.2254
        41.000          33.1004
 113858906.786 7  88721279.94445  21666603.796    21666602.4914   21666603.0144
        47.600          35.8004
 127575437.584 7                  24276760.469
        47.400
 132772979.366 6 103459467.90942  25265857.134    25265856.6474   25265858.4084
        36.500          17.6004
 105833463.433 8  82467685.24148  20139417.982    20139417.4914   20139417.1704
        51.000          52.6004
 120448578.029 7  93856135.95645  22920566.570    22920566.1954   22920566.6194
        45.000          32.0004
 131714826.087 6 102634956.82444  25064494.917    25064494.2514   25064498.0394
        38.400          29.8004
 125787428.804 7  98016179.66744  23936547.951    23936547.4694   23936549.2584
        42.400          27.3004
 109588510.497 8  85393684.11648  20853983.652    20853983.0184   20853983.0164
        49.500          50.1004
 121098019.292 7  94362105.45246  23044183.527    23044183.0944   23044184.9254
        43.200          37.6004
 115636448.380 7                  21616982.515    21616982.639
        46.700
 138261496.877 7                  26310235.745
        42.800
 122684631.875 7  95421426.293 6  22958756.223    22958756.782    22958763.155
        46.300          41.400
 147077513.840 6                  27987920.542
        37.900
 138652719.637 6                  26384724.178
        37.800
 105852634.029 8  82329901.495 8  19794960.028    19794960.080    19794966.080
        52.800          48.200
 130286476.424 7 101333982.487 6  24389901.295    24389901.241    24389909.147
        42.600          39.400
 121153224.131 7  94230325.419 7  22640374.776    22640374.617    22640381.309
        46.900          42.800
 125520165.215 7  97626840.221 6  23547257.457    23547257.859    23547265.095
        43.900          40.600
 104266848.191 8  81096490.530 6  19505256.771    19505256.827    19505263.971
        48.700          41.700
 113720400.554 7  88449271.083 7  21236468.214    21236468.413    21236473.292
        47.600          45.100
 25  1  1  5 16 15.0000000  0 33E34G25E03E08S31S35G13E21E13S48S33R02
                                G12G20E15G23G05G11G26G18G29G15R23E27
                                R15E26E05R24R16R17R14R01R08
 147090025.457 6                  27990254.002
        36.400
 121307177.972 7  94525156.70546  23083964.496    23083963.5224   23083967.3034
        43.500          39.9004
 133254795.420 7                  25357530.397
        45.000
 136078005.387 7                  25894777.620
        43.500
 198979503.088 7                  37864533.916
        46.000
 200947085.474 7                  38238969.511
        44.700
 117226285.605 7  91345177.26844  22307413.686    22307413.0434   22307415.0024
        43.900          29.4004
 135037424.263 7                  25696751.651
        44.200
 127099727.813 8                  24186252.395
        48.500
 412873410.285 5                  78567338.296
        33.100
 202121522.320 7                  38462413.731
        45.100
 119504211.326 7  92947756.756 7  22395038.197    22395038.113    22395045.609
        47.000          43.600
 129655795.194 6 101030615.50345  24672632.879    24672632.2584   24672633.6944
        40.500          33.5004
 113894604.616 7  88749096.45246  21673397.024    21673395.7144   21673396.1194
        47.400          36.1004
 127589806.211 7                  24279494.774
        47.200
 132723445.110 6 103420869.83743  25256430.842    25256430.3914   25256432.5364
        38.100          18.4004
 105842723.412 8  82474900.80048  20141179.999    20141179.5084   20141179.2844
        50.900          52.9004
 120482075.409 7  93882237.81245  22926941.163    22926940.7974   22926940.8414
        45.300          32.3004
 131695444.787 6 102619854.63844  25060806.381    25060805.7154   25060809.8674
        39.000          29.6004
 125748749.496 6  97986039.92844  23929187.501    23929187.0284   23929188.6674
        41.900          27.8004
 109563772.197 8  85374407.52048  20849275.865    20849275.2314   20849275.4844
        49.200          50.4004
 121041913.382 7  94318386.58746  23033507.109    23033506.6764   23033508.1304
        43.100          38.0004
 115668842.266 7                  21623038.609    21623038.589
        47.100
 138302560.514 7                  26318049.947
        42.400
 122701336.138 7  95434418.480 6  22961881.602    22961882.080    22961888.753
        46.600          41.200
 147047638.944 6                  27982236.460
        38.500
 138679461.653 6                  26389813.109
        37.500
 105837599.923 8  82318208.308 8  19792148.389    19792148.597    19792154.480
        52.600          48.100
 130259360.068 6 101312892.035 6  24384824.050    24384823.749    24384833.327
        41.500          39.600
 121106906.312 7  94194300.445 7  22631718.746    22631718.925    22631725.732
        46.400          42.600
 125570284.852 7  97665822.192 6  23556659.188    23556659.410    23556666.739
        43.900          40.100
 104243121.741 8  81078036.612 6  19500818.163    19500818.053    19500825.639
        48.400          41.900
 113762486.154 7  88482004.363 7  21244327.843    21244327.442    21244332.719
        47.200          45.100
 25  1  1  5 16 30.0000000  0 33E34G25E03E08S31S35G13E21E13S48S33R02
                                G12G20E15G23G05G11G26G18G29G15R23E27
                                R15E26E05R24R16R17R14R01R08
 147119649.996 6                  27995890.966
        36.700
 121348785.955 7  94557578.48946  23091882.036    23091881.0534   23091885.0794
        43.900          39.9004
 133247058.583 7                  25356057.934
        44.800
 136038089.227 7                  25887181.852
        43.600
 198979487.820 7                  37864530.357
        45.900
 200947097.562 7                  38238968.044
        44.300
 117184387.884 7  91312529.75244  22299441.609    22299440.9884   22299442.0464
        44.200          29.2004
 135048721.388 7                  25698901.762
        44.200
 127085441.833 8                  24183533.908
        48.100
 412873176.690 5                  78567303.900
        33.600
 202121496.626 7                  38462413.239
        44.800
 119439425.706 8  92897367.928 7  22382897.486    22382897.675    22382904.197
        48.100          43.300
 129709112.570 6 101072161.51145  24682779.191    24682778.5744   24682779.7164
        40.400          33.2004
 113930347.200 7  88776947.83446  21680198.559    21680197.2494   21680197.7034
        47.100          36.0004
 127604190.663 7                  24282232.131
        47.200
 132673930.398 5 103382286.97343  25247009.053    25247008.6024   25247009.9954
        35.600          18.0004
 105852094.835 8  82482203.21048  20142963.429    20142962.9424   20142962.6084
        50.400          52.7004
 120515599.115 7  93908360.18445  22933320.496    22933320.1394   22933320.3034
        44.900          32.3004
 131676178.828 6 102604842.36244  25057140.547    25057139.8774   25057143.7224
        38.500          29.8004
 125710074.051 6  97955903.22944  23921828.024    23921827.5244   23921829.2314
        41.500          27.9004
 109539139.625 8  85355213.30248  20844588.643    20844588.0094   20844588.0484
        49.100          50.3004
 120985836.251 7  94274690.14746  23022835.772    23022835.3394   23022836.8584
        43.600          38.0004
 115701301.195 7                  21629105.283    21629105.803
        46.600
 138343649.886 6                  26325868.761
        41.900
 122718199.776 7  95447534.607 6  22965038.521    22965038.933    22965045.137
        47.400          41.200
 147017759.111 6                  27976550.028
        37.800
 138706279.897 6                  26394916.599
        37.700
 105822636.459 8  82306570.059 8  19789350.073    19789350.273    19789356.300
        52.600          48.100
 130232394.781 7 101291918.975 6  24379776.881    24379776.678    24379784.821
        42.700          39.900
 121060579.186 7  94158268.253 7  22623061.832    22623061.658    22623068.487
        46.600          42.600
 125620442.809 7  97704833.920 6  23566070.481    23566070.772    23566077.555
        43.900          40.800
 104219582.866 8  81059728.578 6  19496414.565    19496414.686    19496421.887
        48.400          41.800
 113804710.392 7  88514845.442 7  21252211.853    21252212.616    21252217.432
        47.100          45.100
 25  1  1  5 16 45.0000000  0 33E34G25E03E08S31S35G13E21E13S48S33R02
                                G12G20E15G23G05G11G26G18G29G15R23E27
                                R15E26E05R24R16R17R14R01R08
 147149283.759 6                  28001530.035
        36.400
 121390459.134 7  94590051.06746  23099812.142    23099811.1594   23099815.3194
        43.200          39.7004
 133239432.706 7                  25354607.180
        45.100
 135998222.090 7                  25879595.244
        43.800
 198979478.443 7                  37864528.591
        45.700
 200947114.429 7                  38238972.033
        44.300
 117142580.183 7  91279952.39344  22291485.452    22291484.8354   22291486.2244
        43.600          29.0004
 135060125.839 7                  25701071.652
        44.000
 127071181.796 8                  24180820.286
        48.100
 412872948.738 5                  78567273.743
        32.400
 202121477.100 7                  38462411.133
        45.100
 119374702.057 7  92847027.365 7  22370767.659    22370768.068    22370774.706
        47.400          42.800
 129762423.652 6 101113702.61745  24692923.773    24692923.1344   24692924.4644
        41.800          33.3004
 113966145.527 7  88804842.62845  21687010.678    21687009.3734   21687009.8714
        47.500          35.9004
 127618602.051 7                  24284974.357
        47.300
 132624446.598 5 103343728.19142  25237593.021    25237592.5434   25237593.1884
        35.900          16.6004
 105861588.698 8  82489601.02448  20144770.071    20144769.5844   20144769.2374
        50.500          52.6004
 120549160.255 7  93934511.72345  22939706.793    22939706.4364   22939706.7554
        44.700          32.1004
 131657039.053 6 102589928.22244  25053497.925    25053497.2554   25053501.1794
        38.800          28.3004
 125671413.658 7  97925778.24844  23914471.008    23914470.5124   23914472.2044
        42.100          27.6004
 109514624.360 8  85336110.50148  20839923.551    20839922.9174   20839922.9514
        49.200          50.2004
 120929799.296 7  94231025.02046  23012172.555    23012172.1174   23012173.3794
        43.400          37.8004
 115733836.350 7                  21635188.445    21635188.417
        47.400
 138384775.942 7                  26333695.072
        42.200
 122735233.618 7  95460783.189 6  22968225.374    22968226.159    22968232.733
        46.800          41.100
 146987885.471 6                  27970865.816
        38.200
 138733185.742 6                  26400036.238
        38.300
 105807754.915 8  82294995.560 8  19786567.283    19786567.390    19786573.502
        52.800          48.200
 130205592.516 6 101271072.884 6  24374759.499    24374758.869    24374768.331
        40.500          39.200
 121014253.940 7  94122237.549 7  22614404.011    22614404.744    22614411.091
        46.600          42.600
 125670649.817 7  97743883.851 6  23575488.192    23575487.933    23575495.629
        43.400          40.900
 104196243.251 8  81041575.576 7  19492048.450    19492048.526    19492056.117
        48.200          42.000
 113847084.434 7  88547803.081 7  21260125.065    21260125.488    21260130.604
        47.100          45.100
 25  1  1  5 17  0.0000000  0 33E34G25E03E08S31S35G13E21E13S48S33R02
                                G12G20E15G23G05G11G26G18G29G15R23E27
                                R15E26E05R24R16R17R14R01R08
 147178920.786 6                  28007170.164
        37.900
 121432191.058 7  94622569.42846  23107753.833    23107752.8504   23107756.5544
        43.000          39.6004
 133231911.853 7                  25353175.721
        45.300
 135958398.097 7                  25872017.163
        44.200
 198979468.027 7                  37864527.017
        45.600
 200947131.207 7                  38238986.091
        44.500
 117100856.793 7  91247440.71244  22283545.911    22283545.3174   22283546.5544
        43.800          29.2004
 135071631.442 7                  25703260.863
        44.300
 127056941.635 8                  24178110.675
        48.400
 412872719.719 5                  78567246.001
        32.700
 202121456.656 7                  38462406.755
        45.000
 119310035.011 7  92796730.780 7  22358648.815    22358649.126    22358657.056
        47.000          43.900
 129815722.006 6 101155233.80245  24703066.051    24703065.3814   24703066.9054
        40.100          33.1004
 114001993.345 7  88832776.00345  21693832.080    21693830.7754   21693831.5194
        47.400          35.9004
 127633034.413 7                  24287720.673
        47.500
 132574987.723 6 103305188.82843  25228180.656    25228180.1654   25228181.5544
        36.900          18.1004
 105871198.480 8  82497089.16548  20146598.630    20146598.1434   20146597.9164
        50.400          52.5004
 120582752.808 7  93960687.73845  22946099.305    22946098.9484   22946099.1414
        45.300          32.1004
 131638020.214 6 102575108.40544  25049879.100    25049878.4304   25049882.3354
        38.800          28.7004
 125632762.249 6  97895660.26744  23907116.502    23907116.0064   23907117.1634
        40.600          27.6004
 109490220.529 8  85317094.52648  20835279.549    20835278.9104   20835279.0514
        49.200          50.2004
 120873796.895 7  94187386.81046  23001515.713    23001515.2574   23001516.3764
        43.600          38.0004
 115766441.827 7                  21641283.460    21641283.453
        46.500
 138425932.356 7                  26341526.749
        42.800
 122752431.437 7  95474159.258 6  22971443.907    22971444.045    22971451.528
        46.300          41.800
 146958011.891 6                  27965180.800
        38.200
 138760172.287 6                  26405171.702
        38.700
 105792949.327 8  82283480.103 8  19783798.287    19783798.705    19783804.695
        52.600          48.100
 130178947.194 7 101250348.823 6  24369771.308    24369771.436    24369779.494
        42.100          39.200
 120967924.627 7  94086203.676 7  22605745.834    22605746.247    22605753.475
        46.500          42.600
 125720899.283 7  97782966.761 6  23584915.044    23584914.542    23584921.500
        43.600          40.400
 104173096.739 8  81023572.717 7  19487718.832    19487718.619    19487725.744
        49.000          42.100
 113889601.538 7  88580871.967 7  21268064.579    21268065.077    21268070.265
        47.200          45.300
 25  1  1  5 17 15.0000000  0 33E34G25E03E08S31S35G13E21E13S48S33R02
                                G12G20E15G23G05G11G26G18G29G15R23E27
                                R15E26E05R24R16R17R14R01R08
 147208560.384 6                  28012810.032
        36.700
 121473980.722 7  94655132.77746  23115706.155    23115705.1944   23115708.8744
        43.200          39.8004
 133224495.476 7                  25351764.282
        45.300
 135918616.808 7                  25864446.643
        43.900
 198979456.889 7                  37864527.862
        46.100
 200947146.701 7                  38238981.615
        44.800
 117059217.551 7  91214994.60544  22275621.633    22275621.0304   22275622.8484
        44.000          29.1004
 135083237.473 7                  25705469.585
        44.100
 127042720.731 8                  24175404.412
        48.300
 412872488.668 5                  78567222.338
        33.000
 202121435.888 7                  38462404.998
        45.200
 119245424.128 7  92746477.893 7  22346541.027    22346541.340    22346548.403
        46.600          43.400
 129869006.610 6 101196754.28145  24713206.113    24713205.4524   24713206.4214
        40.800          32.9004
 114037889.731 7  88860747.22445  21700663.246    21700661.9414   21700662.4414
        47.600          35.9004
 127647487.121 7                  24290471.222
        47.300
 132525553.400 5 103266668.59243  25218774.250    25218773.7854   25218774.6104
        35.600          18.0004
 105880923.411 8  82504667.03548  20148449.404    20148448.9174   20148448.5154
        50.700          52.6004
 120616376.101 7  93986887.71245  22952497.512    22952497.1554   22952497.4114
        45.400          32.2004
 131619121.446 6 102560382.12444  25046282.417    25046281.7334   25046285.5054
        39.600          28.8004
 125594119.263 6  97865548.85244  23899763.689    23899763.2164   23899763.9244
        41.700          27.6004
 109465927.533 8  85298164.91948  20830656.854    20830656.2154   20830656.2514
        49.500          50.2004
 120817828.928 7  94143775.44046  22990865.000    22990864.5494   22990866.1114
        43.500          38.1004
 115799116.925 7                  21647391.415    21647391.555
        47.000
 138467118.244 7                  26349364.199
        42.200
 122769792.401 7  95487662.186 6  22974693.341    22974693.475    22974700.577
        47.000          41.700
 146928137.791 6                  27959495.630
        37.900
 138787238.758 6                  26410322.351
        38.300
 105778219.217 8  82272023.344 8  19781043.810    19781044.261    19781049.988
        52.700          48.200
 130152459.039 7 101229747.302 6  24364812.207    24364811.445    24364820.004
        42.100          38.400
 120921590.764 7  94050166.286 7  22597087.448    22597087.782    22597095.582
        46.900          43.300
 125771190.099 7  97822081.837 6  23594350.106    23594349.599    23594356.392
        44.500          40.400
 104150142.923 8  81005719.753 7  19483424.356    19483424.716    19483431.891
        48.600          42.100
 113932260.590 7  88614051.242 7  21276031.420    21276031.215    21276036.277
        46.400          45.000
 25  1  1  5 17 30.0000000  0 33E34G25E03E08S31S35G13E21E13S48S33R02
                                G12G20E15G23G05G11G26G18G29G15R23E27
                                R15E26E05R24R16R17R14R01R08
 147238203.831 6                  28018451.414
        37.600
 121515828.899 7  94687741.72346  23123669.677    23123668.7164   23123672.4364
        43.400          39.9004
 133217184.760 7                  25350373.218
        45.000
 135878879.651 7                  25856885.173
        43.800
 198979446.037 7                  37864522.509
        45.900
 200947163.086 7                  38238981.678
        44.600
 117017664.047 7  91182615.28144  22267714.960    22267714.3704   22267715.5754
        44.000          29.2004
 135094944.981 7                  25707697.514
        44.200
 127028520.243 8                  24172702.062
        48.300
 412872257.648 5                  78567185.102
        32.100
 202121414.240 7                  38462395.742
        45.000
 119180871.500 7  92696270.287 7  22334443.800    22334444.103    22334450.934
        46.800          43.100
 129922278.202 6 101238264.61545  24723343.435    24723342.7474   24723343.5084
        40.400          32.9004
 114073835.636 7  88888757.03945  21707503.184    21707501.8744   21707502.7184
        46.800          35.9004
 127661961.316 7                  24293225.348
        47.200
 132476144.884 5 103228168.47842  25209372.406    25209371.9504   25209372.1744
        34.900          17.4004
 105890764.313 8  82512335.26948  20150322.049    20150321.5624   20150321.1864
        50.300          52.6004
 120650031.250 7  94013112.50745  22958901.879    22958901.5134   22958901.8704
        44.600          32.2004
 131600344.293 6 102545750.72044  25042709.264    25042708.5764   25042711.9904
        38.700          29.1004
 125555485.861 6  97835444.90744  23892410.789    23892410.3114   23892411.9964
        41.700          27.9004
 109441746.947 8  85279322.89948  20826055.322    20826054.6834   20826054.8494
        49.000          50.3004
 120761896.856 7  94100192.04246  22980221.433    22980220.9824   22980222.4824
        42.800          38.1004
 115831862.885 7                  21653513.590    21653513.403
        46.900
 138508334.522 7                  26357207.791
        42.500
 122787317.169 7  95501292.541 6  22977972.747    22977973.326    22977979.095
        47.200          41.000
 146898264.230 6                  27953811.023
        38.000
 138814386.430 6                  26415488.446
        38.500
 105763566.107 8  82260626.488 8  19778303.932    19778303.980    19778309.791
        53.000          48.200
 130126128.684 6 101209268.396 6  24359882.891    24359882.787    24359891.010
        41.700          39.200
 120875253.870 7  94014126.556 7  22588428.515    22588428.583    22588435.632
        45.900          42.800
 125821522.547 7  97861229.295 6  23603791.189    23603791.354    23603799.555
        43.600          41.400
 104127383.269 8  80988017.802 7  19479167.051    19479166.931    19479174.155
        48.300          42.200
 113975062.281 7  88647341.440 7  21284024.609    21284024.723    21284029.512
        47.400          45.300
 25  1  1  5 17 45.0000000  0 33E34G25E03E08S31S35G13E21E13S48S33R02
                                G12G20E15G23G05G11G26G18G29G15R23E27
                                R15E26E05R24R16R17R14R01R08
 147267850.831 6                  28024092.567
        37.200
 121557734.871 7  94720395.69946  23131643.724    23131642.7634   23131647.0604
        43.600          39.8004
 133209979.495 7                  25349001.957
        44.800
 135839186.620 7                  25849331.818
        43.500
 198979434.936 7                  37864522.992
        46.000
 200947178.111 7                  38238986.047
        44.600
 116976196.397 7  91150302.88044  22259823.286    22259822.7014   22259824.4804
        43.600          29.1004
 135106753.589 7                  25709944.624
        44.000
 127014339.889 8                  24170003.708
        48.100
 412872026.125 5                  78567162.404
        32.400
 202121392.859 7                  38462392.620
        45.100
 119116377.030 7  92646107.928 7  22322357.696    22322357.580    22322364.929
        46.900          43.200
 129975536.239 6 101279764.38445  24733478.078    24733477.3724   24733478.2894
        40.200          32.7004
 114109830.604 7  88916805.08145  21714352.978    21714351.6774   21714352.2344
        47.200          35.8004
 127676456.761 7                  24295983.809
        47.000
 132426762.099 5 103189688.43543  25199973.588    25199973.1374   25199975.1984
        35.300          18.2004
 105900720.696 8  82520093.49248  20152216.708    20152216.2264   20152215.8264
        50.400          52.4004
 120683718.011 7  94039361.93345  22965312.152    22965311.7864   22965312.2634
        45.400          32.2004
 131581688.099 6 102531213.41144  25039159.210    25039158.5174   25039162.0764
        39.200          29.9004
 125516861.835 6  97805348.25644  23885060.976    23885060.5114   23885062.0074
        41.800          27.8004
 109417678.718 8  85260568.43748  20821475.295    20821474.6654   20821474.8124
        49.500          50.2004
 120706000.842 7  94056636.74846  22969584.667    22969584.2114   22969585.7894
        43.200          38.2004
 115864679.407 7                  21659647.711    21659647.696
        46.500
 138549580.634 6                  26365056.298
        41.600
 122805005.157 7  95515049.855 6  22981282.437    22981283.010    22981289.214
        47.200          40.800
 146868390.956 6                  27948126.186
        37.400
 138841614.937 6                  26420669.945
        38.000
 105748989.878 8  82249289.418 8  19775578.001    19775578.052    19775584.096
        52.800          48.200
 130099956.158 6 101188912.014 6  24354983.472    24354982.318    24354991.762
        41.400          39.800
 120828913.434 7  93978084.024 7  22579768.803    22579769.147    22579775.879
        46.500          42.700
 125871895.900 7  97900408.570 6  23613242.231    23613242.414    23613249.046
        45.100          40.500
 104104817.866 8  80970466.929 7  19474945.520    19474945.469    19474953.122
        48.500          42.200
 114018005.713 7  88680741.900 7  21292043.432    21292044.077    21292049.108
        46.900          45.500
 25  1  1  5 18  0.0000000  0 34E34G25E03E08S31S35G13E21E13S48S33R02
                                G12G20E15G23G05G11G26G18E07G29G15R23
                                E27R15E26E05R24R16R17R14R01R08
 147297500.739 6                  28029735.089
        37.000
 121599697.600 7  94753093.90746  23139628.760    23139627.7864   23139632.3724
        43.800          39.7004
 133202879.093 7                  25347650.905
        44.700
 135799537.264 7                  25841786.823
        43.900
 198979422.595 7                  37864519.321
        46.000
 200947193.067 7                  38238984.862
        44.200
 116934814.437 7  91118057.25944  22251949.052    22251948.4624   22251949.4614
        43.800          29.1004
 135118662.474 7                  25712210.627
        44.000
 127000178.981 8                  24167309.021
        48.100
 412871793.743 5                  78567129.690
        32.100
 202121370.799 7                  38462388.077
        44.900
 119051940.630 7  92595990.739 7  22310282.267    22310282.500    22310289.702
        47.800          43.100
 130028779.919 6 101321252.96245  24743610.103    24743609.4154   24743610.1904
        41.100          33.5004
 114145873.605 7  88944890.52845  21721211.791    21721210.4904   21721210.9204
        47.000          35.8004
 127690972.798 7                  24298746.148
        46.800
 132377404.416 5 103151227.91743  25190581.467    25190581.0164   25190582.9484
        35.400          18.1004
 105910792.163 8  82527941.39248  20154133.129    20154132.6424   20154132.3724
        50.500          52.5004
 120717435.651 7  94065635.42745  22971728.438    22971728.0814   22971728.5094
        45.700          32.2004
 131563152.547 6 102516770.00444  25035631.935    25035631.2474   25035634.9414
        40.300          29.2004
 125478246.502 7  97775258.40044  23877712.493    23877712.0284   23877713.7724
        42.300          27.9004
 151715548.903 5                  28870509.630
        34.500
 109393722.453 8  85241901.21148  20816916.608    20816915.9694   20816916.0694
        49.400          50.2004
 120650140.499 7  94013109.24946  22958954.503    22958954.0524   22958955.9464
        44.500          38.4004
 115897566.004 7                  21665795.651    21665795.770
        47.300
 138590855.662 6                  26372910.797
        41.800
 122822855.509 7  95528933.439 6  22984623.001    22984623.447    22984630.209
        46.700          41.300
 146838517.187 6                  27942441.306
        36.400
 138868923.306 6                  26425866.193
        37.400
 105734490.158 8  82238011.861 8  19772866.279    19772866.674    19772872.557
        52.900          48.100
 130073941.065 7 101168678.024 6  24350112.476    24350112.842    24350122.031
        42.100          40.400
 120782569.084 7  93942038.436 7  22571108.101    22571108.138    22571114.891
        45.800          43.000
 125922308.984 7  97939618.754 6  23622699.176    23622699.275    23622705.629
        45.000          40.600
 104082445.898 8  80953066.509 6  19470760.612    19470760.505    19470767.786
        48.500          41.900
 114061089.990 7  88714251.905 7  21300089.311    21300089.671    21300094.590
        47.200          45.200
 25  1  1  5 18 15.0000000  0 34E34G25E03E08S31S35G13E21E13S48S33R02
                                G12G20E15G23G05G11G26G18E07G29G15R23
                                E27R15E26E05R24R16R17R14R01R08
 147327157.438 6                  28035378.193
        36.700
 121641720.512 7  94785839.00146  23147625.458    23147624.4794   23147628.8854
        43.700          39.7004
 133195887.464 7                  25346320.532
        45.200
 135759935.601 7                  25834250.897
        44.200
 198979413.830 7                  37864516.942
        46.100
 200947210.904 7                  38238991.909
        44.600
 116893522.287 7  91085881.58944  22244091.502    22244090.9214   22244091.7564
        43.800          29.2004
 135130675.417 7                  25714496.807
        44.000
 126986041.393 8                  24164618.702
        48.500
 412871564.444 5                  78567104.023
        33.000
 202121351.702 7                  38462381.777
        45.100
 118987566.529 8  92545922.004 7  22298218.806    22298219.185    22298225.966
        48.100          43.200
 130082012.529 6 101362732.91745  24753739.318    24753738.6344   24753740.0474
        41.500          33.6004
 114181968.335 7  88973016.29845  21728080.500    21728079.2044   21728079.5334
        47.100          35.8004
 127705513.278 7                  24301512.947
        47.200
 132328075.932 6 103112790.16243  25181195.384    25181194.9374   25181195.9794
        36.800          18.2004
 105920982.169 8  82535881.65248  20156072.336    20156071.8494   20156071.4694
        50.400          52.5004
 120751188.023 7  94091935.98045  22978151.295    22978150.9384   22978151.3244
        45.500          32.2004
 131544742.131 6 102502424.35445  25032129.041    25032128.3534   25032132.2654
        40.100          30.2004
 125439643.759 6  97745178.33444  23870367.012    23870366.5304   23870367.9254
        41.300          28.2004
 151671619.389 5                  28862150.072
        34.700
 109369882.308 8  85223324.47448  20812380.061    20812379.4274   20812379.4474
        49.400          50.3004
 120594320.058 7  93969612.83546  22948332.229    22948331.7734   22948333.5444
        44.200          38.4004
 115930526.312 7                  21671957.360    21671957.451
        47.600
 138632163.203 6                  26380771.363
        41.900
 122840871.615 7  95542946.000 6  22987993.184    22987994.044    22988000.605
        46.000          40.800
 146808646.828 6                  27936757.624
        36.900
 138896315.025 6                  26431078.988
        37.000
 105720071.020 8  82226796.991 8  19770170.109    19770170.013    19770176.057
        52.600          48.100
 130048087.254 6 101148569.356 6  24345273.386    24345272.977    24345281.983
        41.100          39.100
 120736224.996 7  93905993.056 7  22562447.896    22562447.436    22562454.602
        46.800          42.800
 125972765.092 7  97978862.397 6  23632164.173    23632164.394    23632172.550
        43.600          41.500
 104060271.616 8  80935819.856 7  19466612.018    19466612.341    19466619.780
        48.800          42.000
 114104318.324 7  88747873.936 7  21308161.648    21308162.072    21308167.134
        46.300          45.300
 25  1  1  5 18 30.0000000  0 34E34G25E03E08S31S35G13E21E13S48S33R02
                                G12G20E15G23G05G11G26G18E07G29G15R23
                                E27R15E26E05R24R16R17R14R01R08
 147356816.430 6                  28041022.218
        36.400
 121683798.701 7  94818627.17446  23155632.979    23155631.9914   23155636.1624
        43.500          39.5004
 133189000.108 7                  25345009.948
        45.100
 135720377.567 7                  25826723.296
        43.500
 198979403.204 7                  37864519.187
        46.000
 200947226.450 7                  38238998.066
        44.500
 116852315.877 7  91053772.72844  22236249.987    22236249.4244   22236250.4894
        44.600          29.3004
 135142787.723 7                  25716801.678
        43.600
 126971922.486 8                  24161932.001
        48.200
 412871333.938 5                  78567077.605
        32.500
 202121330.607 7                  38462381.696
        44.900
 118923250.647 7  92495898.536 7  22286165.893    22286166.333    22286173.132
        46.800          43.000
 130135229.173 6 101404200.42945  24763866.299    24763865.5974   24763866.8684
        41.800          33.2004
 114218109.976 7  89001178.63245  21734957.854    21734956.5494   21734957.0954
        47.400          35.6004
 127720073.644 7                  24304283.636
        47.100
 132278772.164 6 103074371.63942  25171811.734    25171811.2614   25171813.4204
        38.400          17.7004
 105931285.914 8  82543910.54448  20158032.892    20158032.4054   20158032.2314
        50.500          52.4004
 120784970.544 7  94118260.02845  22984579.926    22984579.5604   22984580.0154
        45.800          32.1004
 131526451.307 6 102488171.62744  25028648.085    25028647.3924   25028651.5054
        40.100          29.8004
 125401049.093 7  97715104.57344  23863022.601    23863022.1234   23863024.0094
        42.600          28.3004
 151627653.144 5                  28853783.334
        34.800
 109346153.960 8  85204834.85248  20807864.673    20807864.0344   20807864.0744
        49.600          50.2004
 120538535.454 7  93926144.35246  22937716.812    22937716.3394   22937718.0114
        43.800          38.3004
 115963555.960 7                  21678131.135    21678131.783
        47.200
 138673498.426 7                  26388637.280
        42.100
 122859048.719 7  95557083.745 6  22991396.642    22991396.502    22991402.772
        46.800          41.200
 146778775.226 6                  27931073.408
        37.400
 138923785.622 6                  26436306.796
        37.300
 105705728.193 8  82215641.460 8  19767487.790    19767487.880    19767493.987
        52.600          48.100
 130022391.436 6 101128583.726 6  24340462.669    24340462.647    24340471.706
        41.300          39.000
 120689876.518 7  93869944.278 7  22553786.621    22553787.138    22553793.623
        46.900          42.800
 126023259.398 7  98018135.731 6  23641636.807    23641637.061    23641643.992
        44.500          40.300
 104038290.863 8  80918723.711 7  19462500.670    19462500.336    19462507.711
        48.900          42.000
 114147685.931 7  88781604.302 7  21316260.462    21316260.699    21316265.851
        46.500          45.200
 25  1  1  5 18 45.0000000  0 34E34G25E03E08S31S35G13E21E13S48S33R02
                                G12G20E15G23G05G11G26G18E07G29G15R23
                                E27R15E26E05R24R16R17R14R01R08
 147386480.160 6                  28046667.193
        36.400
 121725934.125 7  94851459.94846  23163651.453    23163650.4744   23163654.3044
        43.700          39.5004
 133182219.542 7                  25343719.352
        45.400
 135680865.785 7                  25819204.390
        44.200
 198979392.992 7                  37864517.993
        46.200
 200947243.484 7                  38238999.175
        44.700
 116811197.978 7  91021732.83844  22228424.995    22228424.4284   22228425.9634
        44.100          29.1004
 135155001.666 7                  25719126.061
        44.200
 126957824.729 8                  24159249.129
        48.400
 412871105.083 5                  78567047.555
        33.200
 202121311.118 7                  38462373.352
        44.900
 118858995.821 7  92445922.591 7  22274124.893    22274124.925    22274131.992
        47.200          43.200
 130188431.869 6 101445657.07545  24773990.620    24773989.9364   24773990.7874
        41.600          32.9004
 114254300.797 7  89029379.28845  21741844.734    21741843.4334   21741844.0024
        47.600          35.6004
 127734656.366 7                  24307058.689
        47.400
 132229495.718 6 103035974.41543  25162435.009    25162434.5314   25162436.5614
        37.500          18.5004
 105941705.792 8  82552029.93448  20160015.816    20160015.3254   20160015.0744
        50.600          52.3004
 120818785.604 7  94144609.43245  22991014.839    22991014.4734   22991014.7344
        46.000          32.0004
 131508283.404 6 102474014.64744  25025191.256    25025190.5544   25025194.2614
        39.900          28.9004
 125362464.943 7  97685039.00544  23855680.215    23855679.7194   23855681.6724
        42.600          28.2004
 151583652.724 5                  28845410.323
        32.100
 109322540.230 8  85186434.54248  20803371.051    20803370.4124   20803370.5094
        49.500          50.1004
 120482789.435 7  93882705.92846  22927109.243    22927108.7834   22927109.9584
        44.000          38.4004
 115996657.527 7                  21684320.049    21684319.963
        47.300
 138714863.489 7                  26396508.915
        42.300
 122877388.774 7  95571348.270 6  22994828.481    22994828.320    22994835.878
        46.400          41.800
 146748904.799 6                  27925388.678
        37.900
 138951337.275 6                  26441548.982
        38.200
 105691464.122 8  82204547.200 8  19764820.102    19764820.329    19764826.476
        52.600          48.000
 129996855.970 6 101108722.996 6  24335682.383    24335682.639    24335690.567
        41.300          39.200
 120643526.716 7  93833894.624 7  22545124.606    22545125.498    22545131.987
        47.300          43.200
 126073793.628 7  98057440.166 6  23651116.525    23651117.058    23651124.423
        44.300          40.600
 104016505.925 8  80901779.880 7  19458425.243    19458425.051    19458432.395
        48.900          42.000
 114191194.433 7  88815444.296 7  21324385.242    21324385.490    21324390.892
        46.500          45.400
 25  1  1  5 19  0.0000000  0 34E34G25E03E08S31S35G13E21E13S48S33R02
                                G12G20E15G23G05G11G26G18E07G29G15R23
                                E27R15E26E05R24R16R17R14R01R08
 147416150.644 6                  28052313.422
        38.100
 121768128.521 7  94884338.67246  23171680.544    23171679.5654   23171683.7374
        44.100          39.5004
 133175547.834 7                  25342449.877
        45.200
 135641402.476 7                  25811694.789
        44.000
 198979386.357 7                  37864517.094
        46.000
 200947263.552 7                  38239005.708
        44.500
 116770171.223 7  90989763.98544  22220618.206    22220617.6344   22220618.7524
        44.100          29.1004
 135167319.255 7                  25721470.041
        44.000
 126943750.181 8                  24156571.119
        48.400
 412872479.411 5                  78567022.358
        32.600
 202121294.288 7                  38462372.029
        45.300
 118794804.716 8  92395996.162 7  22262095.608    22262095.974    22262102.084
        48.400          42.900
 130241622.318 6 101487104.18345  24784112.402    24784111.7274   24784112.4704
        41.700          32.7004
 114290542.536 7  89057619.62545  21748741.455    21748740.1544   21748740.4824
        47.300          35.4004
 127749263.457 7                  24309838.351
        47.200
 132180248.800 6 102997600.23942  25153063.670    25153063.1974   25153065.2974
        36.900          17.2004
 105952243.353 8  82560241.01748  20162020.961    20162020.4704   20162020.3154
        50.500          52.2004
 120852635.232 7  94170985.77545  22997455.937    22997455.5664   22997456.0754
        46.100          32.1004
 131490240.828 6 102459955.60744  25021757.340    25021756.6434   25021760.6994
        39.800          29.0004
 125323893.364 7  97654983.22544  23848340.239    23848339.7664   23848341.6244
        42.300          28.1004
 151539620.537 5                  28837031.221
        35.000
 109299043.299 8  85168125.25248  20798899.767    20798899.1284   20798899.1824
        49.900          50.0004
 120427084.399 7  93839299.43146  22916508.676    22916508.2204   22916509.5344
        44.300          38.4004
 116029832.788 7                  21690521.670    21690521.451
        46.900
 138756260.249 6                  26404386.549
        41.700
 122895893.674 7  95585740.972 6  22998291.543    22998290.791    22998298.193
        45.700          41.600
 146719037.597 6                  27919705.113
        38.100
 138978972.011 6                  26446807.926
        38.100
 105677281.330 8  82193516.152 8  19762168.323    19762168.416    19762174.272
        53.200          48.000
 129971483.203 6 101088988.929 6  24330932.519    24330931.858    24330940.926
        41.900          40.400
 120597177.269 7  93797845.170 7  22536462.446    22536462.552    22536470.218
        46.400          43.100
 126124369.091 7  98096776.620 6  23660604.316    23660604.575    23660612.039
        44.200          40.600
 103994919.178 8  80884990.200 7  19454387.214    19454386.912    19454394.064
        49.000          42.200
 114234845.652 7  88849395.244 7  21332537.010    21332537.517    21332542.410
        47.000          45.300
 25  1  1  5 19 15.0000000  0 34E34G25E03E08S31S35G13E21E13S48S33R02
                                G12G20E15G23G05G11G26G18E07G29G15R23
                                E27R15E26E05R24R16R17R14R01R08
 147445818.807 6                  28057959.192
        37.300
 121810372.251 7  94917255.83846  23179719.078    23179718.0954   23179722.4994
        43.300          39.7004
 133168975.898 7                  25341199.288
        45.100
 135601978.642 7                  25804192.615
        44.100
 198979373.435 7                  37864510.105
        45.800
 200947276.927 7                  38239007.859
        44.400
 116729226.672 7  90957859.18044  22212826.777    22212826.2104   22212827.3164
        43.500          29.5004
 135179731.126 7                  25723831.836
        44.300
 126929689.619 8                  24153895.250
        48.300
 412872245.812 5                  78566995.966
        32.900
 202121270.520 7                  38462371.322
        45.000
 118730668.494 7  92346112.436 7  22250075.707    22250076.033    22250083.404
        46.800          43.200
 130294791.090 6 101528534.40045  24794229.948    24794229.2824   24794230.1464
        40.800          33.2004
 114326825.728 7  89085892.26145  21755645.670    21755644.3694   21755644.9224
        46.900          35.7004
 127763885.808 7                  24312620.890
        47.100
 132131022.364 6 102959242.00043  25143696.853    25143696.3844   25143698.1514
        37.800          18.7004
 105962889.191 8  82568536.48048  20164047.004    20164046.5174   20164046.1614
        50.100          52.5004
 120886510.243 7  94197381.89245  23003902.330    23003901.9554   23003902.3394
        45.800          32.3004
 131472314.313 6 102445987.07044  25018346.255    25018345.5624   25018349.1284
        39.000          29.5004
 125285325.239 7  97624930.12744  23841000.971    23841000.5064   23841002.3234
        42.200          28.3004
 151495547.481 5                  28828644.211
        33.800
 109275654.127 8  85149899.92748  20794448.755    20794448.1124   20794448.3434
        49.300          50.3004
 120371411.630 7  93795918.08746  22905914.508    22905914.0484   22905915.4204
        44.500          38.7004
 116063072.393 7                  21696735.300    21696735.280
        47.000
 138797679.179 7                  26412268.085
        42.000
 122914553.838 7  95600254.428 6  23001783.577    23001783.580    23001790.182
        46.800          41.400
 146689164.339 6                  27914020.238
        36.600
 139006680.101 6                  26452080.564
        38.500
 105663170.665 8  82182541.199 8  19759529.270    19759529.559    19759535.398
        52.900          48.100
 129946263.780 6 101069373.995 6  24326210.370    24326211.215    24326219.559
        41.900          38.900
 120550818.939 7  93761788.644 7  22527800.145    22527800.813    22527807.294
        47.700          43.100
 126174976.040 7  98136137.598 6  23670097.599    23670098.429    23670105.749
        43.500          40.000
 103973521.545 8  80868347.591 7  19450383.783    19450383.987    19450391.305
        48.700          42.100
 114278629.726 7  88883449.503 7  21340713.717    21340713.803    21340718.579
        47.300          45.000
 25  1  1  5 19 30.0000000  0 34E34G25E03E08S31S35G13E21E13S48S33R02
                                G12G20E15G23G05G11G26G18E07G29G15R23
                                E27R15E26E05R24R16R17R14R01R08
 147475493.235 6                  28063606.718
        36.800
 121852673.499 7  94950217.82446  23187768.803    23187767.8294   23187772.1974
        44.200          39.6004
 133162512.367 7                  25339969.274
        45.000
 135562603.178 7                  25796699.770
        44.100
 198979362.495 7                  37864508.616
        46.200
 200947292.403 7                  38239012.300
        44.300
 116688373.341 7  90926025.44244  22205052.607    22205052.0404   22205053.3564
        44.000          29.5004
 135192245.811 7                  25726213.248
        44.300
 126915651.676 8                  24151224.113
        48.400
 412872014.600 5                  78566971.399
        33.500
 202121250.151 7                  38462368.375
        45.400
 118666596.494 8  92296278.667 7  22238069.508    22238069.856    22238076.409
        48.100          43.200
 130347946.434 6 101569954.13945  24804345.104    24804344.4434   24804345.6274
        41.800          33.6004
 114363158.838 7  89114203.78045  21762559.668    21762558.3674   21762558.8564
        47.200          35.6004
 127778532.005 7                  24315408.007
        47.100
 132081825.141 6 102920906.53843  25134334.786    25134334.3044   25134336.6134
        37.000          19.1004
 105973652.083 8  82576923.14848  20166095.050    20166094.5634   20166094.2894
        50.400          52.4004
 120920419.211 7  94223804.46945  23010354.972    23010354.6014   23010354.9444
        45.900          32.3004
 131454511.688 6 102432114.82144  25014958.511    25014957.8234   25014961.7134
        39.700          29.5004
 125246769.181 7  97594886.44044  23833664.362    23833663.8894   23833665.4064
        42.600          28.4004
 151451442.265 5                  28820251.495
        33.800
 109252381.784 8  85131765.63348  20790020.375    20790019.7324   20790019.7424
        49.700          50.2004
 120315780.020 7  93752568.80546  22895327.834    22895327.3744   22895329.0284
        44.000          38.7004
 116096385.359 7                  21702963.129    21702963.164
        47.100
 138839128.635 7                  26420155.458
        42.200
 122933377.568 7  95614895.134 6  23005305.917    23005306.477    23005312.908
        46.900          41.400
 146659293.654 6                  27908336.534
        36.300
 139034470.070 6                  26457368.779
        37.900
 105649140.909 8  82171629.196 8  19756905.719    19756905.933    19756911.821
        52.900          48.000
 129921206.245 7 101049884.789 6  24321519.776    24321520.541    24321528.943
        42.100          40.600
 120504460.644 7  93725732.263 7  22519136.341    22519136.718    22519144.505
        46.400          43.100
 126225622.676 7  98175529.436 6  23679600.053    23679599.402    23679606.718
        43.200          40.200
 103952321.918 8  80851859.016 7  19446418.278    19446418.239    19446425.459
        48.900          42.300
 114322554.841 7  88917613.515 7  21348915.647    21348916.074    21348921.315
        46.400          45.400
 25  1  1  5 19 45.0000000  0 34E34G25E03E08S31S35G13E21E13S48S33R02
                                G12G20E15G23G05G11G26G18E07G29G15R23
                                E27R15E26E05R24R16R17R14R01R08
 147505170.442 6                  28069253.678
        37.800
 121895028.403 7  94983221.61246  23195828.779    23195827.8094   23195831.9304
        43.800          39.6004
 133156153.807 7                  25338759.413
        45.000
 135523272.749 7                  25789215.526
        43.600
 198979350.379 7                  37864508.043
        45.900
 200947307.488 7                  38239016.521
        44.200
 116647608.081 7  90894260.29944  22197295.293    22197294.7354   22197295.8194
        44.700          29.6004
 135204859.619 7                  25728613.408
        44.200
 126901632.823 8                  24148556.351
        48.200
 412871781.923 5                  78566944.346
        33.300
 202121228.203 7                  38462363.559
        45.000
 118602585.449 7  92246492.312 7  22226073.442    22226074.000    22226080.383
        47.100          43.200
 130401084.408 6 101611360.36545  24814456.684    24814456.0274   24814457.6474
        41.300          33.6004
 114399538.201 7  89142551.35045  21769482.549    21769481.2484   21769481.6434
        47.400          35.6004
 127793198.553 7                  24318198.905
        47.000
 132032653.805 6 102882591.20043  25124977.327    25124976.8624   25124979.0764
        38.300          18.8004
 105984528.180 8  82585398.03548  20168164.807    20168164.3204   20168163.9444
        50.300          52.5004
 120954358.632 7  94250250.78045  23016813.406    23016813.0404   23016813.4074
        45.600          32.3004
 131436829.235 6 102418335.62745  25011594.525    25011593.8414   25011597.5064
        40.600          30.0004
 125208221.754 7  97564849.49444  23826328.718    23826328.2454   23826330.0984
        42.600          28.8004
 151407301.727 5                  28811851.507
        35.600
 109229223.015 8  85113719.83848  20785613.519    20785612.8804   20785612.7534
        49.600          50.2004
 120260186.454 7  93709249.16846  22884749.093    22884748.6554   22884749.7374
        44.200          38.7004
 116129768.087 7                  21709202.994    21709203.040
        46.600
 138880604.885 6                  26428048.253
        41.700
 122952360.925 7  95629660.010 6  23008857.385    23008858.219    23008864.865
        46.200          41.000
 146629421.965 6                  27902652.253
        37.500
 139062338.272 6                  26462671.774
        36.900
 105635188.835 8  82160777.592 7  19754296.413    19754296.531    19754302.504
        52.500          47.900
 129896308.139 7 101030519.751 6  24316859.614    24316859.344    24316867.375
        42.800          39.900
 120458099.412 7  93689673.546 7  22510472.627    22510473.074    22510480.163
        47.300          42.900
 126276304.744 7  98214948.823 6  23689107.200    23689106.984    23689114.604
        44.000          40.300
 103931316.816 8  80835521.722 7  19442488.716    19442488.761    19442495.917
        49.100          42.300
 114366616.888 7  88951884.006 7  21357144.463    21357144.776    21357149.847
        47.000          45.200
 25  1  1  5 20  0.0000000  0 34E34G25E03E08S31S35G13E21E13S48S33R02
                                G12G20E15G23G05G11G26G18E07G29G15R23
                                E27R15E26E05R24R16R17R14R01R08
 147534851.379 6                  28074901.187
        37.000
 121937437.431 7  95016267.57846  23203898.717    23203897.7384   23203902.1454
        43.800          39.7004
 133149901.153 7                  25337569.393
        44.700
 135483988.579 7                  25781740.151
        43.900
 198979338.588 7                  37864500.858
        46.000
 200947321.428 7                  38239013.534
        44.600
 116606932.363 7  90862564.94144  22189554.791    22189554.2194   22189555.3924
        45.100          29.7004
 135217573.350 7                  25731032.833
        44.100
 126887633.990 8                  24145892.404
        48.100
 412871548.321 5                  78566910.831
        32.600
 202121205.546 7                  38462363.224
        45.200
 118538636.874 7  92196754.537 7  22214089.751    22214089.792    22214096.859
        47.400          43.500
 130454205.579 6 101652753.47545  24824565.330    24824564.6734   24824566.5734
        41.800          33.6004
 114435964.453 7  89170935.45045  21776414.087    21776412.7774   21776413.3154
        47.400          35.5004
 127807886.359 7                  24320994.019
        47.000
 131983509.287 6 102844296.80543  25115625.252    25115624.8054   25115626.9864
        38.300          18.5004
 105995518.168 8  82593961.65948  20170256.000    20170255.5224   20170255.3004
        50.400          52.4004
 120988329.333 7  94276721.46945  23023277.832    23023277.4704   23023277.9654
        45.700          32.3004
 131419269.640 6 102404652.54944  25008253.010    25008252.3224   25008256.4174
        39.800          29.7004
 125169683.832 7  97534819.95344  23818995.165    23818994.7144   23818996.7134
        42.000          28.9004
 151363126.666 5                  28803445.229
        33.900
 109206178.909 8  85095763.38848  20781228.220    20781227.5814   20781227.5764
        49.700          50.2004
 120204632.058 7  93665960.06646  22874177.584    22874177.1554   22874178.0394
        44.800          38.7004
 116163221.571 7                  21715457.392    21715457.396
        46.900
 138922108.534 6                  26435946.020
        41.800
 122971504.421 7  95644549.402 6  23012440.482    23012440.396    23012447.556
        45.600          41.200
 146599550.120 6                  27896967.292
        36.900
 139090285.463 6                  26467989.778
        36.800
 105621315.759 8  82149987.423 8  19751701.955    19751702.293    19751708.176
        52.800          48.000
 129871570.007 7 101011279.014 6  24312227.921    24312227.776    24312236.353
        42.600          40.000
 120411735.955 7  93653613.079 7  22501809.030    22501809.359    22501816.198
        46.800          43.000
 126327022.745 7  98254396.162 6  23698621.833    23698622.136    23698629.286
        44.100          40.300
 103910507.606 8  80819336.787 7  19438595.863    19438595.896    19438603.169
        48.800          42.100
 114410816.616 7  88986261.614 7  21365398.045    21365398.372    21365403.671
        46.800          45.400
 25  1  1  5 20 15.0000000  0 34E34G25E03E08S31S35G13E21E13S48S33R02
                                G12G20E15G23G05G11G26G18E07G29G15R23
                                E27R15E26E05R24R16R17R14R01R08
 147564538.260 6                  28080550.578
        36.800
 121979902.375 7  95049357.11646  23211979.322    23211978.3574   23211983.0784
        44.100          39.4004
 133143756.679 7                  25336400.244
        45.100
 135444753.107 7                  25774273.732
        43.600
 198979328.084 7                  37864502.011
        46.000
 200947337.662 7                  38239019.128
        44.500
 116566348.709 7  90830941.33644  22181831.788    22181831.2034   22181832.6714
        44.600          29.9004
 135230389.114 7                  25733471.642
        43.800
 126873657.319 8                  24143232.787
        48.200
 412871317.473 5                  78566881.895
        32.900
 202121184.412 7                  38462356.579
        45.300
 118474753.535 8  92147067.482 7  22202117.769    22202118.776    22202124.779
        48.400          43.000
 130507311.897 6 101694135.02745  24834670.998    24834670.3464   24834672.2744
        41.200          33.4004
 114472439.525 7  89199357.59145  21783355.324    21783354.0144   21783354.2714
        47.500          35.4004
 127822597.656 7                  24323793.407
        47.000
 131934394.031 6 102806025.18643  25106278.842    25106278.3914   25106280.9424
        36.000          18.9004
 106006623.759 8  82602615.35748  20172369.355    20172368.8824   20172368.6294
        50.500          52.3004
 121022333.534 7  94303218.25645  23029748.556    23029748.1904   23029748.7064
        45.700          32.2004
 131401834.812 6 102391066.73844  25004934.991    25004934.2724   25004938.3034
        39.800          28.8004
 125131157.694 7  97504799.59044  23811664.242    23811663.8094   23811665.7164
        42.700          28.9004
 151318919.775 5                  28795033.303
        30.600
 109183251.978 8  85077898.24148  20776865.582    20776864.9434   20776864.7124
        49.800          50.0004
 120149119.647 7  93622703.68346  22863613.516    22863613.0834   22863614.4254
        44.800          38.7004
 116196747.736 7                  21721723.912    21721724.455
        46.500
 138963641.559 7                  26443849.580
        42.000
 122990810.304 7  95659565.067 6  23016054.093    23016053.847    23016060.806
        47.300          41.800
 146569680.328 6                  27891283.572
        37.700
 139118313.948 6                  26473323.809
        37.100
 105607523.802 8  82139260.343 8  19749123.032    19749123.289    19749129.083
        52.800          48.000
 129846994.984 6 100992165.192 6  24307626.793    24307626.499    24307636.064
        41.900          40.400
 120365372.753 7  93617552.847 7  22493144.285    22493144.652    22493151.888
        46.900          43.100
 126377778.248 7  98293872.670 6  23708143.876    23708144.183    23708151.750
        44.500          40.500
 103889896.488 8  80803305.909 7  19434740.236    19434740.141    19434747.579
        49.100          42.300
 114455155.523 7  89020747.415 7  21373678.179    21373678.645    21373683.658
        47.300          45.500
 25  1  1  5 20 30.0000000  0 34E34G25E03E08S31S35G13E21E13S48S33R02
                                G12G20E15G23G05G11G26G18E07G29G15R23
                                E27R15E26E05R24R16R17R14R01R08
 147594227.253 6                  28086200.921
        36.500
 122022419.020 7  95082486.95146  23220070.669    23220069.7044   23220073.5764
        43.600          39.1004
 133137716.527 7                  25335250.589
        45.300
 135405562.791 7                  25766816.337
        43.900
 198979315.384 7                  37864498.090
        46.100
 200947351.586 7                  38239019.892
        44.600
 116525853.623 7  90799386.73744  22174125.975    22174125.3994   22174126.6974
        44.700          29.8004
 135243302.909 7                  25735929.236
        44.100
 126859699.008 8                  24140576.587
        48.300
 412871084.332 5                  78566855.056
        33.000
 202121162.290 7                  38462348.181
        45.100
 118410931.930 8  92097428.440 7  22190157.634    22190158.312    22190164.946
        48.100          43.800
 130560399.066 6 101735501.65545  24844773.949    24844773.2974   24844774.3944
        41.200          33.2004
 114508959.285 7  89227814.54545  21790304.824    21790303.5194   21790303.7534
        47.100          35.2004
 127837328.563 7                  24326596.494
        47.000
 131885304.261 6 102767773.45443  25096938.601    25096938.1774   25096939.9684
        37.200          19.1004
 106017841.105 8  82611356.14448  20174503.920    20174503.4474   20174503.2344
        50.300          52.3004
 121056367.287 7  94329738.06345  23036225.057    23036224.6864   23036224.9844
        45.600          32.0004
 131384521.559 6 102377576.12444  25001640.016    25001639.2924   25001643.5274
        40.100          29.1004
 125092639.429 7  97474785.35344  23804334.015    23804333.6004   23804335.6854
        42.700          28.7004
 151274677.199 5                  28786613.793
        34.800
 109160438.477 8  85060121.48748  20772523.990    20772523.3514   20772523.4464
        49.600          50.0004
 120093645.611 7  93579477.16846  22853057.167    22853056.7564   22853057.9534
        44.800          38.5004
 116230342.948 7                  21728004.554    21728004.939
        46.500
 139005199.792 7                  26451757.797
        42.100
 123010274.089 7  95674703.578 7  23019695.565    23019695.841    23019703.189
        47.000          42.000
 146539808.669 6                  27885599.160
        36.900
 139146419.225 6                  26478672.291
        37.300
 105593809.546 8  82128593.701 8  19746558.429    19746558.675    19746564.397
        52.700          48.000
 129822578.886 7 100973175.005 6  24303056.445    24303057.033    24303064.965
        42.900          39.900
 120319006.103 7  93581489.958 7  22484480.445    22484480.708    22484487.547
        46.900          43.300
 126428566.909 7  98333374.955 6  23717670.803    23717671.167    23717678.711
        44.500          40.100
 103869479.752 8  80787426.231 7  19430920.910    19430920.866    19430928.040
        49.000          42.200
 114499629.117 7  89055337.976 7  21381983.422    21381983.660    21381988.691
        47.200          45.200
 25  1  1  5 20 45.0000000  0 34E34G25E03E08S31S35G13E21E13S48S33R02
                                G12G20E15G23G05G11G26G18E07G29G15R23
                                E27R15E26E05R24R16R17R14R01R08
 147623923.921 6                  28091851.759
        36.500
 122064992.430 7  95115661.00346  23228172.095    23228171.1164   23228174.9124
        43.600          39.1004
 133131786.363 7                  25334122.028
        45.000
 135366423.212 7                  25759367.905
        43.800
 198979306.584 7                  37864499.011
        46.000
 200947368.977 7                  38239029.059
        44.800
 116485452.982 7  90767905.74845  22166438.108    22166437.5324   22166438.6554
        44.600          30.0004
 135256320.116 7                  25738406.071
        44.100
 126845764.535 8                  24137924.886
        48.400
 412870855.090 5                  78566828.929
        33.500
 202121142.903 7                  38462348.159
        45.200
 118347177.907 8  92047841.989 7  22178210.664    22178211.402    22178217.374
        48.800          43.500
 130613472.253 6 101776857.38945  24854873.136    24854872.5024   24854873.9744
        41.100          33.3004
 114545529.167 7  89256310.58745  21797263.710    21797262.4054   21797262.7524
        46.800          35.3004
 127852084.653 7                  24329404.551
        47.000
 131836245.717 6 102729546.01843  25087602.702    25087602.2694   25087603.6324
        37.100          18.8004
 106029175.635 8  82620188.23548  20176660.868    20176660.3994   20176660.1344
        50.400          52.3004
 121090436.129 7  94356285.22445  23042708.160    23042707.7894   23042708.2064
        45.500          32.1004
 131367334.122 6 102364183.42244  24998369.606    24998368.8874   24998373.3354
        40.000          29.4004
 125054134.664 7  97444781.63044  23797006.981    23797006.5704   23797008.2784
        42.300          28.9004
 151230404.671 5                  28778189.437
        33.800
 109137744.489 8  85042437.85648  20768205.656    20768205.0174   20768204.9104
        49.600          50.0004
 120038215.899 7  93536285.22046  22842508.949    22842508.5254   22842510.0754
        44.200          38.6004
 116264012.805 7                  21734298.367    21734299.123
        46.500
 139046788.536 6                  26459671.876
        41.400
 123029900.850 7  95689968.864 6  23023369.063    23023369.748    23023375.697
        47.200          41.800
 146509940.674 6                  27879916.021
        38.400
 139174606.551 6                  26484035.977
        38.000
 105580178.807 8  82117992.034 7  19744009.704    19744009.515    19744015.299
        52.700          47.900
 129798327.279 6 100954312.513 6  24298516.586    24298516.167    24298525.124
        41.600          40.000
 120272641.678 7  93545428.755 7  22475815.786    22475815.813    22475822.991
        47.300          43.000
 126479393.636 7  98372906.865 6  23727207.309    23727206.460    23727213.624
        44.800          40.200
 103849263.149 8  80771702.235 7  19427138.976    19427138.893    19427146.237
        49.000          42.400
 114544242.808 7  89090037.555 7  21390314.585    21390314.700    21390319.744
        47.000          45.700
 25  1  1  5 21  0.0000000  0 34E34G25E03E08S31S35G13E21E13S48S33R02
                                G12G20E15G23G05G11G26G18E07G29G15R23
                                E27R15E26E05R24R16R17R14R01R08
 147653622.945 6                  28097503.600
        36.900
 122107616.894 7  95148874.84646  23236283.441    23236282.4674   23236286.0474
        43.400          39.1004
 133125960.797 7                  25333013.530
        45.100
 135327329.406 7                  25751928.662
        44.300
 198979296.151 7                  37864493.166
        45.500
 200947384.849 7                  38239029.028
        44.400
 116445141.986 7  90736494.62045  22158767.444    22158766.8724   22158767.6134
        45.500          30.0004
 135269435.242 7                  25740901.676
        43.900
 126831848.455 8                  24135276.762
        48.300
 412870624.582 5                  78566794.019
        32.800
 202121122.435 7                  38462346.303
        45.400
 118283486.522 7  91998304.274 7  22166273.697    22166274.343    22166281.285
        47.100          43.300
 130666525.823 6 101818197.82845  24864969.290    24864968.6564   24864969.8074
        41.400          33.8004
 114582143.476 7  89284841.23545  21804231.154    21804229.8494   21804230.2114
        47.100          35.1004
 127866860.525 7                  24332216.322
        47.000
 131787213.110 6 102691338.79643  25078271.820    25078271.3824   25078273.1484
        37.600          19.4004
 106040621.920 8  82629107.41048  20178838.818    20178838.3454   20178838.3114
        50.500          52.3004
 121124534.702 7  94382855.54445  23049196.784    23049196.4134   23049197.0454
        45.300          32.1004
 131350267.655 6 102350884.87144  24995121.794    24995121.0844   24995125.4354
        40.300          29.2004
 125015638.012 7  97414784.23144  23789681.252    23789680.8144   23789682.8084
        42.500          28.9004
 151186096.950 5                  28769757.870
        33.600
 109115164.579 8  85024843.11848  20763908.986    20763908.3474   20763908.1014
        49.600          50.0004
 119982825.576 7  93493123.96446  22831968.930    22831968.5014   22831969.6334
        43.800          38.7004
 116297751.741 7                  21740606.664    21740606.306
        46.700
 139088402.128 7                  26467591.105
        42.000
 123049685.116 7  95705356.609 6  23027070.916    23027071.317    23027077.758
        46.800          41.500
 146480070.884 6                  27874231.791
        37.600
 139202870.402 6                  26489413.872
        38.100
 105566626.221 8  82107451.142 8  19741475.088    19741475.303    19741480.980
        52.800          48.100
 129774235.546 7 100935574.547 6  24294007.377    24294007.632    24294014.773
        42.800          39.300
 120226274.332 7  93509365.378 7  22467150.935    22467151.127    22467157.917
        46.600          43.100
 126530252.518 7  98412463.754 6  23736747.577    23736748.022    23736754.604
        45.200          39.900
 103829241.420 8  80756129.792 7  19423393.515    19423393.435    19423400.851
        49.200          42.400
 114588990.475 7  89124841.291 7  21398671.181    21398671.514    21398675.995
        47.100          45.400
 25  1  1  5 21 15.0000000  0 34E34G25E03E08S31S35G13E21E13S48S33R02
                                G12G20E15G23G05G11G26G18E07G29G15R23
                                E27R15E26E05R24R16R17R14R01R08
 147683325.109 6                  28103155.488
        37.300
 122150292.773 7  95182128.74246  23244403.923    23244402.9534   23244407.3144
        43.100          39.3004
 133120240.717 7                  25331924.979
        45.100
 135288282.325 7                  25744498.516
        44.400
 198979284.240 7                  37864497.473
        45.600
 200947399.176 7                  38239031.308
        44.300
 116404921.776 7  90705154.19945  22151113.478    22151112.8754   22151113.9354
        44.500          30.1004
 135282649.008 7                  25743416.636
        44.000
 126817951.699 8                  24132632.207
        48.500
 412870392.951 5                  78566768.620
        32.500
 202121100.649 7                  38462335.366
        44.800
 118219859.330 7  91948816.440 7  22154350.554    22154350.551    22154357.784
        47.700          43.300
 130719560.067 6 101859523.21745  24875060.846    24875060.1984   24875061.4674
        40.200          33.1004
 114618802.732 7  89313406.90245  21811207.164    21811205.8544   21811206.2914
        47.000          35.2004
 127881657.058 7                  24335031.908
        47.200
 131738207.419 6 102653152.55943  25068946.294    25068945.8524   25068948.1974
        37.900          20.1004
 106052180.185 8  82638113.84748  20181038.230    20181037.7574   20181037.8044
        50.300          52.3004
 121158663.799 7  94409449.65545  23055691.551    23055691.1764   23055691.5184
        45.000          31.9004
 131333323.242 6 102337681.46444  24991897.391    24991896.6724   24991900.6894
        40.100          29.3004
 124977150.364 7  97384793.84844  23782357.018    23782356.5894   23782358.7824
        42.600          29.0004
 151141755.130 5                  28761320.007
        34.100
 109092699.931 8  85007338.20348  20759634.046    20759633.4164   20759633.1804
        49.100          50.0004
 119927475.733 7  93449994.24446  22821435.922    22821435.5114   22821436.7894
        44.000          38.6004
 116331560.819 7                  21746926.470    21746926.453
        46.400
 139130041.166 7                  26475514.596
        42.000
 123069627.248 7  95720867.167 6  23030802.890    23030803.544    23030810.038
        46.700          41.800
 146450200.148 6                  27868547.184
        38.200
 139231211.738 6                  26494807.237
        37.600
 105553152.815 8  82096971.839 7  19738955.318    19738955.584    19738961.422
        52.600          47.900
 129750305.027 7 100916962.133 6  24289526.219    24289526.601    24289535.325
        42.500          39.400
 120179904.654 7  93473300.033 7  22458485.654    22458485.633    22458492.570
        47.700          43.100
 126581143.871 7  98452045.952 6  23746294.921    23746295.110    23746301.742
        44.100          40.400
 103809415.558 8  80740709.688 7  19419684.440    19419684.582    19419691.770
        48.800          42.100
 114633872.381 7  89159749.455 7  21407052.357    21407052.632    21407057.774
        47.200          45.400
 25  1  1  5 21 30.0000000  0 34E34G25E03E08S31S35G13E21E13S48S33R02
                                G12G20E15G23G05G11G26G18E07G29G15R23
                                E27R15E26E05R24R16R17R14R01R08
 147713030.917 6                  28108808.729
        37.600
 122193020.172 7  95215422.79346  23252534.767    23252533.7934   23252538.0614
        43.200          39.0004
 133114626.667 7                  25330856.528
        45.000
 135249282.766 7                  25737077.251
        43.800
 198979271.964 7                  37864493.864
        46.000
 200947414.113 7                  38239033.187
        44.300
 116364793.277 7  90673885.24745  22143477.152    22143476.5494   22143477.8394
        44.800          30.2004
 135295961.713 7                  25745949.807
        43.900
 126804074.705 8                  24129991.579
        48.200
 412870159.582 5                  78566739.322
        32.400
 202121077.619 7                  38462337.785
        44.900
 118156297.014 8  91899379.077 7  22142439.573    22142439.964    22142446.258
        48.200          43.600
 130772575.179 6 101900833.70345  24885149.373    24885148.7214   24885149.4884
        41.300          32.9004
 114655507.289 7  89342007.87545  21818191.887    21818190.5774   21818190.8804
        46.900          35.1004
 127896474.663 7                  24337851.813
        46.700
 131689229.265 6 102614987.79343  25059625.830    25059625.3924   25059628.0654
        38.500          19.8004
 106063850.825 8  82647207.84448  20183259.061    20183258.5794   20183258.6624
        50.200          52.3004
 121192823.817 7  94436067.85445  23062191.943    23062191.5724   23062191.9024
        45.600          31.8004
 131316501.514 6 102324573.75444  24988696.478    24988695.7764   24988699.8394
        38.900          28.5004
 124938672.174 7  97354810.83244  23775035.315    23775034.8864   23775036.5904
        42.000          28.7004
 151097379.693 5                  28752875.376
        35.300
 109070351.170 8  84989923.58548  20755381.236    20755380.6024   20755380.3144
        49.500          49.9004
 119872167.174 7  93406896.69846  22810910.672    22810910.2664   22810911.8194
        44.000          38.5004
 116365440.538 7                  21753260.059    21753259.979
        46.600
 139171705.789 6                  26483443.151
        41.900
 123089727.284 7  95736500.496 6  23034564.191    23034564.934    23034571.195
        47.100          41.300
 146420328.873 6                  27862863.580
        37.500
 139259630.825 6                  26500214.935
        37.500
 105539759.322 8  82086554.682 8  19736450.854    19736450.890    19736456.822
        52.800          48.000
 129726534.997 7 100898474.093 6  24285077.693    24285077.462    24285085.546
        43.100          39.500
 120133533.454 7  93437233.538 7  22449820.070    22449820.625    22449826.628
        47.400          42.800
 126632067.664 7  98491653.335 6  23755848.629    23755849.411    23755854.921
        46.100          40.300
 103789786.317 8  80725442.508 7  19416012.306    19416012.257    19416019.857
        48.500          42.400
 114678888.555 7  89194762.020 7  21415458.570    21415459.018    21415464.036
        46.900          45.300
 25  1  1  5 21 45.0000000  0 34E34G25E03E08S31S35G13E21E13S48S33R02
                                G12G20E15G23G05G11G26G18E07G29G15R23
                                E27R15E26E05R24R16R17R14R01R08
 147742741.953 6                  28114461.485
        36.700
 122235800.204 7  95248757.86746  23260675.592    23260674.6274   23260678.7974
        43.300          39.0004
 133109120.153 7                  25329809.126
        45.000
 135210332.437 7                  25729664.909
        44.100
 198979260.871 7                  37864488.981
        45.700
 200947428.566 7                  38239037.605
        44.200
 116324758.288 7  90642689.15245  22135858.741    22135858.1244   22135859.5314
        45.200          30.2004
 135309374.772 7                  25748502.171
        44.000
 126790218.935 8                  24127354.910
        48.400
 412869926.458 5                  78566712.845
        32.200
 202121056.821 7                  38462328.596
        44.900
 118092801.979 7  91849994.079 7  22130540.307    22130540.637    22130547.834
        47.800          44.000
 130825572.423 6 101942130.26745  24895234.736    24895234.0704   24895234.6924
        40.300          32.6004
 114692258.443 7  89370645.16545  21825185.268    21825183.9544   21825184.3194
        46.700          35.1004
 127911314.954 7                  24340675.768
        46.900
 131640280.249 6 102576845.71243  25050311.520    25050311.0784   25050313.0764
        38.200          19.6004
 106075635.145 8  82656390.42348  20185501.686    20185501.2084   20185501.1634
        50.300          52.3004
 121227016.287 7  94462711.34445  23068698.339    23068697.9644   23068698.6364
        45.300          31.9004
 131299803.905 6 102311562.69644  24985518.635    24985517.9254   24985522.4384
        39.000          28.2004
 124900205.064 7  97324836.45344  23767715.131    23767714.7024   23767716.5704
        42.400          28.9004
 151052972.415 5                  28744425.072
        33.300
 109048120.178 8  84972600.74148  20751150.659    20751150.0254   20751149.8774
        49.100          49.9004
 119816901.824 7  93363832.81746  22800394.459    22800394.0664   22800395.1844
        44.100          38.6004
 116399392.431 7                  21759606.703    21759607.353
        46.900
 139213397.321 6                  26491376.768
        41.800
 123109986.573 7  95752257.745 6  23038356.017    23038356.293    23038362.519
        46.800          41.400
 146390458.489 6                  27857178.737
        37.200
 139288128.645 6                  26505638.181
        38.200
 105526447.504 8  82076201.058 8  19733961.353    19733961.627    19733967.371
        52.900          48.000
 129702928.473 7 100880113.341 6  24280658.010    24280658.215    24280666.774
        43.300          40.300
 120087162.769 7  93401167.565 7  22441154.821    22441154.643    22441161.285
        47.600          43.200
 126683024.652 7  98531286.558 6  23765406.445    23765407.223    23765414.253
        45.300          39.900
 103770355.264 8  80710329.497 7  19412377.663    19412377.383    19412384.727
        48.400          42.100
 114724040.298 7  89229880.071 7  21423890.039    21423891.027    21423895.754
        47.000          45.400
 25  1  1  5 22  0.0000000  0 34E34G25E03E08S31S35G13E21E13S48S33R02
                                G12G20E15G23G05G11G26G18E07G29G15R23
                                E27R15E26E05R24R16R17R14R01R08
 147772456.643 6                  28120116.200
        37.200
 122278630.905 7  95282132.41046  23268825.916    23268824.9554   23268829.1974
        43.400          39.0004
 133103719.739 7                  25328781.241
        45.200
 135171430.081 7                  25722261.928
        44.200
 198979248.814 7                  37864487.130
        46.000
 200947443.141 7                  38239036.581
        44.400
 116284815.682 7  90611565.03745  22128257.958    22128257.3464   22128258.5514
        44.700          30.4004
 135322886.526 7                  25751073.623
        44.100
 126776382.889 8                  24124722.094
        48.500
 412869693.053 5                  78566682.470
        32.800
 202121035.111 7                  38462323.234
        45.000
 118029372.947 7  91800660.369 7  22118653.543    22118653.888    22118660.244
        47.900          43.500
 130878550.000 6 101983411.50245  24905315.562    24905314.8694   24905316.1574
        41.100          33.0004
 114729054.328 7  89399317.28245  21832187.259    21832185.9494   21832186.3614
        47.100          35.1004
 127926176.376 7                  24343503.705
        47.100
 131591359.032 6 102538725.29943  25041002.042    25041001.5694   25041002.9934
        37.700          19.7004
 106087531.176 8  82665660.04948  20187765.437    20187764.9594   20187764.9174
        50.000          52.4004
 121261239.632 7  94489378.89045  23075211.036    23075210.6564   23075211.1524
        45.000          31.9004
 131283229.360 6 102298647.76944  24982364.217    24982363.5024   24982367.9054
        39.000          28.7004
 124861747.462 7  97294869.49144  23760396.774    23760396.3454   23760398.3894
        42.500          29.1004
 151008531.944 5                  28735968.143
        34.900
 109026005.692 8  84955368.68048  20746942.374    20746941.7484   20746941.6164
        49.300          50.1004
 119761678.556 7  93320801.71346  22789885.494    22789885.0924   22789886.5314
        44.200          38.7004
 116433414.464 7                  21765966.239    21765966.863
        46.300
 139255113.934 6                  26499315.213
        41.800
 123130403.198 7  95768137.351 6  23042176.035    23042176.288    23042183.900
        46.700          41.800
 146360587.505 6                  27851494.772
        38.100
 139316703.723 6                  26511075.821
        37.400
 105513216.241 8  82065910.071 8  19731486.964    19731487.219    19731493.030
        52.800          48.200
 129679484.110 7 100861878.831 6  24276269.076    24276269.434    24276277.188
        42.400          39.500
 120040790.698 7  93365100.437 7  22432488.799    22432489.265    22432495.665
        47.300          43.100
 126734012.715 7  98570943.952 6  23774973.422    23774973.678    23774979.348
        45.100          39.500
 103751121.060 8  80695369.570 7  19408779.318    19408779.050    19408786.404
        48.400          42.200
 114769325.236 7  89265101.727 7  21432346.676    21432347.635    21432352.563
        47.000          45.300
 25  1  1  5 22 15.0000000  0 34E34G25E03E08S31S35G13E21E13S48S33R02
                                G12G20E15G23G05G11G26G18E07G29G15R23
                                E27R15E26E05R24R16R17R14R01R08
 147802176.526 6                  28125772.712
        36.400
 122321513.329 7  95315547.26746  23276986.314    23276985.3534   23276989.3804
        43.400          39.0004
 133098426.880 7                  25327774.003
        45.000
 135132577.306 7                  25714868.992
        44.200
 198979238.033 7                  37864490.148
        46.000
 200947458.106 7                  38239038.360
        44.500
 116244967.313 7  90580514.37645  22120675.444    22120674.8324   22120675.7974
        44.300          30.5004
 135336498.241 7                  25753663.969
        43.800
 126762568.016 8                  24122093.186
        48.400
 412869460.019 5                  78566657.411
        32.900
 202121013.292 7                  38462313.763
        44.800
 117966011.660 8  91751379.384 7  22106779.807    22106780.438    22106787.537
        48.300          44.200
 130931508.895 6 102024678.17745  24915393.463    24915392.7754   24915394.0674
        40.800          33.2004
 114765896.219 7  89428025.26245  21839197.697    21839196.3694   21839197.1194
        47.000          35.2004
 127941060.349 7                  24346336.066
        46.800
 131542467.139 6 102500627.73243  25031697.830    25031697.3744   25031698.8524
        37.400          19.7004
 106099540.669 8  82675018.08948  20190050.749    20190050.2714   20190050.2564
        49.800          52.4004
 121295495.272 7  94516071.59845  23081729.486    23081729.1024   23081729.7904
        44.900          32.0004
 131266778.858 6 102285829.42444  24979233.973    24979233.2634   24979237.3094
        38.200          28.3004
 124823300.847 7  97264911.08544  23753081.266    23753080.8424   23753082.2604
        43.000          29.2004
 150964059.878 5                  28727505.029
        33.800
 109004009.277 8  84938228.61448  20742756.544    20742755.9184   20742755.7974
        49.200          50.1004
 119706499.194 7  93277804.81846  22779385.344    22779384.9384   22779386.3614
        43.900          38.8004
 116467508.792 7                  21772340.786    21772340.281
        46.600
 139296856.772 7                  26507258.535
        42.000
 123150978.145 7  95784140.080 6  23046025.981    23046026.709    23046033.945
        47.000          41.100
 146330717.293 6                  27845810.195
        37.900
 139345357.381 6                  26516528.715
        38.200
 105500066.671 8  82055682.639 8  19729027.999    19729028.340    19729034.031
        52.700          48.000
 129656203.222 7 100843771.404 6  24271911.978    24271911.619    24271919.690
        43.000          40.100
 119994419.137 7  93329033.726 7  22423822.848    22423822.867    22423829.862
        46.900          43.100
 126785032.978 7  98610626.383 6  23784544.556    23784545.007    23784550.879
        45.800          39.800
 103732085.419 8  80680564.098 7  19405218.366    19405218.333    19405225.364
        48.500          42.200
 114814744.538 7  89300427.868 7  21440828.922    21440829.238    21440834.296
        47.300          45.800
 25  1  1  5 22 30.0000000  0 34E34G25E03E08S31S35G13E21E13S48S33R02
                                G12G20E15G23G05G11G26G18E07G29G15R23
                                E27R15E26E05R24R16R17R14R01R08
 147831901.926 6                  28131428.919
        37.700
 122364447.406 7  95349002.37146  23285156.706    23285155.7454   23285159.5584
        43.100          39.0004
 133093241.945 7                  25326787.352
        44.700
 135093774.728 7                  25707484.664
        43.900
 198979228.010 7                  37864485.363
        45.800
 200947473.888 7                  38239048.091
        44.400
 116205213.966 7  90549537.78945  22113110.593    22113109.9994   22113111.0054
        44.800          30.4004
 135350210.163 7                  25756272.854
        43.800
 126748774.611 8                  24119468.338
        48.400
 412869226.881 5                  78566635.786
        33.100
 202120993.577 7                  38462318.611
        45.200
 117902718.834 7  91702151.631 7  22094918.784    22094918.882    22094925.462
        47.700          43.700
 130984449.068 6 102065930.26345  24925466.982    24925466.2944   24925468.7494
        41.100          33.3004
 114802784.096 7  89456769.06145  21846217.335    21846215.9984   21846216.6454
        47.100          35.1004
 127955967.241 7                  24349172.687
        46.900
 131493605.094 6 102462553.44343  25022399.638    25022399.1654   25022400.6404
        38.000          19.7004
 106111663.559 8  82684464.49148  20192357.875    20192357.4024   20192357.1714
        49.900          52.4004
 121329783.539 7  94542789.72345  23088254.167    23088253.7784   23088254.5934
        44.800          31.9004
 131250452.893 6 102273108.04644  24976127.325    24976126.6154   24976130.6044
        40.000          29.1004
 124784865.636 7  97234961.57344  23745766.752    23745766.3194   23745768.2424
        42.100          29.3004
 150919556.799 5                  28719036.562
        35.500
 108982131.678 8  84921181.13548  20738593.638    20738593.0214   20738592.6094
        49.400          50.1004
 119651364.391 7  93234842.63046  22768893.544    22768893.1294   22768894.5224
        44.600          38.8004
 116501675.464 7                  21778727.950    21778727.591
        46.700
 139338625.957 6                  26515207.131
        41.600
 123171711.600 7  95800266.081 6  23049906.538    23049907.456    23049912.787
        46.500          41.000
 146300848.150 6                  27840126.922
        37.900
 139374089.352 6                  26521996.481
        37.300
 105486999.972 8  82045519.651 8  19726584.574    19726584.617    19726590.451
        52.400          48.100
 129633086.856 7 100825792.118 6  24267584.579    24267584.573    24267590.962
        43.300          38.900
 119948048.614 7  93292967.850 7  22415156.969    22415158.137    22415165.337
        47.800          43.400
 126836085.108 7  98650333.605 6  23794121.540    23794121.497    23794127.243
        45.500          39.100
 103713248.575 8  80665913.226 7  19401694.060    19401694.507    19401701.699
        48.300          42.000
 114860297.888 7  89335858.247 7  21449336.218    21449336.420    21449340.601
        47.600          45.500
