     2.11           OBSERVATION DATA    M (MIXED)           RINEX VERSION / TYPE
teqc  2019Feb25                         20260317 16:20:09UTCPGM / RUN BY / DATE
Linux 2.4.21-27.ELsmp|Opteron|gcc -static|Linux 64|=+       COMMENT
BIT 2 OF LLI FLAGS DATA COLLECTED UNDER A/S CONDITION       COMMENT
-Unknown-                                                   MARKER NAME
-Unknown-           -Unknown-                               OBSERVER / AGENCY
-Unknown-           -Unknown-           -Unknown-           REC # / TYPE / VERS
-Unknown-           -Unknown-                               ANT # / TYPE
        0.0000        0.0000        0.0000                  APPROX POSITION XYZ
        0.0000        0.0000        0.0000                  ANTENNA: DELTA H/E/N
     1     1                                                WAVELENGTH FACT L1/2
     7    L1    L2    C1    P1    P2    S1    S2            # / TYPES OF OBSERV
 SNR is mapped to RINEX snr flag value [0-9]                COMMENT
  L1 & L2: min(max(int(snr_dBHz/6), 0), 9)                  COMMENT
  2025     1     1    18     0    0.0000000     GPS         TIME OF FIRST OBS
    18                                                      LEAP SECONDS
                                                            END OF HEADER
 25  1  1 18  0  0.0000000  0 31G09G26E19R18G08S31S35G07R06S48S33R19
                                G30G20E04E31G16G27E21R01G04E06R07R20
                                R08R10R11R16G31R09E09
 106162752.161 8  82724230.82748  20202100.964    20202100.3924   20202104.1604
        50.100          52.0004
 129580513.001 6 100971825.21045  24658371.342    24658370.6494   24658382.8604
        39.600          32.5004
 134513852.470 6                  25597169.064
        37.600
 122642340.943 7  95388700.667 7  22974983.226    22974984.084    22974995.378
        46.800          42.100
 110846720.752 7  86374190.64847  21093391.664    21093390.9094   21093399.7254
        47.800          47.3004
 198979108.542 7                  37864477.757
        46.100
 200909470.218 7                  38231828.012
        44.400
 117206162.252 7  91329523.33247  22303572.635    22303571.9294   22303572.9394
        46.800          44.3004
 123600768.451 6                  23162785.081    23162784.785
        36.400
 412852510.857 5                  78563142.277
        33.300
 202119496.111 7                  38462055.737
        45.300
 121550494.767 6  94539458.485 6  22722538.884    22722538.633    22722554.842
        36.600          40.800
 131160842.647 6 102203283.12845  24959075.502    24959074.5994   24959078.6174
        38.800          30.1004
 132980337.620 6 103621043.36042  25305315.654    25305314.3174   25305315.7124
        38.600          15.8004
 122691571.735 8                  23347433.632
        48.000
 129680302.238 7                  24677295.938
        45.700
 115039416.665 7  89641168.21945  21891253.472    21891252.4484   21891254.5624
        45.600          32.5004
 109951409.417 8  85676584.73448  20922997.388    20922996.6644   20923001.8864
        48.200          48.8004
 139325156.194 7                  26512694.318
        42.900
 131256934.944 6                  24554324.983    24554324.067
        37.500
 107697177.096 7  83919871.28746  20494099.958    20494099.5524   20494104.0154
        47.700          38.0004
 125855201.713 8                  23949449.081
        48.700
 106867340.262 8  83119053.199 7  19963721.420    19963721.735    19963731.304
        51.800          47.900


 109487492.433 8  85156955.702 7  20446016.893    20446017.006    20446022.994
        51.000          47.000
 107839572.042 7                  20230381.718    20230381.181
        46.600
 126503526.918 7  98391757.339 6  23673387.171    23673386.484    23673401.872
        42.100          41.000
 126994237.539 7  98773298.237 6  23773613.431    23773613.864    23773630.257
        42.400          41.500
 134380568.827 6 104712023.40244  25571854.079    25571853.5704   25571880.5434
        37.400          26.8004
 107026875.941 8  83243215.894 8  20042674.981    20042675.334    20042681.249
        51.400          48.600
 134753996.097 7                  25642830.802
        43.900
 25  1  1 18  0 15.0000000  0 31G09G26E19R18G08S31S35G07R06S48S33R19
                                G30G20E04E31G16G27E21R01G04E06R07R20
                                R08R10R11R16G31R09E09
 106163467.295 8  82724788.07148  20202237.225    20202236.6494   20202240.2624
        49.900          51.9004
 129630872.979 6 101011066.41645  24667954.745    24667954.0704   24667966.4424
        38.800          32.1004
 134555006.585 6                  25605000.323
        37.900
 122649410.740 7  95394199.430 6  22976307.791    22976308.391    22976320.096
        47.000          41.600
 110809862.999 7  86345470.43247  21086377.885    21086377.1254   21086385.8024
        47.400          47.2004
 198979098.146 7                  37864471.935
        45.600
 200909429.365 7                  38231820.312
        44.100
 117174988.661 7  91305232.25647  22297640.725    22297640.0284   22297640.8134
        46.900          44.2004
 123668768.583 5                  23175526.243    23175526.964
        35.800
 412853141.339 5                  78563184.744
        33.200
 202119505.785 7                  38462056.256
        45.100
 121516763.830 6  94513223.775 6  22716232.062    22716232.424    22716247.945
        36.400          40.600
 131118290.961 6 102170126.00144  24950978.127    24950977.2244   24950981.5104
        37.700          29.6004
 132975067.759 6 103616936.91942  25304312.632    25304311.2784   25304312.9554
        38.100          14.8004
 122696099.954 8                  23348295.493
        48.000
 129654538.744 7                  24672393.060
        45.600
 115084452.381 7  89676261.02745  21899823.068    21899822.0404   21899824.4934
        45.000          32.1004
 109946554.422 8  85672801.67748  20922073.498    20922072.7794   20922077.9784
        48.000          48.7004
 139361700.680 7                  26519648.798
        42.400
 131195224.650 6                  24542779.710    24542779.683
        38.900
 107724665.025 7  83941290.41046  20499330.820    20499330.4184   20499334.8564
        47.400          38.0004
 125838493.869 8                  23946269.718
        48.500
 106904039.411 8  83147596.903 8  19970577.662    19970577.698    19970587.383
        52.000          48.000


 109463344.917 8  85138174.329 7  20441507.027    20441507.701    20441513.725
        50.600          47.100
 107825162.762 7                  20227678.295    20227677.933
        46.400
 126461327.012 7  98358935.538 6  23665490.452    23665490.649    23665504.226
        43.600          40.600
 127040267.346 7  98809098.789 6  23782229.833    23782230.279    23782247.467
        42.100          41.300
 134424395.911 6 104746174.20744  25580194.094    25580193.5984   25580220.6734
        37.000          26.0004
 107048488.460 8  83260025.679 8  20046722.606    20046722.809    20046728.662
        51.700          48.900
 134721696.656 7                  25636684.855
        43.700
 25  1  1 18  0 30.0000000  0 31G09G26E19R18G08S31S35G07R06S48S33R19
                                G30G20E04E31G16G27E21R01G04E06R07R20
                                R08R10R11R16G31R09E09
 106164334.719 8  82725463.98248  20202402.203    20202401.6184   20202405.3594
        50.200          51.8004
 129681228.701 6 101050304.43845  24677537.490    24677536.8154   24677549.2814
        38.200          32.2004
 134596208.170 6                  25612840.708
        37.300
 122656670.381 7  95399845.836 6  22977667.718    22977668.265    22977679.630
        46.700          41.300
 110773126.723 7  86316844.88347  21079387.167    21079386.4124   21079395.0374
        47.600          47.2004
 198979090.119 7                  37864479.148
        45.900
 200909390.621 7                  38231809.544
        44.200
 117143834.814 7  91280956.56747  22291712.192    22291711.4954   22291712.3624
        47.400          44.1004
 123736794.209 5                  23188275.638    23188275.560
        35.400
 412853773.774 5                  78563219.127
        32.800
 202119517.146 7                  38462060.066
        45.500
 121483175.249 6  94487099.782 6  22709953.652    22709953.269    22709969.688
        36.700          41.300
 131075733.606 6 102136964.46345  24942878.809    24942877.9114   24942883.2144
        38.500          30.0004
 132969923.427 6 103612928.31542  25303333.901    25303332.5424   25303334.1614
        38.700          15.9004
 122700726.842 8                  23349176.041
        48.100
 129628836.417 7                  24667501.779
        45.800
 115129542.874 7  89711396.49845  21908403.909    21908402.8814   21908404.8894
        45.400          32.1004
 109941868.750 8  85669150.59448  20921181.633    20921180.9184   20921186.2514
        48.600          48.6004
 139398257.546 7                  26526605.538
        42.500
 131133567.340 6                  24531246.054    24531246.421
        39.700
 107752284.434 7  83962811.97746  20504586.531    20504586.1294   20504590.7354
        47.800          37.8004
 125821872.197 8                  23943106.589
        48.500
 106940913.337 8  83176276.559 7  19977465.677    19977466.050    19977475.421
        52.000          47.700


 109439388.433 8  85119541.543 7  20437033.291    20437033.780    20437039.813
        50.400          47.200
 107810835.334 7                  20224990.561    20224990.430
        46.900
 126419166.627 7  98326144.564 6  23657599.906    23657599.711    23657614.460
        43.200          41.000
 127086284.074 7  98844889.340 6  23790845.542    23790845.110    23790862.612
        42.500          41.700
 134468234.273 6 104780333.81244  25588537.097    25588536.6014   25588562.9684
        38.100          26.0004
 107070158.444 8  83276880.126 8  20050780.553    20050780.896    20050786.633
        52.000          49.100
 134689455.166 7                  25630549.270
        44.000
 25  1  1 18  0 45.0000000  0 31G09G26E19R18G08S31S35G07R06S48S33R19
                                G30G20E04E31G16G27E21R01G04E06R07R20
                                R08R10R11R16G31R09E09
 106165356.471 8  82726260.12048  20202596.433    20202595.8484   20202599.8174
        50.100          51.8004
 129731582.005 6 101089540.64745  24687118.907    24687118.2234   24687131.7854
        39.300          32.0004
 134637458.929 6                  25620691.145
        36.800
 122664122.086 7  95405641.741 6  22979063.785    22979064.091    22979075.819
        46.100          41.500
 110736514.213 7  86288315.75147  21072419.603    21072418.8434   21072427.8204
        47.800          47.1004
 198979086.426 7                  37864467.043
        45.100
 200909356.633 7                  38231796.617
        43.900
 117112702.727 7  91256697.80947  22285788.016    22285787.3194   22285788.1154
        47.200          44.1004
 123804846.958 6                  23201028.439    23201028.949
        36.200
 412852809.513 5                  78563256.085
        33.300
 202119532.094 7                  38462064.005
        45.400
 121449731.417 6  94461088.399 6  22703700.617    22703700.438    22703716.853
        36.400          41.000
 131033172.748 6 102103800.19344  24934779.543    24934778.6454   24934784.0464
        38.200          29.8004
 132964906.350 6 103609018.93242  25302379.427    25302378.0594   25302379.4754
        38.100          16.0004
 122705454.439 7                  23350075.724
        47.900
 129603197.289 7                  24662623.105
        45.600
 115174690.159 7  89746576.27645  21916995.152    21916994.1424   21916996.1194
        45.600          31.9004
 109937354.410 8  85665632.98548  20920322.458    20920321.7394   20920327.1234
        48.600          48.5004
 139434828.567 7                  26533564.159
        42.600
 131071965.494 6                  24519721.488    24519721.771
        39.500
 107780037.229 7  83984437.44946  20509867.957    20509867.5554   20509871.9714
        47.900          37.7004
 125805338.859 8                  23939960.437
        48.400
 106977963.845 8  83205093.553 7  19984387.595    19984387.433    19984396.974
        51.500          47.900


 109415625.497 8  85101059.279 7  20432596.342    20432596.455    20432602.166
        50.400          47.000
 107796591.248 7                  20222318.296    20222317.960
        46.600
 126377047.916 7  98293385.936 6  23649717.395    23649718.123    23649732.223
        43.800          41.100
 127132289.244 6  98880670.916 6  23799457.175    23799456.771    23799474.532
        41.500          41.300
 134512086.001 6 104814503.83244  25596881.255    25596880.7554   25596908.1794
        36.300          24.8004
 107091887.851 8  83293780.824 8  20054849.567    20054850.019    20054855.881
        52.000          49.000
 134657273.829 7                  25624425.165
        43.900
 25  1  1 18  1  0.0000000  0 32G09G26E19R18G08S31S35G07E13R06S48S33
                                R19G30G20E04E31G16G27E21R01G04E06R07
                                R20R08R10R11R16G31R09E09
 106166522.528 8  82727168.70048  20202818.662    20202818.0724   20202821.7394
        50.400          52.0004
 129781922.329 6 101128766.68545  24696698.390    24696697.6974   24696711.2254
        38.600          32.0004
 134678748.927 6                  25628548.334
        37.200
 122671755.227 7  95411578.676 6  22980493.909    22980494.327    22980505.092
        46.700          41.900
 110700015.734 7  86259875.45547  21065474.410    21065473.6504   21065482.2904
        47.700          47.4004
 198979076.502 7                  37864470.549
        45.200
 200909316.082 7                  38231796.706
        44.100
 117081582.292 7  91232448.13247  22279865.876    22279865.1744   22279866.0864
        47.500          44.3004
 151749410.127 5                  28876952.116
        34.200
 123872916.020 5                  23213784.508    23213783.537
        35.000
 412853441.771 5                  78563294.183
        33.500
 202119542.493 7                  38462063.335
        45.000
 121416422.408 6  94435181.721 6  22697474.638    22697474.272    22697489.381
        37.000          41.100
 130990598.237 6 102070625.28545  24926678.731    24926677.8424   24926682.4764
        38.700          30.2004
 132960006.549 6 103605200.90742  25301447.107    25301445.7214   25301447.0794
        38.900          14.8004
 122710272.681 7                  23350992.562
        47.900
 129577611.269 7                  24657754.097
        45.500
 115219883.600 7  89781791.97945  21925594.984    21925593.9604   21925596.1364
        45.500          32.1004
 109933001.344 8  85662241.01548  20919494.318    20919493.5994   20919498.7464
        48.800          48.8004
 139471403.591 7                  26540524.203
        42.500
 131010409.467 6                  24508206.208    24508205.943
        37.700
 107807913.147 8  84006158.87146  20515172.670    20515172.2644   20515176.6394
        48.100          38.1004
 125788883.904 8                  23936829.140
        48.500
 107015179.802 8  83234039.180 7  19991339.833    19991340.189    19991349.637
        52.000          47.900


 109392046.116 8  85082719.765 7  20428192.568    20428192.832    20428199.017
        50.100          47.100
 107782420.011 7                  20219660.136    20219659.486
        46.100
 126334960.518 7  98260651.639 6  23641842.003    23641842.192    23641855.706
        43.800          41.600
 127178272.169 6  98916435.064 6  23808065.449    23808065.033    23808083.107
        41.300          41.400
 134555940.856 6 104848676.34144  25605227.175    25605226.6884   25605253.3984
        38.100          25.8004
 107113666.171 8  83310719.524 8  20058927.929    20058928.304    20058934.135
        51.700          48.900
 134625142.704 7                  25618310.648
        43.900
 25  1  1 18  1 15.0000000  0 32G09G26E19R18G08S31S35G07E13R06S48S33
                                R19G30G20E04E31G16G27E21R01G04E06R07
                                R20R08R10R11R16G31R09E09
 106167844.120 8  82728198.48848  20203070.222    20203069.6324   20203073.2454
        50.200          52.0004
 129832260.471 6 101167990.86545  24706278.618    24706277.9164   24706290.2284
        38.700          32.1004
 134720088.654 6                  25636414.891
        37.800
 122679581.199 7  95417665.573 6  22981959.291    22981959.668    22981971.758
        45.500          41.800
 110663642.796 7  86231532.98347  21058552.946    21058552.1864   21058560.6704
        47.800          47.3004
 198979072.282 7                  37864469.753
        45.600
 200909281.331 7                  38231791.143
        43.900
 117050485.023 7  91208216.49547  22273948.272    22273947.5664   22273948.4084
        47.700          44.2004
 151724860.937 5                  28872280.574
        33.900
 123941012.232 5                  23226544.957    23226545.597
        35.200
 412854080.076 5                  78563329.741
        33.100
 202119557.898 7                  38462063.925
        45.400
 121383260.367 6  94409389.359 6  22691273.581    22691274.457    22691289.870
        36.300          41.200
 130948021.335 6 102037448.52145  24918576.809    24918575.9334   24918580.2904
        38.300          30.2004
 132955235.091 6 103601482.82142  25300539.093    25300537.6804   25300538.7944
        37.900          13.5004
 122715192.836 7                  23351928.899
        47.800
 129552089.612 7                  24652897.590
        45.500
 115265134.107 7  89817052.09945  21934206.017    21934205.0074   21934207.0454
        45.700          32.0004
 109928820.859 8  85658983.53348  20918698.549    20918697.8214   20918703.2134
        48.700          48.7004
 139507993.414 7                  26547487.375
        42.800
 130948910.902 6 101849183.692 5  24496701.605    24496701.192    24496710.830
        38.500          32.200
 107835923.211 8  84027984.81846  20520502.848    20520502.4514   20520506.8454
        48.200          37.9004
 125772518.684 8                  23933714.981
        48.500
 107052572.365 8  83263122.204 7  19998324.893    19998325.288    19998334.521
        52.000          47.900


 109368661.828 8  85064531.970 7  20423826.130    20423826.204    20423832.393
        50.200          47.100
 107768333.143 7                  20217017.753    20217016.802
        46.600
 126292915.851 7  98227950.568 6  23633973.259    23633972.887    23633986.683
        42.900          41.100
 127224244.032 7  98952190.323 6  23816672.358    23816672.893    23816689.894
        42.700          41.700
 134599809.868 6 104882859.84444  25613575.145    25613574.6724   25613601.6274
        38.300          26.6004
 107135504.431 8  83327704.746 8  20063017.815    20063018.024    20063024.028
        51.600          49.000
 134593073.195 7                  25612208.655
        43.900
 25  1  1 18  1 30.0000000  0 32G09G26E19R18G08S31S35G07E13R06S48S33
                                R19G30G20E04E31G16G27E21R01G04E06R07
                                R20R08R10R11R16G31R09E09
 106169315.801 8  82729345.24148  20203350.247    20203349.6574   20203353.3174
        50.100          52.0004
 129882590.819 6 101207208.79045  24715856.497    24715855.8004   24715867.9874
        38.100          31.7004
 134761472.846 6                  25644290.378
        37.500
 122687594.415 7  95423898.111 6  22983460.349    22983460.752    22983473.069
        46.100          41.700
 110627390.267 7  86203284.34947  21051654.261    21051653.4974   21051661.9584
        47.100          47.3004
 198979067.806 7                  37864469.780
        45.400
 200909246.494 7                  38231777.733
        43.700
 117019405.505 7  91183998.70647  22268034.029    22268033.3194   22268034.1864
        46.900          44.2004
 151700379.383 6                  28867621.487
        37.400
 124009129.507 6                  23239312.191    23239311.547
        36.000
 412854718.358 5                  78563361.678
        32.400
 202119572.576 7                  38462069.823
        45.000
 121350240.071 6  94383707.298 6  22685101.097    22685101.225    22685117.188
        36.600          40.900
 130905436.594 6 102004265.64845  24910472.485    24910471.6144   24910476.5654
        39.100          30.6004
 132950586.505 6 103597860.47442  25299654.433    25299653.0344   25299654.2134
        38.100          13.6004
 122720209.414 7                  23352883.541
        47.800
 129526626.751 7                  24648051.669
        45.400
 115310436.066 7  89852352.31245  21942826.451    21942825.4504   21942827.7254
        45.500          32.2004
 109924807.454 8  85655856.24848  20917934.694    20917933.9664   20917939.4474
        48.300          48.7004
 139544592.490 7                  26554451.908
        42.700
 130887464.787 6 101801392.349 5  24485207.747    24485206.434    24485216.046
        39.300          32.100
 107864061.745 8  84049910.88446  20525857.371    20525856.9654   20525861.4744
        48.100          38.0004
 125756237.837 8                  23930616.606
        48.400
 107090135.785 8  83292338.125 7  20005342.233    20005342.422    20005351.906
        52.000          47.800


 109345467.449 8  85046491.898 7  20419494.377    20419494.695    20419500.915
        50.100          47.000
 107754324.838 7                  20214388.795    20214388.843
        46.300
 126250908.326 7  98195278.460 6  23626111.220    23626111.448    23626125.624
        43.600          41.400
 127270199.224 6  98987932.411 6  23825275.478    23825276.045    23825294.069
        41.900          41.900
 134643687.621 6 104917050.18644  25621924.679    25621924.2064   25621951.8144
        38.900          27.7004
 107157397.048 8  83344732.211 8  20067117.556    20067118.090    20067124.005
        51.700          49.000
 134561060.006 7                  25606116.236
        43.800
 25  1  1 18  1 45.0000000  0 32G09G26E19R18G08S31S35G07E13R06S48S33
                                R19G30G20E04E31G16G27E21R01G04E06R07
                                R20R08R10R11R16G31R09E09
 106170936.154 8  82730607.84448  20203658.512    20203657.9274   20203661.6664
        50.000          51.9004
 129932911.973 6 101246419.51045  24725432.129    24725431.4364   24725443.9454
        38.600          31.5004
 134802899.921 6                  25652173.580
        37.300
 122695793.484 7  95430275.160 6  22984996.822    22984997.036    22985008.777
        46.100          41.400
 110591257.041 7  86175128.68847  21044778.324    21044777.5694   21044785.9754
        47.000          47.2004
 198979061.553 7                  37864468.040
        45.400
 200909209.672 7                  38231774.961
        43.400
 116988342.224 7  91159793.56247  22262123.035    22262122.3294   22262123.0324
        46.500          44.0004
 151675964.447 5                  28862975.543
        34.600
 124077265.901 5                  23252079.891    23252079.309
        35.400
 412853752.698 5                  78563401.743
        32.200
 202119586.227 7                  38462065.946
        44.700
 121317360.830 6  94358134.937 6  22678955.865    22678955.266    22678969.548
        37.700          40.700
 130862842.639 6 101971075.57245  24902367.056    24902366.1764   24902371.2264
        38.900          30.1004
 132946059.406 6 103594332.81042  25298792.838    25298791.4344   25298792.7644
        38.400          14.1004
 122725321.044 8                  23353856.294
        48.200
 129501221.354 7                  24643217.497
        45.900
 115355787.674 7  89887691.25645  21951456.535    21951455.5204   21951457.9084
        46.000          31.8004
 109920959.840 8  85652858.16548  20917202.691    20917201.9674   20917207.2634
        48.200          48.6004
 139581199.398 7                  26561418.009
        42.400
 130826070.011 6 101753640.930 5  24473721.520    24473721.635    24473730.813
        40.000          31.300
 107892327.158 7  84071935.81746  20531236.376    20531235.9744   20531240.3354
        47.500          37.8004
 125740040.147 8                  23927534.440
        48.600
 107127867.939 8  83321685.262 7  20012391.051    20012391.309    20012400.896
        52.400          47.900


 109322461.889 8  85028598.660 7  20415198.175    20415198.530    20415204.741
        50.300          47.000
 107740393.451 7                  20211775.490    20211775.336
        46.400
 126208936.663 7  98162634.161 6  23618256.835    23618257.517    23618271.094
        44.000          41.100
 127316136.694 6  99023660.733 6  23833875.389    23833875.815    23833894.323
        41.700          41.900
 134687572.560 6 104951246.09644  25630275.766    25630275.2974   25630302.7434
        37.300          26.8004
 107179342.803 8  83361801.097 8  20071227.293    20071227.542    20071233.547
        51.400          48.800
 134529101.981 7                  25600035.086
        43.900
 25  1  1 18  2  0.0000000  0 32G09G26E19R18G08S31S35G07E13R06S48S33
                                R19G30G20E04E31G16G27E21R01G04E06R07
                                R20R08R10R11R16G31R09E09
 106172706.590 8  82731987.38048  20203995.400    20203994.8154   20203998.5634
        50.100          51.9004
 129983225.634 6 101285624.47445  24735007.230    24735006.5284   24735018.9944
        38.600          31.8004
 134844371.166 6                  25660065.267
        37.500
 122704179.445 7  95436797.482 6  22986568.244    22986568.503    22986579.528
        46.400          41.200
 110555244.776 8  86147067.27447  21037925.222    21037924.4714   21037932.9724
        48.000          47.2004
 198979055.343 7                  37864468.997
        45.400
 200909172.866 7                  38231764.725
        43.900
 116957296.808 7  91135602.34247  22256215.163    22256214.4754   22256215.3264
        46.600          44.0004
 151651617.596 5                  28858341.501
        34.000
 124145422.473 6                  23264853.835    23264853.505
        36.100
 412854386.702 5                  78563441.138
        33.400
 202119599.611 7                  38462069.255
        44.500
 121284623.928 6  94332673.310 6  22672833.512    22672834.451    22672849.444
        36.400          40.500
 130820240.861 6 101937879.41344  24894259.822    24894258.9464   24894264.1344
        38.200          29.7004
 132941655.009 6 103590900.74342  25297954.833    25297953.4564   25297954.3034
        38.000          14.9004
 122730529.091 8                  23354847.290
        48.000
 129475874.697 7                  24638394.049
        45.400
 115401190.153 7  89923069.81745  21960096.365    21960095.3504   21960097.6734
        45.400          31.8004
 109917279.355 8  85649990.30548  20916502.458    20916501.7484   20916506.8194
        48.300          48.6004
 139617815.332 7                  26568385.825
        42.700
 130764728.420 6 101705930.703 5  24462245.986    24462246.597    24462254.568
        39.300          31.300
 107920720.608 7  84094060.50346  20536639.437    20536639.0404   20536643.5094
        47.600          37.7004
 125723927.037 8                  23924468.206
        48.600
 107165769.979 8  83351164.525 8  20019471.210    20019471.565    20019481.263
        52.100          48.000


 109299646.682 8  85010853.505 7  20410937.845    20410937.879    20410944.327
        50.100          47.100
 107726540.466 7                  20209176.635    20209176.563
        46.400
 126167001.999 7  98130018.679 6  23610408.627    23610409.243    23610423.155
        43.500          41.400
 127362058.098 6  99059376.790 6  23842472.520    23842472.429    23842490.807
        41.800          41.000
 134731466.150 6 104985448.75644  25638629.095    25638628.6394   25638655.2964
        37.900          26.8004
 107201342.641 8  83378912.102 8  20075347.274    20075347.673    20075353.499
        51.700          48.800
 134497200.653 7                  25593964.534
        44.100
 25  1  1 18  2 15.0000000  0 32G09G26E19R18G08S31S35G07E13R06S48S33
                                R19G30G20E04E31G16G27E21R01G04E06R07
                                R20R08R10R11R16G31R09E09
 106174629.154 8  82733485.45748  20204361.355    20204360.7704   20204364.4404
        50.000          52.1004
 130033533.581 6 101324825.11945  24744580.614    24744579.8904   24744592.9174
        37.000          31.6004
 134885888.289 6                  25667966.218
        37.000
 122712754.387 7  95443466.733 6  22988174.627    22988174.915    22988186.227
        46.100          41.300
 110519355.848 7  86119101.96747  21031095.429    21031094.6694   21031103.4324
        47.100          47.4004
 198979050.979 7                  37864463.461
        45.300
 200909137.790 7                  38231756.314
        43.600
 116926271.298 7  91111426.62847  22250311.223    22250310.5354   22250311.3804
        46.500          44.3004
 151627341.104 6                  28853722.191
        37.900
 124213600.561 5                  23277628.286    23277628.322
        34.000
 412855022.517 5                  78563462.951
        32.500
 202119614.030 7                  38462079.857
        45.100
 121252032.066 6  94307324.432 6  22666742.752    22666741.991    22666756.916
        36.900          40.600
 130777633.374 6 101904678.82145  24886151.605    24886150.7424   24886156.5864
        37.200          30.5004
 132937375.369 6 103587565.92142  25297140.586    25297139.2584   25297140.0124
        37.200          15.1004
 122735835.648 7                  23355857.143
        47.800
 129450588.854 7                  24633582.180
        45.600
 115446645.097 7  89958489.28345  21968746.271    21968745.2394   21968747.4234
        45.500          32.1004
 109913768.124 8  85647254.32748  20915833.971    20915833.2654   20915838.6254
        48.300          48.9004
 139654442.170 7                  26575355.684
        42.500
 130703442.724 6 101658264.100 5  24450781.472    24450781.438    24450790.088
        39.100          30.600
 107949244.045 7  84116286.49946  20542067.122    20542066.7254   20542071.3974
        47.400          38.0004
 125707900.694 8                  23921418.667
        48.500
 107203843.619 8  83380777.286 7  20026584.141    20026584.476    20026593.857
        52.400          47.800


 109277024.286 8  84993258.294 7  20406713.094    20406713.617    20406719.507
        50.900          46.900
 107712767.717 7                  20206593.159    20206592.842
        46.600
 126125106.375 7  98097433.528 6  23602568.335    23602568.418    23602582.809
        42.900          41.900
 127407965.517 6  99095082.135 6  23851068.545    23851067.178    23851085.262
        41.800          41.200
 134775370.367 6 105019659.70644  25646983.775    25646983.3374   25647009.7184
        37.600          26.0004
 107223398.422 8  83396066.619 8  20079477.984    20079477.963    20079483.852
        51.800          48.700
 134465358.185 7                  25587904.961
        43.900
 25  1  1 18  2 30.0000000  0 32G09G26E19R18G08S31S35G07E13R06S48S33
                                R19G30G20E04E31G16G27E21R01G04E06R07
                                R20R08R10R11R16G31R09E09
 106176703.866 8  82735102.09348  20204756.052    20204755.4674   20204759.2714
        50.200          52.0004
 130083835.663 6 101364021.33845  24754153.544    24754152.8474   24754165.3784
        37.600          31.5004
 134927451.204 6                  25675875.421
        37.400
 122721518.917 7  95450283.622 6  22989815.780    22989816.082    22989827.362
        45.100          40.800
 110483590.546 7  86091232.99247  21024289.917    21024289.1574   21024297.3854
        47.300          47.3004
 198979048.078 7                  37864467.517
        45.700
 200909104.615 7                  38231755.344
        44.000
 116895265.814 7  91087266.52847  22244411.082    22244410.4074   22244411.1944
        47.200          44.2004
 151603134.902 5                  28849115.941
        35.500
 124281799.635 5                  23290410.392    23290409.315
        35.500
 412854061.033 5                  78563507.725
        33.300
 202119631.799 7                  38462077.622
        44.900
 121219586.176 6  94282089.160 6  22660676.608    22660676.145    22660690.405
        36.900          40.200
 130735020.177 6 101871473.75145  24878043.262    24878042.4044   24878047.7144
        39.200          30.6004
 132933220.235 6 103584328.10142  25296350.204    25296348.9034   25296349.5594
        38.000          15.2004
 122741240.701 7                  23356885.636
        47.900
 129425363.772 7                  24628782.328
        45.700
 115492151.971 7  89993949.22345  21977405.748    21977404.7074   21977406.9754
        44.800          31.9004
 109910426.123 8  85644650.21848  20915197.940    20915197.2304   20915202.6304
        48.600          48.8004
 139691079.698 7                  26582327.177
        42.400
 130642213.068 6 101610640.939 5  24439327.630    24439327.479    24439336.398
        39.900          31.400
 107977897.216 7  84138613.60946  20547519.777    20547519.3754   20547523.9374
        47.700          38.1004
 125691961.280 8                  23918385.441
        48.400
 107242088.078 8  83410522.913 8  20033728.367    20033728.770    20033738.155
        52.400          48.000


 109254594.887 8  84975813.215 7  20402524.306    20402524.825    20402530.992
        50.300          46.900
 107699075.322 7                  20204024.109    20204024.038
        46.000
 126083249.998 7  98064878.946 6  23594735.590    23594736.179    23594750.243
        43.700          41.900
 127453858.662 6  99130776.487 6  23859658.184    23859658.091    23859677.059
        41.800          41.500
 134819285.009 6 105053878.77944  25655340.199    25655339.7614   25655366.5324
        37.600          25.9004
 107245509.716 8  83413264.298 8  20083617.892    20083618.704    20083624.749
        51.400          48.800
 134433574.833 7                  25581857.288
        44.100
 25  1  1 18  2 45.0000000  0 32G09G26E19R18G08S31S35G07E13R06S48S33
                                R19G30G20E04E31G16G27E21R01G04E06R07
                                R20R08R10R11R16G31R09E09
 106178924.804 8  82736832.68548  20205178.631    20205178.0414   20205181.9244
        50.400          52.1004
 130134125.453 6 101403207.98445  24763723.600    24763722.9164   24763735.2944
        37.300          31.2004
 134969053.602 6                  25683791.872
        37.200
 122730466.374 7  95457242.833 6  22991492.395    22991492.068    22991503.710
        45.500          41.000
 110447943.217 7  86063455.95447  21017506.083    21017505.3234   21017513.8444
        47.500          47.3004
 198979041.301 7                  37864465.666
        45.800
 200909067.061 7                  38231744.683
        43.900
 116864274.458 7  91063117.45347  22238513.568    22238512.8984   22238513.7154
        46.600          44.2004
 151578993.320 5                  28844522.203
        34.800
 124350013.467 5                  23303193.346    23303193.693
        35.700
 412854692.546 5                  78563551.409
        33.100
 202119643.717 7                  38462078.789
        45.000
 121187280.290 6  94256962.750 6  22654636.928    22654636.745    22654651.206
        36.700          40.700
 130692395.348 6 101838259.62345  24869932.031    24869931.1734   24869936.4504
        38.800          30.7004
 132929183.809 6 103581182.76342  25295581.856    25295580.5604   25295581.5624
        38.600          16.2004
 122746738.304 8                  23357931.779
        48.000
 129400193.498 7                  24623992.313
        45.900
 115537704.587 7  90029444.80445  21986074.126    21986073.0894   21986075.4214
        45.600          31.8004
 109907247.454 8  85642173.39248  20914592.943    20914592.2244   20914597.6874
        48.500          48.9004
 139727721.876 7                  26589300.327
        42.300
 130581034.172 6 101563057.389 5  24427882.641    24427883.233    24427891.030
        40.100          32.400
 108006673.908 7  84161036.94446  20552995.838    20552995.4414   20553000.0024
        47.500          38.0004
 125676102.978 8                  23915367.684
        48.600
 107280497.198 8  83440396.610 8  20040903.423    20040903.859    20040913.486
        52.000          48.000


 109232352.827 8  84958513.819 7  20398371.179    20398371.394    20398377.382
        50.100          47.000
 107685457.097 7                  20201469.633    20201469.364
        46.200
 126041426.712 7  98032350.082 6  23586907.966    23586907.915    23586922.096
        42.500          41.000
 127499730.762 7  99166454.318 6  23868246.241    23868246.280    23868264.247
        42.400          41.200
 134863204.174 6 105088101.38744  25663698.019    25663697.6044   25663724.3664
        38.000          26.6004
 107267670.685 8  83430500.677 8  20087767.904    20087768.378    20087774.491
        51.300          48.800
 134401844.805 7                  25575818.908
        44.300
 25  1  1 18  3  0.0000000  0 32G09G26E19R18G08S31S35G07E13R06S48S33
                                R19G30G20E04E31G16G27E21R01G04E06R07
                                R20R08R10R11R16G31R09E09
 106181294.739 8  82738679.37148  20205629.547    20205628.9534   20205632.9104
        50.500          52.1004
 130184405.265 6 101442386.71845  24773291.182    24773290.5074   24773303.1804
        39.000          31.3004
 135010698.247 6                  25691716.785
        36.900
 122739599.623 7  95464346.495 6  22993203.728    22993203.814    22993214.575
        46.300          41.400
 110412416.962 7  86035773.25647  21010745.537    21010744.7684   21010753.3104
        47.700          47.3004
 198979032.598 7                  37864466.109
        45.800
 200909028.087 7                  38231741.254
        44.000
 116833300.082 7  91038981.61047  22232619.325    22232618.6554   22232619.4234
        47.300          44.3004
 151554919.388 5                  28839940.312
        35.800
 124418244.067 5                  23315978.946    23315979.475
        35.100
 412855323.038 5                  78563584.494
        32.800
 202119654.801 7                  38462086.127
        45.500
 121155117.435 6  94231947.598 6  22648623.916    22648623.705    22648638.166
        37.100          40.900
 130649761.698 6 101805038.62845  24861819.027    24861818.1514   24861823.5414
        38.300          30.5004
 132925268.730 6 103578131.97342  25294836.600    25294835.3354   25294836.8634
        38.600          15.3004
 122752331.289 8                  23358996.170
        48.000
 129375080.774 7                  24619213.475
        45.900
 115583305.396 7  90064977.89845  21994751.666    21994750.6294   21994752.8734
        45.400          32.0004
 109904234.880 8  85639825.98248  20914019.715    20914018.9914   20914024.3454
        48.400          49.0004
 139764371.305 7                  26596274.531
        42.700
 130519909.019 6 101515515.463 5  24416447.570    24416447.975    24416456.796
        40.300          32.800
 108035576.753 7  84183558.57246  20558495.887    20558495.4944   20558500.0854
        47.900          37.8004
 125660328.670 8                  23912365.678
        48.600
 107319073.260 8  83470400.136 7  20048109.588    20048110.273    20048119.832
        52.100          47.700


 109210301.062 8  84941362.457 7  20394253.112    20394253.307    20394259.644
        49.900          47.100
 107671915.379 7                  20198929.194    20198928.812
        46.400
 125999639.315 7  97999849.138 6  23579088.897    23579089.100    23579102.274
        43.100          41.700
 127545584.641 7  99202117.770 6  23876830.539    23876831.281    23876848.917
        42.900          40.400
 134907130.631 6 105122329.67544  25672057.202    25672056.7874   25672083.4784
        37.600          26.1004
 107289883.814 8  83447777.659 8  20091927.572    20091928.190    20091934.110
        51.000          49.000
 134370171.097 7                  25569791.588
        44.700
 25  1  1 18  3 15.0000000  0 32G09G26E19R18G08S31S35G07E13R06S48S33
                                R19G30G20E04E31G16G27E21R01G04E06R07
                                R20R08R10R11R16G31R09E09
 106183819.710 8  82740646.85548  20206110.285    20206109.6914   20206113.4084
        50.200          51.9004
 130234680.950 6 101481562.03545  24782858.857    24782858.1914   24782870.7444
        37.000          31.0004
 135052391.015 6                  25699651.384
        37.000
 122748924.688 7  95471599.444 6  22994950.076    22994950.689    22994961.589
        46.400          41.800
 110377018.102 7  86008189.83147  21004009.032    21004008.2774   21004016.9994
        47.300          47.1004
 198979029.009 7                  37864459.169
        45.500
 200908994.006 7                  38231734.649
        44.100
 116802348.860 7  91014863.79447  22226729.170    22226728.4954   22226729.5224
        47.000          44.1004
 151530919.415 6                  28835373.302
        36.500
 124486497.169 5                  23328771.158    23328770.296
        35.300
 412855960.993 5                  78563620.120
        32.800
 202119670.521 7                  38462090.218
        45.400
 121123104.972 6  94207049.423 6  22642639.330    22642639.386    22642653.869
        36.900          41.100
 130607125.321 6 101771815.50345  24853705.928    24853705.0614   24853709.9074
        38.500          30.2004
 132921480.978 6 103575180.39742  25294115.575    25294114.2384   25294116.1984
        37.400          14.4004
 122758025.657 8                  23360079.539
        48.100
 129350031.635 7                  24614446.806
        46.000
 115628960.232 7  90100553.08945  22003439.745    22003438.7134   22003440.7264
        45.400          31.8004
 109901394.489 8  85637612.73848  20913479.103    20913478.3844   20913483.7974
        48.300          48.8004
 139801033.857 7                  26603251.216
        43.400
 130458844.524 6 101468020.902 5  24405024.671    24405025.086    24405032.676
        40.100          31.000
 108064611.641 7  84206183.12046  20564021.050    20564020.6614   20564025.3334
        47.900          37.8004
 125644644.541 8                  23909381.197
        48.600
 107357821.823 8  83500537.806 7  20055348.817    20055348.935    20055358.508
        52.300          47.800


 109188445.985 8  84924364.054 7  20390171.769    20390172.035    20390178.228
        50.500          47.100
 107658456.363 7                  20196405.007    20196404.161
        46.600
 125957893.905 7  97967380.864 7  23571275.924    23571275.494    23571290.166
        42.400          42.200
 127591426.482 6  99237771.818 6  23885412.865    23885413.099    23885431.700
        41.500          41.200
 134951070.439 6 105156568.37144  25680418.655    25680418.2444   25680445.1894
        36.900          25.6004
 107312155.157 8  83465099.895 8  20096098.644    20096098.855    20096104.757
        51.500          49.000
 134338559.884 7                  25563775.939
        44.600
 25  1  1 18  3 30.0000000  0 32G09G26E19R18G08S31S35G07E13R06S48S33
                                R19G30G20E04E31G16G27E21R01G04E06R07
                                R20R08R10R11R16G31R09E09
 106186492.440 8  82742729.47548  20206618.909    20206618.3194   20206622.0424
        50.400          52.1004
 130284945.426 6 101520728.58245  24792425.279    24792424.6094   24792436.4664
        37.200          31.5004
 135094124.377 6                  25707592.562
        37.400
 122758434.113 7  95478995.752 6  22996731.119    22996731.173    22996743.298
        46.200          41.500
 110341739.647 7  85980700.22247  20997295.684    20997294.9294   20997303.5914
        47.500          47.3004
 198979022.362 7                  37864463.748
        45.600
 200908957.039 7                  38231722.057
        43.600
 116771413.621 7  90990758.42647  22220842.663    22220841.9934   22220842.7484
        47.100          44.3004
 151506986.315 5                  28830818.542
        34.100
 124554764.838 5                  23341564.021    23341563.318
        34.700
 412854994.735 5                  78563652.771
        32.400
 202119683.130 7                  38462089.820
        45.300
 121091235.111 6  94182262.146 6  22636680.953    22636680.909    22636695.777
        37.200          41.200
 130564478.891 6 101738584.52545  24845590.016    24845589.1314   24845594.2524
        39.700          30.4004
 132917813.168 6 103572322.26242  25293418.392    25293417.0244   25293418.3434
        37.600          15.5004
 122763814.169 8                  23361181.330
        48.500
 129325038.774 7                  24609690.757
        46.200
 115674661.659 7  90136164.59445  22012136.446    22012135.4144   22012137.4824
        45.500          31.8004
 109898718.986 8  85635527.98048  20912969.999    20912969.2804   20912974.6274
        48.700          49.0004
 139837702.080 7                  26610228.885
        42.900
 130397833.591 6 101420568.000 5  24393611.493    24393610.997    24393619.642
        39.100          33.200
 108093770.981 8  84228904.60746  20569569.805    20569569.4034   20569574.2414
        48.200          37.8004
 125629043.393 8                  23906412.480
        49.000
 107396735.168 8  83530803.689 7  20062617.755    20062618.260    20062627.931
        52.100          47.900


 109166780.480 8  84907513.081 7  20386125.477    20386126.004    20386132.233
        50.200          47.200
 107645072.763 7                  20193893.383    20193893.197
        46.300
 125916182.932 7  97934939.312 6  23563469.643    23563469.834    23563484.126
        42.400          41.900
 127637249.207 7  99273411.025 6  23893991.659    23893991.513    23894010.942
        43.000          41.300
 134995016.176 6 105190811.68544  25688780.683    25688780.2864   25688807.7764
        36.700          25.4004
 107334476.742 8  83482461.171 8  20100278.872    20100278.941    20100284.870
        51.500          49.100
 134307004.017 7                  25557771.406
        44.800
 25  1  1 18  3 45.0000000  0 32G09G26E19R18G08S31S35G07E13R06S48S33
                                R19G30G20E04E31G16G27E21R01G04E06R07
                                R20R08R10R11R16G31R09E09
 106189316.256 8  82744929.83148  20207156.263    20207155.6644   20207159.4154
        50.100          52.0004
 130335201.653 6 101559888.64745  24801988.875    24801988.2184   24802000.5874
        37.400          31.0004
 135135901.559 6                  25715542.690
        37.300
 122768131.101 7  95486537.951 6  22998547.721    22998548.248    22998559.546
        46.200          41.500
 110306585.166 7  85953307.21747  20990606.121    20990605.3704   20990613.7804
        47.500          47.2004
 198979016.195 7                  37864460.868
        45.400
 200908920.469 7                  38231722.898
        44.000
 116740497.633 7  90966668.05947  22214959.454    22214958.7794   22214959.6894
        47.300          44.3004
 151483123.449 5                  28826277.990
        34.200
 124623049.749 5                  23354360.186    23354360.230
        34.600
 412855630.226 5                  78563685.937
        32.100
 202119696.649 7                  38462091.770
        45.200
 121059511.823 6  94157588.856 6  22630751.472    22630750.219    22630764.491
        37.500          40.800
 130521825.837 6 101705348.39345  24837474.090    24837473.2014   24837477.4034
        38.800          30.6004
 132914268.658 6 103569560.26142  25292744.047    25292742.6934   25292743.8804
        37.400          15.0004
 122769700.114 8                  23362301.394
        48.400
 129300105.462 7                  24604945.905
        45.700
 115720412.354 7  90171814.47945  22020842.602    22020841.5704   22020843.5254
        45.700          31.7004
 109896211.657 8  85633574.24948  20912493.113    20912492.3944   20912497.4514
        48.700          49.0004
 139874379.094 7                  26617208.764
        42.500
 130336879.860 6 101373159.494 5  24382208.008    24382208.203    24382216.947
        39.800          31.400
 108123057.899 7  84251725.50346  20575142.960    20575142.5544   20575147.3994
        47.800          37.7004
 125613528.671 8                  23903460.203
        48.700
 107435816.259 8  83561200.022 8  20069918.804    20069918.828    20069928.745
        52.000          48.000


 109145308.173 8  84890812.401 7  20382116.166    20382116.242    20382122.341
        50.100          47.100
 107631767.558 7                  20191397.622    20191397.254
        46.000
 125874510.160 7  97902527.597 7  23555671.150    23555671.159    23555685.907
        43.100          42.500
 127683055.761 7  99309037.670 6  23902567.604    23902567.459    23902586.249
        42.600          40.600
 135038971.045 6 105225062.11044  25697145.200    25697144.8074   25697172.2324
        38.000          26.1004
 107356851.992 8  83499864.124 8  20104468.419    20104469.048    20104475.129
        51.000          49.000
 134275507.041 7                  25551777.249
        44.300
 25  1  1 18  4  0.0000000  0 32G09G26E19R18G08S31S35G07E13R06S48S33
                                R19G30G20E04E31G16G27E21R01G04E06R07
                                R20R08R10R11R16G31R09E09
 106192290.029 8  82747247.03948  20207722.271    20207721.6814   20207725.3214
        50.000          52.3004
 130385448.659 6 101599041.61845  24811550.581    24811549.9384   24811562.9914
        37.800          31.7004
 135177721.159 6                  25723501.086
        36.600
 122778014.409 7  95494224.993 6  23000399.002    23000399.044    23000411.035
        46.000          41.600
 110271553.884 7  85926010.20747  20983939.731    20983938.9894   20983947.4224
        47.400          47.5004
 198979009.575 7                  37864459.021
        45.600
 200908883.242 7                  38231710.739
        44.000
 116709599.794 7  90942591.83147  22209079.563    22209078.8794   22209079.9794
        47.200          44.6004
 151459330.017 5                  28821750.039
        35.400
 124691350.525 5                  23367159.579    23367160.719
        34.900
 412856264.869 5                  78563729.755
        33.200
 202119709.496 7                  38462095.106
        45.000
 121027934.583 6  94133029.159 6  22624847.779    22624847.118    22624861.279
        37.500          41.200
 130479165.031 6 101672106.22545  24829355.651    24829354.7754   24829359.5794
        38.800          31.2004
 132910846.278 6 103566893.39442  25292092.282    25292090.9454   25292092.5484
        37.000          14.7004
 122775682.384 8                  23363439.855
        48.200
 129275230.577 7                  24600212.196
        45.600
 115766211.044 7  90207501.76045  22029557.330    22029556.2804   22029558.7044
        45.100          32.0004
 109893871.496 8  85631750.78948  20912047.598    20912046.8924   20912052.1134
        48.300          49.3004
 139911063.651 7                  26624189.489
        42.700
 130275982.843 6 101325795.179 5  24370817.611    24370816.315    24370823.767
        40.500          32.100
 108152471.115 7  84274644.82046  20580740.277    20580739.8664   20580744.6814
        47.500          38.1004
 125598099.389 8                  23900524.133
        48.700
 107475063.301 8  83591725.402 8  20077250.384    20077250.876    20077260.485
        52.100          48.000


 109124028.219 8  84874261.316 7  20378142.118    20378142.494    20378148.504
        50.300          47.100
 107618539.321 7                  20188915.673    20188915.767
        46.800
 125832873.968 7  97870144.305 6  23547879.411    23547879.468    23547892.526
        42.800          41.500
 127728845.183 7  99344651.042 6  23911139.825    23911140.016    23911158.421
        42.700          40.700
 135082933.927 6 105259318.80244  25705511.160    25705510.7674   25705538.0664
        36.600          25.0004
 107379279.532 8  83517307.789 8  20108668.931    20108669.230    20108675.087
        51.900          49.100
 134244068.032 7                  25545794.983
        44.100
 25  1  1 18  4 15.0000000  0 32G09G26E19R18G08S31S35G07E13R06S48S33
                                R19G30G20E04E31G16G27E21R01G04E06R07
                                R20R08R10R11R16G31R09E09
 106195414.879 8  82749681.96448  20208316.762    20208316.1774   20208319.9574
        49.900          52.1004
 130435687.426 6 101638188.22645  24821110.232    24821109.5934   24821123.6374
        37.300          31.2004
 135219584.178 6                  25731467.071
        36.800
 122788085.198 7  95502057.912 6  23002285.265    23002286.096    23002297.644
        46.300          41.900
 110236647.196 7  85898810.28547  20977297.589    20977296.8524   20977304.7784
        47.400          47.3004
 198979003.564 7                  37864458.028
        45.500
 200908846.747 7                  38231701.233
        43.800
 116678721.459 7  90918530.80447  22203204.052    22203203.3824   22203203.9854
        46.300          44.5004
 151435607.330 6                  28817235.861
        36.600
 124759667.753 5                  23379963.211    23379962.956
        34.900
 412856900.970 5                  78563759.075
        32.700
 202119723.169 7                  38462102.917
        45.300
 120996504.968 6  94108584.264 6  22618971.370    22618971.875    22618985.652
        38.100          41.700
 130436497.667 6 101638858.96745  24821236.065    24821235.1944   24821239.9984
        38.700          30.8004
 132907547.239 6 103564322.62442  25291464.981    25291463.6764   25291464.6654
        37.900          14.6004
 122781762.092 8                  23364596.745
        48.300
 129250415.227 7                  24595490.213
        45.700
 115812058.689 7  90243227.21245  22038281.900    22038280.8594   22038283.3634
        45.200          31.9004
 109891699.545 8  85630058.40448  20911634.533    20911633.8274   20911638.7664
        48.400          49.2004
 139947756.777 7                  26631171.790
        42.200
 130215144.044 6 101278476.080 5  24359435.686    24359435.794    24359443.706
        40.400          31.500
 108182011.526 7  84297663.23646  20586361.983    20586361.5774   20586366.1144
        47.200          37.9004
 125582756.759 8                  23897604.561
        48.500
 107514477.408 8  83622380.740 8  20084613.128    20084613.644    20084623.543
        51.900          48.200


 109102942.158 8  84857861.064 7  20374204.357    20374204.537    20374211.187
        49.700          47.300
 107605389.464 7                  20186449.066    20186448.773
        45.900
 125791275.577 7  97837790.381 7  23540094.535    23540095.026    23540108.299
        42.000          42.000
 127774618.449 7  99380251.902 6  23919709.020    23919708.405    23919728.035
        42.200          40.700
 135126905.802 5 105293582.52944  25713879.037    25713878.6224   25713905.4514
        35.100          24.5004
 107401760.465 8  83534793.042 8  20112878.432    20112878.628    20112884.869
        51.200          49.000
 134212688.220 7                  25539823.804
        44.400
 25  1  1 18  4 30.0000000  0 32G09G26E19R18G08S31S35G07E13R06S48S33
                                R19G30G20E04E31G16G27E21R01G04E06R07
                                R20R08R10R11R16G31R09E09
 106198693.218 8  82752236.48048  20208940.773    20208940.1924   20208943.8254
        50.200          52.0004
 130485919.893 6 101677329.91145  24830669.786    24830669.1694   24830682.9204
        38.300          31.3004
 135261492.772 6                  25739442.260
        37.000
 122798345.848 7  95510038.475 6  23004208.244    23004208.223    23004219.722
        46.100          41.800
 110201867.814 7  85871709.54747  20970678.653    20970677.9074   20970686.3874
        47.200          47.3004
 198979000.190 7                  37864456.360
        45.700
 200908813.161 7                  38231700.656
        44.000
 116647865.069 7  90894486.86847  22197332.178    22197331.5214   22197332.2264
        47.000          44.3004
 151411958.038 5                  28812734.588
        33.400
 124828003.331 5                  23392768.203    23392768.905
        34.800
 412855838.765 5                  78563807.436
        33.400
 202119738.806 7                  38462100.427
        45.100
 120965226.196 6  94084256.718 6  22613122.751    22613123.288    22613137.579
        37.000          40.700
 130393826.166 6 101605608.47345  24813115.827    24813114.9734   24813119.6744
        38.300          30.3004
 132904373.584 6 103561849.64042  25290861.036    25290859.7224   25290861.0094
        37.900          15.1004
 122787941.698 8                  23365772.845
        48.500
 129225661.781 7                  24590779.763
        46.000
 115857956.953 7  90278992.11045  22047015.991    22047014.9454   22047017.4754
        45.500          31.7004
 109889698.284 8  85628499.01948  20911253.345    20911252.6354   20911257.9044
        48.700          49.1004
 139984460.696 7                  26638156.753
        42.700
 130154366.357 6 101231204.506 5  24348066.305    24348066.157    24348073.417
        38.900          30.700
 108211681.352 7  84320782.48446  20592007.889    20592007.4874   20592012.1644
        47.400          37.6004
 125567503.377 8                  23894701.826
        48.800
 107554060.081 8  83653167.167 8  20092007.691    20092008.174    20092017.912
        52.200          48.000


 109082052.540 8  84841613.574 7  20370303.188    20370303.923    20370309.898
        50.400          46.900
 107592319.827 7                  20183996.847    20183996.620
        45.900
 125749717.516 7  97805467.744 6  23532318.472    23532318.472    23532330.314
        43.700          41.400
 127820377.656 7  99415841.720 6  23928275.381    23928275.707    23928295.543
        42.100          41.000
 135170889.052 6 105327855.10044  25722248.912    25722248.4884   25722275.1394
        36.500          25.1004
 107424296.965 8  83552321.475 8  20117098.984    20117099.321    20117105.375
        51.800          49.100
 134181370.235 7                  25533864.159
        45.000
 25  1  1 18  4 45.0000000  0 32G09G26E19R18G08S31S35G07E13R06S48S33
                                R19G30G20E04E31G16G27E21R01G04E06R07
                                R20R08R10R11R16G31R09E09
 106202117.565 8  82754904.78848  20209592.238    20209591.6574   20209595.4794
        49.600          52.1004
 130536138.625 6 101716460.89345  24840226.020    24840225.4124   24840239.6184
        38.300          30.6004
 135303439.374 6                  25747424.765
        36.900
 122808788.442 7  95518160.458 7  23006165.046    23006165.470    23006176.030
        46.600          42.100
 110167208.593 7  85844702.47547  20964083.557    20964082.8064   20964090.8924
        47.700          47.4004
 198978992.218 7                  37864454.612
        45.400
 200908774.835 7                  38231692.486
        43.700
 116617023.078 7  90870454.18447  22191462.888    22191462.2314   22191463.1724
        47.100          44.4004
 151388374.424 5                  28808247.432
        35.800
 124896349.000 5                  23405577.316    23405577.094
        34.400
 412856470.209 5                  78563842.560
        33.000
 202119750.235 7                  38462103.772
        45.000
 120934090.889 6  94060040.795 6  22607302.428    22607303.007    22607316.877
        37.300          41.100
 130351143.034 6 101572348.93545  24804993.816    24804992.9314   24804997.6024
        37.200          30.6004
 132901317.820 6 103559468.50742  25290279.226    25290277.8944   25290279.5734
        37.800          15.6004
 122794213.704 8                  23366966.128
        48.400
 129200962.761 7                  24586079.485
        45.800
 115903898.085 7  90314790.41145  22055758.703    22055757.6484   22055759.6894
        45.300          31.9004
 109887860.172 8  85627066.76448  20910903.768    20910903.0494   20910908.0804
        48.400          49.3004
 140021167.721 7                  26645141.795
        42.400
 130093642.824 6 101183975.045 5  24336707.652    24336706.291    24336714.766
        39.300          31.500
 108241472.949 7  84343996.66946  20597676.958    20597676.5524   20597681.4174
        46.900          37.9004
 125552331.815 8                  23891814.694
        48.800
 107593803.757 8  83684078.838 8  20099432.270    20099432.552    20099442.286
        52.100          48.000


 109061351.849 8  84825513.033 7  20366437.573    20366438.085    20366444.140
        50.300          47.100
 107579323.227 7                  20181558.863    20181558.562
        45.500
 125708191.945 7  97773170.437 6  23524546.234    23524546.376    23524559.300
        42.900          41.800
 127866115.527 7  99451414.957 6  23936838.841    23936838.650    23936858.181
        43.100          40.700
 135214876.030 6 105362130.54744  25730619.742    25730619.3094   25730646.2224
        37.100          25.7004
 107446881.014 8  83569886.868 8  20121327.956    20121328.434    20121334.514
        51.100          49.100
 134150106.719 7                  25527914.943
        44.600
 25  1  1 18  5  0.0000000  0 32G09G26E19R18G08S31S35G07E13R06S48S33
                                R19G30G20E04E31G16G27E21R01G04E06R07
                                R20R08R10R11R16G31R09E09
 106205694.565 8  82757692.05948  20210273.152    20210272.5764   20210276.1494
        50.000          52.1004
 130586349.998 6 101755586.19945  24849781.897    24849781.2764   24849794.9614
        36.700          30.6004
 135345430.348 6                  25755415.613
        36.700
 122819419.637 7  95526429.130 6  23008155.421    23008155.852    23008167.709
        46.600          41.600
 110132676.394 7  85817794.37947  20957511.968    20957511.2134   20957519.4944
        47.400          47.4004
 198978986.044 7                  37864452.032
        45.500
 200908738.748 7                  38231682.930
        44.000
 116586202.024 7  90846437.79347  22185597.869    22185597.2034   22185598.1124
        46.900          44.4004
 151364863.649 5                  28803772.445
        35.900
 124964711.326 5                  23418388.434    23418388.597
        34.500
 412857104.959 5                  78563875.458
        32.700
 202119763.874 7                  38462103.754
        45.000
 120903106.066 6  94035941.884 6  22601510.534    22601511.227    22601524.051
        37.600          41.100
 130308454.940 6 101539085.52245  24796870.257    24796869.3904   24796874.4084
        40.000          31.2004
 132898386.193 6 103557184.00842  25289721.238    25289719.9194   25289721.7784
        38.500          16.3004
 122800584.745 8                  23368178.520
        48.400
 129176324.728 7                  24581391.121
        46.000
 115949888.688 7  90350627.22745  22064510.258    22064509.1854   22064511.3574
        45.100          31.9004
 109886191.919 8  85625766.88248  20910585.927    20910585.1944   20910590.5914
        48.600          49.3004
 140057884.434 7                  26652128.734
        42.300
 130032980.225 6 101136792.985 5  24325358.049    24325357.563    24325366.759
        38.900          32.100
 108271392.699 7  84367310.71746  20603370.809    20603370.4074   20603375.0224
        47.000          37.7004
 125537248.871 8                  23888944.328
        49.100
 107633714.385 8  83715120.380 8  20106887.836    20106888.200    20106898.524
        51.600          48.000


 109040847.124 8  84809564.941 7  20362608.267    20362608.945    20362614.995
        49.900          47.300
 107566405.881 7                  20179136.273    20179135.273
        45.900
 125666705.824 7  97740903.832 7  23516781.593    23516782.244    23516796.170
        42.200          42.500
 127911838.575 7  99486976.767 6  23945398.154    23945399.025    23945417.565
        43.800          40.100
 135258873.471 6 105396414.12644  25738990.993    25738990.5694   25739018.9424
        38.000          25.0004
 107469519.452 8  83587494.580 8  20125567.880    20125567.925    20125573.872
        51.600          49.100
 134118904.521 7                  25521977.044
        44.900
 25  1  1 18  5 15.0000000  0 32G09G26E19R18G08S31S35G07E13R06S48S33
                                R19G30G20E04E31G16G27E21R01G04E06R07
                                R20R08R10R11R16G31R09E09
 106209419.565 8  82760594.64448  20210981.932    20210981.3514   20210984.9684
        50.100          51.9004
 130636549.152 6 101794701.89645  24859334.737    24859334.0854   24859348.0644
        38.200          30.4004
 135387461.021 6                  25763413.811
        37.100
 122830234.988 7  95534841.015 6  23010181.839    23010181.814    23010193.448
        46.100          41.400
 110098266.918 7  85790981.91047  20950964.200    20950963.4494   20950971.3524
        47.700          47.3004
 198978977.326 7                  37864453.275
        45.400
 200908699.352 7                  38231676.536
        43.900
 116555397.820 7  90822434.53947  22179735.726    22179735.0654   22179736.2484
        46.700          44.4004
 151341421.399 5                  28799311.821
        34.100
 125033084.993 5                  23431201.571    23431201.160
        33.300
 412856137.094 5                  78563903.406
        32.500
 202119774.397 7                  38462111.396
        45.100
 120872267.448 6  94011956.753 6  22595745.722    22595745.490    22595758.600
        37.500          40.800
 130265757.348 6 101505814.69045  24788744.529    24788743.6494   24788749.9624
        39.700          31.5004
 132895574.493 6 103554992.96842  25289186.209    25289184.8904   25289186.7674
        37.600          15.4004
 122807050.211 8                  23369408.807
        48.100
 129151743.059 7                  24576713.138
        46.000
 115995923.666 7  90386498.67445  22073270.429    22073269.3744   22073271.5164
        45.300          31.7004
 109884688.834 8  85624595.68748  20910300.239    20910299.5154   20910304.5364
        48.100          49.2004
 140094606.071 7                  26659116.723
        42.500
 129972374.872 6 101089655.426 5  24314022.159    24314020.913    24314029.250
        40.000          31.500
 108301435.740 7  84390720.82546  20609087.565    20609087.1544   20609092.0364
        47.500          37.6004
 125522250.035 8                  23886090.314
        48.600
 107673787.061 8  83746287.938 7  20114373.833    20114374.179    20114384.034
        51.800          47.800


 109020534.081 8  84793765.878 7  20358815.129    20358815.542    20358821.781
        50.400          47.100
 107553563.055 7                  20176726.757    20176726.133
        46.400
 125625254.481 7  97708664.266 7  23509025.132    23509026.631    23509038.786
        43.900          42.600
 127957542.487 7  99522523.829 6  23953954.315    23953954.295    23953973.876
        42.500          40.200
 135302876.681 6 105430702.23344  25747365.252    25747364.8284   25747392.3904
        36.500          24.8004
 107492207.375 8  83605140.776 8  20129815.794    20129816.396    20129822.580
        51.200          49.000
 134087759.201 7                  25516050.287
        44.800
 25  1  1 18  5 30.0000000  0 32G09G26E19R18G08S31S35G07E13R06S48S33
                                R19G30G20E04E31G16G27E21R01G04E06R07
                                R20R08R10R11R16G31R09E09
 106213301.684 8  82763619.64548  20211720.602    20211720.0214   20211723.7214
        50.400          52.0004
 130686745.367 6 101833815.41445  24868886.615    24868885.9364   24868900.9574
        38.400          30.5004
 135429540.259 6                  25771421.339
        36.600
 122841243.757 7  95543403.529 6  23012244.199    23012244.815    23012255.322
        45.900          41.400
 110063989.571 8  85764272.38147  20944441.317    20944440.5624   20944448.4454
        48.200          47.4004
 198978974.692 7                  37864450.941
        45.700
 200908667.181 7                  38231664.538
        43.600
 116524619.379 7  90798451.33447  22173879.294    22173878.6334   22173879.3354
        47.300          44.5004
 151318056.960 5                  28794866.005
        35.200
 125101478.711 5                  23444017.016    23444017.612
        33.200
 412856776.819 5                  78563945.466
        32.400
 202119791.538 7                  38462111.633
        45.200
 120841584.398 6  93988092.514 6  22590008.920    22590009.485    22590022.170
        37.000          41.000
 130223059.379 6 101472543.57045  24780619.871    24780618.9954   24780624.7374
        39.700          31.0004
 132892891.887 6 103552902.61642  25288676.726    25288675.3944   25288676.3584
        38.500          16.5004
 122813619.218 8                  23370658.993
        48.100
 129127226.854 7                  24572047.935
        45.900
 116042011.752 7  90422411.45145  22082040.697    22082039.6424   22082041.8484
        45.000          31.7004
 109883360.082 8  85623560.31848  20910047.399    20910046.6804   20910051.6534
        48.700          49.3004
 140131341.580 7                  26666107.223
        42.400
 129911836.368 6 101042570.013 5  24302695.720    24302695.416    24302704.075
        40.200          32.400
 108331611.028 7  84414233.96646  20614829.988    20614829.5734   20614834.2844
        47.500          37.7004
 125507344.580 8                  23883253.911
        48.500
 107714030.378 8  83777588.234 7  20121891.550    20121891.893    20121901.905
        51.300          47.800


 109000422.097 8  84778123.240 7  20355059.260    20355060.082    20355065.958
        50.400          47.200
 107540803.884 7                  20174332.946    20174332.424
        45.800
 125583846.824 7  97676458.644 7  23501275.603    23501274.975    23501289.182
        42.200          42.200
 128003235.755 7  99558062.526 6  23962508.243    23962508.790    23962528.363
        43.500          40.200
 135346894.903 6 105465002.06644  25755742.437    25755742.0354   25755768.6744
        37.600          24.5004
 107514953.858 8  83622832.552 8  20134076.222    20134076.269    20134082.453
        51.100          49.000
 134056680.124 7                  25510136.041
        44.800
 25  1  1 18  5 45.0000000  0 32G09G26E19R18G08S31S35G07E13R06S48S33
                                R19G30G20E04E31G16G27E21R01G04E06R07
                                R20R08R10R11R16G31R09E09
 106217332.397 8  82766760.43448  20212487.503    20212486.9224   20212490.7524
        50.200          51.9004
 130736929.524 6 101872919.46545  24878437.662    24878436.9874   24878451.2294
        37.000          30.1004
 135471659.271 6                  25779436.379
        37.100
 122852436.856 7  95552109.319 6  23014341.655    23014341.130    23014352.625
        46.100          41.500
 110029836.085 7  85737659.35747  20937942.094    20937941.3434   20937949.1604
        47.600          47.3004
 198978970.481 7                  37864454.554
        45.900
 200908632.475 7                  38231662.186
        43.900
 116493858.494 7  90774481.79947  22168025.596    22168024.9394   22168025.7534
        47.200          44.4004
 151294761.909 5                  28790432.564
        35.000
 125169883.192 5                  23456837.760    23456837.848
        33.300
 412857414.375 5                  78563980.872
        32.300
 202119806.398 7                  38462112.379
        45.300
 120811049.099 6  93964343.145 6  22584300.279    22584301.240    22584314.005
        38.100          41.000
 130180352.564 6 101439265.55445  24772492.963    24772492.0784   24772497.2734
        39.600          30.8004
 132890329.439 6 103550905.88742  25288188.500    25288187.1864   25288189.3494
        38.100          17.2004
 122820283.250 8                  23371927.072
        48.000
 129102767.569 7                  24567393.478
        45.700
 116088144.384 7  90458358.97645  22090819.614    22090818.5774   22090820.5284
        45.000          31.6004
 109882197.123 8  85622654.15048  20909825.793    20909825.0784   20909830.3394
        48.400          49.2004
 140168082.246 7                  26673098.967
        42.300
 129851356.248 6 100995529.970 5  24291381.195    24291380.064    24291390.029
        38.900          31.300
 108361909.789 7  84437843.32046  20620595.355    20620594.9354   20620599.9804
        47.500          37.5004
 125492524.045 8                  23880433.577
        48.600
 107754435.229 8  83809014.115 7  20129440.264    20129440.279    20129450.165
        51.900          47.900


 108980502.827 8  84762630.448 7  20351339.344    20351339.982    20351346.113
        50.300          47.300
 107528120.047 7                  20171953.580    20171953.257
        46.400
 125542474.493 7  97644280.472 6  23493533.501    23493533.129    23493546.103
        42.300          41.800
 128048909.566 7  99593585.966 6  23971058.844    23971059.436    23971078.597
        42.300          39.300
 135390919.335 6 105499306.72444  25764119.896    25764119.4994   25764146.4114
        37.400          25.0004
 107537749.891 8  83640562.757 8  20138344.878    20138345.050    20138351.323
        51.400          49.100
 134025658.839 7                  25504233.261
        44.600
 25  1  1 18  6  0.0000000  0 32G09G26E19R18G08S31S35G07E13R06S48S33
                                R19G30G20E04E31G16G27E21R01G04E06R07
                                R20R08R10R11R16G31R09E09
 106221509.986 8  82770015.67848  20213282.473    20213281.8924   20213285.7354
        50.000          51.8004
 130787099.774 6 101912012.59945  24887984.583    24887983.8774   24887998.5774
        37.800          30.4004
 135513816.278 6                  25787458.700
        37.000
 122863812.494 7  95560957.121 6  23016472.724    23016472.440    23016483.366
        46.500          41.500
 109995805.102 8  85711141.80447  20931466.076    20931465.3344   20931473.1824
        48.300          47.3004
 198978962.156 7                  37864447.735
        45.700
 200908594.183 7                  38231650.511
        43.400
 116463113.425 7  90750524.61747  22162174.782    22162174.1254   22162175.1364
        47.500          44.4004
 151271534.407 5                  28786012.211
        35.700
 125238296.500 5                  23469656.212    23469657.230
        32.100
 412858046.967 5                  78564020.795
        32.900
 202119817.836 7                  38462115.961
        45.300
 120780660.404 6  93940707.892 6  22578618.369    22578619.395    22578632.501
        37.100          40.800
 130137635.223 6 101405979.34345  24764364.015    24764363.1304   24764368.4574
        38.900          31.1004
 132887885.417 6 103549001.44442  25287723.376    25287722.0894   25287724.2964
        37.900          16.6004
 122827040.635 8                  23373213.107
        48.100
 129078363.515 7                  24562749.409
        45.600
 116134319.414 7  90494339.53845  22099606.075    22099605.0474   22099607.4014
        44.700          31.7004
 109881198.284 8  85621875.86248  20909635.767    20909635.0574   20909640.2324
        48.200          49.2004
 140204826.133 7                  26680090.779
        42.600
 129790933.518 6 100948534.516 5  24280078.498    24280078.119    24280086.724
        39.900          32.600
 108392330.168 7  84461547.45646  20626384.372    20626383.9484   20626388.8224
        47.300          37.4004
 125477786.879 8                  23877629.280
        48.600
 107794999.692 8  83840564.153 7  20137017.585    20137017.926    20137028.009
        51.600          47.700


 108960774.687 8  84747286.344 7  20347655.208    20347656.063    20347662.315
        50.400          47.100
 107515509.203 7                  20169587.332    20169587.219
        46.100
 125501135.543 7  97612128.302 6  23485796.672    23485796.149    23485809.677
        42.700          41.500
 128094562.147 7  99629092.706 6  23979605.795    23979606.670    23979626.617
        43.800          39.900
 135434948.330 6 105533614.94644  25772498.469    25772498.0674   25772524.9394
        37.900          25.6004
 107560593.819 8  83658330.259 8  20142622.877    20142622.935    20142629.262
        51.300          49.100
 133994693.874 7                  25498340.617
        44.700
 25  1  1 18  6 15.0000000  0 32G09G26E19R18G08S31S35G07E13R06S48S33
                                R19G30G20E04E31G16G27E21R01G04E06R07
                                R20R08R10R11R16G31R09E09
 106225840.959 8  82773390.44848  20214106.750    20214106.1694   20214109.9084
        50.200          51.7004
 130837262.600 6 101951099.92445  24897530.869    24897530.1724   24897544.6914
        38.100          30.7004
 135556017.506 6                  25795489.530
        36.600
 122875377.283 7  95569952.069 6  23018638.332    23018638.847    23018649.559
        46.700          41.400
 109961903.391 8  85684724.98747  20925014.464    20925013.7134   20925021.8164
        48.100          47.3004
 198978956.559 7                  37864450.842
        45.800
 200908557.520 7                  38231646.120
        43.900
 116432390.693 7  90726584.86747  22156328.310    22156327.6404   22156328.7354
        46.800          44.4004
 151248381.545 6                  28781606.622
        36.300
 125306724.462 5                  23482481.112    23482481.687
        33.100
 412857081.403 5                  78564055.557
        32.600
 202119831.405 7                  38462117.504
        45.600
 120750425.217 6  93917192.014 6  22572968.056    22572966.996    22572980.052
        37.900          41.200
 130094913.883 6 101372689.99945  24756234.658    24756233.7644   24756238.9094
        39.600          31.3004
 132885566.357 6 103547194.38942  25287282.641    25287281.3584   25287282.7994
        36.900          15.8004
 122833897.851 8                  23374517.996
        48.200
 129054021.090 7                  24558117.359
        45.800
 116180542.875 7  90530357.81245  22108402.250    22108401.2404   22108403.5124
        45.100          31.5004
 109880370.029 8  85621230.51348  20909478.380    20909477.6834   20909482.5814
        48.400          49.2004
 140241579.625 7                  26687085.089
        42.300
 129730575.027 6 100901588.961 5  24268787.203    24268787.330    24268795.059
        40.900          32.400
 108422878.406 7  84485351.22946  20632197.372    20632196.9434   20632202.0304
        47.500          37.4004
 125463139.712 8                  23874842.087
        48.400
 107835729.412 8  83872242.714 7  20144626.453    20144626.571    20144636.685
        52.100          47.800


 108941244.816 8  84732096.434 7  20344008.780    20344009.124    20344015.045
        50.600          47.500
 107502977.846 7                  20167236.895    20167236.451
        46.300
 125459836.695 7  97580007.327 7  23478068.559    23478068.747    23478080.849
        43.500          42.000
 128140200.552 7  99664588.549 6  23988150.492    23988150.349    23988170.413
        43.000          39.900
 135478988.232 6 105567931.67644  25780879.167    25780878.7784   25780905.1534
        37.000          24.7004
 107583491.748 8  83676139.719 8  20146910.971    20146911.253    20146917.418
        51.800          48.900
 133963791.918 7                  25492459.999
        44.900
 25  1  1 18  6 30.0000000  0 32G09G26E19R18G08S31S35G07E13R06S48S33
                                R19G30G20E04E31G16G27E21R01G04E06R07
                                R20R08R10R11R16G31R09E09
 106230320.700 8  82776881.12648  20214959.222    20214958.6414   20214962.3924
        49.900          52.0004
 130887413.359 6 101990177.88045  24907074.617    24907073.9244   24907088.8324
        37.700          30.5004
 135598258.347 6                  25803527.491
        37.000
 122887126.208 7  95579090.161 6  23020839.137    23020839.028    23020851.176
        46.500          41.900
 109928126.633 7  85658405.53547  20918587.196    20918586.4414   20918594.2384
        47.600          47.6004
 198978948.701 7                  37864445.705
        45.800
 200908520.195 7                  38231641.103
        44.000
 116401685.874 7  90702659.05247  22150485.799    22150485.1384   22150485.7604
        46.600          44.7004
 151225298.954 5                  28777213.586
        34.800
 125375161.988 5                  23495306.908    23495306.296
        33.300
 412857714.126 5                  78564089.779
        33.500
 202119843.458 7                  38462119.981
        45.400
 120720338.947 6  93893791.947 6  22567341.943    22567342.003    22567355.762
        37.700          41.200
 130052184.053 6 101339394.06845  24748103.169    24748102.2804   24748107.5904
        38.000          31.5004
 132883367.431 6 103545480.94542  25286864.257    25286862.9524   25286864.4704
        37.700          17.0004
 122840850.267 8                  23375841.034
        48.400
 129029735.722 7                  24553495.845
        46.200
 116226809.946 7  90566410.04445  22117206.611    22117205.6054   22117207.8234
        45.100          31.7004
 109879707.763 8  85620714.49348  20909352.176    20909351.4794   20909356.5044
        48.400          49.5004
 140278338.072 6                  26694080.299
        41.900
 129670276.622 6 100854690.201 5  24257507.096    24257506.620    24257514.886
        40.300          32.500
 108453549.667 7  84509250.83546  20638034.340    20638033.9254   20638038.6514
        47.300          37.7004
 125448578.053 8                  23872070.972
        48.700
 107876619.488 8  83904046.004 7  20152264.919    20152265.363    20152275.468
        51.600          47.700


 108921908.535 8  84717057.111 7  20340397.591    20340398.119    20340404.250
        50.200          47.400
 107490521.190 7                  20164900.254    20164899.416
        46.500
 125418573.203 7  97547913.866 7  23470345.389    23470345.379    23470359.072
        42.500          42.100
 128185820.021 7  99700069.828 6  23996691.129    23996691.103    23996711.006
        43.400          39.800
 135523034.412 5 105602253.29743  25789260.311    25789259.8964   25789287.0264
        35.800          23.9004
 107606439.081 8  83693987.570 8  20151208.514    20151208.607    20151214.818
        51.700          49.100
 133932948.545 7                  25486590.801
        44.800
 25  1  1 18  6 45.0000000  0 32G09G26E19R18G08S31S35G07E13R06S48S33
                                R19G30G20E04E31G16G27E21R01G04E06R07
                                R20R08R10R11R16G31R09E09
 106234951.059 8  82780489.17448  20215840.480    20215839.8994   20215843.5214
        49.900          51.9004
 130937553.891 6 102029247.95245  24916616.629    24916615.9504   24916630.9894
        36.700          30.2004
 135640540.368 6                  25811573.803
        37.000
 122899061.265 7  95588372.998 6  23023075.759    23023075.971    23023086.795
        47.000          41.800
 109894476.996 7  85632185.12847  20912183.466    20912182.7064   20912190.8304
        47.800          47.6004
 198978941.167 7                  37864440.746
        45.300
 200908482.114 7                  38231624.441
        43.100
 116371000.880 7  90678748.68247  22144646.577    22144645.9114   22144646.5994
        47.100          44.7004
 151202288.740 5                  28772835.567
        34.700
 125443610.545 5                  23508135.183    23508133.458
        33.500
 412858347.417 5                  78564128.257
        32.900
 202119854.729 7                  38462129.846
        45.100
 120690403.963 6  93870509.539 6  22561746.282    22561746.273    22561759.423
        36.900          41.400
 130009447.538 6 101306092.90445  24739971.079    24739970.2124   24739975.2514
        37.900          31.3004
 132881290.366 6 103543862.42842  25286468.490    25286467.1944   25286469.4474
        37.200          16.6004
 122847899.838 8                  23377182.456
        48.400
 129005509.317 7                  24548885.640
        45.800
 116273122.311 7  90602497.56745  22126019.219    22126018.2094   22126020.8414
        44.700          31.7004
 109879213.350 8  85620329.25948  20909258.072    20909257.3704   20909262.3764
        48.400          49.5004
 140315103.187 7                  26701076.684
        42.100
 129610040.952 6 100807840.222 5  24246238.903    24246239.151    24246246.339
        41.000          32.000
 108484345.687 7  84533247.66846  20643894.368    20643893.9394   20643898.9994
        47.500          37.8004
 125434103.890 8                  23869316.694
        48.300
 107917671.815 8  83935975.495 7  20159934.214    20159934.245    20159944.542
        51.800          47.800


 108902767.933 8  84702169.983 7  20336823.303    20336823.620    20336829.957
        50.200          47.400
 107478141.204 7                  20162577.521    20162577.275
        46.200
 125377347.014 7  97515849.448 6  23462630.734    23462631.092    23462642.822
        43.000          41.600
 128231422.619 7  99735538.112 6  24005227.560    24005228.575    24005248.612
        42.700          39.300
 135567088.692 5 105636581.20044  25797644.748    25797644.3284   25797670.5364
        35.400          24.0004
 107629437.415 8  83711875.141 8  20155515.280    20155515.455    20155521.567
        51.600          48.700
 133902165.822 7                  25480732.921
        44.400
 25  1  1 18  7  0.0000000  0 32G09G26E19R18G08S31S35G07E13R06S48S33
                                R19G30G20E04E31G16G27E21R01G04E06R07
                                R20R08R10R11R16G31R09E09
 106239733.882 8  82784216.03148  20216750.419    20216749.8384   20216753.6754
        50.400          51.7004
 130987685.765 6 102068311.36245  24926156.859    24926156.1624   24926170.9904
        37.600          30.3004
 135682865.307 6                  25819628.085
        37.100
 122911184.110 7  95597801.828 6  23025346.880    23025346.938    23025358.133
        46.600          41.800
 109860956.602 8  85606065.43447  20905805.104    20905804.3444   20905811.9714
        48.600          47.5004
 198978935.203 7                  37864449.224
        45.200
 200908445.540 7                  38231621.714
        43.200
 116340337.600 8  90654855.23047  22138811.387    22138810.7174   22138811.5964
        48.000          44.6004
 151179352.676 5                  28768470.019
        34.600
 125512071.362 5                  23520961.873    23520963.992
        33.000
 412858983.287 5                  78564162.290
        32.600
 202119867.965 7                  38462123.670
        45.200
 120660623.114 6  93847347.003 6  22556177.512    22556178.714    22556191.672
        36.100          41.600
 129966706.339 6 101272788.12445  24731837.775    24731836.9044   24731841.8124
        39.300          31.2004
 132879337.015 6 103542340.24942  25286096.417    25286095.1614   25286097.5964
        38.000          15.2004
 122855048.326 8                  23378542.933
        48.500
 128981343.554 7                  24544287.029
        46.100
 116319481.451 7  90638621.52845  22134841.514    22134840.4954   22134842.8434
        45.100          31.4004
 109878888.624 8  85620076.26548  20909196.165    20909195.4634   20909200.5604
        48.700          49.3004
 140351876.632 7                  26708074.272
        42.500
 129549869.939 6 100761040.562 5  24234982.019    24234981.067    24234990.804
        38.900          32.500
 108515268.003 7  84557342.91146  20649778.780    20649778.3424   20649783.3864
        47.800          37.6004
 125419719.197 8                  23866579.326
        48.600
 107958887.259 8  83968031.848 7  20167633.305    20167633.668    20167643.836
        51.900          47.800


 108883825.096 8  84687436.657 7  20333285.321    20333286.535    20333292.456
        50.300          47.300
 107465839.546 7                  20160270.089    20160269.256
        46.400
 125336159.950 6  97483815.490 7  23454921.983    23454922.135    23454935.480
        41.700          42.100
 128277009.489 7  99770994.029 6  24013763.311    24013763.588    24013782.462
        44.100          38.800
 135611152.909 6 105670916.85943  25806029.694    25806029.2744   25806055.5314
        36.700          22.9004
 107652488.510 8  83729803.716 8  20159832.390    20159832.422    20159838.413
        51.900          49.100
 133871445.702 7                  25474887.513
        44.900
 25  1  1 18  7 15.0000000  0 32G09G26E19R18G08S31S35G07E13R06S48S33
                                R19G30G20E04E31G16G27E21R01G04E06R07
                                R20R08R10R11R16G31R09E09
 106244670.055 8  82788062.38448  20217689.819    20217689.2344   20217692.9974
        50.000          51.8004
 131037809.592 6 102107368.49645  24935695.453    24935694.7564   24935709.3454
        37.100          30.1004
 135725233.941 6                  25827690.682
        36.700
 122923495.577 7  95607377.407 6  23027653.158    23027653.857    23027663.836
        47.000          41.800
 109827566.630 8  85580047.37647  20899451.014    20899450.2504   20899457.9434
        48.100          47.7004
 198978931.510 7                  37864444.005
        45.500
 200908411.931 7                  38231621.557
        43.800
 116309697.082 7  90630979.51847  22132980.324    22132979.6454   22132980.8734
        47.300          44.7004
 151156491.765 6                  28764119.644
        36.200
 125580545.032 5                  23533795.332    23533795.398
        31.700
 412858021.734 5                  78564203.997
        33.500
 202119884.307 7                  38462126.528
        45.000
 120630997.656 6  93824305.276 6  22550640.654    22550640.779    22550652.856
        37.600          41.300
 129923961.267 6 101239480.29945  24723703.374    24723702.4984   24723707.3454
        39.200          31.5004
 132877508.298 6 103540915.22042  25285748.844    25285747.5974   25285749.6634
        38.100          16.0004
 122862296.690 8                  23379922.121
        48.300
 128957239.412 7                  24539700.072
        46.000
 116365887.932 7  90674782.37545  22143672.550    22143671.5444   22143673.7034
        44.400          31.4004
 109878734.489 8  85619956.20148  20909166.764    20909166.0584   20909171.1954
        48.500          49.5004
 140388659.134 7                  26715073.871
        42.100
 129489765.133 6 100714292.380 5  24223738.589    24223738.934    24223746.820
        40.900          32.200
 108546317.345 7  84581537.13246  20655687.240    20655686.8114   20655691.9114
        47.400          37.6004
 125405424.992 8                  23863859.238
        48.500
 108000266.506 8  84000215.609 8  20175363.580    20175363.798    20175374.037
        51.900          48.000


 108865081.257 8  84672858.120 7  20329785.154    20329785.948    20329792.227
        50.100          47.100
 107453616.931 7                  20157977.167    20157976.387
        46.400
 125295012.778 7  97451812.523 6  23447222.127    23447222.846    23447234.371
        42.700          41.200
 128322581.103 7  99806437.923 6  24022294.690    24022294.567    24022314.640
        43.700          39.300
 135655227.912 6 105705260.93243  25814415.909    25814415.4944   25814443.1184
        36.500          23.7004
 107675593.125 8  83747773.911 8  20164158.578    20164159.218    20164165.276
        51.800          48.900
 133840789.320 7                  25469053.525
        45.100
 25  1  1 18  7 30.0000000  0 32G09G26E19R18G08S31S35G07E13R06S48S33
                                R19G30G20E04E31G16G27E21R01G04E06R07
                                R20R08R10R11R16G31R09E09
 106249755.943 8  82792025.40048  20218657.692    20218657.1074   20218660.8094
        49.800          51.7004
 131087921.310 6 102146416.01744  24945231.746    24945231.0404   24945245.6084
        36.800          29.5004
 135767642.343 6                  25835760.737
        37.200
 122935991.875 7  95617096.640 7  23029993.315    23029994.063    23030005.169
        46.200          42.200
 109794303.776 8  85554128.36647  20893121.155    20893120.3914   20893128.1564
        48.000          47.7004
 198978926.908 7                  37864442.427
        45.100
 200908377.119 7                  38231611.550
        43.700
 116279075.797 7  90607118.80147  22127153.573    22127152.9074   22127153.8174
        46.700          44.7004
 151133702.844 5                  28759782.998
        35.300
 125649027.358 5                  23546630.527    23546629.160
        32.100
 412858660.179 5                  78564244.166
        33.100
 202119898.359 7                  38462129.944
        44.900
 120601524.116 6  93801381.792 6  22545131.388    22545130.417    22545143.129
        37.300          41.700
 129881208.828 6 101206166.72145  24715567.685    24715566.8144   24715571.8494
        38.400          31.5004
 132875800.631 6 103539584.53642  25285424.251    25285422.9864   25285424.6884
        38.300          17.0004
 122869641.324 8                  23381319.602
        48.500
 128933193.235 7                  24535124.202
        46.100
 116412337.719 7  90710976.98345  22152511.745    22152510.7574   22152512.7594
        44.600          31.4004
 109878747.320 8  85619966.24148  20909169.313    20909168.6074   20909173.5744
        48.400          49.4004
 140425447.101 7                  26722074.683
        42.400
 129429723.396 6 100667593.262 5  24212507.202    24212506.988    24212514.685
        40.500          32.700
 108577489.908 7  84605827.36846  20661619.641    20661619.2174   20661623.9434
        46.900          37.6004
 125391217.851 8                  23861155.605
        48.600
 108041805.171 8  84032523.353 8  20183123.285    20183123.834    20183133.988
        52.200          48.000


 108846533.047 8  84658431.739 7  20326321.816    20326322.278    20326328.253
        50.300          47.300
 107441469.772 7                  20155698.543    20155697.733
        46.400
 125253902.013 7  97419837.901 6  23439528.555    23439529.988    23439541.034
        42.800          41.800
 128368134.545 7  99841867.729 6  24030821.917    24030821.983    24030842.995
        43.600          39.900
 135699310.021 6 105739610.56043  25822805.140    25822804.7164   25822831.9584
        36.300          23.9004
 107698747.392 8  83765782.710 8  20168495.214    20168495.305    20168501.359
        51.600          49.000
 133810193.246 7                  25463231.143
        45.300
 25  1  1 18  7 45.0000000  0 32G09G26E19R18G08S31S35G07E13R06S48S33
                                R19G30G20E04E31G16G27E21R01G04E06R07
                                R20R08R10R11R16G31R09E09
 106254990.295 8  82796104.10848  20219653.710    20219653.1294   20219656.8724
        49.800          51.7004
 131138019.859 6 102185453.27144  24954765.985    24954765.2794   24954779.8184
        36.600          29.8004
 135810089.132 6                  25843838.315
        36.900
 122948671.634 7  95626958.568 7  23032369.111    23032368.848    23032381.072
        46.100          42.600
 109761167.102 8  85528307.68547  20886815.215    20886814.4464   20886822.4174
        48.200          47.7004
 198978919.904 7                  37864438.429
        45.200
 200908339.892 7                  38231602.799
        43.500
 116248472.581 7  90583272.15747  22121329.904    22121329.2344   22121330.2044
        47.600          44.7004
 151110984.902 5                  28755459.477
        35.300
 125717516.459 5                  23559464.271    23559464.403
        31.600
 412859296.014 5                  78564269.211
        32.500
 202119911.087 7                  38462133.754
        45.100
 120572201.572 6  93778575.735 7  22539648.596    22539648.811    22539661.425
        37.400          42.000
 129838447.844 6 101172846.51645  24707430.501    24707429.6524   24707434.8474
        38.700          31.9004
 132874212.674 6 103538347.14742  25285121.539    25285120.2614   25285122.8854
        37.900          17.6004
 122877080.969 8                  23382735.411
        48.300
 128909203.788 7                  24530559.327
        45.900
 116458829.166 7  90747204.00745  22161358.754    22161357.7754   22161359.8204
        44.500          31.4004
 109878925.824 8  85620105.37448  20909203.182    20909202.4764   20909207.4914
        48.500          49.3004
 140462239.008 7                  26729075.566
        42.100
 129369743.867 6 100620942.505 5  24201286.003    24201285.075    24201294.061
        40.200          32.400
 108608784.300 7  84630212.56446  20667574.885    20667574.4704   20667579.1244
        47.400          37.6004
 125377096.579 8                  23858468.428
        48.500
 108083501.841 8  84064954.004 8  20190912.641    20190913.105    20190923.277
        51.800          48.100


 108828179.305 8  84644156.607 7  20322894.249    20322894.856    20322900.687
        50.100          47.300
 107429396.415 7                  20153433.294    20153432.687
        46.800
 125212826.026 7  97387890.223 6  23431842.095    23431842.262    23431854.122
        43.700          41.900
 128413668.525 7  99877282.458 6  24039346.589    24039347.274    24039368.215
        44.100          39.200
 135743397.925 6 105773964.70544  25831194.468    25831194.0394   25831221.9304
        36.200          24.0004
 107721950.168 8  83783829.289 8  20172839.934    20172840.359    20172846.278
        51.500          49.300
 133779656.413 7                  25457420.326
        44.800
 25  1  1 18  8  0.0000000  0 32G09G26E19R18G08S31S35G07E13R06S48S33
                                R19G30G20E04E31G16G27E21R01G04E06R07
                                R20R08R10R11R16G31R09E09
 106260375.024 8  82800299.99348  20220678.486    20220677.9054   20220681.5484
        49.500          51.6004
 131188107.281 6 102224481.95045  24964296.822    24964296.1124   24964312.1554
        37.500          30.7004
 135852576.167 6                  25851923.449
        36.700
 122961536.912 7  95636964.862 6  23034779.630    23034779.562    23034790.462
        46.600          41.700
 109728158.820 7  85502587.07547  20880534.015    20880533.2514   20880541.0444
        47.800          47.7004
 198978912.249 7                  37864440.410
        45.300
 200908302.461 7                  38231599.038
        43.700
 116217889.465 7  90559441.17447  22115510.048    22115509.3734   22115510.4184
        46.800          44.7004
 151088339.934 6                  28751150.190
        36.300
 125786013.913 4                  23572297.367    23572298.675
        29.600
 412858330.395 5                  78564301.076
        32.300
 202119922.691 7                  38462136.343
        44.800
 120543032.881 6  93755889.364 6  22534195.863    22534195.484    22534208.371
        36.900          41.500
 129795680.210 6 101139521.11445  24699291.998    24699291.1624   24699296.5524
        38.000          31.6004
 132872745.987 6 103537204.25142  25284842.576    25284841.3164   25284843.9184
        37.500          16.9004
 122884617.552 8                  23384169.751
        48.100
 128885272.951 7                  24526005.569
        45.800
 116505364.233 7  90783465.06845  22170214.045    22170213.0714   22170215.1124
        44.400          31.3004
 109879271.985 8  85620375.15748  20909269.008    20909268.3024   20909273.3054
        48.200          49.4004
 140499036.743 6                  26736078.331
        41.700
 129309828.926 6 100574341.900 5  24190077.464    24190077.740    24190086.069
        40.600          33.700
 108640202.155 7  84654693.98246  20673553.202    20673552.7964   20673557.7554
        46.900          37.6004
 125363063.253 8                  23855798.247
        48.400
 108125357.759 8  84097508.519 7  20198732.337    20198732.234    20198742.437
        51.800          47.700


 108810022.348 8  84630034.559 7  20319503.643    20319504.288    20319510.339
        50.500          47.500
 107417398.706 7                  20151182.285    20151182.034
        46.400
 125171786.835 7  97355971.130 6  23424161.154    23424161.276    23424173.784
        42.100          41.900
 128459184.773 7  99912683.522 6  24047867.937    24047868.689    24047888.771
        44.000          39.200
 135787493.458 5 105808324.75044  25839586.122    25839585.6804   25839612.9974
        35.000          24.0004
 107745202.842 8  83801914.712 8  20177194.532    20177195.097    20177200.852
        51.700          49.100
 133749180.905 7                  25451621.071
        44.900
 25  1  1 18  8 15.0000000  0 32G09G26E19R18G08S31S35G07E13R06S48S33
                                R19G30G20E04E31G16G27E21R01G04E06R07
                                R20R08R10R11R16G31R09E09
 106265910.886 8  82804613.63748  20221731.948    20221731.3674   20221734.9824
        49.600          51.8004
 131238184.157 6 102263502.55045  24973827.128    24973826.4224   24973841.9294
        36.900          30.2004
 135895103.999 6                  25860016.440
        36.500
 122974588.161 7  95647115.718 6  23037225.113    23037224.905    23037236.113
        46.000          41.700
 109695279.981 8  85476967.31847  20874277.414    20874276.6634   20874284.2914
        48.100          47.8004
 198978905.619 7                  37864436.864
        45.400
 200908265.144 7                  38231590.408
        43.400
 116187327.278 7  90535626.49747  22109694.777    22109694.1164   22109694.6084
        47.300          45.0004
 151065769.074 6                  28746855.738
        36.500
 125854520.114 5                  23585138.703    23585139.118
        31.900
 412858964.475 5                  78564349.039
        33.000
 202119934.219 7                  38462133.351
        44.900
 120514018.619 6  93733323.056 6  22528770.037    22528770.816    22528783.827
        37.200          41.600
 129752906.841 6 101106191.23945  24691153.201    24691152.3924   24691157.0054
        39.200          32.0004
 132871401.467 6 103536156.55843  25284586.353    25284585.0884   25284588.0254
        38.500          18.0004
 122892251.866 8                  23385622.396
        48.100
 128861401.454 7                  24521462.683
        45.700
 116551943.381 7  90819760.49145  22179077.759    22179076.7804   22179078.8754
        44.600          31.4004
 109879786.552 8  85620776.16548  20909367.108    20909366.4114   20909371.1754
        48.500          49.5004
 140535840.936 6                  26743082.083
        41.700
 129249979.965 6 100527792.696 5  24178881.585    24178881.947    24178890.458
        40.500          33.500
 108671743.999 7  84679271.98346  20679555.456    20679555.0504   20679559.9384
        47.200          37.6004
 125349118.749 8                  23853144.434
        48.300
 108167373.234 8  84130187.132 8  20206580.769    20206580.884    20206591.602
        51.400          48.000


 108792062.896 8  84616066.091 7  20316149.741    20316150.428    20316156.412
        50.400          47.300
 107405477.886 7                  20148945.998    20148945.601
        46.700
 125130785.471 7  97324081.526 7  23416488.544    23416488.539    23416501.401
        42.400          42.100
 128504683.972 7  99948071.368 6  24056386.083    24056386.151    24056406.130
        43.300          38.700
 135831597.469 5 105842691.40443  25847979.182    25847978.7404   25848005.2264
        34.900          22.0004
 107768506.355 8  83820039.701 8  20181558.831    20181558.923    20181564.740
        51.700          49.000
 133718767.782 7                  25445833.708
        44.600
 25  1  1 18  8 30.0000000  0 32G09G26E19R18G08S31S35G07E13R06S48S33
                                R19G30G20E04E31G16G27E21R01G04E06R07
                                R20R08R10R11R16G31R09E09
 106271598.818 8  82809045.77148  20222814.400    20222813.8244   20222817.3484
        49.500          51.6004
 131288251.180 5 102302515.49444  24983354.433    24983353.7404   24983369.6744
        35.700          29.9004
 135937673.466 6                  25868116.955
        36.900
 122987826.439 7  95657412.165 6  23039704.769    23039704.809    23039715.597
        46.400          41.500
 109662531.796 7  85451449.35647  20868045.363    20868044.6084   20868052.4374
        47.800          47.8004
 198978899.510 7                  37864437.155
        45.900
 200908229.276 7                  38231583.213
        44.000
 116156787.228 7  90511829.06347  22103882.786    22103882.1164   22103883.0284
        46.900          44.9004
 151043273.095 6                  28742574.261
        36.700
 125923035.479 5                  23597976.827    23597977.701
        30.600
 412859598.277 5                  78564379.786
        32.700
 202119948.763 7                  38462141.847
        45.400
 120485160.567 6  93710878.240 6  22523377.013    22523376.107    22523388.855
        37.000          41.500
 129710128.709 6 101072857.67645  24683012.074    24683011.2344   24683017.0694
        37.900          32.1004
 132870179.971 6 103535204.72243  25284355.157    25284353.8884   25284355.5144
        37.700          18.1004
 122899984.857 8                  23387094.066
        48.200
 128837590.266 7                  24516931.508
        46.000
 116598567.107 7  90856090.62045  22187949.648    22187948.6654   22187951.1954
        44.500          31.3004
 109880470.439 8  85621309.10748  20909497.028    20909496.3264   20909501.2734
        48.100          49.3004
 140572652.281 7                  26750086.922
        42.000
 129190198.555 6 100481296.037 5  24167698.332    24167697.176    24167707.570
        40.400          33.600
 108703410.614 7  84703947.19146  20685581.524    20685581.1184   20685585.9954
        47.300          37.5004
 125335264.164 8                  23850508.127
        48.300
 108209549.150 8  84162990.536 7  20214459.708    20214459.843    20214470.189
        51.100          47.900
                 100849176.744 6                                  24247677.436
                        37.500
 108774302.366 8  84602252.335 7  20312832.854    20312833.786    20312840.006
        50.700          47.400
 107393634.096 7                  20146724.157    20146723.585
        46.500
 125089822.762 7  97292222.067 6  23408821.695    23408821.715    23408834.616
        42.400          41.300
 128550167.005 7  99983446.543 6  24064900.842    24064900.330    24064920.904
        44.200          38.400
 135875710.750 5 105877065.31444  25856372.544    25856372.0934   25856399.8794
        35.600          24.7004
 107791861.171 8  83838204.593 8  20185932.225    20185932.514    20185938.523
        51.800          48.900
 133688418.114 7                  25440058.220
        44.800
 25  1  1 18  8 45.0000000  0 32G09G26E19R18G08S31S35G07E13R06S48S33
                                R19G30G20E04E31G16G27E21R01G04E06R07
                                R20R08R10R11R16G31R09E09
 106277438.228 8  82813595.94948  20223925.235    20223924.6594   20223928.5324
        49.500          51.6004
 131338307.351 6 102341519.98945  24992880.159    24992879.4714   24992895.1824
        36.800          30.0004
 135980283.524 6                  25876225.462
        36.600
 123001250.759 7  95667853.200 6  23042219.492    23042220.012    23042230.836
        46.400          41.500
 109629913.934 7  85426032.93847  20861838.321    20861837.5614   20861845.3514
        47.800          47.8004
 198978894.168 7                  37864436.985
        45.800
 200908194.091 7                  38231574.627
        43.800
 116126268.629 7  90488048.33847  22098075.486    22098074.8204   22098075.5624
        46.800          44.9004
 151020851.668 5                  28738307.291
        35.600
 125991558.868 5                  23610820.934    23610819.267
        30.900
 412860232.929 5                  78564416.180
        32.600
 202119962.171 7                  38462143.175
        45.300
 120456458.371 6  93688554.599 6  22518010.841    22518010.871    22518022.613
        37.500          41.500
 129667345.202 6 101039519.90245  24674871.072    24674870.2274   24674875.3354
        38.400          31.7004
 132869080.781 6 103534348.22042  25284144.989    25284143.7374   25284146.2604
        37.200          17.7004
 122907815.927 8                  23388584.373
        48.400
 128813838.750 7                  24512411.415
        46.100
 116645234.590 7  90892454.84145  22196830.230    22196829.2474   22196831.6594
        44.200          31.3004
 109881322.980 7  85621973.46048  20909659.389    20909658.6874   20909663.4634
        47.800          49.3004
 140609470.074 7                  26757093.086
        42.000
 129130484.228 6 100434851.576 5  24156528.060    24156527.505    24156536.437
        40.100          34.100
 108735201.177 7  84728718.99546  20691631.126    20691630.7294   20691635.5784
        46.600          37.5004
 125321499.022 8                  23847888.624
        48.400
 108251884.173 8  84195917.711 8  20222368.217    20222368.555    20222379.206
        51.300          48.000
                 100803192.564 6                                  24236621.202
                        38.000
 108756740.511 8  84588593.110 7  20309553.404    20309554.208    20309560.518
        50.200          47.200
 107381866.698 7                  20144516.693    20144516.307
        46.800
 125048898.107 7  97260392.132 6  23401163.096    23401163.278    23401176.015
        42.100          41.600
 128595632.942 7 100018808.297 6  24073412.311    24073412.430    24073433.487
        42.900          39.500
 135919832.885 6 105911446.14543  25864769.086    25864768.6354   25864796.3564
        36.300          23.8004
 107815266.438 8  83856408.694 8  20190315.229    20190315.621    20190321.518
        51.800          48.900
 133658131.441 7                  25434294.872
        44.800
 25  1  1 18  9  0.0000000  0 32G09G26E19R18G08S31S35G07E13R06S48S33
                                R19G30G20E04E31G16G27E21R01G04E06R07
                                R20R08R10R11R16G31R09E09
 106283425.629 8  82818261.44648  20225065.014    20225064.4294   20225067.9064
        50.000          51.5004
 131388349.097 6 102380513.10345  25002403.260    25002402.5904   25002418.2094
        36.600          30.1004
 136022930.686 6                  25884341.074
        36.900
 123014857.710 7  95678436.334 7  23044768.073    23044768.260    23044780.117
        46.100          42.000
 109597423.317 8  85400715.68347  20855655.613    20855654.8584   20855662.4974
        48.200          47.7004
 198978886.285 7                  37864433.564
        45.600
 200908155.832 7                  38231566.096
        43.400
 116095768.192 7  90464281.77147  22092271.244    22092270.5784   22092271.5484
        47.200          44.9004
 150998501.610 5                  28734054.490
        34.100
 126060086.052 5                  23623660.614    23623660.716
        31.400
 412859264.778 5                  78564449.606
        32.700
 202119973.328 7                  38462147.459
        45.100
 120427909.040 5  93666349.903 6  22512673.408    22512672.724    22512685.593
        35.300          41.200
 129624552.998 6 101006175.33645  24666727.832    24666726.9784   24666732.4354
        39.200          32.1004
 132868100.308 6 103533584.16042  25283958.564    25283957.3304   25283959.6194
        38.300          17.3004
 122915741.671 8                  23390092.593
        48.400
 128790143.476 7                  24507902.746
        46.100
 116691941.983 7  90928850.16545  22205718.848    22205717.8604   22205719.8004
        44.800          31.2004
 109882340.808 8  85622766.60748  20909853.043    20909852.3504   20909857.1024
        48.400          49.2004
 140646290.684 7                  26764099.935
        42.100
 129070834.209 6 100388457.038 5  24145369.113    24145369.197    24145378.353
        41.200          34.800
 108767112.045 7  84753584.55446  20697703.507    20697703.1104   20697708.0954
        47.500          37.3004
 125307820.024 8                  23845285.702
        48.400
 108294374.495 8  84228965.641 7  20230306.286    20230305.945    20230316.792
        51.300          47.800
                 100757191.374 6                                  24225560.755
                        37.700
 108739373.711 8  84575085.585 7  20306310.748    20306311.303    20306317.237
        50.500          47.200
 107370172.223 7                  20142322.500    20142322.216
        46.700
 125008007.959 6  97228589.050 6  23393510.917    23393510.284    23393522.980
        41.400          41.100
 128641078.353 7 100054154.061 6  24081919.897    24081919.938    24081942.278
        42.300          39.000
 135963960.174 5 105945830.99343  25873166.444    25873166.0064   25873193.6124
        35.700          23.2004
 107838718.910 8  83874649.466 8  20194707.228    20194707.608    20194713.465
        51.900          48.800
 133627904.608 7                  25428543.085
        44.900
 25  1  1 18  9 15.0000000  0 32G09G26E19R18G08S31S35G07E13R06S48S33
                                R19G30G20E04E31G16G27E21R01G04E06R07
                                R20R08R10R11R16G31R09E09
 106289564.374 8  82823044.86548  20226233.123    20226232.5474   20226236.0914
        49.300          51.6004
 131438379.427 6 102419497.19245  25011924.019    25011923.3354   25011938.8034
        36.900          30.2004
 136065618.262 6                  25892464.650
        36.700
 123028650.489 7  95689163.992 6  23047352.286    23047352.410    23047363.829
        45.700          41.900
 109565063.505 7  85375500.34647  20849497.407    20849496.6474   20849504.5634
        47.600          47.8004
 198978878.961 7                  37864431.208
        45.500
 200908118.506 7                  38231567.312
        43.600
 116065289.324 7  90440532.02047  22086471.527    22086470.8574   22086471.5674
        47.300          45.0004
 150976226.537 5                  28729815.013
        35.900
 126128620.374 5                  23636503.676    23636505.322
        30.400
 412859897.243 5                  78564498.494
        33.100
 202119985.129 7                  38462151.193
        45.100
 120399516.396 6  93644267.009 6  22507365.755    22507365.396    22507377.929
        38.100          41.400
 129581755.472 6 100972826.63245  24658583.406    24658582.5664   24658587.9824
        38.600          32.0004
 132867242.097 6 103532915.40443  25283795.806    25283794.5634   25283796.5134
        37.100          18.1004
 122923765.411 8                  23391619.360
        48.600
 128766507.750 7                  24503404.781
        46.100
 116738692.311 7  90965278.95245  22214614.750    22214613.7714   22214616.1514
        44.300          31.3004
 109883527.229 8  85623691.12548  20910078.816    20910078.1104   20910082.8434
        48.100          49.3004
 140683117.404 7                  26771107.324
        42.000
 129011252.205 6 100342115.363 5  24134223.307    24134222.922    24134232.386
        40.800          34.000
 108799146.343 7  84778546.28146  20703799.500    20703799.1074   20703804.0924
        46.800          37.4004
 125294230.636 8                  23842699.637
        48.400
 108337022.787 8  84262136.456 7  20238273.269    20238273.191    20238283.440
        51.400          47.900
                 100711175.928 6                                  24214496.735
                        38.600
 108722205.843 8  84561732.787 7  20303104.767    20303105.230    20303111.084
        50.600          47.200
 107358554.224 7                  20140142.947    20140142.957
        47.100
 124967155.664 7  97196815.365 6  23385865.787    23385866.336    23385878.683
        43.200          41.600
 128686506.680 7 100089486.514 6  24090425.610    24090426.154    24090446.830
        44.700          39.000
 136008096.171 6 105980222.64543  25881565.478    25881565.0454   25881592.2094
        36.400          23.9004
 107862221.828 8  83892929.492 8  20199108.575    20199109.080    20199114.928
        52.000          48.900
 133597741.123 7                  25422802.690
        45.400
 25  1  1 18  9 30.0000000  0 32G09G26E19R18G08S31S35G07E13R06S48S33
                                R19G30G20E04E31G16G27E21R01G04E06R07
                                R20R08R10R11R16G31R09E09
 106295857.185 8  82827948.33648  20227430.561    20227429.9854   20227433.5914
        49.800          51.6004
 131488401.345 6 102458474.71445  25021443.027    25021442.3484   25021458.0694
        37.800          30.3004
 136108348.670 6                  25900596.531
        37.000
 123042631.631 7  95700038.067 6  23049971.390    23049971.592    23049982.988
        46.700          41.400
 109532837.603 7  85350389.34547  20843365.329    20843364.5744   20843372.1444
        47.900          47.9004
 198978874.764 7                  37864435.214
        45.700
 200908084.418 7                  38231559.348
        43.700
 116034834.990 7  90416801.38247  22080676.073    22080675.4164   22080676.2694
        46.900          45.0004
 150954029.735 6                  28725590.764
        36.300
 126197163.826 5                  23649348.236    23649348.703
        30.400
 412860534.756 5                  78564529.339
        33.100
 202120000.472 7                  38462155.030
        45.000
 120371283.579 6  93622308.433 6  22502087.043    22502087.696    22502099.393
        37.600          41.700
 129538955.502 6 100939476.02245  24650438.615    24650437.7704   24650443.1864
        39.000          32.2004
 132866508.654 6 103532343.88843  25283655.810    25283654.5674   25283657.1014
        37.600          18.2004
 122931889.952 8                  23393165.417
        48.800
 128742934.337 7                  24498918.743
        46.500
 116785488.288 7  91001743.29145  22223520.020    22223519.0504   22223521.2314
        44.200          31.3004
 109884884.980 8  85624749.14948  20910337.073    20910336.3634   20910341.1564
        48.400          49.3004
 140719952.791 7                  26778117.413
        42.600
 128951741.680 6 100295829.296 5  24123090.354    24123089.870    24123099.061
        40.800          34.100
 108831306.639 7  84803606.17646  20709919.613    20709919.2204   20709924.1124
        46.900          37.4004
 125280733.748 8                  23840131.196
        48.700
 108379831.581 8  84295432.117 8  20246270.124    20246270.219    20246280.887
        51.300          48.000
 129426491.877 4 100665148.601 6  24203399.643                    24203430.968
        29.200          38.800
 108705239.929 8  84548537.077 7  20299936.687    20299937.126    20299942.769
        50.800          47.200
 107347015.198 7                  20137978.612    20137978.187
        47.100
 124926344.089 7  97165073.357 6  23378228.962    23378228.774    23378240.057
        42.700          40.900
 128731920.623 7 100124807.800 6  24098926.631    24098927.544    24098949.169
        44.200          39.000
 136052243.437 5 106014623.08843  25889965.435    25889965.0024   25889993.2304
        34.100          22.2004
 107885777.595 8  83911250.678 8  20203519.767    20203520.058    20203526.103
        51.600          48.600
 133567643.934 7                  25417075.567
        45.000
 25  1  1 18  9 45.0000000  0 32G09G26E19R18G08S31S35G07E13R06S48S33
                                R19G30G20E04E31G16G27E21R01G04E06R07
                                R20R08R10R11R16G31R09E09
 106302302.144 8  82832970.36348  20228657.176    20228656.6004   20228660.0594
        49.800          51.6004
 131538412.819 6 102497444.12445  25030959.855    25030959.1534   25030975.6994
        37.500          30.1004
 136151119.957 6                  25908734.967
        36.500
 123056799.037 7  95711056.894 6  23052625.308    23052625.947    23052637.527
        46.500          41.300
 109500743.973 7  85325381.42247  20837257.889    20837257.1344   20837264.8244
        47.900          47.9004
 198978871.821 7                  37864435.219
        45.600
 200908051.089 7                  38231554.894
        43.500
 116004403.342 7  90393088.41947  22074885.242    22074884.5854   22074885.2944
        47.100          45.1004
 150931909.141 6                  28721381.412
        37.000
 126265714.146 5                  23662196.344    23662196.797
        30.600
 412861171.990 5                  78564571.117
        32.700
 202120016.879 7                  38462152.548
        44.900
 120343209.225 6  93600473.084 6  22496838.842    22496839.272    22496850.545
        37.500          41.700
 129496151.118 6 100906121.96345  24642293.365    24642292.5474   24642297.6334
        38.900          32.0004
 132865897.751 6 103531867.85142  25283539.633    25283538.3864   25283540.7634
        37.100          16.4004
 122940113.352 8                  23394730.267
        48.700
 128719421.295 7                  24494444.449
        46.500
 116832327.446 7  91038241.28645  22232433.605    22232432.6354   22232434.6064
        44.200          31.2004
 109886412.161 8  85625939.20048  20910627.330    20910626.6114   20910631.7444
        48.700          49.2004
 140756794.910 6                  26785128.392
        41.600
 128892301.274 6 100249597.887 5  24111971.421    24111970.371    24111979.187
        40.200          34.000
 108863590.768 7  84828762.56746  20716062.978    20716062.5814   20716067.6744
        47.100          37.3004
 125267327.558 8                  23837580.288
        48.700
 108422798.168 8  84328850.483 7  20254296.723    20254297.027    20254307.624
        51.200          47.900
 129367297.381 5 100619108.384 6  24192331.638                    24192360.218
        30.000          38.600
 108688474.172 8  84535497.017 7  20296806.084    20296806.310    20296811.847
        50.800          47.100
 107335553.093 7                  20135828.146    20135827.761
        46.700
 124885571.203 7  97133361.382 6  23370598.108    23370599.014    23370610.114
        43.800          41.100
 128777318.497 7 100160116.649 6  24107426.259    24107426.842    24107448.167
        44.200          39.000
 136096399.986 5 106049030.73643  25898369.229    25898368.8054   25898396.2364
        34.100          21.5004
 107909384.317 8  83929611.512 8  20207940.666    20207941.093    20207946.745
        51.600          48.700
 133537611.292 7                  25411360.763
        45.100
 25  1  1 18 10  0.0000000  0 32G09G26E19R18G08S31S35G07E13R06S48S33
                                R19G30G20E04E31G16G27E21R01G04E06R07
                                R20R08R10R11R16G31R09E09
 106308893.932 8  82838106.80748  20229911.220    20229910.6444   20229914.4254
        49.700          51.5004
 131588408.580 6 102536401.40044  25040475.150    25040474.4714   25040490.0914
        36.700          29.3004
 136193926.606 6                  25916881.242
        37.200
 123071147.394 7  95722216.451 6  23055313.788    23055313.540    23055326.094
        45.800          41.900
 109468777.567 8  85300472.63547  20831174.602    20831173.8424   20831181.7234
        48.100          47.8004
 198978865.429 7                  37864433.493
        45.900
 200908014.457 7                  38231540.934
        43.700
 115973989.233 7  90369389.11847  22069097.706    22069097.0454   22069097.7174
        47.600          45.1004
 150909859.458 6                  28717185.069
        36.500
 126334265.540 5                  23675043.592    23675043.013
        31.500
 412860205.730 5                  78564608.321
        33.100
 202120029.441 7                  38462155.598
        45.100
 120315288.113 6  93578756.945 6  22491620.170    22491619.225    22491631.312
        37.400          41.500
 129453337.173 6 100872760.47145  24634146.368    24634145.5284   24634150.2564
        39.100          32.0004
 132865404.356 6 103531483.37342  25283446.216    25283444.9824   25283447.0694
        37.900          17.3004
 122948430.319 8                  23396312.839
        48.400
 128695963.310 7                  24489980.297
        46.400
 116879204.236 7  91074768.58545  22241353.418    22241352.4444   22241355.0644
        44.400          31.2004
 109888103.388 8  85627257.07148  20910949.317    20910948.5934   20910953.5134
        48.100          49.1004
 140793638.225 6                  26792139.895
        41.900
 128832925.913 6 100203417.039 5  24100863.812    24100863.531    24100872.571
        40.300          34.000
 108895993.213 7  84854011.14946  20722228.920    20722228.5274   20722233.7784
        46.900          37.2004
 125254006.891 8                  23835045.266
        48.700
 108465917.043 8  84362387.283 7  20262351.648    20262352.034    20262362.600
        51.100          47.800
 129308081.641 5 100573051.658 6  24181258.901                    24181286.679
        30.200          37.900
 108671903.161 8  84522608.455 7  20293710.691    20293711.527    20293717.636
        50.400          47.200
 107324162.381 7                  20133691.913    20133690.952
        47.200
 124844831.675 7  97101675.446 6  23362974.773    23362974.468    23362985.859
        42.900          41.000
 128822694.720 7 100195408.660 6  24115920.354    24115920.891    24115942.685
        42.600          38.200
 136140560.537 6 106083441.51643  25906772.957    25906772.5514   25906799.5234
        36.900          23.8004
 107933036.372 8  83948007.609 8  20212369.738    20212370.285    20212376.097
        51.900          48.600
 133507638.075 7                  25405656.883
        45.000
 25  1  1 18 10 15.0000000  0 32G09G26E19R18G08S31S35G07E13R06S48S33
                                R19G30G20E04E31G16G27E21R01G04E06R07
                                R20R08R10R11R16G31R09E09
 106315634.610 8  82843359.27048  20231194.209    20231193.6374   20231197.1284
        50.100          51.5004
 131638390.322 6 102575347.77444  25049986.132    25049985.4534   25050001.9434
        38.300          29.5004
 136236770.721 6                  25925034.305
        37.300
 123085678.567 7  95733518.106 6  23058036.026    23058036.771    23058048.096
        46.500          41.800
 109436940.808 8  85275664.87147  20825116.494    20825115.7344   20825123.2734
        48.300          47.8004
 198978856.842 7                  37864427.407
        45.600
 200907975.473 7                  38231536.565
        43.700
 115943594.881 7  90345705.20947  22063313.774    22063313.1044   22063313.8754
        47.700          45.1004
 150887883.301 5                  28713002.771
        35.200
 126402819.691 4                  23687889.033    23687888.567
        29.600
 412860837.668 5                  78564650.225
        33.300
 202120039.938 7                  38462160.177
        45.100
 120287523.204 6  93557162.289 6  22486430.026    22486428.248    22486440.907
        36.900          41.800
 129410515.740 6 100839393.13445  24625996.858    24625996.0094   24626001.9994
        39.000          32.1004
 132865030.458 6 103531192.01842  25283374.878    25283373.6674   25283375.5944
        37.200          16.4004
 122956843.004 8                  23397913.812
        48.600
 128672562.476 7                  24485527.457
        46.500
 116926120.466 7  91111326.59945  22250281.607    22250280.6284   22250282.9674
        45.200          31.1004
 109889960.808 8  85628704.45548  20911302.919    20911302.2044   20911306.9234
        48.400          49.0004
 140830484.842 7                  26799151.231
        42.300
 128773618.251 6 100157288.861 5  24089768.729    24089768.698    24089777.540
        40.600          34.800
 108928515.908 7  84879353.42846  20728418.082    20728417.6854   20728422.7274
        47.200          37.2004
 125240774.062 8                  23832527.218
        48.600
 108509189.794 8  84396043.752 7  20270435.785    20270436.128    20270446.140
        51.700          47.600
 129248847.280 5 100526980.406 6  24170180.314                    24170209.777
        30.400          38.100
 108655529.612 8  84509873.444 7  20290653.683    20290654.123    20290659.851
        50.700          47.300
 107312845.209 7                  20131568.380    20131568.004
        47.000
 124804127.687 7  97070017.116 6  23355356.885    23355356.768    23355368.825
        42.000          41.400
 128868051.259 7 100230685.297 6  24124412.264    24124412.032    24124435.557
        43.400          38.500
 136184727.138 5 106117856.98943  25915177.771    25915177.3604   25915204.1354
        35.900          23.2004
 107956735.539 8  83966440.274 8  20216807.569    20216808.272    20216814.008
        51.900          48.500
 133477726.631 7                  25399964.922
        45.200
 25  1  1 18 10 30.0000000  0 32G09G26E19R18G08S31S35G07E13R06S48S33
                                R19G30G20E04E31G16G27E21R01G04E06R07
                                R20R08R10R11R16G31R09E09
 106322533.808 8  82848735.25748  20232507.130    20232506.5584   20232510.0064
        50.100          51.5004
 131688367.427 6 102614290.46244  25059496.455    25059495.7714   25059512.4364
        38.400          29.2004
 136279661.548 6                  25933196.319
        36.800
 123100402.320 7  95744969.469 6  23060795.116    23060795.378    23060806.502
        46.300          41.200
 109405243.590 8  85250965.83747  20819084.444    20819083.6804   20819091.3814
        48.400          47.8004
 198978855.756 7                  37864433.698
        45.500
 200907945.044 7                  38231530.287
        43.600
 115913229.853 7  90322044.15147  22057535.523    22057534.8574   22057535.5774
        47.300          45.0004
 150865990.461 5                  28708836.819
        35.100
 126471385.701 5                  23700739.192    23700739.192
        30.100
 412861478.408 5                  78564677.792
        32.700
 202120058.679 7                  38462160.995
        45.000
 120259924.201 6  93535696.639 6  22481270.409    22481269.297    22481281.102
        37.100          41.100
 129367696.600 6 100806027.58545  24617849.636    24617848.7874   24617854.0634
        39.000          32.2004
 132864785.510 6 103531001.12042  25283327.508    25283326.2744   25283328.6874
        37.000          16.4004
 122965360.978 8                  23399534.872
        48.900
 128649228.406 7                  24481086.854
        46.700
 116973085.595 7  91147922.73045  22259218.811    22259217.8194   22259220.2874
        44.600          31.1004
 109891993.953 8  85630288.75848  20911689.632    20911688.9084   20911693.7774
        48.900          48.9004
 140867344.187 6                  26806165.568
        41.900
 128714388.624 6 100111221.360 5  24078688.517    24078688.295    24078698.031
        39.700          35.100
 108961168.266 7  84904796.76546  20734631.541    20734631.1484   20734636.3954
        47.300          37.2004
 125227638.717 8                  23830027.383
        48.800
 108552625.825 8  84429827.244 7  20278550.109    20278550.151    20278560.628
        51.700          47.800
 129189604.553 4 100480902.696 6  24159104.814                    24159131.524
        29.500          38.100
 108639363.434 8  84497299.753 7  20287634.501    20287635.205    20287640.880
        50.700          47.100
 107301610.925 7                  20129461.278    20129460.640
        47.100
 124763468.858 7  97038393.968 6  23347748.309    23347747.292    23347759.814
        42.700          41.400
 128913397.718 7 100265954.046 6  24132901.440    24132901.989    24132924.106
        43.800          37.900
 136228909.371 5 106152284.68043  25923584.455    25923584.0494   25923611.8274
        35.700          22.6004
 107980491.376 8  83984917.058 8  20221256.912    20221256.964    20221262.767
        51.700          48.600
 133447886.737 7                  25394286.723
        45.200
 25  1  1 18 10 45.0000000  0 32G09G26E19R18G08S31S35G07E13R06S48S33
                                R19G30G20E04E31G16G27E21R01G04E06R07
                                R20R08R10R11R16G31R09E09
 106329573.812 8  82854220.96148  20233846.577    20233846.0104   20233849.6904
        49.800          51.5004
 131738322.164 6 102653215.67944  25069003.408    25069002.7334   25069018.9494
        38.500          29.7004
 136322581.237 6                  25941363.612
        36.700
 123115300.542 7  95756556.562 7  23063586.885    23063587.254    23063598.426
        47.600          42.200
 109373668.525 8  85226361.99047  20813075.824    20813075.0554   20813082.7684
        48.300          47.8004
 198978845.329 7                  37864430.738
        45.800
 200907904.464 7                  38231523.195
        43.800
 115882876.674 7  90298392.32947  22051759.447    22051758.7864   22051759.5334
        47.800          45.0004
 150844163.510 6                  28704683.127
        36.400
 126539945.172 5                  23713587.735    23713587.536
        30.400
 412860408.309 5                  78564715.716
        33.400
 202120066.733 7                  38462159.881
        45.000
 120232473.867 6  93514346.647 6  22476137.089    22476137.239    22476149.513
        37.100          41.800
 129324862.120 6 100772650.09845  24609698.620    24609697.7534   24609702.7424
        39.500          32.0004
 132864651.723 6 103530896.86943  25283302.274    25283301.0764   25283303.4584
        37.100          18.1004
 122973966.588 8                  23401172.292
        48.700
 128625943.398 7                  24476656.008
        46.400
 117020081.781 7  91184543.06445  22268161.968    22268160.9714   22268163.5504
        44.700          31.1004
 109894185.231 8  85631996.30048  20912106.386    20912105.6584   20912110.7074
        48.400          48.9004
 140904198.502 6                  26813178.660
        41.800
 128655219.545 6 100065200.996 5  24067619.266    24067619.517    24067629.205
        39.800          34.500
 108993932.387 7  84930327.19746  20740866.461    20740866.0684   20740871.2684
        47.100          37.1004
 125214583.371 8                  23827543.216
        48.400
 108596206.501 8  84463723.245 8  20286691.644    20286691.380    20286701.767
        51.400          48.000
 129130336.088 5 100434804.894 6  24148020.635                    24148047.825
        30.800          38.100
 108623386.832 8  84484873.506 7  20284650.750    20284651.662    20284657.695
        50.700          47.200
 107290441.842 7                  20127365.533    20127365.184
        47.100
 124722837.217 6  97006791.920 6  23340143.033    23340143.589    23340156.052
        41.900          41.700
 128958716.648 7 100301201.501 6  24141386.401    24141386.991    24141408.772
        43.200          38.800
 136273089.519 6 106186710.72043  25931991.777    25931991.3444   25932019.0144
        36.200          22.0004
 108004286.115 8  84003424.047 8  20225712.172    20225713.110    20225718.695
        51.900          48.500
 133418100.958 7                  25388618.600
        45.200
 25  1  1 18 11  0.0000000  0 32G09G26E19R18G08S31S35G07E13R06S48S33
                                R19G30G20E04E31G16G27E21R01G04E06R07
                                R20R08R10R11R16G31R09E09
 106336771.895 8  82859829.84648  20235216.567    20235216.0044   20235219.4564
        50.000          51.4004
 131788271.967 6 102692137.12944  25078509.079    25078508.3774   25078524.8944
        37.700          29.4004
 136365546.949 6                  25949540.108
        36.500
 123130390.792 7  95768292.999 7  23066413.297    23066413.963    23066425.234
        46.700          42.100
 109342233.192 7  85201867.02447  20807093.846    20807093.0644   20807100.7564
        47.900          47.7004
 198978841.852 7                  37864426.481
        45.700
 200907871.257 7                  38231513.581
        43.500
 115852552.692 7  90274763.26647  22045989.189    22045988.5284   22045989.0834
        47.800          45.1004
 150822419.743 6                  28700545.105
        36.900
 126608515.208 5                  23726439.376    23726438.631
        31.600
 412861045.848 5                  78564747.451
        32.900
 202120082.279 7                  38462165.373
        44.800
 120205190.135 6  93493126.265 6  22471035.648    22471036.709    22471048.742
        36.300          41.300
 129282029.607 6 100739274.14245  24601547.721    24601546.8504   24601551.9364
        39.400          32.2004
 132864646.265 6 103530892.60143  25283300.874    25283299.6814   25283302.7704
        37.300          18.1004
 122982677.153 8                  23402829.972
        48.700
 128602724.734 7                  24472237.542
        46.300
 117067126.054 7  91221200.88445  22277114.375    22277113.3744   22277115.9394
        45.200          31.1004
 109896551.811 8  85633840.43548  20912556.720    20912555.9874   20912561.0214
        48.100          48.8004
 140941064.984 7                  26820194.257
        42.100
 128596128.910 6 100019241.577 5  24056565.730    24056564.937    24056574.764
        39.900          34.300
 109026825.318 7  84955957.99646  20747125.801    20747125.4084   20747130.6364
        47.300          37.1004
 125201625.399 8                  23825077.396
        48.800
 108639949.106 8  84497745.149 7  20294862.998    20294862.818    20294873.688
        51.200          47.700
 129071059.895 5 100388701.071 6  24136934.991                    24136963.089
        30.700          38.300
 108607617.614 8  84472608.552 7  20281706.545    20281706.732    20281712.711
        50.300          47.500
 107279355.009 7                  20125285.529    20125285.106
        47.000
 124682250.356 7  96975224.702 6  23332547.587    23332547.769    23332558.940
        42.200          40.900
 129004025.121 7 100336440.858 6  24149868.210    24149869.078    24149890.555
        43.400          38.500
 136317284.650 5 106221148.44443  25940402.439    25940402.0014   25940429.1214
        34.900          22.6004
 108028136.996 8  84021974.712 8  20230178.944    20230179.362    20230185.112
        51.600          48.400
 133388386.792 7                  25382964.283
        45.200
 25  1  1 18 11 15.0000000  0 32G09G26E19R18G08S31S35G07E13R06S48S33
                                R19G30G20E04E31G16G27E21R01G04E06R07
                                R20R08R10R11R16G31R09E09
 106344116.925 8  82865553.23148  20236614.165    20236613.5934   20236617.1964
        50.100          51.8004
 131838205.426 6 102731045.88744  25088011.251    25088010.5364   25088027.2534
        36.700          29.3004
 136408547.630 6                  25957723.163
        37.200
 123145661.525 7  95780169.781 7  23069274.115    23069273.861    23069286.853
        45.700          42.300
 109310926.760 7  85177472.51248  20801136.429    20801135.6514   20801143.2724
        47.500          48.0004
 198978834.547 7                  37864422.904
        45.500
 200907833.556 7                  38231503.019
        43.200
 115822246.908 7  90251148.38147  22040221.984    22040221.3144   22040222.0674
        47.700          45.4004
 150800748.353 6                  28696420.743
        36.800
 126677084.124 5                  23739287.226    23739286.912
        31.300
 412861678.382 5                  78564776.772
        32.600
 202120094.447 7                  38462167.371
        44.900
 120178061.963 6  93472026.795 6  22465966.592    22465965.710    22465976.688
        37.000          41.200
 129239188.028 6 100705891.10845  24593394.963    24593394.0924   24593399.4924
        38.800          32.3004
 132864757.874 6 103530979.49543  25283323.051    25283321.8714   25283323.6164
        37.800          18.5004
 122991481.556 8                  23404505.360
        48.800
 128579561.285 7                  24467829.678
        46.800
 117114206.761 7  91257887.12245  22286073.002    22286071.9834   22286075.0104
        44.600          31.5004
 109899082.581 8  85635812.50748  20913038.490    20913037.7664   20913042.5214
        48.100          49.1004
 140977932.319 6                  26827209.894
        41.800
 128537105.919 6  99973334.740 5  24045524.319    24045524.492    24045532.794
        40.700          33.200
 109059835.729 7  84981680.33746  20753407.508    20753407.1154   20753412.3724
        46.500          37.3004
 125188753.854 8                  23822628.166
        48.700
 108683841.867 8  84531883.881 7  20303062.573    20303062.755    20303073.289
        51.400          47.800
 129011765.012 4 100342582.643 6  24125846.160                    24125874.998
        29.800          38.700
 108592044.572 8  84460496.181 7  20278798.259    20278798.814    20278804.498
        50.600          47.300
 107268339.479 7                  20123219.057    20123218.756
        47.400
 124641697.164 6  96943683.743 6  23324959.423    23324958.732    23324970.288
        41.100          41.000
 129049312.504 7 100371663.877 6  24158346.489    24158346.474    24158369.319
        42.600          38.300
 136361483.905 5 106255589.36943  25948812.522    25948812.0224   25948840.0874
        33.800          19.8004
 108052032.806 8  84040560.366 8  20234654.509    20234654.616    20234660.178
        51.900          48.600
 133358733.264 7                  25377321.212
        45.200
 25  1  1 18 11 30.0000000  0 33G09G26E19R18G08S31S35G07E13R06S48S33
                                R19G30G20E04E31G16G27E21R01G04E06R07
                                R20R08R10R11R16E24G31R09E09
 106351606.716 8  82871389.42448  20238039.154    20238038.5784   20238042.4674
        49.700          51.7004
 131888120.600 6 102769940.58544  25097509.796    25097509.0814   25097525.6054
        36.900          28.5004
 136451580.662 6                  25965911.928
        36.400
 123161110.432 7  95792185.117 7  23072168.987    23072168.763    23072181.156
        46.700          42.500
 109279747.402 7  85153177.02848  20795202.885    20795202.0984   20795209.9344
        47.800          48.1004
 198978821.443 7                  37864425.050
        45.500
 200907790.619 7                  38231501.190
        43.600
 115791957.486 7  90227546.25147  22034458.117    22034457.4424   22034458.1774
        47.400          45.5004
 150779147.242 6                  28692309.963
        37.000
 126745649.316 5                  23752135.694    23752136.419
        30.100
 412862305.532 5                  78564827.069
        33.400
 202120100.884 7                  38462169.683
        45.000
 120151087.639 6  93451047.050 6  22460922.327    22460922.306    22460934.169
        37.000          41.600
 129196335.304 6 100672499.40445  24585240.188    24585239.3084   24585244.6574
        38.200          32.4004
 132864984.426 6 103531155.97042  25283366.092    25283364.9084   25283366.9554
        36.400          17.2004
 123000377.661 8                  23406198.217
        48.900
 128556450.899 7                  24463431.788
        46.700
 117161321.410 7  91294599.81145  22295038.837    22295037.8314   22295040.5684
        44.000          31.4004
 109901775.384 8  85637910.84648  20913550.794    20913550.0664   20913554.8844
        48.000          49.0004
 141014798.209 6                  26834225.158
        41.600
 128478149.053 6  99927479.416 5  24034495.219    24034494.167    24034503.904
        40.000          34.200
 109092961.287 7  85007492.41546  20759711.301    20759710.9214   20759716.0764
        46.700          37.4004
 125175966.695 8                  23820194.544
        48.700
 108727881.851 8  84566137.118 7  20311289.286    20311289.570    20311300.234
        51.400          47.600
 128952449.751 5 100296448.397 6  24114754.405                    24114783.317
        30.300          39.100
 108576665.777 8  84448534.905 7  20275926.377    20275926.941    20275932.558
        50.400          47.300
 107257392.617 7                  20121165.408    20121165.020
        47.200
 124601175.250 7  96912167.040 6  23317375.684    23317375.437    23317386.282
        42.700          40.100
 129094575.529 7 100406867.912 6  24166820.524    24166820.583    24166843.961
        43.700          38.300
 153399583.896 5                  29190970.494
        35.600
 136405685.096 5 106290031.82443  25957224.513    25957223.9954   25957251.0214
        33.400          20.0004
 108075970.842 8  84059178.837 8  20239136.753    20239137.163    20239142.980
        51.500          48.500
 133329138.426 7                  25371689.461
        45.900
 25  1  1 18 11 45.0000000  0 33G09G26E19R18G08S31S35G07E13R06S48S33
                                R19G30G20E04E31G16G27E21R01G04E06R07
                                R20R08R10R11R16E24G31R09E09
 106359254.590 8  82877348.80048  20239494.991    20239494.4194   20239497.8374
        49.800          51.7004
 131938030.229 6 102808830.95944  25107007.295    25107006.5624   25107023.5154
        37.600          28.9004
 136494659.257 6                  25974109.716
        36.900
 123176751.178 7  95804349.744 7  23075099.196    23075099.656    23075111.866
        46.600          42.200
 109248708.665 7  85128991.11648  20789296.474    20789295.6874   20789303.3234
        47.700          48.0004
 198978815.841 7                  37864421.039
        45.500
 200907755.300 7                  38231490.954
        43.600
 115761697.661 7  90203967.17847  22028699.744    22028699.0654   22028699.9214
        47.500          45.4004
 150757629.902 5                  28688215.149
        35.600
 126814223.615 5                  23764988.981    23764987.483
        31.100
 412861340.538 5                  78564861.558
        33.000
 202120114.009 7                  38462170.381
        44.900
 120124281.361 6  93430197.940 6  22455910.454    22455910.994    22455922.598
        37.400          41.500
 129153484.763 6 100639109.37445  24577086.371    24577085.4824   24577090.3274
        38.700          32.2004
 132865339.251 6 103531432.38642  25283433.380    25283432.2224   25283434.9024
        36.900          17.1004
 123009378.776 8                  23407911.060
        48.700
 128533406.867 7                  24459046.757
        46.600
 117208483.244 7  91331349.25845  22304013.902    22304012.9144   22304015.1424
        44.300          31.4004
 109904643.531 8  85640145.82648  20914096.702    20914095.9744   20914100.6244
        48.200          48.9004
 141051675.789 7                  26841242.698
        42.000
 128419272.181 6  99881686.161 5  24023480.397    24023480.847    24023489.774
        40.600          35.400
 109126215.057 7  85033404.39646  20766038.980    20766038.5964   20766044.0974
        46.800          37.3004
 125163277.375 8                  23817780.014
        48.700
 108772082.425 8  84600515.243 7  20319546.316    20319546.774    20319557.264
        51.300          47.900
 128893128.613 5 100250309.587 6  24103661.700                    24103691.145
        30.800          39.300
 108561494.984 8  84436735.391 7  20273093.271    20273093.869    20273099.852
        50.500          47.400
 107246527.971 7                  20119127.350    20119126.734
        47.100
 124560697.946 7  96880685.054 6  23309800.074    23309800.271    23309811.367
        43.000          40.400
 129139828.149 7 100442063.800 6  24175291.913    24175292.278    24175315.280
        43.400          38.700
 153361289.312 5                  29183682.857
        35.900
 136449901.453 5 106324486.07743  25965638.517    25965638.0174   25965665.2154
        34.200          20.2004
 108099964.865 8  84077840.866 8  20243630.271    20243630.517    20243636.352
        51.800          48.600
 133299615.823 7                  25366071.401
        45.200
 25  1  1 18 12  0.0000000  0 33G09G26E19R18G08S31S35G07E13R06S48S33
                                R19G30G20E04E31G16G27E21R01G04E06R07
                                R20R08R10R11R16E24G31R09E09
 106367053.959 8  82883426.21848  20240979.047    20240978.4804   20240982.0184
        50.200          51.5004
 131987927.285 6 102847711.29644  25116503.405    25116502.6814   25116519.3104
        37.000          29.2004
 136537776.912 6                  25982314.832
        36.700
 123192577.146 7  95816658.632 6  23078063.930    23078064.436    23078076.660
        46.100          41.800
 109217804.292 8  85104909.90847  20783415.522    20783414.7444   20783422.2944
        48.000          47.9004
 198978811.073 7                  37864421.835
        45.700
 200907720.615 7                  38231489.747
        43.900
 115731461.110 7  90180406.25447  22022946.111    22022945.4324   22022946.0924
        47.900          45.3004
 150736190.232 6                  28684135.290
        36.600
 126882800.209 5                  23777838.207    23777838.434
        30.200
 412861975.513 5                  78564895.051
        32.800
 202120128.446 7                  38462179.338
        45.100
 120097636.831 6  93409474.682 7  22450930.002    22450929.625    22450941.715
        36.300          42.000
 129110630.041 6 100605716.11545  24568931.251    24568930.3534   24568935.5584
        40.100          32.6004
 132865815.623 6 103531803.55542  25283524.034    25283522.8674   25283525.7524
        37.300          17.4004
 123018478.389 8                  23409642.675
        48.600
 128510422.676 7                  24454672.820
        46.800
 117255685.330 7  91368130.06845  22312995.948    22312994.9834   22312997.5634
        44.500          31.3004
 109907680.381 8  85642512.25548  20914674.663    20914673.9304   20914678.4514
        48.500          48.7004
 141088558.505 6                  26848260.947
        41.800
 128360469.303 6  99835950.583 5  24012480.903    24012480.700    24012489.234
        40.500          33.900
 109159590.308 7  85059411.03946  20772390.415    20772390.0444   20772395.2644
        47.000          37.1004
 125150679.494 8                  23815382.868
        48.600
 108816436.376 8  84635012.681 7  20327832.585    20327832.691    20327843.011
        51.900          47.700
 128833795.004 5 100204161.054 6  24092563.484                    24092593.329
        30.200          38.600
 108546525.902 8  84425092.768 7  20270298.052    20270298.421    20270304.257
        50.800          47.500
 107235739.067 7                  20117103.041    20117103.119
        47.000
 124520258.885 7  96849232.691 6  23302233.424    23302234.456    23302243.490
        44.400          40.700
 129185063.780 7 100477246.576 6  24183760.661    24183761.097    24183783.630
        43.300          38.400
 153323015.361 6                  29176399.771
        37.500
 136494126.453 5 106358947.09643  25974054.407    25974053.9024   25974080.8184
        35.200          19.9004
 108124007.885 8  84096540.999 8  20248132.364    20248132.891    20248138.579
        51.700          48.500
 133270159.086 7                  25360466.290
        45.000
 25  1  1 18 12 15.0000000  0 33G09G26E19R18G08S31S35G07E13R06S48S33
                                R19G30G20E04E31G16G27E21R01G04E06R07
                                R20R08R10R11R16E24G31R09E09
 106375003.679 8  82889620.79848  20242491.693    20242491.1174   20242494.7994
        49.800          51.6004
 132037811.207 6 102886581.52444  25125996.203    25125995.4884   25126012.4394
        37.700          29.6004
 136580932.174 6                  25990527.022
        36.800
 123208586.734 7  95829110.343 6  23081062.887    23081063.777    23081076.349
        45.700          41.400
 109187033.477 7  85080932.76348  20777560.017    20777559.2444   20777566.6694
        47.500          48.0004
 198978806.227 7                  37864419.255
        45.200
 200907685.537 7                  38231483.026
        43.700
 115701246.720 7  90156862.58647  22017196.164    22017195.4854   22017196.4494
        47.200          45.3004
 150714827.203 6                  28680069.581
        36.800
 126951377.223 5                  23790689.396    23790689.475
        30.000
 412862611.008 5                  78564927.756
        32.400
 202120142.956 7                  38462174.879
        45.100
 120071153.507 6  93388876.775 6  22445979.513    22445978.094    22445990.739
        36.400          41.700
 129067770.073 6 100572318.76445  24560775.177    24560774.2794   24560779.8424
        38.500          32.5004
 132866412.441 6 103532268.59842  25283637.477    25283636.3014   25283639.4294
        36.700          17.5004
 123027675.369 8                  23411392.778
        48.900
 128487497.151 7                  24450310.061
        46.900
 117302926.367 7  91404941.23045  22321985.524    22321984.5594   22321987.3754
        44.400          31.3004
 109910884.844 8  85645009.28048  20915284.180    20915283.4564   20915288.1754
        48.000          48.8004
 141125445.052 7                  26855280.558
        42.100
 128301739.985 6  99790272.212 5  24001493.355    24001493.512    24001502.542
        39.700          33.500
 109193085.699 7  85085511.29646  20778764.193    20778763.8134   20778769.3024
        46.800          37.2004
 125138172.054 8                  23813002.585
        48.900
 108860942.047 8  84669628.115 7  20336146.017    20336146.421    20336157.644
        50.800          47.900
 128774448.863 5 100158002.824 6  24081466.574                    24081497.288
        30.400          39.500
 108531757.425 8  84413606.161 7  20267539.935    20267540.597    20267546.357
        51.000          47.500
 107225024.177 7                  20115093.315    20115092.950
        47.200
 124479856.755 7  96817809.125 6  23294671.451    23294671.721    23294682.133
        44.600          40.400
 129230281.300 7 100512415.317 6  24192226.977    24192226.514    24192248.961
        43.800          38.200
 153284760.937 6                  29169120.304
        36.600
 136538358.891 6 106393413.89143  25982471.854    25982471.3584   25982498.5894
        36.200          22.6004
 108148098.629 8  84115278.270 8  20252643.783    20252644.320    20252650.151
        51.700          48.500
 133240767.304 7                  25354873.007
        45.900
 25  1  1 18 12 30.0000000  0 33G09G26E19R18G08S31S35G07E13R06S48S33
                                R19G30G20E04E31G16G27E21R01G04E06R07
                                R20R08R10R11R16E24G31R09E09
 106383107.600 8  82895935.53348  20244033.873    20244033.2924   20244036.9504
        50.000          51.7004
 132087685.443 6 102925444.17344  25135486.955    25135486.2404   25135503.4944
        37.000          28.9004
 136624128.668 6                  25998747.425
        36.400
 123224783.882 7  95841707.986 6  23084097.675    23084098.090    23084110.341
        45.400          41.000
 109156400.350 7  85057062.91248  20771730.608    20771729.8354   20771737.2384
        47.900          48.1004
 198978804.825 7                  37864422.327
        45.600
 200907654.053 7                  38231475.639
        43.500
 115671058.576 7  90133339.37147  22011451.781    22011451.1154   22011451.7644
        47.600          45.4004
 150693545.091 5                  28676019.047
        35.900
 127019958.259 5                  23803539.169    23803542.090
        30.800
 412863251.025 5                  78564965.421
        32.800
 202120159.830 7                  38462179.557
        45.000
 120044835.260 6  93368407.205 6  22441059.048    22441059.158    22441070.385
        37.000          41.800
 129024908.692 6 100538920.28045  24552619.569    24552618.6804   24552623.3434
        38.000          32.5004
 132867133.424 6 103532830.34842  25283774.674    25283773.4814   25283776.5344
        36.900          16.7004
 123036973.603 8                  23413162.314
        48.900
 128464634.169 7                  24445959.356
        46.700
 117350209.830 7  91441785.45545  22330983.338    22330982.3644   22330985.1384
        44.500          31.3004
 109914260.749 7  85647639.90848  20915926.408    20915925.6844   20915930.5194
        47.900          48.8004
 141162339.231 7                  26862301.363
        42.300
 128243088.387 6  99744654.232 5  23990522.854    23990522.337    23990532.588
        40.500          34.600
 109226704.857 7  85111707.99546  20785161.685    20785161.3054   20785166.8394
        46.800          37.2004
 125125759.056 8                  23810640.390
        48.700
 108905603.123 8  84704364.416 7  20344489.595    20344489.637    20344500.350
        51.000          47.500
 128715094.333 5 100111838.040 6  24070366.229                    24070396.556
        30.200          38.700
 108517193.652 8  84402278.782 7  20264819.887    20264820.974    20264826.881
        50.400          47.600
 107214387.548 7                  20113097.807    20113097.391
        46.500
 124439495.556 6  96786417.349 6  23287117.272    23287117.443    23287128.672
        41.400          40.500
 129275484.553 7 100547572.903 6  24200689.038    24200689.158    24200712.388
        43.500          37.900
 153246530.065 5                  29161845.715
        35.100
 136582602.601 5 106427889.51143  25990890.154    25990889.6634   25990917.5724
        35.400          22.7004
 108172240.886 8  84134055.556 8  20257164.999    20257165.229    20257171.207
        51.500          48.400
 133211444.544 7                  25349293.011
        45.100
 25  1  1 18 12 45.0000000  0 33G09G26E19R18G08S31S35G07E13R06S48S33
                                R19G30G20E04E31G16G27E21R01G04E06R07
                                R20R08R10R11R16E24G31R09E09
 106391357.136 8  82902363.73148  20245603.827    20245603.2464   20245606.7804
        49.600          51.8004
 132137541.401 5 102964292.62844  25144974.139    25144973.4244   25144991.0654
        35.600          28.5004
 136667357.911 6                  26006973.627
        36.600
 123241159.696 7  95854444.688 6  23087164.856    23087164.599    23087178.017
        45.100          41.700
 109125896.659 7  85033293.91448  20765925.884    20765925.1114   20765932.4774
        47.900          48.2004
 198978797.890 7                  37864420.525
        45.500
 200907618.027 7                  38231469.330
        43.600
 115640888.177 7  90109829.98147  22005710.312    22005709.6424   22005710.5054
        47.600          45.6004
 150672335.266 6                  28671982.793
        36.100
 127088534.143 4                  23816393.509    23816393.184
        28.700
 412862286.029 5                  78565003.465
        33.100
 202120172.920 7                  38462184.596
        44.800
 120018673.949 6  93348059.780 6  22436167.334    22436167.753    22436179.776
        36.900          41.700
 128982037.498 6 100505514.17745  24544461.368    24544460.4884   24544465.3194
        38.700          32.5004
 132867969.769 5 103533481.99642  25283934.159    25283932.9664   25283935.7014
        35.600          16.7004
 123046364.548 8                  23414949.251
        48.600
 128441825.189 7                  24441618.798
        46.700
 117397526.912 7  91478655.87245  22339987.544    22339986.5744   22339989.3094
        44.000          31.4004
 109917799.512 7  85650397.43748  20916600.134    20916599.4154   20916603.8694
        47.900          48.9004
 141199232.446 6                  26869321.878
        41.700
 128184506.310 6  99699090.388 5  23979564.535    23979562.761    23979571.223
        38.900          34.000
 109260439.044 7  85137994.31846  20791581.186    20791580.8114   20791586.2434
        46.600          37.3004
 125113432.090 8                  23808294.761
        48.700
 108950410.233 8  84739214.293 7  20352859.487    20352860.018    20352870.736
        51.000          47.500
 128655723.097 5 100065660.331 6  24059264.696                    24059294.586
        30.900          39.500
 108502826.165 8  84391104.077 7  20262137.317    20262137.844    20262143.912
        50.300          47.600
 107203820.013 7                  20111115.523    20111115.026
        47.000
 124399166.606 7  96755050.616 6  23279572.719    23279572.854    23279582.250
        44.100          40.600
 129320664.761 7 100582712.627 6  24209146.623    24209146.624    24209170.846
        43.000          38.300
 153208314.156 5                  29154573.361
        35.800
 136626849.044 5 106462367.23943  25999310.703    25999310.2074   25999337.4324
        31.400          19.4004
 108196425.974 8  84152866.195 8  20261694.625    20261694.410    20261700.348
        51.800          48.400
 133182182.476 7                  25343724.905
        45.200
 25  1  1 18 13  0.0000000  0 33G09G26E19R18G08S31S35G07E13R06S48S33
                                R19G30G20E04E31G16G27E21R01G04E06R07
                                R20R08R10R11R16E24G31R09E09
 106399755.022 8  82908907.52248  20247201.863    20247201.2824   20247204.8674
        50.200          51.8004
 132187381.605 6 103003128.72344  25154459.276    25154458.5524   25154476.0024
        37.700          29.0004
 136710622.380 6                  26015206.432
        36.300
 123257716.591 7  95867322.150 7  23090267.159    23090267.052    23090279.767
        46.000          42.000
 109095525.397 7  85009628.09348  20760146.351    20760145.5784   20760152.9144
        47.600          48.2004
 198978789.537 7                  37864421.826
        45.700
 200907579.880 7                  38231459.631
        43.600
 115610738.415 7  90086336.66647  21999973.059    21999972.3934   21999973.1894
        47.300          45.5004
 150651200.675 5                  28667960.528
        35.500
 127157107.167 5                  23829243.762    23829244.104
        30.000
 412862917.967 5                  78565036.810
        33.000
 202120183.659 7                  38462186.971
        44.600
 119992672.819 6  93327836.905 6  22431307.237    22431306.992    22431319.248
        37.200          41.700
 128939159.319 6 100472102.61245  24536301.146    24536300.2614   24536305.5254
        39.500          32.6004
 132868924.363 6 103534225.81042  25284115.753    25284114.5424   25284116.9094
        37.400          16.3004
 123055850.988 8                  23416754.583
        48.400
 128419072.929 7                  24437289.461
        46.600
 117444880.109 7  91515554.43145  22348998.420    22348997.4374   22349000.3044
        44.500          31.3004
 109921503.836 8  85653283.96548  20917304.783    20917304.0734   20917308.7094
        48.200          48.8004
 141236127.197 6                  26876342.849
        41.100
 128125997.123 6  99653583.156 5  23968618.712    23968617.593    23968626.610
        39.600          34.900
 109294290.767 7  85164372.22646  20798022.888    20798022.4954   20798028.0584
        47.000          37.2004
 125101194.079 8                  23805965.827
        48.400
 108995365.769 8  84774179.616 7  20361257.881    20361258.204    20361268.707
        50.800          47.400
 128596338.866 5 100019472.522 6  24048159.978                    24048188.583
        31.400          38.600
 108488658.035 8  84380084.403 7  20259491.540    20259492.079    20259498.022
        50.200          47.600
 107193324.645 7                  20109146.291    20109145.836
        47.100
 124358872.660 7  96723711.137 6  23272030.100    23272030.765    23272042.607
        42.800          41.100
 129365824.279 7 100617836.168 6  24217600.664    24217601.366    24217624.695
        44.600          38.300
 153170115.905 5                  29147304.189
        34.800
 136671100.978 5 106496849.20943  26007731.430    26007730.9344   26007758.4994
        35.600          20.4004
 108220656.387 8  84171712.101 8  20266231.772    20266232.195    20266237.717
        51.400          48.400
 133152984.032 7                  25338168.524
        45.100
 25  1  1 18 13 15.0000000  0 32G09G26E19R18G08S31S35G07E13R06S48S33
                                R19G30G20E04E31G16G27E21R01G04E06R07
                                R20R08R10R11R16E24R09E09
 106408307.625 8  82915571.87248  20248829.514    20248828.9294   20248832.4174
        50.200          51.5004
 132237212.508 6 103041957.62544  25163941.132    25163940.4174   25163959.2414
        38.100          28.9004
 136753928.362 6                  26023447.593
        36.100
 123274460.970 7  95880345.350 7  23093404.343    23093404.561    23093416.946
        46.100          42.300
 109065293.302 8  84986070.71748  20754393.475    20754392.7114   20754399.8284
        48.100          48.1004
 198978785.291 7                  37864419.613
        45.800
 200907545.148 7                  38231464.380
        44.200
 115580615.790 7  90062864.49547  21994241.204    21994240.5524   21994241.0484
        47.900          45.3004
 150630148.020 5                  28663954.698
        35.700
 127225683.561 4                  23842094.065    23842094.407
        29.400
 412863554.497 5                  78565078.624
        32.100
 202120197.635 7                  38462190.861
        45.100
 119966838.732 6  93307743.884 7  22426477.759    22426478.006    22426489.658
        37.200          42.000
 128896280.628 6 100438690.66545  24528141.536    24528140.6424   24528145.9184
        40.300          32.5004
 132870003.240 6 103535066.44642  25284321.509    25284320.3474   25284322.4394
        36.100          15.9004
 123065439.303 8                  23418579.014
        48.700
 128396383.786 7                  24432971.743
        46.700
 117492275.554 7  91552485.89745  22358017.631    22358016.6664   22358019.4594
        44.000          31.0004
 109925380.120 8  85656304.48748  20918042.324    20918041.6094   20918046.2904
        48.400          48.5004
 141273029.844 6                  26883365.139
        41.700
 128067567.735 6  99608138.052 5  23957686.632    23957685.817    23957696.023
        38.600          34.100
 109328266.244 7  85190846.56746  20804488.373    20804487.9804   20804493.4784
        47.100          37.0004
 125089051.496 8                  23803655.312
        48.500
 109040475.558 8  84809264.906 7  20369685.066    20369685.205    20369695.833
        50.800          47.600
 128536948.588 4  99973280.025 6  24037053.809                    24037083.277
        29.900          38.600
 108474695.815 8  84369224.874 7  20256884.199    20256884.716    20256890.650
        50.400          47.700
 107182907.474 7                  20107192.473    20107191.991
        47.300
 124318620.391 7  96692404.098 6  23264498.249    23264498.751    23264508.214
        44.000          40.800
 129410970.246 7 100652949.201 6  24226052.917    24226053.261    24226076.464
        43.900          37.600
 153131941.974 6                  29140039.901
        36.600
 108244938.571 8  84190598.261 8  20270779.089    20270779.222    20270785.066
        51.600          48.400
 133123855.846 7                  25332625.606
        45.200
 25  1  1 18 13 30.0000000  0 32G09G26E19R18G08S31S35G07E13R06S48S33
                                R19G30G20E04E31G16G27E21R01G04E06R07
                                R20R08R10R11R16E24R09E09
 106417007.097 8  82922350.66748  20250484.846    20250484.2614   20250487.8884
        50.100          51.4004
 132287026.291 6 103080773.30344  25173420.639    25173419.9154   25173438.4414
        37.100          28.3004
 136797267.754 6                  26031694.838
        36.000
 123291384.756 7  95893508.049 6  23096574.871    23096575.044    23096587.398
        46.200          41.300
 109035192.816 7  84962615.89248  20748665.504    20748664.7444   20748671.8184
        47.900          48.0004
 198978777.310 7                  37864412.015
        45.700
 200907508.068 7                  38231450.383
        43.900
 115550512.634 8  90039407.49247  21988512.575    21988511.9274   21988512.5914
        48.100          45.2004
 150609169.436 6                  28659961.594
        37.200
 127294254.680 5                  23854946.090    23854945.631
        30.400
 412862588.029 5                  78565111.781
        32.600
 202120209.549 7                  38462190.342
        45.100
 119941163.930 6  93287774.785 6  22421678.728    22421677.929    22421689.761
        36.700          41.900
 128853393.680 6 100405272.26545  24519980.681    24519979.7694   24519984.7784
        38.800          32.4004
 132871198.905 6 103535998.12842  25284548.756    25284547.6344   25284549.9504
        36.800          15.7004
 123075121.689 8                  23420421.507
        48.400
 128373749.960 7                  24428664.655
        46.400
 117539705.200 7  91589444.00545  22367043.255    22367042.2904   22367045.1084
        44.700          30.8004
 109929420.485 8  85659452.85748  20918811.229    20918810.5144   20918815.1144
        48.400          48.4004
 141309932.476 6                  26890387.346
        41.300
 128009210.872 6  99562749.411 5  23946770.520    23946770.019    23946780.077
        40.500          34.600
 109362357.436 7  85217411.06946  20810975.774    20810975.3774   20810980.8734
        47.400          36.9004
 125076996.709 8                  23801361.367
        48.200
 109085731.466 8  84844463.849 7  20378139.450    20378139.272    20378150.308
        50.900          47.400
 128477544.975 5  99927077.309 6  24025944.264    24025944.847    24025974.085
        32.100          39.000
 108460931.615 8  84358519.376 7  20254313.837    20254314.302    20254320.303
        51.000          47.500
 107172560.914 7                  20105251.545    20105250.900
        47.200
 124278401.511 7  96661122.977 6  23256971.327    23256971.186    23256981.632
        42.800          40.100
 129456094.188 7 100688045.045 6  24234500.184    24234500.509    24234523.788
        42.700          37.300
 153093784.481 5                  29132778.847
        35.600
 108269264.391 8  84209518.356 8  20275334.255    20275334.760    20275340.447
        51.200          48.300
 133094790.301 7                  25327094.697
        44.900
 25  1  1 18 13 45.0000000  0 32G09G26E19R18G08S31S35G07E13R06S48S33
                                R19G30G20E04E31G16G27E21R01G04E06R07
                                R20R08R10R11R16E24R09E09
 106425858.797 8  82929248.07848  20252169.441    20252168.8744   20252172.3394
        50.300          51.6004
 132336827.836 6 103119579.37044  25182898.988    25182898.2824   25182915.6384
        37.200          28.2004
 136840645.774 5                  26039949.668
        35.800
 123308493.000 7  95906814.101 6  23099780.489    23099780.482    23099793.189
        45.600          41.200
 109005229.591 8  84939268.02048  20742963.597    20742962.8424   20742969.9454
        48.700          48.2004
 198978771.057 7                  37864414.104
        45.900
 200907472.071 7                  38231441.534
        43.800
 115520434.607 8  90015970.07847  21982788.879    21982788.2314   21982788.9454
        48.100          45.6004
 150588270.777 6                  28655984.652
        38.200
 127362825.653 5                  23867796.280    23867796.189
        30.100
 412863222.947 5                  78565148.918
        32.100
 202120221.867 7                  38462189.314
        45.000
 119915654.946 6  93267934.645 6  22416910.059    22416909.539    22416920.256
        37.500          41.500
 128810503.952 6 100371851.72745  24511819.003    24511818.1144   24511823.3424
        40.000          32.7004
 132872516.493 6 103537024.79142  25284798.799    25284797.6504   25284800.7594
        36.000          15.9004
 123084903.531 8                  23422282.894
        48.200
 128351176.784 7                  24424368.771
        46.300
 117587174.104 7  91626432.70645  22376076.212    22376075.2514   22376078.2064
        44.700          31.0004
 109933630.294 8  85662733.26548  20919612.401    20919611.6864   20919616.2004
        48.200          48.7004
 141346840.350 6                  26897410.962
        41.400
 127950932.435 6  99517421.668 5  23935869.385    23935868.842    23935877.479
        40.800          34.500
 109396569.495 7  85244069.76046  20817486.072    20817485.6754   20817491.2654
        47.400          37.0004
 125065035.211 8                  23799084.974
        48.100
 109131138.307 8  84879780.195 7  20386621.478    20386621.985    20386632.493
        50.900          47.200
 128418133.936 5  99880868.786 6  24014837.308    24014834.367    24014863.883
        31.100          39.100
 108447371.516 8  84347972.617 7  20251781.568    20251782.080    20251788.104
        50.400          47.400
 107162290.219 7                  20103323.872    20103324.020
        46.900
 124238221.840 7  96629872.349 6  23249452.704    23249452.845    23249462.706
        43.500          40.700
 129501201.861 6 100723128.255 6  24242945.030    24242944.748    24242969.015
        41.900          37.700
 153055648.962 6                  29125521.842
        36.900
 108293639.093 8  84228476.487 8  20279899.170    20279899.383    20279905.160
        51.700          48.300
 133065792.965 7                  25321576.562
        44.900
 25  1  1 18 14  0.0000000  0 32G09G26E19R18G08S31S35G07E13R06S48S33
                                R19G30G20E04E31G16G27E21R01G04E06R07
                                R20R08R10R11R16E24R09E09
 106434861.934 8  82936263.50048  20253882.545    20253881.9734   20253885.5964
        50.700          51.8004
 132386616.288 6 103158375.15444  25192372.982    25192372.2944   25192390.5864
        37.400          28.7004
 136884061.518 6                  26048211.464
        36.100
 123325785.070 7  95920263.068 6  23103019.194    23103019.797    23103032.571
        46.000          41.800
 108975403.132 8  84916026.72848  20737287.467    20737286.7124   20737294.0524
        48.600          48.4004
 198978765.949 7                  37864415.521
        45.600
 200907436.848 7                  38231432.676
        43.700
 115490380.847 8  89992551.57847  21977069.877    21977069.2254   21977069.9414
        48.200          45.7004
 150567451.464 6                  28652023.154
        37.000
 127431395.194 5                  23880646.816    23880645.146
        30.000
 412863859.119 5                  78565184.396
        32.500
 202120235.815 7                  38462195.189
        45.000
 119890311.190 6  93248223.006 6  22412172.660    22412172.105    22412182.116
        37.900          41.200
 128767610.698 6 100338428.42345  24503656.961    24503656.0584   24503660.7844
        39.100          32.5004
 132873955.182 6 103538145.83842  25285072.645    25285071.4654   25285075.1114
        36.400          15.6004
 123094784.077 8                  23424163.317
        48.200
 128328663.521 7                  24420084.835
        46.500
 117634681.375 7  91663451.31145  22385116.966    22385115.9964   22385118.6864
        44.600          31.1004
 109938008.754 8  85666145.10048  20920445.512    20920444.8024   20920449.3174
        48.600          48.7004
 141383752.609 6                  26904434.981
        40.800
 127892731.847 6  99472154.418 5  23924982.152    23924980.379    23924989.735
        40.100          34.200
 109430901.435 7  85270821.86946  20824019.240    20824018.8474   20824024.4624
        47.300          37.1004
 125053166.350 8                  23796826.690
        48.400
 109176694.933 8  84915213.036 7  20395132.339    20395132.261    20395143.014
        50.500          47.300
 128358714.807 5  99834654.058 6  24003721.117    24003722.121    24003752.522
        30.900          39.200
 108434014.645 8  84337583.940 7  20249286.961    20249287.778    20249293.851
        50.300          47.500
 107152094.442 7                  20101411.124    20101411.342
        47.000
 124198080.435 7  96598651.521 6  23241940.051    23241939.849    23241950.108
        43.300          41.000
 129546292.274 7 100758197.942 6  24251386.404    24251386.881    24251411.143
        42.700          38.600
 153017534.570 6                  29118269.152
        37.900
 108318061.936 8  84247472.057 8  20284472.670    20284472.941    20284478.686
        51.500          48.300
 133036863.287 7                  25316071.628
        45.000
 25  1  1 18 14 15.0000000  0 32G09G26E19R18G08S31S35G07E13R06S48S33
                                R19G30G20E04E31G16G27E21R01G04E06R07
                                R20R08R10R11R16E24R09E09
 106444013.040 8  82943394.22748  20255623.794    20255623.2134   20255627.0164
        50.600          51.8004
 132436388.619 6 103197158.52544  25201844.302    25201843.5834   25201862.4264
        38.200          28.2004
 136927511.628 5                  26056479.597
        35.900
 123343257.639 7  95933852.513 6  23106293.378    23106293.557    23106306.219
        46.200          41.600
 108945710.385 8  84892889.64248  20731637.209    20731636.4544   20731643.5664
        48.500          48.4004
 198978758.485 7                  37864410.079
        45.500
 200907399.680 7                  38231430.981
        43.700
 115460348.105 8  89969149.43347  21971354.980    21971354.3374   21971354.8904
        48.300          45.7004
 150546708.305 6                  28648075.304
        37.500
 127499959.349 4                  23893493.618    23893492.963
        27.800
 412864491.204 5                  78565225.647
        32.800
 202120247.758 7                  38462196.397
        45.200
 119865129.517 6  93228637.453 6  22407462.343    22407463.862    22407474.996
        37.000          41.600
 128724710.630 6 100304999.81945  24495493.162    24495492.2644   24495497.2344
        40.000          32.9004
 132875511.383 6 103539358.43642  25285369.796    25285368.5944   25285371.0794
        36.300          15.4004
 123104759.929 8                  23426061.551
        48.300
 128306206.761 7                  24415811.477
        46.300
 117682223.217 7  91700496.86445  22394163.315    22394162.3414   22394165.6374
        44.900          30.9004
 109942552.395 8  85669685.63948  20921309.818    20921309.1034   20921313.8974
        48.700          48.7004
 141420665.747 6                  26911459.610
        40.600
 127834606.612 6  99426945.840 5  23914106.487    23914106.497    23914116.319
        39.500          34.500
 109465349.624 7  85297664.55746  20830574.861    20830574.4684   20830579.7534
        47.500          37.0004
 125041386.851 8                  23794584.964
        48.300
 109222397.322 8  84950759.249 7  20403669.897    20403669.890    20403680.880
        50.800          47.500
 128299284.934 5  99788430.878 6  23992608.538    23992608.695    23992638.309
        30.100          38.800
 108420857.719 8  84327350.753 7  20246830.225    20246831.145    20246836.887
        50.700          47.400
 107141969.682 7                  20099512.282    20099511.747
        46.600
 124157973.845 7  96567457.789 6  23234433.808    23234434.651    23234443.899
        43.700          40.500
 129591362.139 7 100793251.699 6  24259824.760    24259824.922    24259848.916
        42.100          38.100
 152979438.001 6                  29111019.763
        38.100
 108342529.273 8  84266502.219 8  20289054.471    20289054.869    20289060.458
        51.800          48.400
 133007998.037 7                  25310578.322
        45.200
 25  1  1 18 14 30.0000000  0 33G09G26E19R18G08S31S35G07E13R06S48S33
                                R19G30G20E04E31G16G27E21R01G04E06R07
                                R20R08R10E26R11R16E24R09E09
 106453317.100 8  82950644.13248  20257394.374    20257393.7894   20257397.5424
        50.700          52.0004
 132486149.307 6 103235932.82644  25211313.414    25211312.7174   25211331.5974
        37.800          28.4004
 136971000.676 6                  26064755.391
        36.100
 123360915.315 7  95947585.889 7  23109601.376    23109601.664    23109614.670
        46.300          42.200
 108916156.578 8  84869860.82948  20726013.258    20726012.5124   20726019.5354
        48.800          48.6004
 198978753.559 7                  37864411.908
        45.700
 200907365.292 7                  38231419.927
        43.400
 115430341.593 8  89945767.73747  21965644.740    21965644.0924   21965644.8254
        48.600          45.9004
 150526046.401 6                  28644142.917
        36.300
 127568522.949 4                  23906344.351    23906343.060
        29.300
 412863425.625 5                  78565263.682
        33.000
 202120261.642 7                  38462198.458
        45.000
 119840115.387 6  93209182.229 6  22402787.164    22402788.123    22402799.186
        37.100          41.600
 128681808.835 6 100271569.87645  24487328.954    24487328.0604   24487333.3574
        39.800          33.3004
 132877190.045 6 103540666.45242  25285689.162    25285687.9244   25285690.5994
        36.800          16.1004
 123114836.119 8                  23427979.090
        48.200
 128283811.450 7                  24411549.689
        46.300
 117729804.365 7  91737573.06145  22403218.180    22403217.1974   22403219.9714
        44.900          31.0004
 109947266.196 8  85673358.77648  20922207.077    20922206.3534   20922210.8554
        49.300          48.9004
 141457584.560 6                  26918484.854
        41.300
 127776562.393 6  99381800.213 5  23903249.961    23903249.313    23903258.236
        40.700          33.400
 109499918.870 7  85324601.58046  20837152.915    20837152.5184   20837158.1144
        47.500          37.2004
 125029701.884 8                  23792361.181
        48.200
 109268250.359 8  84986422.629 7  20412235.422    20412235.734    20412246.908
        50.600          47.500
 128239849.373 5  99742203.417 6  23981494.598    23981494.490    23981522.423
        31.600          38.400
 108407906.154 8  84317277.317 7  20244411.492    20244412.243    20244418.437
        50.700          47.400
 107131921.129 7                  20097627.166    20097626.556
        46.600
 151841921.346 5                  28894556.609
        30.100
 124117907.140 7  96536295.078 6  23226936.576    23226936.227    23226946.450
        42.800          40.700
 129636416.627 7 100828293.580 6  24268259.526    24268259.216    24268283.622
        42.700          38.700
 152941364.258 6                  29103774.526
        36.500
 108367045.885 8  84285570.673 8  20293645.624    20293646.121    20293651.880
        51.200          48.300
 132979202.465 7                  25305098.801
        44.600
 25  1  1 18 14 45.0000000  0 33G09G26E19R18G08S31S35G07E13R06S48S33
                                R19G30G20E04E31G16G27E21R01G04E06R07
                                R20R08R10E26R11R16E24R09E09
 106462769.561 8  82958009.67048  20259193.299    20259192.7144   20259196.2974
        50.400          52.0004
 132535893.647 6 103274694.32544  25220780.345    25220779.6524   25220797.5924
        38.300          28.5004
 137014524.080 5                  26073038.264
        35.200
 123378753.623 7  95961459.854 6  23112943.018    23112942.936    23112955.974
        45.500          41.900
 108886737.435 8  84846936.94448  20720414.660    20720413.9054   20720421.1494
        48.700          48.6004
 198978747.127 7                  37864412.096
        45.600
 200907328.314 7                  38231411.892
        43.600
 115400356.791 8  89922402.95847  21959938.778    21959938.1264   21959938.9094
        48.700          46.0004
 150505461.575 5                  28640225.582
        35.800
 127637080.722 5                  23919189.826    23919191.047
        30.000
 412864058.374 5                  78565292.158
        33.300
 202120273.964 7                  38462198.074
        44.800
 119815264.344 6  93189853.814 6  22398141.308    22398141.540    22398152.781
        36.600          41.600
 128638900.861 6 100238135.10345  24479163.948    24479163.0634   24479168.4114
        38.700          33.1004
 132878986.532 6 103542066.29142  25286031.636    25286030.4204   25286032.0164
        36.600          15.9004
 123125008.070 8                  23429914.635
        48.000
 128261473.076 7                  24407298.790
        46.400
 117777420.046 7  91774676.17945  22412278.988    22412277.9914   22412280.9314
        44.400          30.9004
 109952145.574 8  85677160.93748  20923135.249    20923134.5164   20923139.3034
        48.600          48.9004
 141494504.517 6                  26925510.465
        40.900
 127718594.703 6  99336714.299 5  23892404.205    23892403.616    23892414.305
        38.200          34.200
 109534604.383 7  85351629.19846  20843753.437    20843753.0354   20843758.6044
        47.300          37.1004
 125018107.013 8                  23790154.811
        48.200
 109314248.298 8  85022198.710 7  20420828.164    20420828.646    20420839.493
        50.200          47.500
 128180404.569 5  99695968.784 6  23970376.045    23970377.746    23970406.573
        31.400          39.200
 108395155.295 8  84307359.990 7  20242030.423    20242031.149    20242037.199
        50.600          47.500
 107121944.573 7                  20095755.501    20095755.039
        46.700
 151806020.579 5                  28887725.201
        31.100
 124077875.600 7  96505159.672 6  23219445.435    23219445.830    23219455.481
        43.900          41.300
 129681450.818 7 100863319.677 6  24276688.948    24276689.280    24276713.981
        42.300          37.600
 152903308.965 6                  29096532.821
        36.600
 108391607.181 8  84304673.917 8  20298245.325    20298245.865    20298251.190
        51.800          48.300
 132950472.201 7                  25299631.976
        44.600
 25  1  1 18 15  0.0000000  0 33G09G26E19R18G08S31S35G07E13R06S48S33
                                R19G30G20E04E31G16G27E21R01G04E06R07
                                R20R08R10E26R11R16E24R09E09
 106472372.756 8  82965492.66448  20261020.458    20261019.8774   20261023.7374
        50.200          52.1004
 132585624.112 6 103313445.03644  25230243.998    25230243.3234   25230261.2184
        36.700          28.2004
 137058084.201 5                  26081327.564
        35.500
 123396774.478 7  95975475.727 6  23116319.123    23116319.172    23116332.232
        45.800          41.600
 108857455.679 8  84824120.11848  20714842.463    20714841.7034   20714848.8634
        48.500          48.8004
 198978740.671 7                  37864409.614
        45.800
 200907292.377 7                  38231406.955
        43.800
 115370396.321 8  89899057.14047  21954237.543    21954236.8824   21954237.6224
        48.100          46.1004
 150484956.221 6                  28636322.765
        36.300
 127705634.755 4                  23932037.235    23932037.549
        28.900
 412864691.647 5                  78565337.267
        32.600
 202120286.989 7                  38462208.890
        45.600
 119790579.599 6  93170654.698 6  22393527.351    22393527.456    22393538.138
        37.200          41.200
 128595989.145 6 100204697.40445  24470998.937    24470998.0434   24471002.6824
        38.700          33.1004
 132880903.041 6 103543559.64042  25286394.655    25286393.4394   25286396.6774
        36.800          14.5004
 123135278.213 8                  23431869.244
        48.300
 128239194.044 7                  24403059.186
        46.500
 117825072.476 7  91811807.90745  22421347.163    22421346.1754   22421348.8634
        44.000          30.9004
 109957192.914 8  85681093.97848  20924095.882    20924095.1494   20924099.7314
        48.300          49.0004
 141531427.878 6                  26932536.719
        41.000
 127660706.962 6  99291690.490 5  23881576.165    23881576.150    23881585.198
        39.300          34.800
 109569408.380 7  85378749.14146  20850376.508    20850376.1154   20850381.6054
        47.200          37.2004
 125006604.793 8                  23787966.258
        48.400
 109360393.684 8  85058089.467 7  20429449.105    20429449.076    20429460.129
        50.400          47.600
 128120954.256 5  99649729.840 6  23959258.217    23959259.924    23959289.064
        30.300          39.300
 108382607.867 8  84297600.875 7  20239687.833    20239688.193    20239694.092
        50.300          47.600
 107112041.632 7                  20093897.729    20093897.545
        47.100
 151770122.913 5                  28880893.917
        32.100
 124037881.829 7  96474053.679 6  23211961.030    23211960.544    23211970.101
        43.400          41.100
 129726467.319 7 100898331.968 6  24285117.361    24285117.175    24285141.876
        42.600          38.300
 152865274.582 6                  29089295.602
        36.300
 108416215.697 8  84323813.921 8  20302853.323    20302854.055    20302859.470
        51.400          48.300
 132921809.874 7                  25294177.568
        44.900
 25  1  1 18 15 15.0000000  0 33G09G26E19R18G08S31S35G07E13R06S48S33
                                R19G30G20E04E31G16G27E21R01G04E06R07
                                R20R08R10E26R11R16E24R09E09
 106482131.265 8  82973096.67648  20262877.549    20262876.9644   20262880.7534
        50.000          51.8004
 132635344.999 6 103352188.18644  25239706.367    25239705.6794   25239723.1544
        37.600          28.4004
 137101685.316 5                  26089624.013
        35.900
 123414982.659 7  95989637.299 6  23119731.491    23119731.503    23119744.174
        46.100          41.600
 108828316.153 8  84801414.11848  20709297.213    20709296.4534   20709303.6444
        48.300          48.5004
 198978739.548 7                  37864408.675
        45.600
 200907261.556 7                  38231395.763
        43.500
 115340465.040 7  89875734.06847  21948541.996    21948541.3394   21948541.8884
        47.700          45.9004
 150464535.201 5                  28632437.017
        34.200
 127774189.225 4                  23944886.234    23944885.723
        29.600
 412865331.182 5                  78565364.133
        32.200
 202120304.360 7                  38462208.792
        45.000
 119766065.884 6  93151588.640 6  22388944.144    22388944.445    22388954.752
        38.000          41.000
 128553078.423 6 100171260.50545  24462832.446    24462831.5524   24462836.8564
        39.200          33.0004
 132882943.980 6 103545149.95442  25286783.545    25286782.3474   25286785.2214
        37.600          15.7004
 123145651.185 7                  23433842.859
        47.900
 128216978.933 7                  24398831.676
        46.200
 117872765.903 7  91848971.59345  22430422.723    22430421.7174   22430424.5984
        44.200          30.6004
 109962412.745 8  85685161.41948  20925089.350    20925088.6174   20925092.9774
        48.400          48.8004
 141568359.038 6                  26939564.457
        40.700
 127602903.769 6  99246732.479 5  23870762.828    23870761.423    23870771.142
        38.900          33.700
 109604335.211 7  85405964.79746  20857022.977    20857022.5804   20857027.9974
        47.000          36.8004
 124995199.945 8                  23785795.853
        48.000
 109406690.572 8  85094098.068 7  20438098.090    20438097.981    20438108.515
        51.000          47.500
 128061502.498 5  99603489.902 6  23948143.273    23948140.908    23948169.932
        31.100          38.200
 108370268.849 8  84288003.859 7  20237383.373    20237383.653    20237389.909
        50.500          47.600
 107102217.395 7                  20092054.690    20092054.498
        47.000
 151734233.194 5                  28874064.946
        31.600
 123997930.477 7  96442980.673 6  23204483.220    23204483.571    23204493.454
        43.300          40.800
 129771470.573 7 100933333.912 6  24293542.520    24293542.834    24293567.535
        42.200          38.200
 152827265.837 6                  29082062.052
        36.000
 108440875.848 8  84342994.091 8  20307471.457    20307472.105    20307477.422
        52.000          48.300
 132893220.271 7                  25288737.223
        44.600
 25  1  1 18 15 30.0000000  0 33G09G26E19R18G08S31S35G07E13R06S48S33
                                R19G30G20E04E31G16G27E21R01G04E06R07
                                R20R08R10E26R11R16E24R09E09
 106492034.774 8  82980813.68348  20264762.224    20264761.6394   20264765.3544
        50.400          52.0004
 132685045.796 6 103390915.59844  25249163.444    25249162.7294   25249181.2174
        37.000          28.3004
 137145317.117 5                  26097927.458
        34.900
 123433367.627 7  96003936.446 7  23123174.868    23123175.230    23123188.405
        46.000          42.000
 108799308.828 8  84778811.12248  20703777.463    20703776.7084   20703783.6324
        48.900          48.7004
 198978732.910 7                  37864411.591
        46.200
 200907225.274 7                  38231398.396
        44.100
 115310552.721 8  89852425.77047  21942849.654    21942849.0024   21942849.7674
        48.500          46.0004
 150444188.274 5                  28628564.731
        35.300
 127842733.229 4                  23957729.196    23957729.936
        29.800
 412864366.043 5                  78565408.134
        32.800
 202120318.175 7                  38462209.736
        45.100
 119741713.542 6  93132648.146 6  22384392.100    22384392.061    22384402.859
        36.700          41.300
 128510158.476 6 100137816.40845  24454665.200    24454664.3114   24454669.4194
        39.200          33.4004
 132885099.255 6 103546829.36042  25287193.731    25287192.5424   25287195.0994
        37.600          16.8004
 123156116.659 8                  23435834.476
        48.000
 128194817.464 7                  24394614.349
        46.400
 117920489.673 7  91886158.89545  22439504.475    22439503.4694   22439506.1504
        44.000          30.7004
 109967794.739 8  85689355.22548  20926113.363    20926112.6304   20926117.0904
        48.300          49.0004
 141605287.631 6                  26946591.836
        40.900
 127545175.767 6  99201832.979 5  23859963.750    23859963.528    23859972.809
        39.900          34.800
 109639374.368 7  85433267.97946  20863690.883    20863690.4864   20863695.7814
        46.900          36.9004
 124983882.347 8                  23783642.298
        48.000
 109453128.085 8  85130216.017 7  20446772.402    20446773.027    20446783.785
        51.300          47.500
 128002039.803 5  99557241.401 6  23937023.573    23937022.290    23937050.706
        31.800          38.400
 108358127.907 8  84278560.893 7  20235115.991    20235116.312    20235122.434
        50.100          47.500
 107092460.791 7                  20090224.702    20090223.937
        46.600
 151698341.424 5                  28867233.874
        32.500
 123958011.010 7  96411932.413 6  23197013.177    23197013.748    23197022.974
        44.200          40.500
 129816450.236 7 100968317.440 6  24301963.227    24301963.167    24301989.009
        42.700          38.600
 152789272.455 6                  29074832.510
        38.600
 108465576.758 8  84362205.883 8  20312097.050    20312097.704    20312103.136
        51.700          48.200
 132864693.328 7                  25283308.600
        44.500
 25  1  1 18 15 45.0000000  0 33G09G26E19R18G08S31S35G07E13R06S48S33
                                R19G30G20E04E31G16G27E21R01G04E06R07
                                R20R08R10E26R11R16E24R09E09
 106502086.303 8  82988646.02348  20266674.962    20266674.3724   20266678.1224
        50.100          51.9004
 132734729.609 6 103429629.68144  25258618.861    25258618.1684   25258636.5524
        38.200          28.9004
 137188982.505 5                  26106237.023
        35.500
 123451932.429 7  96018375.568 6  23126652.659    23126653.615    23126666.872
        46.400          41.900
 108770437.081 8  84756313.76948  20698283.043    20698282.2794   20698289.4484
        48.700          48.7004
 198978725.579 7                  37864403.850
        45.600
 200907187.831 7                  38231391.640
        44.000
 115280662.452 8  89829134.64647  21937161.525    21937160.8644   21937161.8504
        48.400          46.0004
 150423918.919 6                  28624707.564
        36.200
 127911269.385 5                  23970576.745    23970574.998
        30.000
 412864998.765 5                  78565442.748
        33.300
 202120328.914 7                  38462213.510
        45.000
 119717525.924 6  93113835.683 6  22379870.247    22379870.074    22379881.145
        36.900          41.400
 128467232.559 6 100104367.68045  24446497.080    24446496.2004   24446500.6904
        39.500          33.2004
 132887371.987 6 103548600.30942  25287625.956    25287624.7404   25287627.8894
        37.300          16.5004
 123166677.767 8                  23437844.055
        48.100
 128172712.707 7                  24390408.213
        46.600
 117968246.765 7  91923372.15245  22448592.103    22448591.0794   22448593.9814
        43.700          30.5004
 109973341.910 8  85693677.73348  20927169.189    20927168.4614   20927172.6484
        48.300          48.9004
 141642216.654 6                  26953619.016
        40.600
 127487526.144 6  99156994.411 5  23849178.048    23849177.594    23849187.336
        38.800          34.300
 109674528.718 7  85460660.91146  20870380.405    20870379.9944   20870385.5204
        47.200          36.8004
 124972655.213 8                  23781505.722
        48.300
 109499708.638 8  85166445.240 7  20455474.022    20455474.201    20455485.679
        50.300          47.400
 127942570.128 5  99510987.431 6  23925902.240    23925899.630    23925929.633
        32.300          39.500
 108346188.288 8  84269274.510 7  20232886.500    20232886.699    20232892.714
        50.500          47.500
 107082775.553 7                  20088407.359    20088407.081
        46.800
 151662450.851 5                  28860404.080
        31.000
 123918126.610 7  96380911.459 6  23189549.402    23189549.523    23189557.730
        43.800          40.400
 129861409.326 7 101003285.000 6  24310379.444    24310379.584    24310405.081
        42.000          36.900
 152751297.489 6                  29067606.308
        38.700
 108490321.723 8  84381451.982 8  20316730.755    20316731.360    20316737.141
        51.100          48.200
 132836232.332 7                  25277892.726
        44.900
 25  1  1 18 16  0.0000000  0 33G09G26E19R18G08S31S35G07E13R06S48S33
                                R19G30G20E04E31G16G27E21R01G04E06R07
                                R20R08R10E26R11R16E24R09E09
 106512291.753 8  82996598.30048  20268616.969    20268616.3754   20268620.1614
        50.200          51.8004
 132784402.408 6 103468335.20744  25268071.642    25268070.9544   25268089.4954
        37.800          28.5004
 137232687.112 5                  26114553.710
        34.600
 123470682.598 7  96032958.863 7  23130165.653    23130166.039    23130179.457
        46.700          42.600
 108741707.082 8  84733926.86148  20692815.938    20692815.1744   20692822.2184
        48.800          48.7004
 198978720.474 7                  37864404.212
        45.700
 200907153.794 7                  38231381.909
        44.200
 115250800.245 8  89805865.39547  21931479.108    21931478.4564   21931479.2544
        48.100          46.0004
 150403733.196 6                  28620866.254
        37.100
 127979803.355 5                  23983417.812    23983417.793
        30.000
 412865633.928 5                  78565482.300
        33.200
 202120343.283 7                  38462211.994
        45.000
 119693509.513 6  93095156.374 6  22375381.024    22375380.713    22375391.364
        36.800          41.500
 128424306.523 6 100070918.86045  24438328.328    24438327.4524   24438332.1994
        39.800          33.3004
 132889767.655 6 103550467.09342  25288082.388    25288081.2124   25288083.7354
        37.500          16.8004
 123177340.400 8                  23439873.190
        48.000
 128150670.556 7                  24386213.450
        46.600
 118016042.692 7  91960615.68445  22457687.638    22457686.6104   22457689.2884
        43.900          30.4004
 109979060.141 8  85698133.51948  20928257.216    20928256.4924   20928260.7784
        48.600          48.9004
 141679151.940 6                  26960647.817
        40.900
 127429961.398 6  99112221.828 5  23838410.032    23838409.046    23838418.779
        38.400          34.000
 109709803.959 7  85488148.04946  20877093.230    20877092.8154   20877098.2224
        46.600          36.6004
 124961524.546 8                  23779387.583
        48.200
 109546437.942 8  85202790.159 7  20464203.886    20464204.217    20464214.903
        50.800          47.300
 127883099.791 5  99464733.049 6  23914779.694    23914780.127    23914807.380
        31.700          37.900
 108334456.120 8  84260149.495 7  20230695.132    20230696.051    20230701.954
        50.800          47.400
 107073167.266 7                  20086605.018    20086604.655
        46.600
 151626567.651 5                  28853576.364
        31.200
 123878283.315 7  96349922.482 6  23182092.780    23182093.016    23182102.175
        44.400          40.900
 129906354.068 7 101038241.408 6  24318795.224    24318795.965    24318819.628
        43.900          37.600
 152713346.992 6                  29060384.233
        36.800
 108515116.353 8  84400736.672 8  20321374.924    20321375.086    20321380.693
        51.600          48.400
 132807843.382 7                  25272490.386
        44.700
 25  1  1 18 16 15.0000000  0 33G09G26E19R18G08S31S35G07E13R06S48S33
                                R19G30G20E04E31G16G27E21R01G04E06R07
                                R20R08R10E26R11R16E24R09E09
 106522646.961 8  83004667.28448  20270587.545    20270586.9514   20270590.7074
        49.700          51.6004
 132834060.017 6 103507028.92744  25277521.503    25277520.8374   25277540.0104
        37.000          28.3004
 137276426.696 5                  26122877.579
        35.100
 123489613.617 7  96047682.701 7  23133712.312    23133712.098    23133725.762
        46.500          42.000
 108713115.032 8  84711647.45948  20687374.967    20687374.1984   20687381.1884
        48.200          48.4004
 198978715.672 7                  37864400.425
        45.300
 200907119.340 7                  38231381.592
        43.800
 115220962.243 7  89782614.99647  21925801.234    21925800.5864   21925801.2684
        47.900          45.7004
 150383627.268 6                  28617040.404
        37.000
 128048330.665 4                  23996259.161    23996259.918
        29.900
 412864669.043 5                  78565523.184
        32.900
 202120357.382 7                  38462220.584
        45.000
 119669660.274 6  93076607.106 6  22370922.650    22370922.224    22370933.017
        37.500          41.500
 128381376.314 6 100037466.74945  24430158.735    24430157.8554   24430162.9064
        40.000          33.2004
 132892282.319 6 103552426.59642  25288560.958    25288559.7744   25288561.8954
        37.300          16.3004
 123188100.423 7                  23441920.774
        47.900
 128128686.898 7                  24382029.717
        46.300
 118063873.214 7  91997886.19045  22466789.327    22466788.2954   22466791.1284
        43.100          30.0004
 109984945.238 8  85702719.33448  20929376.948    20929376.2204   20929380.6514
        48.100          48.7004
 141716089.253 6                  26967676.867
        40.400
 127372477.972 6  99067512.485 5  23827656.201    23827655.814    23827666.346
        39.300          34.500
 109745195.755 7  85515726.01946  20883828.156    20883827.7454   20883833.0714
        46.500          36.4004
 124950486.392 7                  23777287.147
        47.900
 109593311.363 8  85239247.169 7  20472960.298    20472960.217    20472971.525
        50.300          47.300
 127823624.949 5  99418475.128 6  23903657.231    23903656.299    23903685.238
        31.200          39.000
 108322927.446 8  84251182.733 7  20228542.680    20228543.099    20228549.105
        50.700          47.400
 107063631.662 7                  20084816.062    20084815.724
        47.100
 151590688.146 5                  28846748.026
        31.100
 123838476.813 7  96318962.099 6  23174643.824    23174644.626    23174653.154
        44.600          41.100
 129951280.062 7 101073183.281 6  24327205.474    24327205.665    24327230.558
        42.900          37.800
 152675416.823 6                  29053166.986
        36.900
 108539956.806 8  84420057.005 8  20326026.395    20326026.915    20326032.267
        51.600          48.200
 132779522.581 7                  25267101.268
        44.600
 25  1  1 18 16 30.0000000  0 33G09G26E19R18G08S31S35G07E13R06S48S33
                                R19G30G20E04E31G16G27E21R01G04E06R07
                                R20R08R10E26R11R16E24R09E09
 106533149.738 8  83012851.24748  20272586.327    20272585.7334   20272589.3394
        50.100          51.7004
 132883700.338 6 103545709.28944  25286968.476    25286967.8064   25286986.6794
        37.900          28.2004
 137320199.109 5                  26131206.638
        34.800
 123508723.471 7  96062545.612 7  23137292.476    23137292.080    23137306.212
        45.500          42.200
 108684659.047 8  84689474.07348  20681960.023    20681959.2504   20681966.0804
        48.800          48.6004
 198978709.053 7                  37864405.071
        45.700
 200907082.367 7                  38231373.798
        44.200
 115191146.377 8  89759381.85547  21920127.425    21920126.7774   21920127.4954
        48.300          45.9004
 150363599.561 5                  28613228.690
        35.800
 128116848.404 5                  24009100.301    24009100.647
        30.100
 412865302.288 5                  78565550.058
        32.600
 202120369.938 7                  38462218.030
        45.100
 119645976.681 6  93058186.665 6  22366495.006    22366494.486    22366505.749
        37.600          41.800
 128338440.065 6 100004009.96445  24421987.884    24421986.9954   24421992.1794
        40.000          33.4004
 132894913.588 6 103554476.92442  25289061.723    25289060.5524   25289062.4754
        38.300          16.5004
 123198955.778 8                  23443986.373
        48.000
 128106759.596 7                  24377857.502
        46.600
 118111736.005 7  92035181.83645  22475897.449    22475896.4214   22475899.2424
        43.600          30.0004
 109990995.087 8  85707433.52648  20930528.168    20930527.4354   20930531.8834
        48.400          48.8004
 141753026.445 6                  26974705.996
        40.800
 127315074.215 6  99022865.056 5  23816917.538    23816916.930    23816926.730
        38.900          34.500
 109780701.755 7  85543392.97446  20890584.751    20890584.3404   20890589.7114
        46.800          36.4004
 124939538.737 8                  23775203.742
        48.200
 109640326.316 8  85275814.249 7  20481743.173    20481743.427    20481754.346
        50.600          47.300
 127764143.910 5  99372212.411 6  23892534.232    23892532.588    23892562.891
        32.100          39.900
 108311600.370 8  84242372.787 7  20226426.969    20226427.753    20226433.786
        50.300          47.600
 107054166.417 7                  20083040.347    20083040.025
        46.500
 151554810.244 5                  28839921.478
        32.700
 123798704.979 7  96288028.662 6  23167201.202    23167201.619    23167209.441
        45.400          40.500
 129996185.327 6 101108109.052 6  24335611.143    24335611.255    24335636.694
        41.900          37.200
 152637505.013 6                  29045952.531
        38.000
 108564840.402 8  84439410.888 8  20330686.096    20330686.561    20330692.203
        51.000          48.400
 132751268.026 7                  25261724.619
        44.700
 25  1  1 18 16 45.0000000  0 33G09G26E19R18G08S31S35G07E13R06S48S33
                                R19G30G20E04E31G16G27E21R01G04E06R07
                                R20R08R10E26R11R16E24R09E09
 106543805.204 8  83021154.19348  20274613.773    20274613.1744   20274617.0414
        50.200          51.8004
 132933328.024 6 103584379.74644  25296412.789    25296412.1104   25296430.5634
        37.000          27.6004
 137364009.132 5                  26139543.559
        35.500
 123528017.143 7  96077551.482 6  23140906.741    23140907.199    23140920.223
        46.500          41.500
 108656344.529 8  84667410.92548  20676571.656    20676570.8784   20676577.9414
        49.100          48.7004
 198978704.784 7                  37864397.460
        45.300
 200907048.658 7                  38231357.235
        43.500
 115161357.901 8  89736170.06147  21914459.074    21914458.4354   21914458.9394
        48.400          46.0004
 150343655.017 6                  28609432.966
        36.400
 128185361.457 4                  24021940.462    24021940.115
        29.200
 412865937.987 5                  78565590.817
        33.300
 202120383.832 7                  38462223.924
        45.400
 119622464.358 6  93039899.444 6  22362098.277    22362099.212    22362109.339
        37.200          41.100
 128295502.854 6  99970552.41845  24413817.246    24413816.3614   24413821.7284
        39.500          33.2004
 132897666.543 6 103556622.07542  25289585.470    25289584.2944   25289586.7644
        38.200          16.5004
 123209911.574 8                  23446071.275
        48.000
 128084893.811 7                  24373696.359
        46.600
 118159635.868 7  92072506.37844  22485012.642    22485011.6274   22485014.3094
        43.900          29.9004
 109997214.750 8  85712280.04948  20931711.790    20931711.0624   20931715.4244
        48.800          48.8004
 141789968.574 6                  26981735.798
        41.200
 127257756.143 6  98978284.316 5  23806196.840    23806195.960    23806205.362
        38.800          35.300
 109816326.847 7  85571152.71646  20897363.982    20897363.5674   20897368.9954
        47.600          36.4004
 124928686.883 8                  23773138.841
        48.100
 109687487.206 8  85312494.854 7  20490552.707    20490553.123    20490564.203
        50.600          47.100
 127704662.321 5  99325949.204 6  23881411.349    23881409.628    23881437.928
        32.000          38.900
 108300480.167 8  84233723.729 7  20224350.867    20224351.168    20224357.263
        50.500          47.500
 107044776.617 7                  20081278.900    20081278.617
        47.200
 151518939.468 5                  28833095.058
        32.100
 123758973.091 7  96257126.339 6  23159765.254    23159765.717    23159774.774
        44.900          41.000
 130041075.141 7 101143022.776 6  24344016.262    24344016.135    24344041.592
        42.400          38.000
 152599616.919 6                  29038742.127
        37.300
 108589772.382 8  84458802.394 8  20335355.169    20335355.503    20335361.364
        51.200          48.200
 132723085.070 7                  25256361.515
        45.000
 25  1  1 18 17  0.0000000  0 33G09G26E19R18G08S31S35G07E13R06S48S33
                                R19G30G20E04E31G16G27E21R01G04E06R07
                                R20R08R10E26R11R16E24R09E09
 106554604.905 8  83029569.52948  20276669.009    20276668.4194   20276672.1904
        50.200          51.9004
 132982934.702 6 103623033.78044  25305852.341    25305851.6624   25305870.7974
        37.900          28.1004
 137407848.283 5                  26147886.202
        35.600
 123547485.978 7  96092693.589 7  23144554.803    23144554.482    23144568.432
        46.100          42.600
 108628163.394 8  84645451.70748  20671208.828    20671208.0594   20671215.1734
        49.000          48.8004
 198978694.725 7                  37864399.334
        45.600
 200907008.653 7                  38231353.734
        43.700
 115131588.726 8  89712973.30547  21908793.991    21908793.3434   21908794.0734
        48.900          46.2004
 150323785.483 6                  28605651.690
        36.700
 128253861.012 5                  24034778.088    24034777.777
        31.100
 412866567.285 5                  78565627.601
        32.900
 202120392.543 7                  38462227.694
        45.100
 119599114.991 6  93021738.959 6  22357733.771    22357733.768    22357744.472
        36.900          41.500
 128252556.490 6  99937087.74245  24405645.747    24405644.8624   24405648.9624
        40.400          33.3004
 132900532.566 6 103558855.33142  25290130.694    25290129.5014   25290132.2314
        37.200          17.0004
 123220959.427 7                  23448173.560
        47.900
 128063081.123 7                  24369545.632
        46.800
 118207564.114 7  92109853.02445  22494133.023    22494131.9994   22494134.7924
        43.900          30.0004
 110003595.805 8  85717252.32948  20932926.050    20932925.3224   20932929.6444
        48.800          49.0004
 141826907.113 6                  26988765.165
        40.600
 127200515.778 6  98933764.120 5  23795487.460    23795487.198    23795496.474
        38.900          34.000
 109852062.467 7  85598998.59946  20904164.175    20904163.7554   20904169.3094
        46.800          36.5004
 124917922.558 8                  23771090.266
        48.000
 109734785.367 8  85349282.193 7  20499388.830    20499389.277    20499400.035
        50.600          47.000
 127645172.702 5  99279679.746 6  23870284.167    23870284.996    23870312.289
        32.100          38.400
 108289558.444 8  84225229.039 7  20222311.279    20222311.585    20222317.555
        50.700          47.600
 107035453.953 7                  20079529.971    20079529.703
        47.000
 151483067.690 5                  28826268.490
        33.400
 123719272.649 7  96226248.442 6  23152336.308    23152335.576    23152344.855
        44.500          40.800
 130085940.556 7 101177917.486 6  24352415.725    24352415.309    24352441.083
        42.600          37.200
 152561743.957 6                  29031535.687
        38.000
 108614744.084 8  84478224.785 8  20340031.364    20340031.648    20340037.729
        50.900          48.300
 132694965.525 7                  25251010.256
        44.700
 25  1  1 18 17 15.0000000  0 33G09G26E19R18G08S31S35G07E13R06S48S33
                                R19G30G20E04E31G16G27E21R01G04E06R07
                                R20R08R10E26R11R16E24R09E09
 106565557.312 8  83038103.85648  20278753.093    20278752.5034   20278756.3914
        50.000          51.8004
 133032528.635 6 103661677.82144  25315289.887    25315289.2174   25315309.0384
        38.500          29.1004
 137451725.017 5                  26156235.889
        35.800
 123567138.566 7  96107978.757 6  23148236.454    23148236.608    23148249.869
        46.100          40.600
 108600124.409 8  84623603.29148  20665873.308    20665872.5354   20665879.4004
        48.500          48.8004
 198978687.727 7                  37864398.243
        45.800
 200906972.110 7                  38231355.393
        44.100
 115101847.425 8  89689798.26947  21903134.205    21903133.5444   21903134.4844
        48.400          46.2004
 150303999.579 6                  28601886.152
        37.100
 128322354.876 5                  24047610.001    24047612.277
        30.300
 412865599.503 5                  78565659.041
        33.300
 202120405.170 7                  38462227.873
        45.000
 119575937.738 6  93003712.321 6  22353401.494    22353401.749    22353412.230
        38.500          41.900
 128209609.495 6  99903622.58945  24397471.989    24397471.1184   24397476.4994
        39.800          33.5004
 132903519.988 6 103561183.12042  25290699.328    25290698.1214   25290700.6014
        37.400          16.2004
 123232107.835 8                  23450295.074
        48.100
 128041330.042 7                  24365406.237
        47.000
 118255528.971 7  92147228.19845  22503260.374    22503259.3374   22503262.2234
        44.000          30.0004
 110010146.676 8  85722356.95248  20934172.513    20934171.7894   20934176.1984
        48.700          49.0004
 141863850.403 6                  26995795.122
        40.400
 127143361.698 6  98889310.971 5  23784794.972    23784795.338    23784805.366
        38.500          34.800
 109887916.853 7  85626937.02246  20910987.189    20910986.7694   20910992.1774
        46.800          36.4004
 124907254.386 8                  23769060.437
        48.300
 109782228.713 8  85386182.485 7  20508251.880    20508252.158    20508263.229
        50.400          47.000
 127585684.044 5  99233411.079 6  23859161.357    23859159.693    23859189.007
        31.600          39.600
 108278844.043 8  84216895.618 7  20220310.202    20220310.949    20220316.866
        51.100          47.700
 107026206.505 7                  20077795.170    20077794.459
        47.100
 151447203.539 5                  28819443.835
        32.600
 123679612.157 7  96195401.577 6  23144913.799    23144915.057    23144923.227
        46.000          40.900
 130130790.414 7 101212799.991 6  24360811.988    24360812.520    24360837.543
        43.400          38.100
 152523894.838 6                  29024333.243
        38.700
 108639764.014 8  84497684.677 8  20344717.175    20344717.238    20344723.082
        51.000          48.100
 132666918.068 7                  25245673.406
        44.700
 25  1  1 18 17 30.0000000  0 33G09G26E19R18G08S31S35G07E13R06S48S33
                                R19G30G20E04E31G16G27E21R01G04E06R07
                                R20R08R10E26R11R16E24R09E09
 106576659.605 8  83046754.98348  20280865.805    20280865.2114   20280869.0894
        50.000          51.7004
 133082107.158 6 103700309.82844  25324725.339    25324724.6604   25324744.1884
        37.600          28.9004
 137495636.331 5                  26164592.175
        35.100
 123586972.046 7  96123404.700 6  23151951.444    23151951.463    23151965.841
        45.600          41.700
 108572224.999 8  84601863.59748  20660564.218    20660563.4544   20660570.1854
        48.500          48.8004
 198978681.056 7                  37864396.888
        45.800
 200906936.086 7                  38231343.369
        43.900
 115072131.386 8  89666642.90947  21897479.769    21897479.1214   21897479.7194
        48.000          46.1004
 150284294.569 5                  28598136.411
        35.700
 128390840.261 5                  24060447.032    24060446.750
        30.500
 412866232.812 5                  78565696.339
        33.200
 202120416.808 7                  38462234.522
        45.000
 119552930.110 6  92985817.661 6  22349100.306    22349100.446    22349110.815
        37.200          41.900
 128166659.191 6  99870154.84745  24389298.711    24389297.8444   24389303.4194
        38.900          33.3004
 132906626.294 6 103563603.60642  25291290.631    25291289.3974   25291291.6374
        38.000          16.4004
 123243354.046 8                  23452435.118
        48.100
 128019637.788 7                  24361278.370
        46.800
 118303527.422 7  92184629.55544  22512394.265    22512393.2374   22512396.0894
        43.300          29.7004
 110016864.532 8  85727591.69048  20935450.835    20935450.1114   20935454.5014
        48.500          48.9004
 141900795.632 6                  27002825.409
        41.500
 127086291.844 6  98844923.260 5  23774118.523    23774117.958    23774128.808
        39.000          34.100
 109923887.015 7  85654965.66146  20917832.003    20917831.5794   20917837.1814
        46.300          36.3004
 124896679.736 8                  23767048.052
        48.200
 109829814.381 8  85423193.455 7  20517141.727    20517141.762    20517152.502
        50.800          47.100
 127526194.097 5  99187141.349 6  23848033.576    23848034.841    23848063.136
        31.300          39.500
 108268334.293 8  84208721.361 7  20218347.460    20218348.336    20218354.351
        50.600          47.600
 107017031.506 7                  20076073.945    20076073.675
        47.000
 151411344.721 5                  28812620.056
        30.800
 123639988.851 7  96164583.687 6  23137498.486    23137499.049    23137507.502
        44.700          40.800
 130175621.813 6 101247668.249 6  24369203.344    24369203.591    24369230.814
        41.700          37.100
 152486066.804 6                  29017134.913
        38.700
 108664829.236 8  84517179.811 8  20349410.707    20349411.359    20349417.154
        51.200          48.400
 132638940.164 7                  25240349.426
        44.800
 25  1  1 18 17 45.0000000  0 34G09G26E19R18G08S31S35G07E13R06S48S33
                                R19G30G20E04E31G16G27E21R01G04E06R07
                                R20R08R10E26R11R16E24R09E09G14
 106587914.011 8  83055524.63548  20283007.436    20283006.8374   20283010.7464
        49.700          51.7004
 133131672.516 6 103738931.64944  25334157.645    25334156.9664   25334176.7404
        39.100          29.7004
 137539584.440 5                  26172955.350
        34.600
 123606988.465 7  96138972.988 7  23155702.222    23155702.143    23155715.860
        45.900          42.200
 108544467.799 8  84580234.72448  20655281.914    20655281.1454   20655288.0584
        48.800          48.8004
 198978676.303 7                  37864391.531
        45.500
 200906901.870 7                  38231334.685
        44.000
 115042442.975 8  89643509.06747  21891830.159    21891829.5114   21891830.2004
        48.300          46.1004
 150264673.260 6                  28594402.876
        37.400
 128459318.857 5                  24073281.429    24073279.180
        30.300
 412866868.621 5                  78565729.840
        31.700
 202120431.133 7                  38462230.511
        45.200
 119530094.597 6  92968056.845 6  22344830.451    22344830.534    22344841.744
        36.500          41.600
 128123707.948 6  99836686.36445  24381126.097    24381125.2264   24381129.9064
        39.500          33.3004
 132909853.636 6 103566118.46742  25291904.895    25291903.6704   25291905.7934
        37.300          16.9004
 123254700.348 8                  23454594.328
        48.000
 127998006.627 7                  24357162.115
        46.900
 118351561.567 7  92222058.73044  22521534.697    22521533.6564   22521536.6674
        43.100          29.6004
 110023751.621 8  85732958.30448  20936761.447    20936760.7194   20936765.0354
        48.400          49.0004
 141937744.914 6                  27009856.371
        41.000
 127029309.286 6  98800603.494 5  23763459.588    23763460.006    23763468.916
        40.100          35.000
 109959975.016 7  85683086.12046  20924699.454    20924699.0344   20924704.5874
        46.600          36.4004
 124886201.045 8                  23765053.960
        48.000
 109877543.622 8  85460316.118 7  20526057.347    20526058.124    20526069.083
        51.000          47.100
 127466705.537 5  99140872.690 6  23836910.316    23836909.896    23836938.593
        32.500          39.000
 108258031.613 8  84200708.164 7  20216423.880    20216424.238    20216430.395
        50.700          47.700
 107007931.339 7                  20074367.161    20074366.633
        47.300
 151375493.688 5                  28805797.925
        32.900
 123600405.277 7  96133796.687 6  23130091.484    23130091.614    23130100.384
        46.000          41.400
 130220437.356 7 101282524.167 6  24377594.525    24377595.176    24377620.973
        42.900          37.400
 152448262.116 6                  29009940.679
        37.000
 108689942.133 8  84536712.047 8  20354113.565    20354114.089    20354120.071
        51.100          48.500
 132611034.316 7                  25235038.743
        44.900
 134866082.251 6                  25664163.036
        36.900
 25  1  1 18 18  0.0000000  0 34G09G26E19R18G08S31S35G07E13R06S48S33
                                R19G30G20E04E31G16G27E21R01G04E06R07
                                R20R08R10E26R11R16E24R09E09G14
 106599319.665 8  83064412.14648  20285177.752    20285177.1584   20285181.1644
        49.700          51.9004
 133181223.864 6 103777542.61444  25343587.929    25343587.2504   25343605.9974
        38.700          29.6004
 137583568.293 5                  26181325.448
        34.900
 123627186.543 7  96154682.597 7  23159485.275    23159485.521    23159499.372
        46.000          42.100
 108516852.203 8  84558716.19648  20650026.707    20650025.9294   20650032.8914
        48.900          49.1004
 198978673.519 7                  37864394.688
        45.700
 200906869.394 7                  38231325.075
        43.900
 115012781.595 8  89620396.30447  21886185.652    21886185.0094   21886185.8364
        48.300          46.3004
 150245134.953 6                  28590683.819
        36.000
 128527789.260 5                  24086110.443    24086110.837
        30.200
 412867505.521 5                  78565769.266
        33.400
 202120447.656 7                  38462235.291
        45.500
 119507431.024 6  92950429.743 6  22340593.463    22340593.712    22340604.958
        36.900          41.800
 128080755.122 6  99803216.67345  24372952.278    24372951.3984   24372956.4194
        40.300          33.9004
 132913200.911 6 103568726.72042  25292542.054    25292540.8164   25292542.9094
        37.300          17.0004
 123266145.936 7                  23456772.399
        47.900
 127976435.719 7                  24353057.147
        46.700
 118399630.336 7  92259514.88345  22530681.871    22530680.8304   22530683.8184
        43.300          30.0004
 110030807.009 8  85738456.05748  20938104.123    20938103.4084   20938107.5864
        48.700          49.2004
 141974697.381 6                  27016888.518
        40.700
 126972413.526 6  98756351.181 5  23752817.331    23752816.856    23752825.229
        39.700          35.100
 109996179.795 7  85711297.58046  20931589.137    20931588.7174   20931594.1374
        46.600          36.5004
 124875817.584 7                  23763078.078
        47.900
 109925415.613 8  85497549.780 7  20535000.454    20535000.756    20535011.765
        50.200          46.900
 127407218.432 5  99094605.131 6  23825785.730    23825784.141    23825812.490
        31.600          38.800
 108247935.408 8  84192855.544 7  20214538.599    20214538.921    20214544.913
        51.000          47.700
 106998905.152 7                  20072673.644    20072673.002
        47.300
 151339649.863 5                  28798977.315
        31.500
 123560860.387 7  96103039.796 6  23122690.333    23122691.307    23122699.576
        45.100          41.300
 130265236.093 7 101317367.056 6  24385981.924    24385981.991    24386008.167
        42.300          38.500
 152410480.184 6                  29002750.856
        36.600
 108715101.504 8  84556280.405 8  20358825.526    20358825.703    20358831.610
        51.400          48.300
 132583199.872 7                  25229742.128
        44.900
 134820040.016 5 105054654.52542  25655401.120    25655401.1824   25655420.7334
        35.700          15.5004
 25  1  1 18 18 15.0000000  0 34G09G26E19R18G08S31S35G07E13R06S48S33
                                R19G30G20E04E31G16G27E21R01G04E06R07
                                R20R08R10E26R11R16E24R09E09G14
 106610872.408 8  83073414.27448  20287376.448    20287375.8494   20287379.5974
        50.000          51.9004
 133230756.675 6 103816139.07844  25353014.128    25353013.4534   25353032.4014
        38.000          29.4004
 137627583.538 5                  26189701.252
        34.500
 123647562.222 7  96170530.362 7  23163302.038    23163302.104    23163315.902
        45.800          42.200
 108489374.437 8  84537305.07748  20644797.600    20644796.8274   20644803.9154
        48.300          48.9004
 198978668.549 7                  37864395.014
        45.600
 200906834.878 7                  38231321.663
        43.900
 114983143.208 8  89597301.44747  21880545.787    21880545.1394   21880545.8454
        48.200          46.3004
 150225675.752 6                  28586981.548
        36.000
 128596246.986 5                  24098940.382    24098939.890
        30.500
 412866539.770 5                  78565810.267
        32.800
 202120461.255 7                  38462237.571
        45.300
 119484935.830 6  92932933.550 6  22336389.099    22336388.750    22336399.352
        37.000          41.400
 128037796.635 6  99769742.57845  24364776.963    24364776.0834   24364781.6674
        40.100          33.9004
 132916664.000 6 103571425.21642  25293201.193    25293199.9504   25293202.1654
        38.600          16.8004
 123277686.668 8                  23458968.610
        48.100
 127954920.987 7                  24348962.945
        46.600
 118447729.343 7  92296994.60944  22539834.673    22539833.6324   22539836.8984
        43.600          29.9004
 110038026.594 8  85744081.74748  20939477.708    20939476.9934   20939481.3944
        48.500          49.1004
 142011648.802 6                  27023919.887
        40.500
 126915601.018 6  98712163.682 5  23742187.083    23742187.738    23742197.667
        38.900          34.800
 110032497.049 7  85739596.67946  20938499.905    20938499.4854   20938505.1144
        46.700          36.4004
 124865525.428 8                  23761119.618
        48.000
 109973425.381 8  85534890.602 7  20543968.628    20543969.271    20543980.762
        50.300          46.700
 127347728.822 5  99048335.625 6  23814658.689    23814660.086    23814688.385
        32.500          38.900
 108238041.679 8  84185160.386 7  20212690.920    20212691.283    20212697.329
        51.000          47.500
 106989948.779 7                  20070993.249    20070993.089
        47.100
 151303809.575 5                  28792156.106
        31.100
 123521349.985 7  96072309.712 6  23115296.873    23115296.044    23115305.350
        43.700          41.200
 130310013.964 6 101352193.659 6  24394364.669    24394364.369    24394391.069
        41.300          37.100
 152372716.992 6                  28995564.970
        36.900
 108740303.145 8  84575881.669 8  20363544.745    20363545.242    20363551.104
        51.000          48.500
 132555432.970 7                  25224458.162
        45.000
 134774013.882 5 105018789.93441  25646642.695    25646642.7844   25646662.9134
        34.400          11.6004
 25  1  1 18 18 30.0000000  0 34G09G26E19R18G08S31S35G07E13R06S48S33
                                R19G30G20E04E31G16G27E21R01G04E06R07
                                R20R08R10E26R11R16E24R09E09G14
 106622572.608 8  83082531.29848  20289602.763    20289602.1644   20289606.0944
        49.800          51.9004
 133280271.610 6 103854721.65844  25362436.641    25362435.9664   25362455.6124
        38.400          28.9004
 137671630.570 5                  26198082.808
        35.500
 123668115.472 7  96186516.234 6  23167152.936    23167152.623    23167165.991
        46.100          41.900
 108462035.030 8  84516001.74648  20639595.375    20639594.6244   20639601.2714
        48.700          49.1004
 198978660.572 7                  37864394.272
        46.100
 200906797.855 7                  38231313.927
        44.100
 114953528.367 8  89574224.94347  21874910.074    21874909.4314   21874910.3624
        48.500          46.4004
 150206296.395 5                  28583292.837
        35.500
 128664691.926 5                  24111767.293    24111767.254
        30.500
 412867172.310 5                  78565844.501
        32.800
 202120472.718 7                  38462237.813
        45.400
 119462609.309 6  92915568.655 6  22332214.761    22332214.522    22332225.347
        36.600          41.400
 127994833.000 6  99736264.45445  24356601.185    24356600.2964   24356606.1514
        40.100          34.3004
 132920243.062 6 103574214.07842  25293881.576    25293880.2984   25293882.7694
        37.900          16.9004
 123289322.996 8                  23461182.723
        48.200
 127933462.795 7                  24344879.727
        47.300
 118495858.764 7  92334498.03245  22548993.443    22548992.3844   22548995.6894
        43.500          30.1004
 110045410.650 8  85749835.60048  20940882.823    20940882.1044   20940886.4804
        48.900          49.2004
 142048599.502 6                  27030951.848
        40.900
 126858872.470 6  98668041.471 5  23731576.429    23731577.150    23731584.628
        39.700          33.500
 110068926.921 7  85767983.53746  20945432.331    20945431.9114   20945437.5604
        46.800          36.5004
 124855325.076 8                  23759178.358
        48.400
 110021572.799 8  85572338.504 7  20552963.898    20552964.176    20552975.086
        51.100          46.800
 127288237.754 5  99002064.945 6  23803535.006    23803534.738    23803563.221
        31.600          39.500
 108228350.974 8  84177623.166 7  20210881.042    20210881.688    20210887.493
        50.800          47.700
 106981062.317 7                  20069326.214    20069325.881
        47.100
 151267973.260 5                  28785336.652
        33.000
 123481874.429 7  96041606.648 6  23107909.147    23107909.330    23107918.006
        45.500          41.200
 130354770.871 6 101387003.962 6  24402743.718    24402743.421    24402769.262
        41.900          37.300
 152334972.988 6                  28988382.221
        36.900
 108765547.524 8  84595516.177 8  20368272.053    20368272.435    20368278.691
        50.600          48.400
 132527734.200 7                  25219187.237
        45.100
 134728004.286 5 104982938.15442  25637887.877    25637887.8644   25637908.5224
        34.700          14.7004
 25  1  1 18 18 45.0000000  0 34G09G26E19R18G08S31S35G07E13R06S48S33
                                R19G30G20E04E31G16G27E21R01G04E06R07
                                R20R08R10E26R11R16E24R09E09G14
 106634422.384 8  83091764.87648  20291857.850    20291857.2564   20291861.0534
        50.000          51.8004
 133329770.359 6 103893291.52544  25371856.618    25371855.9434   25371875.6354
        37.700          28.4004
 137715711.275 5                  26206471.505
        35.400
 123688848.377 7  96202641.859 7  23171036.317    23171036.987    23171050.955
        46.900          42.300
 108434836.603 8  84494808.28648  20634419.217    20634418.4574   20634425.4754
        48.900          48.9004
 198978653.523 7                  37864391.683
        45.900
 200906761.229 7                  38231304.237
        43.900
 114923939.440 8  89551168.64047  21869279.766    21869279.1144   21869279.7944
        48.700          46.3004
 150186999.192 6                  28579621.242
        36.700
 128733126.022 4                  24124590.873    24124591.112
        29.500
 412867804.908 5                  78565883.963
        33.600
 202120484.726 7                  38462237.598
        45.100
 119440454.325 6  92898337.123 6  22328072.844    22328073.455    22328083.954
        37.400          41.900
 127951866.404 6  99702784.03045  24348425.396    24348424.5074   24348430.0574
        39.100          33.7004
 132923940.312 6 103577095.02142  25294585.416    25294584.1514   25294586.0834
        37.700          16.7004
 123301057.078 8                  23463415.782
        48.000
 127912063.361 7                  24340807.503
        46.700
 118544020.487 7  92372026.63744  22558158.603    22558157.5444   22558160.5214
        43.600          29.6004
 110052961.342 8  85755719.29348  20942319.745    20942319.0214   20942323.2714
        48.900          49.0004
 142085551.567 6                  27037983.374
        41.000
 126802231.032 6  98623987.074 5  23720980.052    23720979.905    23720988.470
        40.100          34.100
 110105471.394 7  85796459.70046  20952386.686    20952386.2754   20952391.7344
        46.700          36.4004
 124845218.874 8                  23757255.313
        48.200
 110069859.732 8  85609894.912 7  20561983.588    20561984.347    20561995.150
        50.400          46.800
 127228747.755 5  98955795.150 6  23792410.048    23792409.449    23792438.240
        31.900          39.600
 108218865.680 8  84170245.708 7  20209110.107    20209110.541    20209116.194
        51.300          47.700
 106972247.883 7                  20067672.629    20067672.342
        47.000
 151232143.478 5                  28778518.548
        31.500
 123442436.057 7  96010932.557 6  23100528.782    23100528.689    23100537.763
        44.800          41.300
 130399509.481 6 101421800.038 6  24411119.818    24411119.284    24411145.599
        41.500          36.900
 152297250.430 6                  28981204.393
        37.100
 108790836.735 8  84615185.538 8  20373008.136    20373008.644    20373014.398
        51.000          48.500
 132500105.987 7                  25213929.730
        45.100
 134682013.596 5 104947101.14142  25629135.396    25629135.1194   25629157.0074
        34.500          13.2004
 25  1  1 18 19  0.0000000  0 34G09G26E19R18G08S31S35G07E13R06S48S33
                                R19G30G20E04E31G16G27E21R01G04E06R07
                                R20R08R10E26R11R16E24R09E09G14
 106646425.008 8  83101117.55648  20294141.917    20294141.3184   20294145.0824
        49.900          51.7004
 133379256.241 6 103931851.32744  25381273.566    25381272.8914   25381292.7254
        37.600          28.5004
 137759829.033 5                  26214866.555
        35.800
 123709764.021 7  96218909.519 6  23174954.220    23174954.697    23174967.958
        45.600          41.000
 108407782.669 8  84473727.43048  20629271.325    20629270.5654   20629277.1624
        48.900          48.9004
 198978650.368 7                  37864389.036
        45.600
 200906728.247 7                  38231295.406
        43.500
 114894379.836 8  89528135.17747  21863654.789    21863654.1374   21863654.7704
        48.300          46.2004
 150167787.535 6                  28575964.933
        37.200
 128801552.058 5                  24137416.557    24137414.335
        30.400
 412866839.560 5                  78565915.032
        33.000
 202120499.952 7                  38462245.160
        45.100
 119418474.677 6  92881241.990 6  22323964.148    22323964.276    22323975.074
        36.700          41.700
 127908900.397 6  99669304.04445  24340249.954    24340249.0654   24340253.3384
        39.400          33.5004
 132927758.845 6 103580070.48042  25295311.838    25295310.5784   25295312.7764
        39.000          16.8004
 123312892.256 8                  23465667.965
        48.200
 127890726.004 7                  24336746.865
        47.200
 118592217.489 7  92409582.72244  22567329.956    22567328.8924   22567332.2664
        44.000          29.7004
 110060681.954 8  85761735.40148  20943788.696    20943787.9814   20943792.4184
        48.700          49.0004
 142122508.271 6                  27045015.792
        41.200
 126745680.399 6  98580003.274 5  23710400.564    23710399.943    23710409.354
        38.500          33.500
 110142133.553 7  85825027.56746  20959363.202    20959362.7874   20959368.3684
        46.600          36.3004
 124835210.260 8                  23755350.566
        48.300
 110118289.073 8  85647562.088 7  20571031.093    20571031.602    20571042.673
        50.800          46.800
 127169263.388 5  98909529.642 6  23781286.468    23781287.410    23781314.176
        33.000          39.700
 108209589.314 8  84163030.764 7  20207377.441    20207378.168    20207383.905
        50.900          47.500
 106963509.010 7                  20066033.282    20066033.063
        47.400
 151196323.841 5                  28771702.562
        32.800
 123403038.163 7  95980289.935 6  23093155.444    23093154.671    23093164.201
        44.100          40.900
 130444233.083 7 101456584.427 6  24419492.749    24419493.166    24419519.258
        42.500          37.200
 152259552.664 6                  28974030.544
        38.100
 108816173.839 8  84634892.190 8  20377752.830    20377753.331    20377759.322
        51.000          48.600
 132472551.840 7                  25208686.546
        45.100
 134636045.032 5 104911281.35042  25620388.915    25620388.5534   25620409.5434
        33.800          12.9004
 25  1  1 18 19 15.0000000  0 34G09G26E19R18G08S31S35G07E13R06S48S33
                                R19G30G20E04E31G16G27E21R01G04E06R07
                                R20R08R10E26R11R16E24R09E09G14
 106658572.254 8  83110582.93248  20296453.462    20296452.8594   20296456.6344
        49.900          51.8004
 133428721.186 6 103970394.84444  25390687.821    25390687.1374   25390706.0404
        37.300          28.8004
 137803975.335 5                  26223267.603
        34.600
 123730854.001 7  96235312.782 6  23178905.469    23178905.930    23178919.361
        45.900          41.800
 108380865.253 8  84452752.92548  20624148.910    20624148.1464   20624154.8384
        48.400          49.0004
 198978641.890 7                  37864388.079
        45.700
 200906690.448 7                  38231288.824
        43.700
 114864841.582 7  89505118.35147  21858033.773    21858033.1304   21858033.8194
        47.700          46.3004
 150148653.395 5                  28572323.607
        35.600
 128869961.379 5                  24150234.951    24150234.763
        30.400
 412867470.762 5                  78565946.915
        32.900
 202120510.852 7                  38462251.746
        45.300
 119396662.248 6  92864276.914 6  22319886.350    22319886.483    22319896.838
        37.000          41.100
 127865926.772 6  99635818.10845  24332072.238    24332071.3404   24332075.4874
        40.900          33.9004
 132931690.513 6 103583134.05242  25296060.270    25296058.9834   25296060.8924
        37.300          15.6004
 123324820.357 8                  23467937.576
        48.100
 127869442.535 7                  24332696.897
        46.800
 118640441.512 7  92447159.84544  22576506.526    22576505.4534   22576508.9174
        43.600          29.8004
 110068564.200 8  85767877.45648  20945288.829    20945288.1144   20945292.2994
        48.500          49.1004
 142159461.296 6                  27052048.243
        41.000
 126689212.482 6  98536083.729 5  23699838.552    23699839.505    23699845.794
        41.500          33.800
 110178904.983 7  85853680.56946  20966360.629    20966360.2274   20966365.8404
        46.700          36.4004
 124825291.181 8                  23753463.166
        48.000
 110166852.068 8  85685333.208 7  20580103.079    20580103.456    20580114.777
        50.500          46.600
 127109776.521 5  98863262.217 6  23770162.319    23770161.324    23770188.966
        32.500          39.200
 108200513.527 8  84155971.822 7  20205682.784    20205683.253    20205688.906
        50.800          47.300
 106954837.180 7                  20064406.650    20064406.161
        47.400
 151160506.441 5                  28764886.212
        32.000
 123363672.650 7  95949672.473 6  23085788.935    23085789.720    23085797.744
        45.400          41.400
 130488933.375 6 101491350.777 6  24427860.352    24427860.167    24427887.224
        40.000          36.600
 152221871.397 6                  28966860.215
        38.300
 108841550.324 8  84654629.440 8  20382505.491    20382505.597    20382511.485
        51.000          48.500
 132445063.805 7                  25203455.815
        45.200
 134590090.749 5 104875472.71542  25611643.726    25611643.3514   25611664.9144
        35.500          16.8004
 25  1  1 18 19 30.0000000  0 34G09G26E19R18G08S31S35G07E13R06S48S33
                                R19G30G20E04E31G16G27E21R01G04E06R07
                                R20R08R10E26R11R16E24R09E09G14
 106670869.951 8  83120165.54448  20298793.477    20298792.8694   20298796.8084
        50.000          51.9004
 133478170.942 6 104008926.50844  25400097.727    25400097.0574   25400116.7944
        38.100          29.1004
 137848155.977 5                  26231675.238
        34.500
 123752124.263 7  96251856.238 7  23182891.371    23182891.116    23182903.787
        47.200          42.000
 108354090.574 8  84431889.64248  20619053.582    20619052.8224   20619059.6974
        48.700          49.1004
 198978634.565 7                  37864385.060
        45.500
 200906653.984 7                  38231282.984
        43.700
 114835330.686 8  89482122.85247  21852418.169    21852417.5304   21852418.0834
        48.400          46.4004
 150129603.121 6                  28568698.267
        36.200
 128938359.617 4                  24163052.114    24163051.976
        29.800
 412868103.836 5                  78565973.763
        32.400
 202120522.563 7                  38462245.598
        44.800
 119375023.631 6  92847446.934 7  22315841.517    22315841.748    22315852.591
        36.800          42.300
 127822951.659 6  99602331.01845  24323893.506    24323892.5944   24323897.3274
        40.500          33.8004
 132935741.025 6 103586290.28742  25296831.308    25296830.0564   25296831.4774
        38.500          15.7004
 123336847.267 8                  23470226.522
        48.200
 127848218.841 7                  24328657.988
        47.000
 118688698.328 7  92484762.54544  22585690.070    22585689.0024   22585691.8814
        43.400          29.7004
 110076613.885 8  85774149.96848  20946820.477    20946819.7624   20946824.0754
        48.500          49.2004
 142196416.411 6                  27059079.957
        40.800
 126632834.111 6  98492233.878 5  23689290.451    23689291.667    23689299.584
        40.300          33.500
 110215791.343 7  85882423.13446  20973379.898    20973379.4924   20973385.1304
        46.900          36.4004
 124815467.670 8                  23751593.794
        48.100
 110215554.187 8  85723212.522 7  20589201.334    20589201.450    20589212.633
        50.600          46.600
 127050293.872 5  98816998.057 6  23759037.002    23759037.475    23759065.457
        30.600          39.300
 108191644.664 8  84149073.784 7  20204026.846    20204027.139    20204032.787
        51.100          47.500
 106946238.007 7                  20062793.324    20062793.006
        47.100
 151124697.429 5                  28758072.583
        31.500
 123324345.265 7  95919084.738 6  23078429.641    23078429.148    23078437.498
        44.900          41.100
 130533616.653 6 101526103.861 6  24436226.063    24436226.166    24436252.664
        41.600          36.900
 152184212.677 6                  28959694.059
        37.700
 108866972.454 8  84674402.204 8  20387266.376    20387266.497    20387272.247
        51.300          48.600
 132417647.979 7                  25198238.514
        45.000
 134544156.511 5 104839679.70142  25602903.123    25602902.7484   25602924.1664
        34.500          14.1004
 25  1  1 18 19 45.0000000  0 34G09G26E19R18G08S31S35G07E13R06S48S33
                                R19G30G20E04E31G16G27E21R01G04E06R07
                                R20R08R10E26R11R16E24R09E09G14
 106683319.020 8  83129866.10248  20301162.362    20301161.7544   20301165.8074
        50.000          51.8004
 133527606.502 6 104047447.18444  25409505.351    25409504.6724   25409524.8644
        38.200          29.2004
 137892371.733 5                  26240089.156
        35.400
 123773575.366 7  96268540.314 6  23186909.492    23186909.669    23186922.532
        46.100          41.700
 108327459.916 8  84411138.60748  20613985.966    20613985.2064   20613991.9584
        48.700          48.9004
 198978630.434 7                  37864388.486
        45.500
 200906619.725 7                  38231277.663
        43.500
 114805848.290 8  89459149.55347  21846807.506    21846806.8674   21846807.7894
        48.300          46.3004
 150110637.665 5                  28565089.168
        35.800
 129006747.163 5                  24175870.286    24175868.961
        31.200
 412868738.210 5                  78566017.468
        32.400
 202120536.456 7                  38462250.857
        45.000
 119353559.717 6  92830752.920 6  22311828.838    22311828.516    22311838.979
        36.900          41.700
 127779976.028 6  99568843.51745  24315715.475    24315714.5504   24315719.6954
        40.000          34.1004
 132939911.401 6 103589539.92742  25297624.466    25297623.2014   25297625.1684
        38.900          16.8004
 123348973.940 8                  23472534.044
        48.300
 127827055.861 7                  24324630.869
        46.900
 118736988.483 7  92522391.21344  22594879.260    22594878.1874   22594881.1414
        43.000          29.6004
 110084831.964 8  85780553.70548  20948384.464    20948383.7454   20948387.8734
        48.600          49.1004
 142233374.550 6                  27066113.289
        40.700
 126576546.627 6  98448454.709 5  23678761.292    23678761.349    23678769.749
        40.800          35.200
 110252793.395 7  85911255.84646  20980421.153    20980420.7424   20980426.4604
        47.200          36.3004
 124805740.855 8                  23749742.730
        48.100
 110264395.987 8  85761200.487 7  20598324.948    20598325.778    20598336.746
        50.400          46.500
 126990817.352 5  98770738.641 6  23747916.542    23747916.048    23747944.066
        33.100          39.900
 108182983.717 8  84142337.506 7  20202409.032    20202409.645    20202415.191
        50.600          47.300
 106937712.484 7                  20061194.316    20061193.721
        47.300
 151088898.107 5                  28751259.779
        33.300
 123285057.069 7  95888527.428 6  23071075.808    23071076.213    23071085.927
        44.200          41.600
 130578283.277 7 101560843.986 6  24444587.820    24444587.943    24444615.157
        42.300          38.300
 152146577.753 6                  28952531.830
        38.200
 108892440.795 8  84694210.872 8  20392035.044    20392036.118    20392041.796
        51.100          48.700
 132390305.542 7                  25193035.621
        45.200
 134498243.759 6 104803903.48142  25594165.980    25594165.6234   25594187.7074
        36.300          16.2004
 25  1  1 18 20  0.0000000  0 34G09G26E19R18G08S31S35G07E13R06S48S33
                                R19G30G20E04E31G16G27E21R01G04E06R07
                                R20R08R10E26R11R16E24R09E09G14
 106695918.171 8  83139683.61348  20303559.989    20303559.3904   20303563.3664
        50.000          51.8004
 133577026.345 6 104085955.57444  25418909.966    25418909.2874   25418929.9474
        37.100          29.6004
 137936621.508 5                  26248509.203
        35.700
 123795205.914 7  96285363.955 7  23190960.769    23190961.666    23190975.557
        46.600          43.000
 108300972.210 8  84390498.95948  20608945.335    20608944.5714   20608951.3894
        48.800          48.9004
 198978626.416 7                  37864388.003
        45.400
 200906586.385 7                  38231274.170
        43.500
 114776393.248 8  89436197.57347  21841202.699    21841202.0694   21841202.6864
        48.200          46.2004
 150091756.200 5                  28561496.261
        35.400
 129075122.391 4                  24188681.282    24188681.630
        29.600
 412867774.866 5                  78566062.551
        32.300
 202120551.826 7                  38462262.174
        44.600
 119332270.119 6  92814194.434 7  22307848.959    22307849.993    22307859.611
        38.900          42.000
 127736998.781 6  99535354.76445  24307537.733    24307536.8174   24307541.5904
        40.500          33.9004
 132944199.972 6 103592881.69242  25298441.194    25298439.9424   25298441.4364
        38.400          17.0004
 123361199.174 8                  23474860.376
        48.400
 127805952.378 7                  24320614.842
        47.000
 118785310.503 7  92560044.72944  22604074.775    22604073.7204   22604076.5684
        43.400          29.7004
 110093217.107 8  85787087.62848  20949979.665    20949978.9594   20949983.4964
        48.300          49.0004
 142270334.342 6                  27073146.402
        40.600
 126520349.206 6  98404745.557 5  23668249.066    23668248.851    23668257.179
        40.500          35.000
 110289909.622 7  85940177.52346  20987484.053    20987483.6384   20987489.5084
        46.700          36.3004
 124796109.580 8                  23747909.902
        48.100
 110313375.494 8  85799295.566 7  20607475.160    20607475.344    20607486.683
        50.100          46.400
 126931345.385 5  98724482.804 6  23736792.875    23736793.809    23736821.634
        32.800          39.700
 108174529.673 8  84135762.130 7  20200830.697    20200830.881    20200836.538
        50.800          47.300
 106929259.436 7                  20059608.466    20059607.798
        47.600
 151053107.394 5                  28744449.780
        33.900
 123245806.880 7  95857999.697 6  23063730.739    23063730.965    23063740.365
        44.000          41.500
 130622932.186 6 101595570.249 6  24452945.345    24452946.430    24452973.412
        41.000          37.600
 152108965.376 6                  28945374.470
        38.100
 108917954.130 8  84714054.537 8  20396813.375    20396813.662    20396819.555
        51.000          48.700
 132363035.473 7                  25187846.448
        45.100
 134452350.999 5 104768142.84242  25585433.100    25585432.7294   25585454.6774
        34.900          15.4004
 25  1  1 18 20 15.0000000  0 34G09G26E19R18G08S31S35G07E13R06S48S33
                                R19G30G20E04E31G16G27E21R01G04E06R07
                                R20R08R10E26R11R16E24R09E09G14
 106708662.807 8  83149614.48248  20305985.298    20305984.6994   20305988.5954
        49.700          51.6004
 133626425.912 6 104124448.15544  25428310.193    25428309.5414   25428330.9754
        37.400          28.8004
 137980900.234 5                  26256935.786
        34.500
 123817011.129 7  96302323.449 7  23195046.188    23195046.256    23195060.792
        45.200          42.500
 108274623.193 8  84369967.36248  20603931.124    20603930.3554   20603937.2204
        48.600          48.9004
 198978619.132 7                  37864388.960
        45.700
 200906549.814 7                  38231267.552
        43.400
 114746961.255 8  89413263.56147  21835601.935    21835601.3054   21835601.9384
        48.300          46.2004
 150072954.368 6                  28557917.588
        36.900
 129143480.497 5                  24201493.257    24201492.601
        30.500
 412868407.101 5                  78566098.351
        32.900
 202120563.420 7                  38462253.790
        44.500
 119311150.448 6  92797768.156 7  22303901.708    22303900.343    22303911.387
        37.400          42.000
 127694015.534 6  99501861.35445  24299358.224    24299357.2684   24299362.2904
        40.700          34.1004
 132948602.447 6 103596312.19942  25299278.345    25299277.0934   25299279.3694
        38.400          16.3004
 123373518.447 8                  23477204.753
        48.400
 127784903.868 7                  24316609.656
        47.300
 118833659.629 7  92597719.36444  22613275.524    22613274.4744   22613277.0664
        43.200          29.5004
 110101764.718 8  85793748.14248  20951606.384    20951605.6784   20951610.0404
        48.500          49.0004
 142307291.201 6                  27080179.469
        41.100
 126464237.964 6  98361103.414 5  23657752.074    23657752.173    23657759.915
        40.400          34.600
 110327135.317 7  85969184.48246  20994568.186    20994567.7804   20994573.4214
        46.800          36.2004
 124786569.494 8                  23746094.608
        48.000
 110362487.943 8  85837494.036 7  20616649.592    20616650.130    20616661.778
        49.700          46.300
 126871874.588 5  98678227.854 6  23725673.126    23725672.660    23725700.440
        32.400          39.800
 108166278.033 8  84129344.180 7  20199289.760    20199290.099    20199295.782
        51.000          47.200
 106920874.272 7                  20058035.107    20058034.748
        47.300
 151017321.189 5                  28737639.089
        34.400
 123206590.120 7  95827497.961 6  23056392.619    23056392.777    23056401.132
        44.600          41.600
 130667558.965 6 101630279.346 6  24461302.143    24461301.692    24461328.544
        41.500          37.100
 152071371.099 6                  28938220.772
        37.400
 108943507.653 8  84733929.447 8  20401598.682    20401599.085    20401604.974
        51.200          48.600
 132335833.486 7                  25182669.949
        45.000
 134406473.888 6 104732394.39642  25576701.740    25576701.3604   25576724.6974
        36.700          15.0004
 25  1  1 18 20 30.0000000  0 34G09G26E19R18G08S31S35G07E13R06S48S33
                                R19G30G20E04E31G16G27E21R01G04E06R07
                                R20R08R10E26R11R16E24R09E09G14
 106721557.022 8  83159661.90348  20308439.089    20308438.4904   20308442.3004
        49.900          51.8004
 133675809.137 6 104162927.94244  25437708.195    25437707.5204   25437728.9664
        38.100          28.8004
 138025212.064 5                  26265368.400
        35.300
 123838995.371 7  96319422.184 7  23199164.026    23199164.097    23199178.610
        45.500          42.300
 108248417.299 8  84349547.28948  20598944.427    20598943.6674   20598950.2964
        48.600          49.0004
 198978612.891 7                  37864379.770
        45.500
 200906514.105 7                  38231259.503
        43.600
 114717556.553 8  89390350.82047  21830006.351    21830005.7214   21830006.3874
        48.700          46.4004
 150054236.494 5                  28554355.876
        35.000
 129211824.958 5                  24214299.596    24214299.234
        30.200
 412869041.081 5                  78566128.203
        33.200
 202120575.332 7                  38462255.793
        44.600
 119290204.958 6  92781477.314 7  22299985.197    22299985.039    22299996.142
        37.800          42.100
 127651030.511 6  99468366.53545  24291178.133    24291177.1724   24291181.9264
        40.500          34.0004
 132953122.674 6 103599834.43742  25300138.459    25300137.2124   25300139.7944
        38.900          16.7004
 123385935.877 8                  23479567.540
        48.300
 127763914.485 7                  24312615.231
        47.100
 118882039.707 7  92635418.10044  22622481.672    22622480.6354   22622483.4034
        43.800          29.6004
 110110478.861 8  85800538.40248  20953264.749    20953264.0394   20953268.2794
        48.700          49.1004
 142344249.253 6                  27087211.936
        40.900
 126408217.812 6  98317532.152 5  23647273.229    23647272.013    23647280.892
        40.000          34.900
 110364474.417 7  85998279.83446  21001673.656    21001673.2454   21001678.8744
        46.900          36.4004
 124777124.851 8                  23744297.298
        48.000
 110411736.752 8  85875798.532 7  20625850.100    20625850.520    20625861.515
        50.000          46.400
 126812409.340 5  98631977.273 6  23714552.336    23714552.079    23714580.360
        33.200          40.100
 108158232.963 8  84123086.881 7  20197787.346    20197787.629    20197793.264
        50.400          47.400
 106912561.065 7                  20056475.256    20056475.158
        47.000
 150981543.791 5                  28730830.476
        33.000
 123167410.896 7  95797025.425 6  23049060.027    23049060.086    23049068.467
        43.300          41.100
 130712167.654 6 101664974.384 6  24469651.461    24469652.479    24469679.608
        40.300          36.700
 152033799.150 6                  28931070.124
        37.200
 108969105.479 8  84753838.810 8  20406392.276    20406392.669    20406398.857
        51.300          48.700
 132308703.924 7                  25177507.468
        45.600
 134360616.517 6 104696661.28942  25567976.538    25567976.1544   25567998.3664
        36.000          16.0004
 25  1  1 18 20 45.0000000  0 34G09G26E19R18G08S31S35G07E13R06S48S33
                                R19G30G20E04E31G16G27E21R01G04E06R07
                                R20R08R10E26R11R16E24R09E09G14
 106734601.435 8  83169826.36248  20310921.195    20310920.5964   20310924.5784
        50.500          51.9004
 133725176.707 6 104201395.50644  25447103.469    25447102.8124   25447124.0464
        37.800          28.8004
 138069557.443 5                  26273807.152
        34.900
 123861158.904 7  96336660.446 7  23203316.267    23203316.768    23203330.803
        45.300          42.300
 108222355.488 8  84329239.50348  20593984.752    20593983.9924   20593990.7484
        49.000          49.0004
 198978607.410 7                  37864382.883
        45.400
 200906479.351 7                  38231253.636
        43.600
 114688180.032 8  89367460.03947  21824416.082    21824415.4484   21824416.2104
        48.400          46.4004
 150035603.243 5                  28550809.513
        35.100
 129280156.144 4                  24227106.211    24227104.660
        29.800
 412867976.922 5                  78566157.877
        32.400
 202120589.182 7                  38462262.304
        44.900
 119269435.200 6  92765323.133 7  22296102.844    22296103.550    22296113.463
        38.500          42.100
 127608044.440 6  99434870.90145  24282998.714    24282997.7494   24283001.9824
        40.500          34.0004
 132957761.301 6 103603448.98442  25301021.220    25301019.9684   25301022.3584
        39.200          16.3004
 123398452.173 8                  23481949.528
        48.200
 127742984.887 7                  24308632.642
        46.700
 118930451.256 7  92673141.37144  22631693.866    22631692.8294   22631695.7684
        44.000          29.6004
 110119360.119 8  85807458.88248  20954954.689    20954953.9704   20954958.3064
        48.800          49.2004
 142381208.958 6                  27094245.154
        40.600
 126352289.574 6  98274032.418 5  23636809.905    23636809.458    23636818.605
        40.300          35.000
 110401927.312 7  86027463.84146  21008800.686    21008800.2934   21008805.9884
        46.900          36.3004
 124767776.472 7                  23742518.498
        47.700
 110461122.170 8  85914209.294 7  20635075.910    20635076.041    20635087.492
        50.400          46.400
 126752950.932 5  98585731.999 6  23703431.438    23703433.649    23703461.036
        33.000          39.900
 108150395.485 8  84116991.044 7  20196324.245    20196324.237    20196329.621
        51.000          47.200
 106904320.155 7                  20054929.356    20054929.193
        47.100
 150945776.145 5                  28724023.861
        32.600
 123128269.897 7  95766582.613 6  23041735.711    23041735.264    23041744.150
        44.200          41.300
 130756759.163 6 101699656.082 6  24478000.727    24478000.596    24478028.803
        40.300          37.000
 151996250.208 6                  28923925.450
        37.400
 108994748.311 8  84773783.225 8  20411194.332    20411194.678    20411201.152
        50.700          48.800
 132281647.655 7                  25172358.357
        45.500
 134314779.795 5 104660944.26842  25559254.011    25559253.6584   25559276.0504
        35.900          15.4004
 25  1  1 18 21  0.0000000  0 34G09G26E19R18G08S31S35G07E13R06S48S33
                                R19G30G20E04E31G16G27E21R01G04E06R07
                                R20R08R10E26R11R16E24R09E09G14
 106747795.672 8  83180107.56748  20313432.069    20313431.4664   20313435.3854
        50.200          51.9004
 133774528.223 6 104239850.51044  25456495.205    25456494.5444   25456516.0274
        37.700          28.5004
 138113936.043 5                  26282252.128
        34.200
 123883500.914 7  96354037.416 7  23207502.369    23207502.332    23207516.429
        46.100          42.000
 108196437.611 8  84309043.84448  20589052.846    20589052.0864   20589058.6434
        48.600          49.0004
 198978603.075 7                  37864379.417
        45.400
 200906446.123 7                  38231245.136
        43.500
 114658831.513 8  89344591.07247  21818831.444    21818830.8184   21818831.3734
        48.300          46.4004
 150017054.738 5                  28547279.922
        35.400
 129348473.326 5                  24239910.004    24239908.529
        30.200
 412868612.919 5                  78566197.608
        33.100
 202120603.909 7                  38462263.283
        44.700
 119248840.851 6  92749305.418 7  22292251.956    22292253.121    22292263.204
        37.700          42.200
 127565057.159 6  99401374.32445  24274818.162    24274817.1924   24274822.0574
        40.700          34.5004
 132962517.837 6 103607155.33542  25301926.874    25301925.6054   25301926.8154
        39.100          16.7004
 123411066.988 8                  23484350.201
        48.200
 127722114.730 7                  24304661.046
        46.800
 118978893.718 7  92710888.70844  22640912.295    22640911.2584   22640914.1664
        43.200          29.7004
 110128408.176 8  85814509.34248  20956676.558    20956675.8394   20956680.0604
        48.500          49.2004
 142418169.957 6                  27101278.926
        40.300
 126296453.838 6  98230604.579 5  23626366.125    23626364.866    23626373.677
        40.200          35.400
 110439493.468 7  86056736.09746  21015949.533    21015949.1494   21015954.6234
        46.800          36.3004
 124758524.171 7                  23740757.629
        47.700
 110510643.486 8  85952725.757 7  20644326.354    20644326.938    20644338.653
        50.400          46.300
 126693499.530 5  98539492.135 6  23692312.284    23692315.062    23692342.668
        33.000          39.900
 108142765.527 8  84111056.620 7  20194899.183    20194899.274    20194904.998
        50.700          47.600
 106896151.663 7                  20053397.141    20053396.852
        47.000
 150910018.283 5                  28717219.855
        32.600
 123089166.727 7  95736169.204 6  23034417.354    23034416.832    23034426.384
        43.800          41.700
 130801333.301 6 101734324.273 6  24486345.931    24486345.332    24486373.888
        40.800          37.900
 151958724.004 6                  28916784.239
        36.600
 109020435.598 8  84793762.196 8  20416004.989    20416005.182    20416011.442
        50.700          48.600
 132254664.581 7                  25167223.997
        44.800
 134268963.710 5 104625243.40242  25550536.356    25550536.0434   25550557.8134
        35.800          14.7004
 25  1  1 18 21 15.0000000  0 34G09G26E19R18G08S31S35G07E13R06S48S33
                                R19G30G20E04E31G16G27E21R01G04E06R07
                                R20R08R10E26R11R16E24R09E09G14
 106761136.010 8  83190502.61348  20315970.622    20315970.0104   20315973.9924
        50.000          51.7004
 133823860.061 6 104278290.21644  25465882.830    25465882.1644   25465904.2534
        37.600          29.1004
 138158344.125 5                  26290702.599
        34.500
 123906017.881 7  96371550.478 7  23211720.074    23211720.508    23211734.623
        45.700          42.300
 108170660.359 8  84288957.77048  20584147.637    20584146.8914   20584153.3084
        48.300          48.8004
 198978596.453 7                  37864380.164
        45.400
 200906409.871 7                  38231235.871
        43.400
 114629507.425 8  89321741.14547  21813251.070    21813250.4404   21813251.1814
        48.100          46.3004
 149998587.409 5                  28543765.631
        35.000
 129416772.258 5                  24252706.968    24252707.400
        30.000
 412869245.435 5                  78566243.598
        32.900
 202120615.761 7                  38462271.180
        44.900
 119228418.814 6  92733421.690 6  22288434.397    22288434.718    22288445.471
        37.800          41.800
 127522065.200 6  99367874.12545  24266636.540    24266635.5754   24266641.0714
        40.500          34.2004
 132967388.559 6 103610950.65342  25302853.309    25302852.0534   25302853.9174
        38.900          16.9004
 123423776.702 8                  23486768.454
        48.200
 127701300.395 7                  24300700.052
        46.900
 119027363.259 7  92748657.12344  22650135.804    22650134.7634   22650137.8764
        43.200          29.3004
 110137619.273 8  85821686.85348  20958429.356    20958428.6414   20958432.8514
        48.100          49.0004
 142455128.601 6                  27108311.814
        40.600
 126240707.131 6  98187246.017 5  23615935.215    23615934.543    23615944.557
        38.700          35.100
 110477169.023 7  86086093.60246  21023118.673    21023118.2894   21023124.1194
        46.700          36.1004
 124749364.436 7                  23739014.735
        47.600
 110560296.543 8  85991344.676 7  20653602.696    20653602.818    20653614.404
        50.500          46.400
 126634052.131 5  98493255.450 6  23681196.508    23681197.137    23681225.893
        32.400          39.700
 108135339.208 8  84105280.581 7  20193511.908    20193512.154    20193518.084
        50.400          47.400
 106888051.667 7                  20051878.057    20051877.409
        47.200
 150874266.848 5                  28710416.158
        32.200
 123050097.910 7  95705782.478 6  23027106.216    23027106.355    23027114.553
        45.000          41.700
 130845886.021 6 101768975.777 6  24494685.886    24494686.111    24494714.479
        40.600          36.200
 151921216.909 6                  28909647.474
        36.500
 109046163.646 8  84813772.846 8  20420822.982    20420823.476    20420829.606
        51.100          48.800
 132227751.273 7                  25162102.905
        45.200
 134223164.525 5 104589555.68742  25541820.595    25541820.2474   25541842.6924
        35.900          17.5004
 25  1  1 18 21 30.0000000  0 34G09G26E19R18G08S31S35G07E13R06S48S33
                                R19G30G20E04E31G16G27E21R01G04E06R07
                                R20R08R10E26R11R16E24R09E09G14
 106774626.755 8  83201014.86248  20318537.927    20318537.3104   20318541.2274
        50.000          51.7004
 133873176.530 6 104316717.98044  25475268.351    25475267.6634   25475289.4014
        37.300          28.2004
 138202785.683 5                  26299159.532
        34.700
 123928714.119 7  96389203.150 6  23215970.680    23215971.179    23215986.018
        43.300          41.300
 108145028.331 8  84268984.85048  20579269.639    20579268.8844   20579275.6094
        48.500          48.8004
 198978591.708 7                  37864379.171
        45.600
 200906375.617 7                  38231230.080
        43.700
 114600212.277 8  89298913.75647  21807676.411    21807675.7854   21807676.4954
        48.400          46.3004
 149980205.886 5                  28540267.781
        34.200
 129485057.102 4                  24265504.777    24265504.271
        29.400
 412869879.464 5                  78566285.712
        33.200
 202120629.774 7                  38462274.704
        45.200
 119208173.996 6  92717675.808 7  22284651.698    22284650.817    22284660.453
        37.900          42.000
 127479072.861 6  99334373.62145  24258456.110    24258455.1454   24258459.8984
        40.500          34.1004
 132972377.854 6 103614838.38542  25303803.087    25303801.8134   25303803.9224
        38.500          17.4004
 123436585.650 8                  23489206.179
        48.100
 127680546.234 7                  24296750.636
        47.100
 119075863.985 7  92786449.85944  22659365.441    22659364.4004   22659367.1754
        43.900          29.1004
 110146997.649 8  85828994.70248  20960213.870    20960213.1514   20960217.4844
        48.800          49.0004
 142492089.086 6                  27115345.103
        40.800
 126185054.549 6  98143960.669 5  23605524.483    23605524.319    23605533.761
        39.000          35.600
 110514958.096 7  86115539.56646  21030309.841    21030309.4574   21030315.2084
        46.800          36.0004
 124740301.756 7                  23737290.157
        47.600
 110610085.123 8  86030068.997 7  20662903.720    20662904.021    20662915.531
        50.700          46.600
 126574614.383 5  98447026.258 6  23670083.152    23670083.581    23670110.150
        33.300          39.500
 108128121.233 8  84099666.585 7  20192164.090    20192164.381    20192170.275
        50.300          47.400
 106880024.186 7                  20050371.460    20050371.268
        47.000
 150838526.425 5                  28703614.751
        33.500
 123011067.740 7  95675425.861 6  23019802.295    23019802.103    23019811.150
        44.000          41.900
 130890421.945 6 101803614.239 6  24503024.027    24503024.131    24503052.016
        40.300          36.300
 151883733.487 5                  28902513.754
        35.700
 109071936.747 8  84833818.562 8  20425649.100    20425649.756    20425656.119
        50.700          48.800
 132200912.312 7                  25156994.899
        45.500
 134177386.712 6 104553884.64942  25533109.650    25533109.3114   25533131.3004
        36.200          15.2004
 25  1  1 18 21 45.0000000  0 34G09G26E19R18G08S31S35G07E13R06S48S33
                                R19G30G20E04E31G16G27E21R01G04E06R07
                                R20R08R10E26R11R16E24R09E09G14
 106788265.551 8  83211642.47448  20321133.216    20321132.6044   20321136.6194
        50.000          51.6004
 133922475.198 6 104355131.87944  25484649.900    25484649.2254   25484670.9954
        37.800          28.4004
 138247258.258 5                  26307622.878
        35.100
 123951587.221 7  96406993.438 7  23220256.862    23220257.126    23220270.534
        45.300          42.000
 108119539.468 8  84249123.48048  20574419.271    20574418.5204   20574425.1774
        48.600          48.8004
 198978586.176 7                  37864376.551
        45.500
 200906341.082 7                  38231226.901
        43.800
 114570943.974 8  89276107.27347  21802106.799    21802106.1734   21802106.9194
        48.400          46.3004
 149961908.114 5                  28536785.815
        34.600
 129553325.222 4                  24278296.437    24278298.308
        29.000
 412868813.932 5                  78566311.178
        32.700
 202120643.071 7                  38462278.590
        45.200
 119188103.915 6  92702065.838 6  22280898.373    22280898.035    22280908.341
        37.300          41.900
 127436078.143 6  99300871.27045  24250274.021    24250273.0564   24250277.8574
        40.800          33.9004
 132977483.179 6 103618816.54642  25304774.696    25304773.4314   25304775.7534
        38.100          17.2004
 123449491.588 8                  23491661.843
        48.100
 127659849.989 7                  24292812.124
        46.700
 119124393.340 7  92824264.92644  22668599.900    22668598.8454   22668601.9164
        43.300          29.0004
 110156540.973 8  85836431.07748  20962029.914    20962029.1904   20962033.5184
        48.700          48.9004
 142529049.069 6                  27122378.311
        40.500
 126129494.050 6  98100746.898 5  23595132.471    23595131.928    23595140.436
        41.200          35.900
 110552858.166 7  86145072.01046  21037522.099    21037521.7194   21037527.4524
        46.700          36.0004
 124731333.978 7                  23735583.685
        47.500
 110660006.482 8  86068896.610 7  20672229.268    20672229.563    20672241.077
        49.900          46.300
 126515183.424 5  98400802.312 6  23658968.991    23658969.336    23658996.817
        33.400          39.900
 108121109.350 8  84094212.899 7  20190854.476    20190854.794    20190860.872
        50.200          47.400
 106872066.949 7                  20048878.951    20048878.680
        47.200
 150802794.987 5                  28696815.425
        32.700
 122972073.881 7  95645097.438 6  23012505.909    23012505.510    23012513.377
        44.200          41.700
 130934938.923 6 101838237.999 6  24511358.160    24511358.605    24511386.092
        40.100          36.400
 151846271.535 6                  28895385.533
        36.800
 109097752.545 8  84853897.492 8  20430483.933    20430484.171    20430490.560
        50.600          48.900
 132174145.629 7                  25151901.639
        45.200
 134131628.155 6 104518228.68242  25524402.047    25524401.7174   25524423.5894
        36.200          14.9004
 25  1  1 18 22  0.0000000  0 34G09G26E19R18G08S31S35G07E13R06S48S33
                                R19G30G20E04E31G16G27E21R01G04E06R07
                                R20R08R10E26R11R16E24R09E09G14
 106802049.710 8  83222383.35748  20323756.499    20323755.8964   20323759.6914
        50.000          51.5004
 133971753.297 6 104393529.76844  25494027.763    25494027.0934   25494048.8284
        38.700          28.6004
 138291759.114 5                  26316090.792
        34.700
 123974633.597 7  96424918.340 7  23224574.481    23224574.974    23224588.409
        45.700          42.000
 108094191.428 8  84229371.85948  20569595.753    20569594.9984   20569601.5134
        48.400          48.6004
 198978577.662 7                  37864373.465
        45.700
 200906303.544 7                  38231206.483
        43.100
 114541700.213 8  89253319.92847  21796541.863    21796541.2294   21796542.0254
        48.500          46.1004
 149943691.624 6                  28533318.964
        36.700
 129621573.273 4                  24291090.312    24291086.826
        29.100
 412869445.562 5                  78566343.865
        32.500
 202120653.365 7                  38462277.861
        45.100
 119168206.717 6  92686590.324 7  22277178.810    22277178.588    22277188.980
        38.000          42.000
 127393078.431 6  99267365.05245  24242091.806    24242090.8504   24242095.2664
        40.500          34.2004
 132982701.709 6 103622882.89842  25305767.824    25305766.5684   25305768.8784
        38.700          16.8004
 123462491.823 8                  23494136.011
        48.300
 127639208.949 7                  24288884.335
        47.200
 119172948.401 7  92862100.01644  22677839.891    22677838.8274   22677841.4424
        44.000          28.7004
 110166246.540 8  85843993.88748  20963876.733    20963876.0094   20963880.4054
        48.300          48.8004
 142566005.770 6                  27129411.197
        41.200
 126074023.738 6  98057603.309 5  23584754.325    23584754.898    23584763.266
        40.300          35.900
 110590866.332 7  86174688.69045  21044754.551    21044754.1674   21044760.2394
        46.700          35.7004
 124722458.569 7                  23733894.734
        47.700
 110710057.455 8  86107825.024 7  20681579.440    20681579.525    20681591.352
        50.000          46.300
 126455757.797 5  98354582.600 6  23647855.843    23647855.566    23647883.731
        33.500          39.900
 108114301.081 8  84088917.557 7  20189583.733    20189583.593    20189589.643
        50.400          47.200
 106864177.192 7                  20047398.928    20047398.529
        47.200
 150767070.141 5                  28690017.202
        33.500
 122933113.612 7  95614795.167 6  23005214.478    23005213.300    23005222.227
        42.700          41.900
 130979434.064 7 101872844.777 6  24519687.368    24519688.196    24519716.488
        42.000          37.000
 151808828.410 6                  28888259.833
        36.500
 109123608.091 8  84874007.377 8  20435325.671    20435326.084    20435332.500
        50.900          48.700
 132147448.762 7                  25146821.370
        45.400
 134085886.309 6 104482585.74842  25515697.046    25515696.7114   25515719.2454
        37.100          16.2004
 25  1  1 18 22 15.0000000  0 34G09G26E19R18G08S31S35G07E13R06S48S33
                                R19G30G20E04E31G16G27E21R01G04E06R07
                                R20R08R10E26R11R16E24R09E09G14
 106815987.372 8  83233243.84948  20326408.507    20326407.9084   20326411.9494
        50.100          51.6004
 134021018.988 6 104431917.97444  25503403.190    25503402.5064   25503424.6234
        38.000          28.6004
 138336296.527 5                  26324566.088
        34.900
 123997861.357 7  96442984.162 6  23228925.263    23228925.295    23228939.741
        44.400          41.200
 108068992.678 8  84209736.56748  20564800.457    20564799.7114   20564806.2174
        48.600          48.7004
 198978574.608 7                  37864372.424
        45.700
 200906271.076 7                  38231207.471
        43.500
 114512489.193 8  89230558.10047  21790983.182    21790982.5484   21790983.3734
        48.400          46.3004
 149925564.941 6                  28529869.289
        36.500
 129689809.324 4                  24303873.998    24303874.410
        29.100
 412870081.233 5                  78566389.355
        32.700
 202120669.126 7                  38462275.781
        45.000
 119148491.195 6  92671256.101 7  22273492.497    22273492.702    22273502.923
        37.400          42.000
 127350082.071 6  99233861.44345  24233909.610    24233908.6674   24233913.4894
        41.700          34.6004
 132988041.588 6 103627043.80142  25306783.860    25306782.5734   25306785.0464
        39.200          17.4004
 123475594.649 8                  23496629.327
        48.700
 127618631.400 7                  24284968.727
        47.200
 119221537.160 7  92899961.34944  22687086.298    22687085.2254   22687087.8454
        43.400          28.8004
 110176122.513 8  85851689.48048  20965756.237    20965755.5134   20965759.6894
        48.300          49.0004
 142602967.426 6                  27136444.513
        40.800
 126018652.546 6  98014536.809 6  23574396.937    23574395.705    23574406.027
        39.700          36.100
 110628990.655 7  86204395.87845  21052009.856    21052009.4674   21052015.1164
        46.600          35.8004
 124713683.936 8                  23732224.804
        48.000
 110760245.957 8  86146860.376 7  20690955.136    20690955.391    20690967.088
        50.100          46.400
 126396346.705 5  98308374.116 6  23636744.986    23636746.123    23636773.233
        34.500          40.000
 108107704.860 8  84083787.149 7  20188351.343    20188351.504    20188357.743
        50.100          47.200
 106856363.391 7                  20045933.195    20045932.543
        47.300
 150731360.544 5                  28683222.062
        33.200
 122894195.473 7  95584525.632 7  22997931.558    22997930.775    22997939.639
        43.800          42.100
 131023915.823 7 101907441.109 6  24528015.056    24528015.703    24528044.603
        42.100          38.600
 151771412.486 6                  28881140.552
        37.200
 109149511.948 8  84894154.778 8  20440176.583    20440177.177    20440183.540
        50.600          48.600
 132120830.210 7                  25141756.265
        45.900
 134040169.543 6 104446962.40042  25506997.280    25506996.9904   25507019.7844
        36.600          16.4004
 25  1  1 18 22 30.0000000  0 34G09G26E19R18G08S31S35G07E13R06S48S33
                                R19G30G20E04E31G16G27E21R01G04E06R07
                                R20R08R10E26R11R16E24R09E09G14
 106830068.194 8  83244215.89048  20329088.241    20329087.6384   20329091.4704
        50.100          52.0004
 134070261.943 6 104470288.47644  25512774.457    25512773.7734   25512796.1864
        38.200          29.7004
 138380859.909 5                  26333047.087
        35.500
 124021260.279 7  96461183.103 6  23233309.038    23233309.403    23233323.670
        45.800          41.800
 108043933.119 8  84190209.73248  20560031.596    20560030.8454   20560037.4414
        48.500          49.1004
 198978566.115 7                  37864373.197
        45.400
 200906233.733 7                  38231205.097
        43.600
 114483300.896 8  89207813.96747  21785428.884    21785428.2584   21785429.0014
        48.600          46.6004
 149907517.838 5                  28526434.909
        34.900
 129758022.494 4                  24316658.492    24316658.153
        29.500
 412870711.674 5                  78566412.183
        32.500
 202120679.537 7                  38462279.922
        44.900
 119128947.028 6  92656055.177 7  22269839.138    22269838.952    22269849.929
        36.800          42.300
 127307078.769 6  99200352.37845  24225726.108    24225725.1654   24225730.1874
        40.800          34.8004
 132993492.487 6 103631291.22142  25307821.296    25307820.0314   25307822.1004
        38.800          16.7004
 123488789.712 8                  23499140.212
        48.800
 127598107.016 7                  24281062.976
        47.400
 119270149.116 7  92937840.74244  22696336.783    22696335.6924   22696338.5464
        43.600          29.0004
 110186158.459 8  85859509.73048  20967666.031    20967665.3164   20967669.4434
        48.400          49.3004
 142639923.645 6                  27143477.100
        41.500
 125963370.617 6  97971539.740 5  23564055.028    23564055.001    23564062.914
        40.300          34.900
 110667220.542 7  86234185.32246  21059284.417    21059284.0154   21059290.0934
        46.600          36.2004
 124704999.893 8                  23730572.527
        48.200
 110810560.910 8  86185994.101 7  20700354.474    20700355.028    20700366.568
        50.300          46.300
 126336939.835 5  98262168.965 6  23625636.340    23625635.684    23625663.134
        32.300          39.700
 108101310.285 8  84078813.590 7  20187157.365    20187157.474    20187163.658
        50.000          47.400
 106848614.883 7                  20044478.978    20044478.626
        46.900
 150695655.997 5                  28676427.353
        34.000
 122855308.949 7  95554280.704 7  22990653.768    22990653.223    22990662.552
        44.400          42.300
 131068373.791 6 101942019.015 6  24536339.094    24536339.132    24536367.598
        40.700          37.400
 151734013.501 6                  28874022.949
        37.100
 109175453.075 8  84914331.160 8  20445034.810    20445035.390    20445041.350
        50.800          48.600
 132094279.866 7                  25136703.744
        45.800
 133994467.484 6 104411350.51142  25498300.790    25498300.5044   25498322.9434
        36.200          16.4004
 25  1  1 18 22 45.0000000  0 34G09G26E19R18G08S31S35G07E13R06S48S33
                                R19G30G20E04E31G16G27E21R01G04E06R07
                                R20R08R10E26R11R16E24R09E09G14
 106844299.194 8  83255304.95048  20331796.264    20331795.6614   20331799.5744
        49.800          51.7004
 134119489.260 6 104508646.84744  25522142.444    25522141.7564   25522164.4154
        38.300          29.8004
 138425456.233 5                  26341533.011
        35.100
 124044837.308 7  96479520.538 7  23237726.323    23237726.642    23237741.124
        45.700          42.100
 108019020.197 8  84170797.14748  20555290.861    20555290.1064   20555296.5604
        48.600          48.8004
 198978559.440 7                  37864376.953
        45.300
 200906198.039 7                  38231195.251
        43.300
 114454142.549 8  89185093.17347  21779880.269    21779879.6394   21779880.3164
        48.200          46.4004
 149889557.592 6                  28523016.885
        36.600
 129826219.481 4                  24329437.955    24329438.261
        29.800
 412869744.055 5                  78566455.325
        32.700
 202120691.774 7                  38462283.956
        44.800
 119109581.578 6  92640993.249 7  22266219.606    22266219.357    22266229.114
        38.400          42.300
 127264075.863 6  99166843.63745  24217543.454    24217542.5244   24217546.8184
        41.300          34.5004
 132999061.164 6 103635630.41342  25308880.762    25308879.5064   25308881.6514
        38.700          16.5004
 123502084.164 8                  23501669.934
        48.700
 127577642.914 7                  24277168.443
        47.300
 119318791.267 7  92975743.69244  22705592.611    22705591.5114   22705594.9034
        43.700          28.7004
 110196361.429 8  85867460.12148  20969607.530    20969606.8154   20969611.0004
        48.600          49.2004
 142676881.398 6                  27150510.542
        40.900
 125908185.334 6  97928617.884 5  23553731.384    23553730.955    23553740.263
        40.600          35.800
 110705562.903 7  86264062.40545  21066580.966    21066580.5734   21066586.4714
        46.300          35.8004
 124696413.668 8                  23728938.586
        48.100
 110861009.268 8  86225231.576 7  20709778.543    20709779.012    20709790.808
        50.100          46.500
 126277545.435 5  98215973.499 6  23614527.490    23614529.095    23614555.869
        33.200          39.400
 108095124.719 8  84074002.569 7  20186001.990    20186002.194    20186008.473
        50.500          47.400
 106840938.929 7                  20043039.639    20043038.858
        46.900
 150659964.098 5                  28669635.093
        34.000
 122816461.218 7  95524065.941 7  22983383.783    22983382.910    22983392.123
        43.100          42.300
 131112815.075 6 101976583.946 6  24544657.530    24544657.504    24544687.691
        38.800          36.300
 151696638.672 6                  28866910.542
        36.800
 109201439.098 8  84934542.479 8  20449900.959    20449901.387    20449907.808
        50.400          48.400
 132067805.009 7                  25131665.711
        45.400
 133948787.547 6 104375755.90842  25489608.290    25489607.9824   25489630.0734
        37.400          17.4004
 25  1  1 18 23  0.0000000  0 34G09G26E19R18G08S31S35G07E13R06S48S33
                                R19G30G20E04E31G16G27E21R01G04E06R07
                                R20R08R10E26R11R16E24R09E09G14
 106858679.994 8  83266510.74448  20334533.093    20334532.4994   20334536.1814
        50.200          51.7004
 134168700.429 6 104546992.62244  25531507.404    25531506.7074   25531529.8034
        38.300          29.9004
 138470084.835 5                  26350025.929
        34.800
 124068592.173 7  96497996.398 6  23242176.338    23242176.653    23242190.375
        45.300          40.800
 107994253.767 8  84151498.72148  20550577.816    20550577.0614   20550583.5864
        49.300          48.9004
 198978555.025 7                  37864371.265
        45.400
 200906163.894 7                  38231194.754
        43.500
 114425013.980 8  89162395.59547  21774337.527    21774336.9014   21774337.3384
        48.500          46.3004
 149871684.047 5                  28519615.326
        34.800
 129894399.747 4                  24342215.611    24342213.946
        29.200
 412870378.340 5                  78566491.612
        32.500
 202120706.175 7                  38462284.027
        44.800
 119090395.431 6  92626070.769 7  22262632.142    22262632.329    22262642.653
        37.600          42.400
 127221073.157 6  99133335.07045  24209359.800    24209358.8704   24209363.4724
        41.400          34.3004
 133004747.388 6 103640061.22242  25309963.569    25309962.3354   25309963.8374
        38.100          15.8004
 123515477.642 8                  23504218.874
        48.500
 127557238.782 7                  24273285.797
        47.200
 119367462.969 7  93013669.66644  22714854.693    22714853.5854   22714856.5814
        43.800          28.6004
 110206730.970 8  85875540.29148  20971580.363    20971579.6444   20971584.2694
        48.800          49.0004
 142713840.261 6                  27157542.913
        40.500
 125853097.163 6  97885771.516 5  23543426.441    23543425.019    23543434.644
        40.500          35.700
 110744017.153 7  86294026.67245  21073898.748    21073898.3554   21073904.1694
        46.400          35.6004
 124687925.066 8                  23727323.226
        48.000
 110911590.037 8  86264572.030 7  20719228.161    20719228.253    20719240.133
        50.500          46.500
 126218163.012 5  98169787.369 6  23603424.186    23603423.972    23603451.239
        33.800          40.000
 108089147.885 8  84069353.896 7  20184886.487    20184886.386    20184892.334
        50.300          47.300
 106833334.619 7                  20041612.798    20041612.397
        46.900
 150624284.691 5                  28662845.487
        32.800
 122777651.936 7  95493881.089 7  22976120.937    22976120.781    22976130.083
        44.100          42.800
 131157239.447 6 102011135.658 5  24552974.137    24552974.963    24553004.386
        38.200          35.800
 151659287.763 6                  28859802.848
        36.700
 109227469.197 8  84954788.083 8  20454775.606    20454775.894    20454782.355
        50.300          48.300
 132041405.630 7                  25126642.217
        45.400
 133903129.415 6 104340178.33542  25480919.828    25480919.5334   25480941.2854
        37.300          16.5004
 25  1  1 18 23 15.0000000  0 34G09G26E19R18G08S31S35G07E13R06S48S33
                                R19G30G20E04E31G16G27E21R01G04E06R07
                                R20R08R10E26R11R16E24R09E09G14
 106873206.977 8  83277830.44748  20337297.201    20337296.6204   20337300.6144
        49.900          51.6004
 134217891.852 6 104585323.00844  25540868.778    25540868.0684   25540891.1854
        37.800          28.7004
 138514742.279 5                  26358523.936
        35.000
 124092520.709 7  96516607.302 7  23246659.097    23246659.857    23246673.834
        45.800          42.100
 107969630.602 8  84132311.93548  20545892.033    20545891.2694   20545897.8714
        48.600          48.8004
 198978548.984 7                  37864370.443
        45.300
 200906128.670 7                  38231193.618
        43.900
 114395911.681 8  89139718.49747  21768799.127    21768798.4934   21768799.3324
        48.700          46.3004
 149853893.798 6                  28516229.940
        36.200
 129962559.054 4                  24354988.611    24354987.717
        28.900
 412871010.918 5                  78566525.972
        32.400
 202120719.003 7                  38462287.484
        44.700
 119071384.760 6  92611284.759 7  22259078.773    22259077.581    22259088.836
        37.700          42.800
 127178067.214 6  99099823.99545  24201176.032    24201175.1074   24201179.7594
        40.900          34.5004
 133010547.509 6 103644580.75442  25311067.138    25311065.9454   25311067.4744
        38.400          15.8004
 123528966.633 8                  23506785.604
        48.200
 127536891.064 7                  24269413.633
        47.200
 119416160.414 7  93051615.70044  22724121.566    22724120.4664   22724123.3804
        42.700          28.4004
 110217263.551 8  85883747.52248  20973585.056    20973584.3374   20973588.5444
        48.300          48.9004
 142750796.660 6                  27164575.915
        40.600
 125798102.812 6  97842998.147 5  23533136.829    23533137.532    23533146.898
        40.200          34.300
 110782579.518 7  86324075.18645  21081236.927    21081236.5344   21081242.4644
        46.900          35.6004
 124679530.684 7                  23725725.711
        47.900
 110962299.005 8  86304012.206 7  20728700.751    20728701.113    20728712.904
        50.000          46.500
 126158789.709 5  98123608.379 6  23592319.117    23592320.737    23592348.204
        34.100          40.400
 108083376.413 8  84064864.949 7  20183808.321    20183808.461    20183814.503
        50.200          47.200
 106825798.811 7                  20040199.222    20040198.720
        47.300
 150588614.530 5                  28656058.468
        32.700
 122738877.670 7  95463723.464 7  22968864.416    22968864.607    22968873.136
        44.300          42.100
 131201643.405 6 102045671.487 6  24561287.325    24561287.584    24561317.902
        40.500          37.800
 151621957.276 6                  28852698.806
        36.800
 109253539.867 8  84975065.233 8  20459658.283    20459658.235    20459664.468
        50.900          48.200
 132015078.294 7                  25121632.372
        45.800
 133857489.557 6 104304615.00542  25472234.154    25472233.8414   25472255.9414
        37.400          17.4004
 25  1  1 18 23 30.0000000  0 34G09G26E19R18G08S31S35G07E13R06S48S33
                                R19G30G20E04E31G16G27E21R01G04E06R07
                                R20R08R10E26R11R16E24R09E09G14
 106887882.375 8  83289265.79748  20340090.021    20340089.4454   20340093.2904
        50.400          51.5004
 134267065.743 6 104623639.71644  25550226.778    25550226.0634   25550249.3124
        36.600          28.0004
 138559430.671 5                  26367027.911
        35.400
 124116625.340 7  96535355.236 6  23251174.794    23251175.257    23251189.010
        44.500          41.600
 107945153.173 8  84113238.70348  20541234.360    20541233.5914   20541239.8584
        48.800          48.7004
 198978542.729 7                  37864369.012
        45.500
 200906093.862 7                  38231181.040
        43.800
 114366838.228 8  89117063.87447  21763266.571    21763265.9374   21763266.8214
        48.300          46.3004
 149836189.529 5                  28512861.194
        35.500
 130030699.641 4                  24367759.493    24367756.949
        28.700
 412871644.572 5                  78566565.130
        32.900
 202120731.533 7                  38462294.728
        45.100
 119052552.404 6  92596637.490 7  22255557.219    22255558.182    22255568.310
        38.600          42.800
 127135060.419 6  99066312.27845  24192992.661    24192991.7364   24192995.9654
        41.600          34.4004
 133016463.881 6 103649190.89742  25312192.434    25312191.2184   25312193.1924
        37.500          16.1004
 123542553.417 8                  23509371.354
        48.400
 127516602.069 7                  24265552.688
        47.400
 119464885.718 7  93089583.43644  22733393.883    22733392.7754   22733395.5754
        42.900          28.4004
 110227961.282 8  85892083.43748  20975620.798    20975620.0794   20975624.2414
        48.500          48.9004
 142787752.844 6                  27171608.568
        40.500
 125743205.207 6  97800299.987 5  23522868.172    23522867.754    23522877.016
        40.400          34.800
 110821252.107 7  86354209.59745  21088596.153    21088595.7604   21088601.6734
        46.400          35.4004
 124671232.961 8                  23724147.077
        48.000
 111013138.291 8  86343553.742 7  20738198.533    20738198.454    20738210.205
        50.300          46.600
 126099428.729 5  98077438.904 6  23581218.770    23581218.735    23581246.037
        33.400          39.500
 108077812.672 8  84060537.594 7  20182769.371    20182769.422    20182775.754
        49.700          47.300
 106818333.664 7                  20038798.790    20038798.065
        46.900
 150552956.246 5                  28649272.466
        33.800
 122700140.508 7  95433594.669 7  22961615.140    22961615.056    22961623.585
        43.600          42.000
 131246029.439 6 102080193.427 6  24569597.109    24569598.180    24569627.567
        39.900          36.600
 151584649.528 6                  28845599.812
        36.800
 109279653.549 8  84995375.853 8  20464547.892    20464548.705    20464554.603
        50.600          48.100
 131988825.635 7                  25116636.440
        46.000
 133811870.511 6 104269067.90743  25463552.883    25463552.5704   25463574.9884
        37.500          18.6004
