     2.11           OBSERVATION DATA    M (MIXED)           RINEX VERSION / TYPE
teqc  2019Feb25                         20260317 16:20:08UTCPGM / RUN BY / DATE
Linux 2.4.21-27.ELsmp|Opteron|gcc -static|Linux 64|=+       COMMENT
BIT 2 OF LLI FLAGS DATA COLLECTED UNDER A/S CONDITION       COMMENT
-Unknown-                                                   MARKER NAME
-Unknown-           -Unknown-                               OBSERVER / AGENCY
-Unknown-           -Unknown-           -Unknown-           REC # / TYPE / VERS
-Unknown-           -Unknown-                               ANT # / TYPE
        0.0000        0.0000        0.0000                  APPROX POSITION XYZ
        0.0000        0.0000        0.0000                  ANTENNA: DELTA H/E/N
     1     1                                                WAVELENGTH FACT L1/2
     7    L1    L2    C1    P1    P2    S1    S2            # / TYPES OF OBSERV
 SNR is mapped to RINEX snr flag value [0-9]                COMMENT
  L1 & L2: min(max(int(snr_dBHz/6), 0), 9)                  COMMENT
  2025     1     1     3     0    0.0000000     GPS         TIME OF FIRST OBS
    18                                                      LEAP SECONDS
                                                            END OF HEADER
 25  1  1  3  0  0.0000000  0 33E34G25E03G04S31S35R06E21E13S33G12G20
                                E15R22G05G11E02G06G29R07R23E27E09R13
                                E05G09R24G17R12E30R14R08G19
 131147814.838 7                  24956548.278
        46.500
 115705521.234 7  90160230.56246  22018003.483    22018002.5044   22018006.2514
        44.100          41.4004
 148637051.414 6                  28284688.585
        36.300
 133587836.006 6 104094420.01543  25420925.421    25420925.0414   25420928.8464
        38.800          19.8004
 198982966.216 7                  37865199.303
        45.800
 200933549.856 7                  38236383.925
        43.800
 125901419.327 5                  23593858.994    23593859.144
        34.500
 143745973.752 6                  27353938.639
        40.100
 138626989.998 7                  26379822.497
        42.800
 202131498.519 7                  38464320.565
        45.300
 108865244.208 8  84830192.54348  20716317.710    20716317.0844   20716317.2134
        49.000          49.4004
 107917586.371 7  84091678.40846  20536009.171    20536007.9154   20536008.6424
        47.800          39.5004
 123518359.428 8                  23504724.355
        48.700
 114847407.000 8  89325900.055 7  21514745.531    21514745.536    21514750.524
        49.900          46.800
 119278213.563 7  92944107.33446  22697873.988    22697873.4924   22697874.6344
        43.800          40.7004
 108272758.333 8  84368485.85147  20603583.754    20603583.4064   20603583.7094
        49.400          42.6004
 150750085.350 5                  28686755.190
        33.600
 115388137.507 7  89912981.33847  21957590.590    21957590.1704   21957593.7264
        46.600          47.4004
 132088796.797 6 102926361.39345  25135656.478    25135655.9064   25135658.0234
        39.600          30.6004
 115077967.137 8  89505150.385 7  21497513.829    21497514.543    21497521.285
        49.900          46.300
 107088669.124 8                  20019064.266    20019064.306
        51.000
 126324203.136 7                  24038640.931
        47.900
 152305388.857 5                  28982749.713
        34.700
 109893340.254 7                  20579445.731    20579444.943
        45.100
 138313746.847 6                  26320224.079
        37.700
 128396353.437 6 100049144.65245  24433005.503    24433004.9534   24433008.4484
        40.100          34.4004
 120987780.951 8  94101675.824 6  22625313.649    22625314.184    22625320.948
        48.700          41.900
 131018873.057 6 102092757.80045  24932017.837    24932017.2384   24932021.8184
        38.500          30.4004
 120603413.492 7  93802836.552 7  22577155.922    22577156.534    22577165.562
        45.000          43.400
 131127693.442 7                  24952720.754
        46.400
 117386799.471 8  91300888.295 7  22021459.725    22021460.168    22021466.464
        50.200          43.700
 117869819.020 7  91676588.572 7  22011347.678    22011348.701    22011356.602
        47.300          44.400
 116693957.773 7  90930487.04045  22206068.000    22206066.5654   22206066.8084
        45.500          33.7004
 25  1  1  3  0 15.0000000  0 33E34G25E03G04S31S35R06E21E13S33G12G20
                                E15R22G05G11E02G06G29R07R23E27E09R13
                                E05G09R24G17R12E30R14R08G19
 131175676.220 7                  24961849.950
        46.100
 115677465.559 7  90138369.02246  22012664.637    22012663.6634   22012667.3174
        43.900          41.5004
 148599566.258 6                  28277555.184
        36.200
 133593484.875 6 104098821.71343  25422000.062    25421999.6964   25422003.6814
        40.000          21.7004
 198982964.493 7                  37865200.550
        46.100
 200933582.279 7                  38236385.253
        43.900
 125941313.603 5                  23601336.549    23601335.147
        34.400
 143708197.110 6                  27346750.000
        39.700
 138597189.366 7                  26374151.140
        42.700
 202131484.336 7                  38464319.407
        45.600
 108871815.911 8  84835313.34648  20717568.455    20717567.8254   20717567.7564
        49.300          49.4004
 107895894.491 7  84074775.65746  20531881.192    20531879.9274   20531880.7804
        47.800          39.4004
 123516085.325 8                  23504291.510
        48.500
 114880892.274 8  89351944.155 7  21521017.825    21521017.988    21521023.576
        49.200          46.900
 119225002.170 7  92902643.94746  22687747.859    22687747.3724   22687748.7174
        44.300          40.8004
 108279755.169 8  84373937.92947  20604915.276    20604914.9284   20604915.1534
        49.400          42.6004
 150796586.518 4                  28695604.233
        29.400
 115423242.522 7  89940335.88647  21964271.022    21964270.6024   21964274.0404
        46.700          47.5004
 132042378.324 6 102890191.26245  25126822.837    25126822.2564   25126825.0084
        40.200          31.3004
 115070986.772 8  89499721.227 7  21496210.022    21496210.408    21496217.378
        50.400          46.500
 107089509.548 8                  20019220.972    20019221.242
        51.000
 126320170.312 7                  24037873.681
        47.600
 152309918.699 5                  28983611.648
        34.900
 109925971.036 7                  20585555.455    20585555.625
        45.100
 138289749.212 6                  26315657.632
        36.400
 128387149.541 6 100041972.80845  24431253.916    24431253.3664   24431256.8294
        39.800          34.3004
 120951344.754 8  94073336.588 6  22618500.545    22618500.312    22618507.224
        48.500          41.500
 131058676.139 6 102123773.17645  24939592.579    24939591.9764   24939596.1834
        38.200          30.2004
 120667623.674 7  93852777.777 7  22589177.163    22589177.485    22589185.815
        45.400          43.300
 131163059.426 7                  24959450.761
        46.200
 117354066.403 8  91275429.276 7  22015319.201    22015319.128    22015325.876
        49.700          43.500
 117818076.084 7  91636344.115 7  22001685.204    22001686.110    22001693.359
        47.100          44.300
 116730924.871 7  90959292.55745  22213102.636    22213101.1974   22213101.4264
        45.300          33.8004
 25  1  1  3  0 30.0000000  0 33E34G25E03G04S31S35R06E21E13S33G12G20
                                E15R22G05G11E02G06G29R07R23E27E09R13
                                E05G09R24G17R12E30R14R08G19
 131203557.367 7                  24967155.497
        46.200
 115649544.564 7  90116612.43446  22007351.697    22007350.7234   22007354.0734
        44.100          41.4004
 148562073.202 6                  28270420.052
        36.200
 133599261.417 6 104103322.79643  25423099.932    25423099.5754   25423102.8824
        37.700          20.2004
 198982965.812 7                  37865196.508
        46.100
 200933618.207 7                  38236401.176
        44.400
 125981355.289 5                  23608838.998    23608838.878
        34.300
 143670471.556 6                  27339571.298
        38.900
 138567429.352 7                  26368488.331
        42.400
 202131473.025 7                  38464316.433
        45.500
 108878547.388 8  84840558.65148  20718849.383    20718848.7534   20718848.7014
        49.100          49.4004
 107874333.914 7  84057975.21846  20527778.413    20527777.1484   20527777.9414
        47.700          39.4004
 123513865.816 8                  23503869.243
        48.400
 114914403.533 8  89378008.447 7  21527295.278    21527295.891    21527301.336
        48.800          46.900
 119171855.990 7  92861231.37046  22677634.251    22677633.7694   22677635.2524
        43.700          40.6004
 108286834.021 8  84379453.92047  20606262.414    20606262.0664   20606262.2024
        49.300          42.4004
 150843084.837 5                  28704452.220
        32.100
 115458382.983 7  89967718.05747  21970957.909    21970957.4854   21970961.0434
        46.600          47.3004
 131995951.659 6 102854014.73745  25117987.944    25117987.3504   25117990.1864
        40.700          31.2004
 115064204.051 8  89494445.796 7  21494942.536    21494942.703    21494949.897
        49.400          46.200
 107090410.131 8                  20019389.545    20019389.639
        51.000
 126316244.333 7                  24037126.791
        47.600
 152314551.771 5                  28984493.209
        35.000
 109958775.576 7                  20591699.617    20591698.986
        45.100
 138265821.755 6                  26311104.554
        37.300
 128378070.984 6 100034898.63245  24429526.601    24429526.0604   24429529.6154
        38.800          34.4004
 120914940.603 8  94045022.267 6  22611692.764    22611693.000    22611699.107
        48.500          41.200
 131098511.189 6 102154813.45445  24947173.767    24947173.1824   24947176.3664
        39.600          30.2004
 120731873.539 7  93902749.875 7  22601203.966    22601204.482    22601213.840
        45.100          43.700
 131198496.733 7                  24966194.473
        46.300
 117321505.471 8  91250104.135 7  22009210.657    22009210.404    22009218.136
        48.900          44.000
 117766427.586 7  91596173.123 7  21992040.597    21992040.883    21992048.074
        47.700          44.000
 116767958.322 7  90988149.76745  22220150.054    22220148.6194   22220148.6724
        45.300          33.5004
 25  1  1  3  0 45.0000000  0 33E34G25E03G04S31S35R06E21E13S33G12G20
                                E15R22G05G11E02G06G29R07R23E27E09R13
                                E05G09R24G17R12E30R14R08G19
 131231450.675 7                  24972463.622
        46.600
 115621750.982 7  90094955.12046  22002062.464    22002061.4994   22002065.1054
        44.400          41.4004
 148524565.041 6                  28263282.779
        36.300
 133605158.705 6 104107918.11643  25424221.718    25424221.3564   25424225.1214
        37.600          18.9004
 198982962.713 7                  37865193.400
        45.700
 200933649.649 7                  38236405.308
        44.200
 126021536.395 5                  23616368.016    23616368.402
        33.700
 143632789.822 6                  27332400.928
        39.300
 138537702.409 7                  26362831.265
        43.200
 202131457.820 7                  38464314.117
        45.800
 108885431.230 8  84845922.68448  20720159.422    20720158.7964   20720158.6324
        49.100          49.3004
 107852897.279 7  84041271.35846  20523699.423    20523698.1544   20523698.6954
        47.800          39.2004
 123511693.306 8                  23503455.991
        48.800
 114947933.200 8  89404087.079 7  21533577.265    21533577.305    21533582.383
        49.500          46.800
 119118767.818 7  92819864.00146  22667532.513    22667532.0354   22667532.9904
        44.500          40.8004
 108293987.247 8  84385027.86247  20607623.434    20607623.0954   20607623.4094
        49.400          42.3004
 150889572.566 5                  28713298.865
        35.000
 115493551.229 7  89995121.87247  21977650.206    21977649.7914   21977653.3274
        46.200          47.2004
 131949509.515 6 102817826.16745  25109149.923    25109149.3424   25109152.9454
        40.400          31.6004
 115057610.970 8  89489317.861 7  21493711.615    21493711.508    21493718.385
        49.600          46.400
 107091363.230 8                  20019567.226    20019567.833
        50.400
 126312417.748 7                  24036398.474
        47.900
 152319280.339 5                  28985392.907
        35.500
 109991745.749 7                  20597873.387    20597872.992
        44.800
 138241957.238 6                  26306563.406
        37.900
 128369110.452 6 100027916.43145  24427821.855    24427821.3144   24427824.6224
        38.600          34.1004
 120878560.775 8  94016726.866 6  22604888.999    22604889.842    22604896.208
        48.400          41.700
 131138371.274 6 102185873.22044  24954757.275    24954756.6674   24954761.4104
        38.900          29.7004
 120796155.059 7  93952746.594 7  22613238.666    22613238.780    22613247.062
        45.500          43.300
 131233997.668 7                  24972949.970
        46.500
 117289109.167 8  91224907.045 7  22003133.315    22003133.397    22003140.512
        49.800          44.100
 117714866.541 7  91556070.120 7  21982412.373    21982412.786    21982419.821
        47.900          44.200
 116805050.594 7  91017052.81045  22227208.147    22227206.6994   22227206.9184
        45.900          33.3004
 25  1  1  3  1  0.0000000  0 33E34G25E03G04S31S35R06E21E13S33G12G20
                                E15R22G05G11E02G06G29R07R23E27E09R13
                                E05G09R24G17R12E30R14R08G19
 131259360.286 7                  24977774.465
        46.400
 115594089.249 7  90073400.55246  21996798.558    21996797.5934   21996801.2404
        44.500          41.5004
 148487046.179 6                  28256143.344
        36.400
 133611180.407 6 104112610.22943  25425368.174    25425367.8264   25425371.0634
        37.600          19.4004
 198982960.537 7                  37865196.401
        45.700
 200933681.349 7                  38236405.974
        43.900
 126061860.644 5                  23623924.727    23623925.869
        35.400
 143595156.346 6                  27325238.891
        40.400
 138508012.796 7                  26357181.341
        42.600
 202131442.983 7                  38464313.115
        45.300
 108892471.616 8  84851408.69548  20721499.134    20721498.5084   20721498.3754
        49.200          49.3004
 107831588.981 7  84024667.49946  20519644.327    20519643.0494   20519643.8094
        47.900          39.3004
 123509571.924 8                  23503052.107
        48.700
 114981485.478 8  89430183.317 7  21539862.088    21539862.425    21539868.107
        48.800          47.100
 119065742.534 7  92778545.62346  22657441.409    22657440.9314   22657442.6704
        44.700          40.9004
 108301218.997 8  84390662.99247  20608999.912    20608999.5774   20608999.5684
        49.500          42.3004
 150936053.730 5                  28722144.107
        31.800
 115528751.343 7  90022550.52647  21984349.169    21984348.7584   21984351.6834
        46.500          47.2004
 131903056.280 6 102781628.93245  25100310.223    25100309.6204   25100312.8964
        40.100          31.5004
 115051212.093 8  89484340.971 7  21492516.005    21492515.908    21492523.281
        49.800          46.200
 107092373.084 8                  20019756.694    20019756.513
        50.800
 126308694.876 7                  24035689.944
        47.900
 152324108.563 5                  28986312.192
        35.600
 110024885.403 7                  20604079.603    20604078.799
        45.200
 138218160.148 6                  26302035.021
        38.400
 128360272.370 6 100021029.65045  24426139.706    24426139.1704   24426142.5584
        39.000          34.1004
 120842209.696 8  93988453.834 6  22598091.792    22598091.965    22598098.027
        48.300          41.300
 131178260.461 6 102216955.65245  24962348.146    24962347.5524   24962352.0874
        39.400          30.0004
 120860471.959 7  94002770.842 7  22625278.626    22625278.937    22625286.977
        44.400          43.000
 131269566.302 7                  24979718.446
        46.400
 117256882.156 8  91199841.629 7  21997087.299    21997087.558    21997093.760
        50.000          43.700
 117663397.873 7  91516038.980 7  21972801.345    21972801.087    21972808.095
        47.500          44.200
 116842205.721 7  91046004.83645  22234278.656    22234277.2034   22234277.3184
        45.400          33.2004
 25  1  1  3  1 15.0000000  0 33E34G25E03G04S31S35R06E21E13S33G12G20
                                E15R22G05G11E02G06G29R07R23E27E09R13
                                E05G09R24G17R12E30R14R08G19
 131287287.417 7                  24983088.939
        46.200
 115566560.998 7  90051949.98946  21991559.968    21991559.0034   21991562.8204
        44.700          41.6004
 148449518.204 6                  28249002.351
        36.500
 133617328.281 6 104117400.75743  25426537.699    25426537.3464   25426541.1934
        36.900          18.2004
 198982959.059 7                  37865197.755
        45.900
 200933714.754 7                  38236412.954
        44.200
 126102329.219 5                  23631508.583    23631510.313
        34.900
 143557572.691 6                  27318086.897
        40.000
 138478361.845 7                  26351539.191
        43.000
 202131429.241 7                  38464307.687
        45.400
 108899669.871 8  84857017.72148  20722868.969    20722868.3434   20722868.1764
        49.200          49.4004
 107810410.426 7  84008164.74046  20515614.104    20515612.8214   20515613.6214
        47.600          39.2004
 123507502.948 8                  23502658.360
        48.900
 115015061.722 8  89456298.162 7  21546152.131    21546152.728    21546157.712
        48.700          46.900
 119012781.456 7  92737277.28346  22647363.433    22647362.9464   22647364.5234
        44.400          40.9004
 108308530.395 8  84396360.18147  20610390.972    20610390.6374   20610390.8924
        49.500          42.3004
 150982529.641 5                  28730988.130
        32.500
 115563984.500 7  90050004.92247  21991053.529    21991053.1234   21991056.3314
        46.500          47.1004
 131856593.229 6 102745424.05645  25091469.222    25091468.6144   25091471.3184
        39.200          31.3004
 115045009.226 8  89479516.526 7  21491356.927    21491357.490    21491364.492
        49.800          46.300
 107093441.203 8                  20019956.027    20019956.350
        50.400
 126305077.106 7                  24035001.435
        47.900
 152329038.042 5                  28987249.717
        35.100
 110058195.466 7                  20610317.673    20610317.374
        44.800
 138194431.977 6                  26297519.047
        38.500
 128351558.268 6 100014239.47445  24424481.884    24424481.3574   24424484.1904
        39.800          34.1004
 120805888.605 7  93960204.128 6  22591299.184    22591299.048    22591306.044
        47.700          41.200
 131218179.885 6 102248061.67044  24969944.899    24969944.2964   24969948.5654
        37.000          29.7004
 120924824.932 7  94052823.133 7  22637325.522    22637325.846    22637335.160
        44.200          43.500
 131305203.812 7                  24986500.091
        46.600
 117224826.391 8  91174909.391 7  21991073.390    21991074.174    21991080.430
        49.800          43.500
 117612023.456 8  91476081.135 7  21963207.654    21963207.472    21963214.577
        48.300          44.000
 116879425.074 7  91075006.90945  22241361.230    22241359.7594   22241359.7154
        45.400          33.2004
 25  1  1  3  1 30.0000000  0 33E34G25E03G04S31S35R06E21E13S33G12G20
                                E15R22G05G11E02G06G29R07R23E27E09R13
                                E05G09R24G17R12E30R14R08G19
 131315228.695 7                  24988406.203
        46.400
 115539163.176 7  90030601.06246  21986346.204    21986345.2214   21986349.1404
        44.300          41.7004
 148411978.133 6                  28241858.024
        37.100
 133623598.799 6 104122286.82243  25427731.281    25427730.9104   25427734.3784
        37.300          18.2004
 198982956.085 7                  37865195.538
        46.000
 200933746.190 7                  38236416.992
        44.000
 126142938.425 5                  23639119.195    23639119.682
        34.300
 143520035.814 6                  27310944.139
        40.200
 138448746.247 7                  26345903.471
        43.100
 202131413.694 7                  38464303.376
        45.600
 108907022.631 8  84862747.14348  20724268.054    20724267.4284   20724267.3694
        49.400          49.4004
 107789358.472 7  83991760.63346  20511608.052    20511606.7744   20511607.5174
        47.200          39.2004
 123505482.966 8                  23502274.198
        48.600
 115048658.427 8  89482428.940 7  21552445.619    21552446.515    21552451.780
        48.600          47.100
 118959881.361 7  92696056.45746  22637297.507    22637297.0294   22637297.7434
        44.200          41.0004
 108315918.024 8  84402116.76647  20611797.002    20611796.6634   20611796.7074
        49.700          42.3004
 151028996.701 5                  28739830.677
        32.800
 115599247.210 7  90077482.34747  21997763.394    21997762.9924   21997766.6454
        46.400          47.1004
 131810117.337 6 102709209.17545  25082625.027    25082624.4104   25082627.0384
        39.200          31.4004
 115038999.031 8  89474841.936 7  21490234.429    21490234.710    21490241.614
        49.800          46.200
 107094563.934 8                  20020166.224    20020166.266
        50.600
 126301561.230 7                  24034332.598
        47.800
 152334065.481 5                  28988206.422
        35.200
 110091672.192 7                  20616586.865    20616586.222
        44.900
 138170769.683 6                  26293016.436
        37.100
 128342964.981 6 100007543.42945  24422845.534    24422845.0204   24422848.9004
        39.500          34.3004
 120769594.318 8  93931975.264 6  22584512.271    22584512.292    22584519.038
        48.000          41.200
 131258126.356 6 102279188.76445  24977546.941    24977546.3474   24977550.2294
        39.100          30.0004
 120989210.223 7  94102900.556 7  22649379.749    22649379.082    22649387.775
        44.400          43.400
 131340906.741 7                  24993294.165
        46.300
 117192938.739 8  91150107.928 7  21985092.348    21985092.144    21985098.508
        50.100          43.600
 117560740.502 8  91436194.425 7  21953630.127    21953631.103    21953637.220
        48.200          44.300
 116916705.348 7  91104056.45145  22248455.460    22248453.9854   22248454.1464
        45.300          33.3004
 25  1  1  3  1 45.0000000  0 33E34G25E03G04S31S35R06E21E13S33G12G20
                                E15R22G05G11E02G06G29R07R23E27E09R13
                                E05G09R24G17R12E30R14R08G19
 131343188.595 7                  24993726.560
        46.500
 115511900.605 7  90009357.51746  21981158.520    21981157.5324   21981161.1644
        44.300          41.7004
 148374430.726 6                  28234712.371
        36.300
 133629996.647 6 104127272.16843  25428948.607    25428948.2104   25428952.4264
        36.200          18.0004
 198982956.280 7                  37865194.460
        45.800
 200933780.419 7                  38236424.903
        44.000
 126183692.320 5                  23646757.260    23646757.124
        35.400
 143482550.456 6                  27303810.223
        40.400
 138419170.591 7                  26340275.089
        43.100
 202131401.525 7                  38464305.174
        45.200
 108914534.388 8  84868600.45448  20725697.566    20725696.9454   20725696.7864
        49.100          49.4004
 107768437.877 7  83975458.88046  20507627.025    20507625.7474   20507626.4364
        47.600          39.2004
 123503516.464 8                  23501899.707
        48.900
 115082280.271 8  89508579.231 7  21558745.000    21558745.426    21558750.253
        49.000          47.000
 118907046.974 7  92654886.83846  22627242.729    22627242.2564   22627243.6884
        44.800          41.1004
 108323386.343 8  84407936.24547  20613217.857    20613217.5094   20613217.8694
        49.700          42.3004
 151075459.309 5                  28748672.061
        30.800
 115634543.929 7  90104986.27447  22004480.134    22004479.7234   22004483.4064
        46.400          47.1004
 131763633.191 6 102672987.86045  25073778.644    25073778.0144   25073781.4364
        41.500          32.5004
 115033186.183 8  89470320.831 7  21489148.087    21489148.334    21489155.609
        49.300          45.900
 107095745.781 8                  20020387.142    20020386.968
        50.800
 126298151.871 8                  24033683.904
        48.100
 152339195.239 5                  28989182.579
        35.900
 110125319.927 7                  20622887.683    20622887.087
        44.900
 138147178.106 6                  26288527.454
        37.400
 128334497.366 6 100000945.30845  24421234.226    24421233.7214   24421237.7794
        38.600          34.2004
 120733331.336 8  93903770.710 6  22577730.653    22577730.781    22577737.165
        48.200          41.300
 131298104.184 6 102310340.25945  24985154.530    24985153.9404   24985157.7694
        37.700          30.1004
 121053631.960 7  94153006.310 7  22661439.134    22661438.668    22661447.303
        44.200          43.100
 131376679.514 7                  25000101.188
        46.400
 117161224.190 8  91125441.081 7  21979141.780    21979141.752    21979148.696
        48.900          43.600
 117509554.169 7  91396382.877 7  21944071.159    21944071.829    21944079.154
        47.400          44.200
 116954051.107 7  91133157.02645  22255562.201    22255560.7174   22255560.8874
        45.300          33.1004
 25  1  1  3  2  0.0000000  0 33E34G25E03G04S31S35R06E21E13S33G12G20
                                E15R22G05G11E02G06G29R07R23E27E09R13
                                E05G09R24G17R12E30R14R08G19
 131371163.755 7                  24999050.014
        46.300
 115484770.288 7  89988217.03846  21975995.906    21975994.9364   21975998.4254
        44.600          41.5004
 148336873.064 5                  28227566.317
        35.500
 133636518.275 6 104132353.79342  25430189.479    25430189.1044   25430193.4004
        37.000          17.8004
 198982955.675 7                  37865189.818
        45.700
 200933814.375 7                  38236428.650
        43.800
 126224587.499 5                  23654421.495    23654421.562
        35.200
 143445113.683 6                  27296687.066
        40.000
 138389631.643 7                  26334654.329
        43.200
 202131388.327 7                  38464299.065
        45.400
 108922201.849 8  84874575.09848  20727156.603    20727155.9824   20727155.8544
        49.300          49.3004
 107747645.465 7  83959257.01246  20503670.362    20503669.0844   20503669.7524
        47.500          39.0004
 123501600.131 8                  23501535.288
        48.700
 115115923.914 8  89534746.501 7  21565046.679    21565047.109    21565053.162
        48.100          47.000
 118854275.856 7  92613766.51446  22617200.956    22617200.4784   22617201.6314
        44.600          41.0004
 108330931.985 8  84413815.96747  20614653.713    20614653.3564   20614653.7484
        49.500          42.1004
 151121914.122 5                  28757512.202
        31.100
 115669871.244 7  90132514.04047  22011202.814    22011202.4174   22011205.9774
        46.700          46.9004
 131717137.618 6 102636757.61545  25064930.633    25064930.0074   25064933.0114
        39.800          31.2004
 115027567.636 8  89465950.849 7  21488098.810    21488099.309    21488106.039
        50.000          45.800
 107096983.523 8                  20020617.946    20020618.562
        50.300
 126294845.879 7                  24033054.574
        47.800
 152344424.120 5                  28990177.459
        34.500
 110159134.906 7                  20629220.466    20629219.951
        45.100
 138123654.136 6                  26284050.929
        37.900
 128326152.242 6  99994442.65045  24419646.167    24419645.6854   24419649.8074
        40.100          34.2004
 120697096.297 8  93875587.912 6  22570954.282    22570954.515    22570961.610
        48.400          41.400
 131338110.108 6 102341513.64744  24992767.813    24992767.2374   24992770.5464
        39.200          29.5004
 121118086.325 7  94203137.485 7  22673504.568    22673505.369    22673512.554
        44.400          42.500
 131412518.716 7                  25006921.550
        46.000
 117129679.837 8  91100906.619 7  21973224.697    21973224.378    21973230.924
        49.100          43.800
 117458462.095 8  91356644.636 7  21934530.543    21934530.938    21934537.874
        48.100          44.100
 116991459.126 7  91162306.11045  22262680.935    22262679.4464   22262679.3304
        45.000          32.8004
 25  1  1  3  2 15.0000000  0 33E34G25E03G04S31S35R06E21E13S33G12G20
                                E15R22G05G11E02G06G29R07R23E27E09R13
                                E05G09R24G17R12E30R14R08G19
 131399152.473 7                  25004376.043
        46.800
 115457770.842 7  89967178.52846  21970857.575    21970856.5964   21970860.5494
        44.500          41.8004
 148299303.781 6                  28220417.347
        36.800
 133643162.539 6 104137531.02343  25431454.309    25431453.9384   25431457.5234
        37.000          18.7004
 198982952.606 7                  37865191.746
        46.100
 200933845.466 7                  38236436.547
        44.000
 126265621.684 5                  23662111.279    23662110.839
        35.800
 143407723.993 6                  27289571.634
        40.700
 138360127.743 7                  26329039.662
        43.000
 202131373.222 7                  38464296.642
        45.500
 108930023.382 8  84880669.79748  20728644.793    20728644.1724   20728644.2564
        49.400          49.3004
 107726979.846 7  83943153.94146  20499737.865    20499736.5964   20499737.1974
        47.200          39.1004
 123499732.230 8                  23501179.673
        49.000
 115149587.601 8  89560929.358 7  21571353.875    21571353.993    21571359.424
        49.300          47.100
 118801566.868 7  92572694.60646  22607170.642    22607170.1824   22607171.4204
        44.200          41.1004
 108338553.176 8  84419754.55947  20616104.104    20616103.7474   20616104.0514
        49.500          42.2004
 151168359.419 5                  28766349.576
        34.600
 115705227.351 7  90160064.24647  22017930.962    22017930.5654   22017934.0654
        46.000          46.9004
 131670629.159 6 102600517.34745  25056081.262    25056080.6454   25056082.6464
        39.700          31.6004
 115022141.956 8  89461730.896 7  21487085.725    21487085.548    21487092.246
        50.000          45.700
 107098275.418 8                  20020859.718    20020859.949
        50.500
 126291641.679 8                  24032444.910
        48.000
 152349750.522 5                  28991191.390
        35.900
 110193114.931 7                  20635583.205    20635583.236
        45.100
 138100196.444 6                  26279587.083
        37.700
 128317928.215 6  99988034.33945  24418081.030    24418080.5484   24418084.8294
        39.300          34.2004
 120660887.478 8  93847425.540 7  22564182.933    22564183.186    22564190.170
        48.700          42.000
 131378142.690 6 102372707.79344  25000385.449    25000384.8644   25000388.5594
        37.300          29.9004
 121182571.159 7  94253292.321 7  22685576.330    22685577.001    22685585.318
        45.200          42.900
 131448422.560 7                  25013753.857
        46.400
 117098304.099 8  91076503.294 7  21967338.333    21967338.627    21967345.053
        49.900          44.100
 117407462.854 8  91316978.607 7  21925006.678    21925006.847    21925013.627
        48.200          43.800
 117028927.587 7  91191502.29145  22269810.989    22269809.5054   22269809.4704
        44.900          32.8004
 25  1  1  3  2 30.0000000  0 33E34G25E03G04S31S35R06E21E13S33G12G20
                                E15R22G05G11E02G06G29R07R23E27E09R13
                                E05G09R24G17R12E30R14R08G19
 131427156.507 7                  25009705.236
        46.700
 115430904.418 7  89946243.67546  21965745.366    21965744.3874   21965747.9464
        44.800          41.8004
 148261724.977 6                  28213265.664
        36.100
 133649931.333 6 104142805.40943  25432742.248    25432741.8734   25432745.7624
        38.100          20.5004
 198982949.520 7                  37865190.860
        45.900
 200933877.011 7                  38236445.029
        44.100
 126306796.514 5                  23669827.069    23669826.994
        35.300
 143370383.557 6                  27282466.213
        40.100
 138330660.796 7                  26323432.455
        43.700
 202131357.429 7                  38464291.544
        45.400
 108938000.783 8  84886885.94948  20730162.637    20730162.0034   20730162.3004
        49.400          49.3004
 107706442.926 7  83927151.15946  20495829.929    20495828.6604   20495829.1244
        47.500          39.1004
 123497914.564 8                  23500833.987
        49.000
 115183273.273 8  89587129.326 7  21577664.102    21577664.557    21577669.728
        49.700          47.200
 118748922.301 7  92531672.89246  22597153.013    22597152.5624   22597153.5684
        44.300          41.1004
 108346251.679 8  84425753.39247  20617568.848    20617568.4864   20617569.0174
        49.300          42.2004
 151214796.778 4                  28775186.147
        29.800
 115740613.991 7  90187638.23247  22024664.844    22024664.4514   22024667.9224
        46.300          46.8004
 131624109.769 6 102564268.57145  25047228.431    25047227.8144   25047230.5864
        40.300          31.8004
 115016910.671 8  89457662.140 7  21486107.824    21486108.306    21486115.322
        49.700          46.000
 107099623.236 8                  20021111.692    20021111.760
        50.300
 126288541.249 8                  24031854.888
        48.100
 152355176.383 6                  28992223.604
        37.600
 110227261.637 7                  20641978.127    20641977.795
        44.600
 138076807.145 6                  26275136.434
        38.100
 128309827.377 6  99981722.02345  24416539.578    24416539.0964   24416543.2194
        39.300          33.7004
 120624706.935 8  93819285.146 6  22557417.216    22557417.541    22557424.234
        48.200          41.500
 131418204.010 6 102403924.38844  25008009.183    25008008.5984   25008012.0714
        37.500          29.7004
 121247087.749 7  94303471.905 7  22697654.292    22697654.742    22697662.880
        44.400          42.400
 131484392.756 7                  25020598.548
        46.500
 117067099.486 8  91052233.095 7  21961484.690    21961484.432    21961491.543
        49.900          43.900
 117356558.958 8  91277386.734 7  21915500.428    21915500.652    21915507.936
        48.700          44.000
 117066458.624 7  91220747.23545  22276952.338    22276950.8414   22276951.3674
        45.200          32.9004
 25  1  1  3  2 45.0000000  0 33E34G25E03G04S31S35R06E21E13S33G12G20
                                E15R22G05G11E02G06G29R07R23E27E09R13
                                E05G09R24G17R12E30R14R08G19
 131455178.760 7                  25015037.599
        46.500
 115404174.240 7  89925414.98346  21960658.951    21960657.9684   21960661.3194
        44.900          41.7004
 148224139.932 6                  28206113.557
        37.000
 133656827.396 6 104148178.96443  25434054.436    25434054.0614   25434057.7814
        37.400          18.8004
 198982949.508 7                  37865191.620
        45.800
 200933911.309 7                  38236451.719
        44.100
 126348114.397 5                  23677569.367    23677569.417
        34.300
 143333095.563 6                  27275370.474
        40.800
 138301233.789 7                  26317832.554
        43.200
 202131345.179 7                  38464290.431
        45.300
 108946136.974 8  84893225.83548  20731711.139    20731710.5054   20731710.5644
        49.200          49.3004
 107686037.691 7  83911250.98746  20491946.808    20491945.5394   20491946.1104
        47.600          39.0004
 123496150.034 8                  23500497.942
        48.900
 115216983.858 8  89613348.669 7  21583979.156    21583979.315    21583984.916
        48.800          47.100
 118696345.172 7  92490703.73146  22587147.689    22587147.2334   22587148.4604
        44.900          41.2004
 108354030.350 8  84431814.69547  20619049.444    20619049.0824   20619049.2504
        49.400          42.1004
 151261229.352 5                  28784023.188
        30.200
 115776033.993 7  90215238.22547  22031405.100    22031404.7114   22031408.1284
        46.600          46.7004
 131577582.577 6 102528013.70745  25038373.623    25038373.0244   25038376.0324
        40.900          31.5004
 115011877.366 8  89453747.366 7  21485167.571    21485167.799    21485175.096
        49.800          46.100
 107101029.955 8                  20021374.544    20021374.941
        50.400
 126285547.640 7                  24031285.294
        47.800
 152360704.536 6                  28993275.504
        36.200
 110261577.486 7                  20648404.641    20648404.210
        44.700
 138053489.408 6                  26270699.027
        37.500
 128301852.846 6  99975508.13245  24415022.659    24415022.1684   24415025.2244
        39.900          33.6004
 120588557.733 8  93791169.122 6  22550657.034    22550657.217    22550663.887
        48.600          41.500
 131458296.687 6 102435165.46344  25015638.192    25015637.6074   25015641.4154
        38.100          29.2004
 121311638.738 7  94353678.213 7  22709737.989    22709738.694    22709746.510
        44.500          42.500
 131520432.131 7                  25027456.668
        46.200
 117036069.494 8  91028098.692 7  21955663.572    21955663.319    21955670.273
        49.400          43.800
 117305754.081 8  91237871.875 7  21906012.508    21906013.367    21906019.847
        48.100          43.600
 117104054.776 7  91250042.91745  22284106.877    22284105.3844   22284105.5654
        45.000          32.6004
 25  1  1  3  3  0.0000000  0 33E34G25E03G04S31S35R06E21E13S33G12G20
                                E15R22G05G11E02G06G29R07R23E27E09R13
                                E05G09R24G17R12E30R14R08G19
 131483216.825 7                  25020373.129
        46.300
 115377578.252 7  89904690.86046  21955597.853    21955596.8614   21955600.2654
        45.200          41.7004
 148186546.528 6                  28198959.711
        36.900
 133663848.561 6 104153649.99243  25435390.298    25435389.9234   25435394.3444
        36.800          18.2004
 198982949.991 7                  37865190.851
        46.200
 200933945.911 7                  38236458.239
        44.200
 126389572.883 5                  23685339.756    23685339.469
        35.200
 143295857.924 6                  27268283.824
        40.500
 138271844.404 7                  26312239.950
        42.900
 202131332.879 7                  38464289.648
        45.600
 108954429.736 8  84899687.72248  20733289.479    20733288.8454   20733288.5954
        49.400          49.2004
 107665761.864 7  83895451.65446  20488088.387    20488087.1134   20488087.7664
        47.700          38.9004
 123494436.228 8                  23500172.020
        48.700
 115250716.972 8  89639585.503 7  21590298.558    21590298.540    21590304.110
        48.400          46.900
 118643833.333 7  92449785.43946  22577154.990    22577154.5304   22577155.6404
        44.700          41.2004
 108361886.777 8  84437936.58147  20620544.440    20620544.0834   20620544.3234
        49.300          42.0004
 151307654.479 5                  28792857.392
        34.100
 115811484.908 7  90242862.30347  22038151.274    22038150.8814   22038154.2374
        46.200          46.6004
 131531045.451 6 102491751.09645  25029518.487    25029517.8974   25029520.0504
        41.100          31.9004
 115007039.907 8  89449984.886 7  21484264.354    21484264.397    21484271.095
        50.100          46.000
 107102493.288 8                  20021648.236    20021648.319
        50.300
 126282658.599 7                  24030735.596
        47.800
 152366332.600 6                  28994346.875
        36.400
 110296060.068 7                  20654862.179    20654861.532
        44.800
 138030241.142 6                  26266274.912
        37.500
 128294002.494 6  99969390.99545  24413528.002    24413527.5114   24413531.1214
        39.500          33.9004
 120552437.318 8  93763075.476 6  22543902.128    22543902.218    22543909.228
        48.000          41.600
 131498418.313 6 102466429.02844  25023273.187    25023272.6064   25023276.2374
        38.700          29.7004
 121376221.049 7  94403908.848 7  22721827.711    22721827.945    22721837.138
        44.600          42.600
 131556538.217 7                  25034327.707
        46.000
 117005211.956 8  91004098.404 7  21949874.745    21949874.911    21949880.720
        50.600          43.900
 117255046.486 8  91198432.660 7  21896543.011    21896543.856    21896551.378
        48.300          44.000
 117141713.767 7  91279387.56745  22291273.349    22291271.8564   22291271.8144
        45.000          32.5004
 25  1  1  3  3 15.0000000  0 33E34G25E03G04S31S35R06E21E13S33G12G20
                                E15R22G05G11E02G06G29R07R23E27E09R13
                                E05G09R24G17R12E30R14R08G19
 131511266.967 7                  25025710.912
        46.300
 115351113.044 7  89884068.63846  21950561.261    21950560.2554   21950564.0784
        44.900          41.7004
 148148941.393 6                  28191803.690
        36.300
 133670991.251 6 104159215.81643  25436749.700    25436749.3474   25436753.3914
        37.700          18.7004
 198982946.547 7                  37865194.500
        46.000
 200933977.693 7                  38236465.433
        44.100
 126431167.391 5                  23693134.305    23693134.643
        35.900
 143258667.239 6                  27261206.980
        40.600
 138242489.028 7                  26306653.698
        43.500
 202131317.398 7                  38464286.277
        45.600
 108962875.348 8  84906268.71348  20734896.603    20734895.9734   20734895.7234
        49.100          49.2004
 107645612.007 7  83879750.47646  20484254.066    20484252.7884   20484253.3634
        47.700          38.9004
 123492769.439 8                  23499854.879
        48.700
 115284468.932 8  89665837.051 7  21596621.643    21596621.500    21596627.427
        48.800          46.900
 118591383.653 7  92408915.59346  22567174.038    22567173.5784   22567174.7014
        45.100          41.2004
 108369817.180 8  84444116.12047  20622053.529    20622053.1854   20622053.4204
        49.200          42.0004
 151354068.340 4                  28801689.932
        28.900
 115846962.908 7  90270507.48747  22044902.301    22044901.9124   22044905.5284
        46.200          46.5004
 131484494.748 6 102455477.90245  25020660.512    25020659.9274   25020662.0524
        39.900          31.4004
 115002394.614 8  89446371.893 7  21483396.397    21483396.965    21483403.591
        50.400          46.000
 107104009.555 8                  20021931.716    20021932.030
        50.700
 126279870.552 7                  24030204.909
        47.600
 152372057.079 5                  28995436.101
        34.800
 110330704.760 7                  20661349.066    20661349.387
        44.600
 138007058.990 6                  26261863.430
        37.500
 128286272.899 6  99963367.95445  24412057.299    24412056.7854   24412060.4984
        38.800          33.7004
 120516342.043 8  93735001.390 6  22537152.328    22537152.783    22537159.444
        48.500          41.500
 131538565.253 6 102497712.30044  25030912.683    25030912.1074   25030915.7894
        38.500          29.1004
 121440830.695 7  94454160.780 7  22733923.282    22733923.876    22733932.081
        44.700          42.400
 131592707.239 7                  25041209.983
        45.600
 116974523.480 8  90980229.634 7  21944117.105    21944117.728    21944124.731
        50.200          44.400
 117204433.112 8  91159066.750 7  21887092.174    21887092.791    21887099.531
        48.300          44.300
 117179432.066 7  91308778.42045  22298451.066    22298449.5824   22298449.5784
        44.800          32.5004
 25  1  1  3  3 30.0000000  0 32E34G25E03G04S31S35R06E21E13S33G12G20
                                E15R22G05G11G06G29R07R23E27E09R13E05
                                G09R24G17R12E30R14R08G19
 131539333.289 7                  25031051.706
        46.400
 115324783.075 7  89863551.79946  21945550.990    21945549.9934   21945553.6164
        45.400          41.7004
 148111328.976 6                  28184646.594
        37.200
 133678259.585 6 104164879.55843  25438132.993    25438132.6404   25438136.1554
        37.400          20.2004
 198982945.177 7                  37865191.862
        45.700
 200934009.618 7                  38236466.779
        44.000
 126472902.128 5                  23700955.715    23700955.864
        35.400
 143221527.890 6                  27254139.786
        40.900
 138213171.810 7                  26301074.608
        43.100
 202131303.395 7                  38464283.755
        45.500
 108971477.899 8  84912971.99548  20736533.653    20736533.0234   20736532.7314
        49.500          49.1004
 107625592.427 7  83864150.81646  20480444.288    20480443.0104   20480443.7914
        47.600          38.9004
 123491153.757 8                  23499547.171
        48.800
 115318243.902 8  89692106.451 7  21602948.697    21602948.774    21602954.241
        48.600          46.700
 118539000.720 7  92368097.74846  22557206.160    22557205.6954   22557206.5294
        45.000          41.2004
 108377825.602 8  84450356.44947  20623577.492    20623577.1574   20623577.3944
        49.300          42.0004
 115882472.088 7  90298176.97347  22051659.477    22051659.0844   22051662.7364
        46.300          46.5004
 131437934.689 6 102419197.42145  25011800.287    25011799.7024   25011802.2164
        40.300          32.0004
 114997946.074 8  89442911.911 7  21482565.678    21482565.757    21482572.670
        50.400          46.100
 107105582.814 8                  20022225.903    20022226.083
        50.800
 126277187.778 7                  24029694.448
        47.800
 152377882.407 5                  28996544.872
        35.200
 110365515.640 7                  20667868.386    20667868.485
        45.100
 137983947.301 6                  26257465.347
        37.700
 128278668.373 6  99957442.36645  24410610.580    24410610.0714   24410613.5264
        39.200          33.6004
 120480276.087 8  93706950.130 6  22530407.504    22530407.814    22530414.833
        48.000          41.400
 131578741.991 6 102529018.79644  25038558.598    25038558.0224   25038561.6114
        38.300          29.5004
 121505471.357 7  94504436.853 7  22746023.943    22746023.979    22746031.800
        45.300          42.200
 131628943.205 7                  25048105.762
        46.000
 116944008.697 8  90956495.955 7  21938393.038    21938393.340    21938400.352
        50.200          44.200
 117153918.607 8  91119777.739 7  21877658.839    21877659.501    21877666.339
        48.500          44.100
 117217213.725 7  91338218.65145  22305640.684    22305639.1954   22305639.3484
        44.900          32.5004
 25  1  1  3  3 45.0000000  0 32E34G25E03G04S31S35R06E21E13S33G12G20
                                E15R22G05G11G06G29R07R23E27E09R13E05
                                G09R24G17R12E30R14R08G19
 131567410.716 7                  25036394.806
        46.300
 115298583.575 7  89843136.62046  21940565.691    21940564.6854   21940568.0204
        44.800          41.8004
 148073704.551 6                  28177486.603
        37.600
 133685648.251 5 104170636.94943  25439538.789    25439538.4004   25439541.8824
        35.500          18.1004
 198982940.031 7                  37865189.376
        45.800
 200934038.305 7                  38236474.225
        44.000
 126514771.532 5                  23708802.107    23708801.751
        35.900
 143184435.153 6                  27247081.223
        39.700
 138183887.799 7                  26295502.121
        43.600
 202131285.048 7                  38464280.410
        45.300
 108980232.273 8  84919793.58448  20738199.344    20738198.7184   20738198.6294
        49.500          49.1004
 107605698.307 7  83848648.91546  20476658.703    20476657.4294   20476658.0624
        47.700          39.0004
 123489584.115 8                  23499248.692
        49.000
 115352036.782 8  89718389.799 7  21609279.250    21609279.568    21609284.216
        48.300          46.400
 118486679.751 7  92327328.19046  22547249.419    22547248.9504   22547250.1974
        45.300          41.3004
 108385906.929 8  84456653.58647  20625115.249    20625114.9144   20625115.1944
        49.300          42.0004
 115918007.253 7  90325866.70447  22058421.665    22058421.2724   22058424.8584
        46.500          46.4004
 131391360.570 6 102382905.99345  25002937.506    25002936.9304   25002939.9704
        40.100          32.1004
 114993689.063 8  89439600.918 7  21481770.113    21481770.301    21481777.311
        50.900          46.000
 107107207.953 8                  20022529.927    20022529.872
        50.800
 126274605.343 8                  24029203.173
        48.100
 152383803.481 5                  28997670.752
        33.000
 110400487.330 7                  20674418.176    20674417.449
        44.800
 137960901.367 6                  26253079.660
        36.900
 128271184.132 6  99951610.50745  24409185.799    24409185.2854   24409189.3234
        38.500          33.5004
 120444234.510 8  93678917.827 6  22523667.264    22523667.536    22523674.416
        48.200          41.500
 131618943.346 6 102560344.49144  25046208.579    25046208.0294   25046211.6054
        38.100          29.1004
 121570137.436 7  94554732.683 6  22758130.045    22758130.262    22758138.034
        45.600          41.900
 131665240.967 7                  25055012.905
        46.100
 116913662.853 8  90932893.677 7  21932699.289    21932699.905    21932706.823
        49.700          44.000
 117103498.630 7  91080562.236 7  21868242.904    21868243.091    21868250.269
        47.600          44.000
 117255053.831 7  91367704.43245  22312841.243    22312839.7634   22312839.9844
        45.200          32.4004
 25  1  1  3  4  0.0000000  0 32E34G25E03G04S31S35R06E21E13S33G12G20
                                E15R22G05G11G06G29R07R23E27E09R13E05
                                G09R24G17R12E30R14R08G19
 131595510.289 7                  25041742.094
        46.400
 115272525.956 7  89822832.00046  21935606.625    21935605.6154   21935609.4164
        44.900          41.7004
 148036079.538 6                  28170326.506
        37.100
 133693168.993 6 104176497.39843  25440969.099    25440968.7244   25440972.8994
        36.600          18.4004
 198982941.155 7                  37865190.950
        46.100
 200934074.212 7                  38236480.977
        44.000
 126556786.471 5                  23716673.960    23716675.831
        34.800
 143147400.377 6                  27240034.166
        40.700
 138154648.130 7                  26289938.005
        43.200
 202131273.705 7                  38464278.697
        45.500
 108989149.673 8  84926742.20248  20739896.343    20739895.7134   20739895.5384
        49.800          49.0004
 107585940.914 7  83833253.55146  20472898.981    20472897.7164   20472898.3404
        47.600          38.9004
 123488071.578 8                  23498960.677
        49.100
 115385858.870 8  89744695.841 7  21615615.687    21615615.718    21615620.644
        48.400          46.700
 118434432.134 7  92286615.78146  22537307.010    22537306.5374   22537307.8224
        45.000          41.4004
 108394072.201 8  84463016.13546  20626669.140    20626668.8144   20626669.0114
        49.400          41.9004
 115953579.445 7  90353585.28447  22065190.963    22065190.5744   22065193.9914
        45.800          46.3004
 131344783.883 6 102346612.55345  24994073.929    24994073.3754   24994076.6244
        40.400          32.1004
 114989635.228 8  89436447.942 7  21481012.874    21481012.870    21481019.904
        49.600          45.900
 107108896.294 8                  20022845.248    20022845.502
        50.700
 126272134.492 8                  24028732.897
        48.100
 152389831.242 6                  28998818.218
        36.000
 110435630.420 7                  20680999.039    20680998.658
        45.000
 137937932.482 6                  26248708.998
        38.000
 128263831.459 6  99945881.17145  24407786.676    24407786.1764   24407790.3674
        40.300          33.5004
 120408228.667 8  93650913.282 6  22516934.269    22516934.905    22516941.302
        48.800          41.300
 131659180.400 6 102591697.99944  25053864.748    25053864.1904   25053868.7624
        38.500          29.2004
 121634839.761 7  94605056.679 7  22770241.870    22770242.399    22770251.252
        44.500          42.800
 131701611.513 7                  25061933.818
        46.200
 116883497.662 8  90909431.894 7  21927040.830    21927041.241    21927048.159
        49.100          44.200
 117053185.091 8  91041429.517 7  21858847.417    21858848.069    21858854.428
        48.500          43.500
 117292963.467 7  91397244.38545  22320055.360    22320053.8714   22320053.8474
        45.500          32.4004
 25  1  1  3  4 15.0000000  0 32E34G25E03G04S31S35R06E21E13S33G12G20
                                E15R22G05G11G06G29R07R23E27E09R13E05
                                G09R24G17R12E30R14R08G19
 131623620.708 7                  25047091.334
        46.600
 115246599.242 7  89802629.38546  21930672.971    21930671.9654   21930675.7184
        45.300          41.9004
 147998443.021 6                  28163164.460
        36.800
 133700810.094 5 104182451.61243  25442423.664    25442423.2934   25442426.6334
        35.500          18.5004
 198982939.286 7                  37865192.152
        46.200
 200934106.083 7                  38236487.317
        44.100
 126598935.292 5                  23724574.386    23724573.745
        35.200
 143110412.598 6                  27232995.102
        41.100
 138125441.587 7                  26284380.216
        43.500
 202131259.390 7                  38464276.797
        45.500
 108998218.896 8  84933809.12748  20741621.958    20741621.3284   20741621.3434
        49.500          49.2004
 107566309.315 7  83817956.21846  20469163.124    20469161.8644   20469162.5494
        47.900          39.0004
 123486604.830 8                  23498681.735
        49.000
 115419698.724 8  89771015.720 7  21621954.562    21621954.829    21621960.202
        48.500          46.800
 118382247.314 7  92245952.31446  22527376.694    22527376.2214   22527377.3454
        45.200          41.4004
 108402310.052 8  84469435.23847  20628236.524    20628236.2034   20628236.6414
        49.400          42.1004
 115989177.229 7  90381323.80947  22071965.022    22071964.6564   22071967.9854
        46.100          46.3004
 131298193.021 6 102310308.08045  24985208.083    24985207.5254   24985210.7294
        39.500          32.1004
 114985773.395 8  89433444.290 7  21480291.059    21480291.656    21480298.416
        49.900          46.100
 107110636.312 8                  20023170.597    20023170.539
        50.800
 126269764.040 8                  24028281.790
        48.300
 152395954.626 6                  28999983.109
        37.700
 110470933.375 7                  20687610.547    20687609.952
        45.100
 137915029.747 6                  26244351.056
        39.100
 128256599.373 6  99940245.79945  24406410.604    24406410.0994   24406414.1854
        38.400          33.5004
 120372246.835 8  93622927.420 6  22510206.080    22510206.114    22510212.847
        49.000          41.500
 131699441.795 6 102623070.44244  25061526.591    25061526.0284   25061530.4714
        38.900          29.7004
 121699566.279 7  94655399.529 7  22782358.177    22782359.034    22782367.082
        44.100          42.300
 131738043.456 7                  25068866.786
        46.100
 116853502.051 8  90886101.998 7  21921414.145    21921413.686    21921421.463
        49.300          44.300
 117002967.218 8  91002371.201 7  21849469.147    21849470.071    21849477.074
        48.400          44.100
 117330931.336 7  91426829.71445  22327280.159    22327278.6794   22327278.9434
        45.000          32.3004
 25  1  1  3  4 30.0000000  0 32E34G25E03G04S31S35R06E21E13S33G12G20
                                E15R22G05G11G06G29R07R23E27E09R13E05
                                G09R24G17R12E30R14R08G19
 131651743.943 7                  25052442.741
        46.300
 115220805.752 7  89782530.57146  21925764.776    21925763.7664   21925767.4514
        44.700          41.9004
 147960797.280 6                  28156001.306
        37.200
 133708573.753 6 104188501.29143  25443901.348    25443900.9554   25443904.2764
        36.600          19.2004
 198982934.782 7                  37865189.492
        45.700
 200934135.854 7                  38236492.053
        43.900
 126641219.835 5                  23732497.207    23732498.010
        35.500
 143073474.094 6                  27225965.690
        41.400
 138096270.256 7                  26278829.245
        43.900
 202131243.553 7                  38464278.921
        45.400
 109007441.795 8  84940995.79548  20743377.220    20743376.5904   20743376.3884
        49.700          49.1004
 107546805.366 8  83802758.34646  20465451.531    20465450.2664   20465451.0764
        48.000          39.1004
 123485185.872 8                  23498411.745
        49.200
 115453558.431 7  89797351.047 7  21628297.033    21628297.736    21628303.413
        47.300          46.600
 118330127.697 7  92205339.64846  22517458.287    22517457.8144   22517459.3764
        45.200          41.4004
 108410622.459 8  84475912.43647  20629818.434    20629818.1134   20629818.4284
        49.300          42.1004
 116024802.621 7  90409083.83847  22078744.287    22078743.9164   22078747.3314
        46.400          46.4004
 131251590.266 7 102273994.33545  24976339.979    24976339.4254   24976342.3564
        42.200          32.4004
 114982105.594 8  89430591.577 7  21479606.338    21479606.335    21479613.623
        50.000          46.300
 107112430.260 8                  20023506.336    20023506.179
        51.100
 126267496.155 8                  24027850.058
        48.600
 152402175.587 6                  29001167.208
        39.200
 110506397.550 7                  20694251.412    20694250.996
        45.100
 137892195.416 6                  26240005.056
        38.000
 128249490.069 6  99934706.09445  24405057.725    24405057.2164   24405061.2784
        39.200          33.6004
 120336291.385 8  93594962.113 6  22503481.885    22503482.529    22503488.998
        49.200          41.700
 131739729.788 6 102654463.60244  25069193.352    25069192.7854   25069196.8044
        38.600          29.1004
 121764318.796 7  94705762.568 7  22794481.749    22794481.625    22794489.222
        44.800          42.400
 131774538.722 7                  25075811.617
        46.100
 116823678.341 8  90862905.830 7  21915819.008    21915818.461    21915826.403
        49.100          44.200
 116952847.596 8  90963389.330 7  21840109.758    21840110.755    21840117.369
        48.900          43.700
 117368959.527 7  91456462.04845  22334516.691    22334515.2024   22334515.4724
        44.700          32.4004
 25  1  1  3  4 45.0000000  0 32E34G25E03G04S31S35R06E21E13S33G12G20
                                E15R22G05G11G06G29R07R23E27E09R13E05
                                G09R24G17R12E30R14R08G19
 131679887.011 7                  25057798.387
        46.700
 115195152.799 7  89762541.28046  21920883.519    21920882.5134   21920885.8744
        44.900          41.9004
 147923149.710 6                  28148837.176
        37.100
 133716467.077 6 104194651.96143  25445403.062    25445402.6204   25445406.3794
        37.300          18.7004
 198982935.906 7                  37865188.785
        45.900
 200934171.398 7                  38236499.257
        43.900
 126683646.570 5                  23740448.211    23740448.716
        35.000
 143036592.184 6                  27218947.453
        40.200
 138067141.214 7                  26273285.769
        44.000
 202131231.375 7                  38464270.827
        45.500
 109016825.488 8  84948307.75948  20745162.866    20745162.2404   20745162.0324
        49.700          49.1004
 107527436.262 8  83787665.54946  20461765.870    20461764.6054   20461765.2294
        48.000          39.2004
 123483821.712 8                  23498152.038
        49.300
 115487445.103 8  89823707.322 7  21634645.858    21634646.273    21634651.427
        48.700          46.400
 118278080.601 7  92164783.49646  22507554.478    22507554.0054   22507555.0674
        45.100          41.5004
 108419016.350 8  84482453.13047  20631415.936    20631415.6194   20631415.7504
        49.400          42.1004
 116060462.495 7  90436870.74347  22085530.188    22085529.8174   22085533.2474
        46.000          46.3004
 131204982.915 6 102237676.98845  24967470.532    24967469.9744   24967472.1514
        41.000          31.5004
 114978639.090 8  89427895.408 7  21478958.792    21478958.737    21478965.913
        49.700          46.000
 107114285.104 8                  20023852.648    20023852.976
        50.800
 126265337.971 8                  24027439.463
        48.600
 152408501.196 6                  29002371.100
        38.400
 110542030.071 7                  20700924.431    20700924.329
        45.400
 137869436.785 6                  26235674.960
        38.100
 128242510.832 6  99929267.75045  24403730.271    24403729.7574   24403732.9514
        38.500          33.4004
 120300369.570 8  93567022.950 6  22496764.107    22496764.372    22496770.953
        48.500          41.200
 131780051.167 6 102685882.80344  25076866.398    25076865.8664   25076869.7784
        38.500          29.3004
 121829103.996 7  94756151.052 7  22806608.235    22806609.005    22806617.273
        44.300          42.300
 131811104.214 7                  25082769.887
        46.500
 116794034.393 8  90839849.443 7  21910257.831    21910258.084    21910265.136
        49.600          44.300
 116902833.937 8  90924489.864 7  21830770.087    21830770.720    21830777.383
        48.400          43.800
 117407055.049 7  91486146.84045  22341766.535    22341765.0554   22341764.9344
        45.700          32.3004
 25  1  1  3  5  0.0000000  0 32E34G25E03G04S31S35R06E21E13S33G12G20
                                E15R22G05G11G06G29R07R23E27E09R13E05
                                G09R24G17R12E30R14R08G19
 131708041.929 7                  25063155.879
        46.700
 115169632.756 7  89742655.54846  21916027.111    21916026.1104   21916029.5094
        45.500          41.8004
 147885492.644 6                  28141671.031
        36.700
 133724482.501 6 104200897.91442  25446927.563    25446927.1524   25446931.3284
        37.000          17.7004
 198982934.454 7                  37865189.215
        46.000
 200934204.076 7                  38236504.404
        43.900
 126726207.142 5                  23748423.302    23748423.958
        34.200
 142999759.227 6                  27211938.497
        40.800
 138038046.593 7                  26267749.354
        43.900
 202131217.315 7                  38464271.180
        45.500
 109026362.034 8  84955738.83448  20746977.683    20746977.0664   20746976.7644
        49.400          48.9004
 107508194.324 7  83772671.84346  20458104.188    20458102.9234   20458103.6144
        47.900          39.0004
 123482504.370 8                  23497901.429
        49.300
 115521350.754 8  89850078.372 7  21640997.483    21640997.801    21641003.215
        49.000          46.600
 118226098.476 7  92124277.96246  22497662.332    22497661.8594   22497663.1724
        45.100          41.4004
 108427483.722 8  84489051.08347  20633027.187    20633026.8744   20633027.0324
        49.500          42.0004
 116096148.847 7  90464678.28047  22092320.907    22092320.5414   22092324.1434
        46.300          46.1004
 131158363.122 6 102201349.96345  24958598.581    24958598.0144   24958600.6534
        40.900          32.0004
 114975366.226 8  89425349.851 7  21478347.092    21478347.462    21478354.401
        50.300          46.200
 107116192.760 8                  20024209.548    20024209.414
        50.500
 126263281.689 8                  24027048.141
        48.500
 152414923.496 6                  29003592.792
        37.600
 110577822.298 7                  20707626.775    20707626.880
        45.000
 137846746.225 6                  26231356.897
        37.500
 128235653.994 6  99923924.76745  24402425.115    24402424.5974   24402428.1314
        37.300          33.3004
 120264473.386 8  93539103.714 6  22490051.502    22490051.988    22490058.243
        48.700          41.500
 131820398.122 6 102717321.96344  25084543.888    25084543.3474   25084547.2414
        37.400          28.3004
 121893913.033 7  94806558.054 7  22818740.646    22818740.902    22818750.176
        42.400          42.600
 131847731.905 7                  25089739.541
        46.300
 116764562.207 8  90816926.684 7  21904729.334    21904728.739    21904736.216
        49.400          44.600
 116852918.967 8  90885667.163 7  21821448.129    21821449.346    21821456.407
        48.200          43.800
 117445210.002 7  91515877.94845  22349026.807    22349025.3104   22349025.4544
        45.400          32.1004
 25  1  1  3  5 15.0000000  0 32E34G25E03G04S31S35R06E21E13S33G12G20
                                E15R22G05G11G06G29R07R23E27E09R13E05
                                G09R24G17R12E30R14R08G19
 131736208.720 7                  25068515.949
        46.500
 115144245.974 7  89722873.65247  21911195.537    21911194.5274   21911198.5564
        44.900          42.1004
 147847826.521 6                  28134503.307
        36.800
 133732619.483 6 104207238.49243  25448476.636    25448476.2214   25448479.6134
        37.000          18.8004
 198982930.394 7                  37865185.534
        45.700
 200934234.478 7                  38236507.766
        43.600
 126768901.307 5                  23756423.643    23756425.224
        34.800
 142962975.532 6                  27204938.511
        41.400
 138008986.519 7                  26262219.437
        43.600
 202131200.450 7                  38464263.592
        45.400
 109036051.361 8  84963288.95248  20748821.695    20748821.0834   20748820.5624
        49.300          49.1004
 107489079.879 7  83757777.47846  20454466.660    20454465.3864   20454466.2534
        47.900          39.3004
 123481233.864 8                  23497659.618
        49.300
 115555275.451 8  89876464.246 7  21647352.298    21647353.108    21647358.258
        48.200          46.500
 118174181.640 7  92083823.31546  22487782.787    22487782.3184   22487783.6234
        45.100          41.5004
 108436024.586 8  84495706.30047  20634652.353    20634652.0404   20634652.3464
        49.500          42.1004
 116131861.634 7  90492506.41747  22099116.793    22099116.4134   22099120.0304
        46.000          46.2004
 131111731.228 6 102165013.49545  24949725.251    24949724.6794   24949726.9824
        40.300          31.7004
 114972287.100 8  89422954.997 7  21477772.261    21477772.192    21477779.221
        49.800          46.100
 107118153.045 8                  20024575.638    20024576.033
        50.600
 126261327.492 8                  24026676.433
        48.400
 152421442.717 6                  29004833.525
        37.000
 110613773.813 7                  20714359.832    20714359.431
        45.100
 137824124.062 6                  26227051.765
        37.800
 128228919.744 6  99918677.31045  24401144.027    24401143.5494   24401146.7614
        37.800          33.3004
 120228602.579 8  93511204.236 6  22483343.364    22483343.141    22483350.160
        48.000          41.700
 131860770.880 6 102748781.24044  25092227.260    25092226.7194   25092230.4234
        39.300          29.3004
 121958745.918 7  94856983.629 7  22830878.751    22830878.616    22830886.472
        45.200          42.100
 131884421.744 7                  25096721.584
        45.900
 116735262.441 8  90794138.024 7  21899232.588    21899232.395    21899239.818
        49.000          44.400
 116803103.375 8  90846921.725 7  21812146.336    21812146.859    21812153.254
        48.400          43.700
 117483424.439 7  91545655.40645  22356298.692    22356297.1954   22356297.4084
        45.200          32.4004
 25  1  1  3  5 30.0000000  0 32E34G25E03G04S31S35R06E21E13S33G12G20
                                E15R22G05G11G06G29R07R23E27E09R13E05
                                G09R24G17R12E30R14R08G19
 131764393.310 7                  25073879.329
        46.200
 115118998.701 7  89703200.47047  21906391.476    21906390.4754   21906394.1244
        44.900          42.0004
 147810157.536 6                  28127335.538
        38.100
 133740884.365 5 104213678.63143  25450050.058    25450049.6474   25450052.4314
        35.800          18.0004
 198982929.616 7                  37865187.091
        45.900
 200934267.954 7                  38236520.086
        44.000
 126811734.516 5                  23764451.761    23764452.319
        35.600
 142926247.351 6                  27197949.183
        41.000
 137979966.938 7                  26256697.268
        43.600
 202131188.280 7                  38464264.853
        45.500
 109045899.545 8  84970962.85748  20750695.576    20750694.9684   20750694.5794
        49.500          49.0004
 107470098.825 7  83742987.05846  20450854.970    20450853.6964   20450854.2784
        47.900          39.2004
 123480016.134 8                  23497427.885
        49.300
 115589225.229 7  89902869.620 7  21653712.809    21653713.008    21653717.996
        47.900          46.200
 118122336.558 7  92043424.56846  22477917.213    22477916.7624   22477917.8644
        44.700          41.5004
 108444644.802 8  84502423.35147  20636292.637    20636292.3204   20636292.7344
        49.400          42.1004
 116167606.711 7  90520359.71447  22105919.075    22105918.7004   22105922.0614
        45.900          46.1004
 131065093.331 6 102128672.34945  24940850.482    24940849.9244   24940852.0904
        40.300          31.8004
 114969407.926 8  89420715.646 7  21477234.104    21477234.287    21477241.316
        49.800          46.100
 107120172.640 8                  20024953.304    20024953.590
        51.100
 126259481.415 8                  24026325.032
        48.600
 152428064.730 5                  29006093.447
        35.400
 110649890.383 7                  20721123.171    20721123.051
        45.300
 137801576.496 6                  26222761.422
        37.900
 128222314.253 6  99913530.19245  24399886.567    24399886.0894   24399889.5154
        39.100          33.4004
 120192763.482 8  93483329.422 7  22476642.289    22476641.646    22476648.370
        48.000          42.100
 131901175.137 6 102780265.05544  25099915.782    25099915.2194   25099918.8194
        37.800          28.1004
 122023607.883 7  94907431.821 7  22843021.059    22843020.860    22843029.230
        44.300          42.400
 131921179.578 7                  25103716.883
        46.300
 116706141.291 8  90771488.279 7  21893769.259    21893768.927    21893776.220
        49.600          44.300
 116753393.717 8  90808258.699 7  21802862.965    21802863.820    21802870.720
        48.100          44.200
 117521704.341 7  91575483.87645  22363583.266    22363581.7824   22363582.0834
        45.100          32.3004
 25  1  1  3  5 45.0000000  0 32E34G25E03G04S31S35R06E21E13S33G12G20
                                E15R22G05G11G06G29R07R23E27E09R13E05
                                G09R24G17R12E30R14R08G19
 131792592.431 7                  25079245.504
        46.300
 115093888.010 7  89683633.71547  21901613.036    21901612.0444   21901615.7484
        44.900          42.0004
 147772482.808 6                  28120165.653
        37.500
 133749274.096 5 104220216.18842  25451646.020    25451645.6054   25451649.2784
        34.800          17.0004
 198982930.012 7                  37865185.199
        45.600
 200934302.055 7                  38236526.395
        44.000
 126854703.382 5                  23772504.511    23772504.133
        34.000
 142889571.743 6                  27190970.386
        40.700
 137950984.733 7                  26251182.068
        43.500
 202131174.996 7                  38464257.654
        45.600
 109055903.306 8  84978757.99248  20752599.113    20752598.5104   20752598.2114
        49.800          49.0004
 107451248.271 7  83728298.32846  20447267.690    20447266.4164   20447267.1604
        47.800          39.3004
 123478847.923 8                  23497205.590
        49.100
 115623196.868 7  89929291.983 7  21660076.782    21660077.017    21660082.349
        47.800          46.300
 118070560.187 7  92003079.37146  22468064.501    22468064.0684   22468065.2704
        44.500          41.6004
 108453341.069 8  84509199.66247  20637947.410    20637947.0894   20637947.5754
        49.700          42.1004
 116203380.798 7  90548235.61547  22112726.304    22112725.9114   22112729.6464
        45.900          46.0004
 131018446.405 6 102092324.16945  24931973.444    24931972.8814   24931975.4324
        40.200          31.9004
 114966725.704 8  89418629.476 7  21476733.310    21476733.304    21476740.329
        50.500          46.100
 107122247.739 8                  20025341.671    20025341.463
        50.600
 126257740.403 8                  24025993.841
        48.400
 152434786.588 5                  29007372.674
        34.400
 110686168.485 7                  20727916.911    20727916.416
        44.900
 137779100.657 6                  26218484.077
        38.400
 128215834.628 6  99908481.14745  24398653.707    24398653.2164   24398656.5684
        38.100          33.5004
 120156952.978 8  93455476.814 7  22469944.707    22469945.105    22469951.936
        48.800          42.000
 131941607.978 6 102811771.15244  25107609.758    25107609.1824   25107613.2034
        38.200          29.3004
 122088495.527 7  94957899.967 7  22855167.320    22855167.575    22855176.058
        44.300          42.200
 131958002.044 7                  25110723.303
        45.800
 116677196.108 8  90748975.383 7  21888339.610    21888339.411    21888346.320
        50.100          44.400
 116703787.523 8  90769676.128 7  21793600.026    21793600.148    21793607.092
        48.200          44.200
 117560046.512 7  91605360.86245  22370879.582    22370878.0804   22370878.4124
        45.000          32.2004
 25  1  1  3  6  0.0000000  0 32E34G25E03G04S31S35R06E21E13S33G12G20
                                E15R22G05G11G06G29R07R23E27E09R13E05
                                G09R24G17R12E30R14R08G19
 131820801.792 7                  25084613.381
        46.300
 115068909.909 7  89664170.27646  21896859.687    21896858.6904   21896862.5474
        44.900          41.9004
 147734798.383 6                  28112994.240
        36.400
 133757784.198 6 104226847.44942  25453265.923    25453265.4994   25453268.7664
        36.200          17.4004
 198982925.172 7                  37865186.755
        46.000
 200934332.056 7                  38236534.055
        44.500
 126897803.122 5                  23780582.207    23780581.117
        34.400
 142852944.741 6                  27184000.158
        40.300
 137922035.693 7                  26245673.065
        43.500
 202131157.886 7                  38464254.099
        45.500
 109066058.307 8  84986670.97348  20754531.427    20754530.8194   20754530.6454
        49.600          48.8004
 107432524.069 7  83713708.04946  20443704.619    20443703.3544   20443704.0734
        47.700          39.1004
 123477724.936 8                  23496991.763
        49.000
 115657186.019 8  89955727.980 7  21666444.077    21666444.634    21666449.654
        48.300          46.200
 118018848.869 7  91962784.86046  22458223.796    22458223.3584   22458224.8254
        45.000          41.4004
 108462109.053 8  84516031.85447  20639615.803    20639615.4774   20639616.0764
        49.200          42.0004
 116239179.473 7  90576130.67647  22119538.773    22119538.3844   22119541.9224
        46.100          45.8004
 130971786.263 6 102055965.68545  24923094.581    24923094.0184   24923096.2344
        39.900          31.3004
 114964235.932 8  89416692.988 7  21476267.988    21476267.961    21476275.074
        50.100          46.100
 107124374.238 8                  20025738.785    20025738.910
        50.700
 126256100.257 8                  24025681.582
        48.300
 152441603.940 5                  29008670.038
        32.300
 110722603.031 7                  20734739.576    20734739.446
        45.100
 137756692.449 6                  26214220.132
        38.100
 128209476.700 6  99903526.93245  24397443.220    24397442.7244   24397446.8244
        38.800          33.5004
 120121166.575 7  93427642.996 7  22463252.364    22463252.164    22463259.768
        47.800          42.100
 131982065.159 6 102843296.20044  25115307.659    25115307.0694   25115312.3084
        38.800          29.0004
 122153403.796 7  95008384.156 7  22867319.707    22867319.652    22867327.732
        45.200          42.500
 131994884.812 7                  25117742.159
        45.400
 116648422.839 8  90726596.221 7  21882942.324    21882942.225    21882948.638
        50.500          44.800
 116654280.849 7  90731170.979 7  21784354.732    21784354.992    21784361.123
        47.600          44.100
 117598446.655 7  91635283.02445  22378186.977    22378185.4754   22378185.7544
        45.100          32.1004
 25  1  1  3  6 15.0000000  0 32E34G25E03G04S31S35R06E21E13S33G12G20
                                E15R22G05G11G06G29R07R23E27E09R13E05
                                G09R24G17R12E30R14R08G19
 131849027.880 7                  25089984.671
        45.900
 115044071.233 7  89644815.47647  21892133.119    21892132.1274   21892135.8554
        44.400          42.0004
 147697111.070 6                  28105822.855
        36.000
 133766421.253 6 104233577.50543  25454908.975    25454908.5694   25454912.2444
        36.500          18.1004
 198982924.139 7                  37865186.979
        46.000
 200934365.081 7                  38236534.681
        44.100
 126941039.858 5                  23788684.162    23788684.037
        34.800
 142816373.107 6                  27177040.941
        40.500
 137893126.405 7                  26240172.131
        43.100
 202131144.507 7                  38464248.541
        45.200
 109076371.205 8  84994706.99548  20756494.205    20756493.5884   20756493.1204
        49.700          48.9004
 107413932.850 7  83699221.39646  20440166.736    20440165.4714   20440166.3224
        47.700          39.3004
 123476653.669 8                  23496788.129
        49.000
 115691199.380 7  89982182.799 7  21672814.997    21672815.681    21672821.246
        46.600          46.300
 117967209.531 7  91922546.43946  22448397.459    22448397.0174   22448398.1804
        45.200          41.6004
 108470955.242 8  84522924.98647  20641299.493    20641299.1724   20641299.4724
        49.100          42.0004
 116275009.262 7  90604049.98147  22126357.110    22126356.7214   22126360.1454
        46.100          45.9004
 130925119.649 6 102019602.16245  24914213.792    24914213.1844   24914215.6454
        40.100          31.5004
 114961945.777 8  89414911.770 7  21475839.939    21475840.509    21475847.091
        50.300          46.200
 107126558.907 8                  20026147.198    20026147.321
        50.800
 126254567.687 8                  24025390.156
        48.100
 152448523.359 5                  29009987.258
        33.400
 110759200.547 7                  20741593.937    20741593.133
        45.200
 137734358.774 6                  26209969.837
        37.600
 128203247.289 6  99898672.86245  24396257.898    24396257.3844   24396261.0984
        38.700          33.1004
 120085411.022 8  93399833.135 7  22456565.564    22456565.532    22456573.002
        48.500          42.100
 132022553.061 6 102874845.19144  25123013.106    25123012.4984   25123016.7984
        38.900          29.2004
 122218339.039 7  95058889.328 7  22879475.054    22879475.369    22879483.284
        44.800          42.500
 132031834.271 7                  25124773.257
        45.600
 116619828.474 8  90704356.177 7  21877577.105    21877577.857    21877584.073
        50.100          44.500
 116604881.290 8  90692749.137 7  21775129.241    21775130.200    21775137.261
        48.000          44.500
 117636911.349 7  91665255.48445  22385506.721    22385505.2324   22385505.4204
        44.900          32.2004
 25  1  1  3  6 30.0000000  0 32E34G25E03G04S31S35R06E21E13S33G12G20
                                E15R22G05G11G06G29R07R23E27E09R13E05
                                G09R24G17R12E30R14R08G19
 131877266.961 7                  25095358.260
        46.100
 115019368.542 7  89625566.63947  21887432.860    21887431.8904   21887435.0354
        44.600          42.0004
 147659417.496 6                  28098650.020
        36.700
 133775181.915 5 104240404.00642  25456575.490    25456575.0934   25456579.0904
        35.100          17.2004
 198982922.653 7                  37865184.318
        46.100
 200934397.104 7                  38236547.519
        44.500
 126984409.903 5                  23796811.695    23796811.779
        35.000
 142779853.444 6                  27170091.504
        41.000
 137864253.173 7                  26234677.769
        43.200
 202131130.325 7                  38464249.945
        45.700
 109086838.296 8  85002863.16748  20758485.842    20758485.2164   20758484.9374
        49.500          49.0004
 107395471.128 7  83684835.65146  20436653.777    20436652.5124   20436653.1384
        47.900          39.4004
 123475630.379 8                  23496593.256
        48.800
 115725233.207 7  90008653.533 7  21679191.002    21679191.477    21679197.047
        47.000          46.300
 117915638.775 7  91882361.44946  22438583.632    22438583.1994   22438584.6054
        44.400          41.6004
 108479875.816 8  84529876.08447  20642996.900    20642996.5794   20642997.0024
        49.400          42.1004
 116310866.305 7  90631990.53047  22133180.172    22133179.7754   22133183.4694
        45.900          45.9004
 130878443.089 6 101983230.88345  24905331.665    24905331.0624   24905333.1564
        40.100          31.6004
 114959851.728 8  89413283.066 7  21475448.858    21475449.229    21475455.940
        49.800          46.200
 107128797.829 8                  20026565.617    20026565.878
        50.900
 126253139.036 8                  24025118.047
        48.300
 152455541.131 5                  29011322.114
        32.500
 110795956.804 7                  20748476.439    20748476.275
        44.900
 137712096.141 6                  26205733.735
        36.800
 128197142.900 6  99893916.19945  24395096.306    24395095.7884   24395099.4424
        38.900          33.1004
 120049682.447 8  93372044.260 7  22449884.268    22449884.664    22449891.982
        48.800          42.700
 132063068.132 6 102906415.33744  25130722.910    25130722.3074   25130726.9844
        38.100          29.2004
 122283296.971 7  95109412.130 6  22891634.272    22891634.842    22891642.600
        44.500          41.900
 132068846.614 7                  25131816.406
        45.700
 116591409.493 8  90682252.545 7  21872246.705    21872247.074    21872252.866
        50.700          44.700
 116555585.404 7  90654407.948 7  21765923.793    21765924.180    21765930.901
        47.600          44.500
 117675436.928 7  91695275.38945  22392837.677    22392836.1844   22392836.5694
        44.700          32.1004
 25  1  1  3  6 45.0000000  0 32E34G25E03G04S31S35R06E21E13S33G12G20
                                E15R22G05G11G06G29R07R23E27E09R13E05
                                G09R24G17R12E30R14R08G19
 131905521.568 7                  25100735.084
        46.100
 114994804.709 7  89606426.00847  21882758.111    21882757.1414   21882760.7674
        44.400          42.1004
 147621720.553 6                  28091476.377
        36.500
 133784068.809 5 104247328.97642  25458266.454    25458266.0574   25458270.2404
        35.300          16.8004
 198982921.098 7                  37865184.399
        45.800
 200934430.800 7                  38236554.857
        44.200
 127027915.053 5                  23804965.727    23804963.914
        34.500
 142743388.581 6                  27163152.073
        40.400
 137835418.678 7                  26229190.429
        43.300
 202131116.440 7                  38464247.476
        45.500
 109097461.964 8  85011141.34548  20760507.659    20760507.0384   20760506.5624
        49.500          49.0004
 107377141.545 7  83670552.86946  20433165.759    20433164.4904   20433165.1164
        47.900          39.4004
 123474657.602 8                  23496408.276
        48.800
 115759290.058 7  90035142.185 7  21685570.671    21685571.257    21685577.086
        46.500          46.200
 117864139.589 7  91842232.23646  22428783.761    22428783.3324   22428784.6594
        44.500          41.6004
 108488873.282 8  84536887.09447  20644709.034    20644708.7084   20644709.1874
        49.200          42.1004
 116346753.078 7  90659954.23747  22140009.377    22140008.9664   22140012.4734
        46.100          45.9004
 130831759.480 6 101946854.10145  24896447.959    24896447.3514   24896449.8214
        40.300          32.3004
 114957956.001 8  89411808.614 7  21475094.884    21475095.179    21475101.770
        50.300          46.100
 107131093.739 8                  20026995.027    20026994.890
        50.700
 126251817.025 8                  24024866.710
        48.100
 152462659.966 5                  29012677.317
        31.200
 110832874.118 7                  20755390.062    20755389.636
        44.800
 137689907.439 6                  26201511.327
        37.900
 128191166.260 6  99889259.08945  24393959.414    24393958.8914   24393962.3844
        38.400          33.5004
 120013983.672 8  93344278.571 6  22443208.790    22443208.952    22443214.875
        48.800          41.800
 132103613.009 6 102938008.70944  25138438.626    25138438.0184   25138441.9064
        38.000          28.6004
 122348279.660 7  95159954.209 7  22903800.306    22903800.754    22903808.588
        45.500          42.500
 132105924.300 7                  25138872.256
        45.600
 116563169.016 8  90660287.775 7  21866948.070    21866948.224    21866954.950
        50.000          44.700
 116506396.735 8  90616150.131 7  21756737.779    21756738.528    21756745.437
        48.500          44.400
 117714025.818 7  91725344.62445  22400181.145    22400179.6564   22400179.7924
        44.500          32.0004
 25  1  1  3  7  0.0000000  0 32E34G25E03G04S31S35R06E21E13S33G12G20
                                E15R22G05G11G06G29R07R23E27E09R13E05
                                G09R24G17R12E30R14R08G19
 131933790.765 7                  25106114.647
        45.600
 114970379.112 7  89587393.08847  21878110.318    21878109.3624   21878112.7574
        45.300          42.1004
 147584019.693 6                  28084302.282
        36.800
 133793080.792 5 104254351.35542  25459981.599    25459981.2194   25459985.3004
        35.900          17.1004
 198982921.694 7                  37865187.350
        46.200
 200934465.546 7                  38236557.124
        44.100
 127071554.359 5                  23813143.017    23813142.427
        34.100
 142706977.930 6                  27156223.632
        40.800
 137806622.028 7                  26223710.801
        43.200
 202131104.443 7                  38464244.990
        45.500
 109108241.288 8  85019540.81548  20762558.604    20762557.9874   20762557.7714
        49.900          49.0004
 107358943.388 7  83656372.49646  20429702.472    20429701.2034   20429702.0864
        47.900          39.6004
 123473734.423 8                  23496232.455
        48.900
 115793369.146 7  90061648.130 7  21691955.875    21691956.046    21691961.012
        47.400          46.000
 117812711.269 7  91802158.23946  22418997.261    22418996.8054   22418998.2144
        44.900          41.7004
 108497946.679 8  84543957.27147  20646435.876    20646435.5554   20646435.7744
        49.200          42.1004
 116382668.641 7  90687940.38247  22146843.732    22146843.3264   22146846.9464
        45.900          45.9004
 130785067.843 6 101910471.07845  24887562.928    24887562.2984   24887565.3604
        40.300          32.3004
 114956258.295 8  89410488.192 7  21474777.187    21474778.025    21474784.906
        50.000          46.300
 107133445.313 8                  20027434.538    20027434.804
        51.000
 126250600.850 8                  24024635.352
        48.200
 152469879.024 5                  29014051.044
        33.700
 110869951.209 7                  20762333.168    20762333.140
        44.800
 137667791.979 6                  26197302.830
        37.100
 128185316.769 6  99884701.06145  24392845.495    24392844.9594   24392849.0624
        38.300          33.1004
 119978313.946 8  93316535.491 7  22436537.843    22436539.133    22436544.806
        49.300          42.100
 132144186.835 6 102969624.65544  25146159.609    25146158.9924   25146162.4534
        38.700          28.6004
 122413285.915 7  95210514.638 7  22915967.933    22915968.777    22915977.989
        44.000          42.500
 132143066.323 7                  25145939.794
        45.400
 116535106.494 8  90638461.408 7  21861683.536    21861684.208    21861690.388
        50.100          44.700
 116457314.789 8  90577975.329 7  21747572.111    21747572.686    21747579.850
        48.400          44.600
 117752677.149 7  91755462.52045  22407535.976    22407534.5014   22407534.9494
        44.700          32.0004
 25  1  1  3  7 15.0000000  0 32E34G25E03G04S31S35R06E21E13S33G12G20
                                E15R22G05G11G06G29R07R23E27E09R13E05
                                G09R24G17R12E30R14R08G19
 131962069.270 7                  25111495.818
        45.500
 114946086.775 7  89568464.00647  21873487.150    21873486.1804   21873490.0744
        44.600          42.2004
 147546309.983 6                  28077126.600
        36.200
 133802212.775 5 104261467.32043  25461719.689    25461719.2784   25461722.6554
        34.500          18.6004
 198982918.490 7                  37865183.907
        46.400
 200934495.762 7                  38236562.512
        44.300
 127115321.905 5                  23821344.021    23821344.277
        33.900
 142670616.525 6                  27149304.161
        40.600
 137777858.049 7                  26218236.982
        43.000
 202131088.450 7                  38464240.948
        45.700
 109119171.118 8  85028057.56348  20764638.385    20764637.7644   20764637.6574
        49.300          49.0004
 107340871.517 7  83642290.52546  20426263.666    20426262.3924   20426263.1584
        47.600          39.5004
 123472855.554 8                  23496065.173
        48.700
 115827465.069 7  90088167.171 7  21698342.810    21698343.575    21698348.747
        47.500          46.000
 117761349.409 7  91762136.03546  22409223.392    22409222.9364   22409224.2624
        44.600          41.7004
 108507090.675 8  84551082.46147  20648175.903    20648175.5864   20648175.8264
        49.100          42.1004
 116418607.602 7  90715944.75847  22153682.935    22153682.5294   22153685.8814
        46.000          45.8004
 130738362.989 6 101874077.75045  24878675.199    24878674.5654   24878677.2234
        39.800          31.7004
 114954753.368 8  89409317.709 7  21474496.357    21474496.385    21474503.270
        49.900          46.200
 107135847.454 8                  20027883.484    20027883.634
        50.600
 126249485.401 7                  24024422.725
        47.900
 152477192.976 5                  29015442.086
        33.500
 110907182.067 7                  20769305.833    20769305.477
        45.000
 137645744.838 6                  26193107.472
        37.900
 128179589.305 6  99880238.12645  24391755.115    24391754.5574   24391758.8764
        38.300          33.1004
 119942667.857 8  93288810.795 7  22429871.930    22429872.226    22429879.406
        48.800          42.200
 132184784.229 6 103001258.97044  25153884.798    25153884.1864   25153888.2904
        38.800          29.4004
 122478309.831 7  95261088.760 7  22928141.817    22928141.848    22928151.082
        44.300          43.000
 132180267.324 7                  25153019.307
        45.200
 116507217.113 8  90616769.699 7  21856451.353    21856451.837    21856458.236
        50.500          44.600
 116408334.811 8  90539879.820 7  21738425.527    21738425.812    21738432.690
        48.000          44.400
 117791385.744 7  91785625.03645  22414902.176    22414900.7144   22414900.9824
        44.600          31.9004
 25  1  1  3  7 30.0000000  0 32E34G25E03G04S31S35R06E21E13S33G12G20
                                E15R22G05G11G06G29R07R23E27E09R13E05
                                G09R24G17R12E30R14R08G19
 131990363.793 7                  25116880.066
        45.800
 114921934.757 7  89549644.26447  21868891.741    21868890.7714   21868894.0514
        44.700          42.2004
 147508598.448 6                  28069949.877
        37.100
 133811471.540 5 104268681.98742  25463481.455    25463481.0494   25463484.4564
        34.400          16.6004
 198982916.622 7                  37865184.689
        45.900
 200934528.363 7                  38236570.355
        44.000
 127159224.121 5                  23829571.019    23829572.228
        34.800
 142634311.357 6                  27142395.229
        40.700
 137749133.518 7                  26212771.171
        43.300
 202131074.307 7                  38464239.736
        45.400
 109130258.178 8  85036696.82448  20766748.572    20766747.9604   20766747.4584
        49.400          49.0004
 107322932.950 7  83628312.43346  20422850.065    20422848.7874   20422849.5624
        47.800          39.5004
 123472027.691 8                  23495907.823
        49.000
 115861584.771 7  90114704.702 7  21704734.465    21704734.812    21704740.158
        47.200          46.100
 117710060.616 7  91722170.76246  22399463.891    22399463.4404   22399464.3604
        44.900          41.8004
 108516311.938 8  84558267.86147  20649930.570    20649930.2574   20649930.5844
        49.200          42.2004
 116454576.658 7  90743972.58347  22160527.533    22160527.1274   22160530.5674
        45.500          45.8004
 130691651.942 6 101837679.58645  24869786.164    24869785.5254   24869788.1214
        40.800          32.1004
 114953448.157 8  89408302.546 7  21474252.826    21474252.641    21474259.424
        50.000          46.000
 107138307.185 8                  20028343.245    20028343.433
        51.000
 126248477.517 8                  24024231.156
        48.200
 152484608.605 5                  29016853.191
        35.400
 110944573.361 7                  20776308.041    20776307.417
        45.200
 137623773.044 6                  26188926.074
        38.100
 128173990.895 6  99875875.74945  24390691.531    24390690.9684   24390693.7044
        38.100          33.3004
 119907052.316 8  93261109.840 6  22423211.549    22423212.562    22423218.821
        49.000          41.700
 132225412.051 6 103032916.97044  25161615.823    25161615.2204   25161619.3854
        38.700          28.5004
 122543357.808 7  95311681.618 7  22940318.555    22940319.718    22940327.547
        44.900          42.400
 132217533.910 7                  25160110.941
        45.800
 116479507.869 8  90595218.097 7  21851253.239    21851253.437    21851260.145
        50.100          44.600
 116359464.394 8  90501869.505 7  21729299.195    21729300.228    21729306.743
        49.100          44.500
 117830158.423 7  91815837.48945  22422280.458    22422278.9924   22422279.0654
        44.200          31.9004
 25  1  1  3  7 45.0000000  0 32E34G25E03G04S31S35R06E21E13S33G12G20
                                E15R22G05G11G06G29R07R23E27E09R13E05
                                G09R24G17R12E30R14R08G19
 132018669.568 7                  25122266.490
        45.900
 114897918.572 7  89530930.37047  21864320.813    21864319.8484   21864323.9414
        44.800          42.1004
 147470880.644 6                  28062772.623
        37.000
 133820852.152 5 104275991.62742  25465266.052    25465265.6464   25465269.3454
        33.800          15.3004
 198982913.096 7                  37865184.779
        45.700
 200934559.819 7                  38236575.882
        44.100
 127203256.090 5                  23837821.352    23837823.333
        34.100
 142598058.012 6                  27135496.366
        40.300
 137720443.783 7                  26207311.474
        43.200
 202131058.637 7                  38464236.208
        45.500
 109141497.737 8  85045454.91848  20768887.263    20768886.6464   20768886.2714
        49.800          49.0004
 107305123.019 7  83614434.57346  20419460.798    20419459.5204   20419460.4294
        47.700          39.5004
 123471246.083 8                  23495758.885
        48.800
 115895723.463 7  90141257.006 7  21711130.260    21711130.520    21711135.714
        47.000          46.000
 117658840.787 7  91682259.22446  22389716.535    22389716.0664   22389717.5334
        44.800          41.8004
 108525605.662 8  84565509.72047  20651699.264    20651698.9514   20651699.1294
        49.100          42.1004
 116490570.945 7  90772020.07247  22167377.238    22167376.8414   22167380.0474
        46.200          45.8004
 130644930.151 6 101801273.03945  24860895.007    24860894.3554   24860897.0684
        40.800          32.0004
 114952337.934 8  89407439.032 7  21474045.435    21474045.413    21474052.365
        50.200          46.300
 107140819.763 8                  20028813.341    20028813.370
        50.900
 126247572.570 8                  24024058.814
        48.100
 152492121.103 6                  29018282.564
        36.500
 110982119.828 7                  20783339.235    20783338.811
        44.400
 137601872.052 6                  26184758.296
        37.900
 128168516.933 6  99871610.34245  24389649.185    24389648.6314   24389652.2414
        38.500          33.6004
 119871462.569 8  93233428.955 6  22416555.747    22416556.293    22416562.695
        48.800          41.400
 132266065.569 6 103064595.01744  25169351.581    25169350.9694   25169355.2884
        38.300          28.2004
 122608424.597 7  95362289.114 7  22952498.626    22952498.938    22952508.744
        42.600          42.800
 132254861.267 7                  25167213.818
        45.500
 116451974.334 8  90573803.161 7  21846088.346    21846087.975    21846094.844
        49.900          44.500
 116310699.326 8  90463941.157 7  21720192.886    21720193.420    21720200.011
        48.500          44.500
 117868990.383 7  91846096.12845  22429669.907    22429668.4504   22429668.5824
        44.500          31.8004
 25  1  1  3  8  0.0000000  0 32E34G25E03G04S31S35R06E21E13S33G12G20
                                E15R22G05G11G06G29R07R23E27E09R13E05
                                G09R24G17R12E30R14R08G19
 132046992.486 7                  25127655.958
        45.500
 114874044.443 7  89512327.15947  21859778.479    21859777.5184   21859780.8664
        44.700          42.2004
 147433162.786 6                  28055594.474
        36.700
 133830360.966 5 104283401.15842  25467075.251    25467074.8314   25467078.8234
        33.700          16.0004
 198982914.189 7                  37865183.057
        45.600
 200934594.388 7                  38236579.080
        44.000
 127247423.366 5                  23846101.659    23846100.539
        34.400
 142561862.625 6                  27128609.069
        40.200
 137691794.777 7                  26201859.684
        43.600
 202131046.538 7                  38464230.332
        45.300
 109152895.664 8  85054336.41648  20771056.096    20771055.4704   20771055.2184
        49.500          48.9004
 107287447.723 7  83600661.62546  20416097.507    20416096.2244   20416096.8844
        47.500          39.5004
 123470516.604 8                  23495620.229
        49.000
 115929887.145 7  90167828.742 7  21717530.521    21717530.207    21717535.469
        47.100          46.000
 117607696.526 7  91642406.57846  22379984.272    22379983.8074   22379985.1324
        44.900          41.9004
 108534977.677 8  84572812.59147  20653482.558    20653482.2454   20653482.5954
        49.100          42.0004
 116526596.312 7  90800091.77947  22174232.275    22174231.8734   22174235.4694
        46.100          45.7004
 130598203.796 6 101764862.94345  24852003.398    24852002.7234   24852005.2514
        39.800          31.4004
 114951428.891 8  89406731.997 7  21473875.856    21473875.813    21473882.654
        50.600          46.400
 107143390.973 8                  20029294.108    20029293.917
        51.000
 126246776.579 8                  24023907.553
        48.200
 152499736.433 5                  29019731.491
        35.300
 111019827.122 7                  20790400.763    20790400.259
        44.800
 137580048.123 6                  26180605.948
        37.400
 128163173.605 6  99867446.72045  24388632.471    24388631.9134   24388635.3724
        38.400          33.2004
 119835904.413 8  93205772.643 6  22409906.281    22409907.285    22409913.776
        48.700          41.900
 132306750.281 6 103096297.34544  25177093.964    25177093.3344   25177097.5944
        38.300          28.0004
 122673515.748 7  95412915.566 7  22964684.706    22964685.379    22964693.137
        43.900          42.200
 132292255.160 7                  25174329.959
        45.500
 116424622.845 8  90552529.793 7  21840957.009    21840957.455    21840964.037
        50.500          44.600
 116262046.209 8  90426099.869 7  21711107.154    21711107.838    21711114.837
        48.600          44.700
 117907887.661 7  91876405.66945  22437071.851    22437070.3894   22437070.7944
        44.700          31.6004
 25  1  1  3  8 15.0000000  0 32E34G25E03G04S31S35R06E21E13S33G12G20
                                E15R22G05G11G06G29R07R23E27E09R13E05
                                G09R24G17R12E30R14R08G19
 132075327.611 7                  25133048.236
        45.700
 114850307.709 7  89493831.02147  21855261.163    21855260.2114   21855263.9604
        45.000          42.0004
 147395440.418 6                  28048416.814
        36.400
 133839993.056 5 104290906.82642  25468908.392    25468907.9324   25468911.4774
        34.800          16.8004
 198982913.619 7                  37865184.788
        45.700
 200934627.513 7                  38236586.619
        43.700
 127291720.402 5                  23854402.445    23854401.959
        34.800
 142525720.641 6                  27121730.894
        40.300
 137663181.675 7                  26196415.459
        43.200
 202131033.799 7                  38464230.006
        45.200
 109164446.978 8  85063337.43948  20773254.312    20773253.6824   20773253.3654
        49.700          48.8004
 107269902.447 7  83586989.99146  20412758.607    20412757.3294   20412758.1434
        47.700          39.3004
 123469834.330 8                  23495490.302
        49.000
 115964070.918 7  90194416.124 7  21723933.906    21723933.938    21723939.762
        46.200          46.100
 117556622.993 7  91602609.03746  22370265.447    22370264.9824   22370266.1314
        44.900          41.7004
 108544423.022 8  84580172.59746  20655280.010    20655279.6974   20655279.9864
        49.200          41.9004
 116562647.791 7  90828183.83247  22181092.775    22181092.3644   22181095.8454
        46.100          45.5004
 130551468.089 6 101728445.55145  24843110.187    24843109.5084   24843111.5114
        39.800          31.2004
 114950716.110 8  89406177.627 7  21473742.397    21473742.308    21473749.543
        50.700          46.300
 107146015.974 8                  20029784.221    20029784.888
        50.800
 126246084.761 8                  24023775.790
        48.200
 152507449.902 6                  29021200.272
        36.700
 111057689.762 7                  20797490.412    20797490.392
        44.600
 137558296.619 6                  26176466.586
        37.600
 128157956.180 6  99863381.21645  24387639.020    24387638.4574   24387642.5024
        39.000          33.5004
 119800373.363 8  93178137.407 7  22403262.063    22403262.454    22403269.558
        49.400          42.100
 132347461.829 6 103128020.60844  25184841.531    25184840.8974   25184844.5774
        38.700          27.2004
 122738625.828 7  95463556.724 7  22976873.133    22976873.064    22976882.610
        43.400          42.500
 132329710.596 7                  25181457.402
        45.500
 116397448.977 8  90531394.595 7  21835859.343    21835859.617    21835865.699
        50.600          44.600
 116213500.841 7  90388342.412 7  21702041.706    21702042.106    21702048.975
        47.600          44.600
 117946845.342 7  91906762.27645  22444484.817    22444483.3554   22444484.1504
        44.600          31.4004
 25  1  1  3  8 30.0000000  0 32E34G25E03G04S31S35R06E21E13S33G12G20
                                E15R22G05G11G06G29R07R23E27E09R13E05
                                G09R24G17R12E30R14R08G19
 132103672.126 7                  25138441.851
        45.700
 114826705.910 7  89475440.01646  21850769.924    21850768.9814   21850772.6494
        44.300          41.9004
 147357710.958 6                  28041236.852
        36.200
 133849745.025 5 104298505.75942  25470764.488    25470764.0374   25470767.2184
        32.900          13.5004
 198982908.955 7                  37865181.881
        46.000
 200934657.986 7                  38236593.854
        44.200
 127336144.163 5                  23862726.285    23862726.345
        34.200
 142489629.500 6                  27114863.498
        40.400
 137634601.764 7                  26190976.438
        43.600
 202131016.811 7                  38464234.129
        45.700
 109176148.943 8  85072455.85048  20775481.229    20775480.5954   20775480.1714
        49.400          48.7004
 107252484.407 7  83573417.50346  20409443.894    20409442.6164   20409443.6424
        47.400          39.2004
 123469196.452 8                  23495368.993
        49.200
 115998271.864 7  90221016.849 7  21730340.863    21730340.946    21730346.529
        46.600          45.900
 117505617.624 7  91562864.60846  22360559.380    22360558.9154   22360560.1804
        44.800          41.7004
 108553938.842 8  84587587.51946  20657090.740    20657090.4364   20657090.7744
        49.300          41.8004
 116598722.479 7  90856293.97147  22187957.580    22187957.1564   22187960.6094
        46.100          45.4004
 130504720.529 6 101692018.92345  24834214.872    24834214.2334   24834215.5674
        40.600          31.9004
 114950197.092 8  89405773.946 7  21473644.852    21473645.475    21473652.500
        50.200          46.200
 107148691.777 8                  20030284.442    20030284.744
        50.800
 126245494.449 8                  24023663.460
        48.500
 152515258.742 6                  29022686.144
        38.500
 111095704.616 7                  20804610.117    20804609.546
        44.400
 137536615.007 6                  26172340.696
        38.100
 128152862.074 6  99859411.79445  24386669.623    24386669.0604   24386673.0414
        39.000          33.3004
 119764866.394 8  93150520.895 6  22396622.199    22396622.582    22396629.060
        49.600          41.800
 132388197.237 6 103159762.43544  25192593.135    25192592.4744   25192596.4524
        37.600          27.1004
 122803751.623 7  95514210.090 7  22989065.144    22989065.390    22989074.239
        44.500          42.900
 132367224.672 7                  25188596.073
        45.500
 116370450.157 8  90510395.551 7  21830794.691    21830794.396    21830801.063
        50.300          44.600
 116165060.901 8  90350666.926 7  21692996.366    21692996.108    21693003.460
        48.300          44.900
 117985860.561 7  91937163.72045  22451909.472    22451908.0194   22451908.3454
        44.300          31.0004
 25  1  1  3  8 45.0000000  0 32E34G25E03G04S31S35R06E21E13S33G12G20
                                E15R22G05G11G06G29R07R23E27E09R13E05
                                G09R24G17R12E30R14R08G19
 132132032.890 7                  25143838.922
        45.700
 114803246.179 7  89457159.71647  21846306.090    21846305.1514   21846308.3334
        44.500          42.0004
 147319981.689 6                  28034057.435
        36.300
 133859624.758 5 104306204.35042  25472643.624    25472643.1824   25472647.1294
        33.200          13.0004
 198982908.930 7                  37865183.106
        46.200
 200934691.002 7                  38236600.794
        44.200
 127380701.637 5                  23871077.934    23871076.930
        34.900
 142453596.413 6                  27108006.480
        40.600
 137606061.946 7                  26185545.202
        43.600
 202131002.840 7                  38464225.118
        45.600
 109188008.364 8  85081696.95348  20777737.916    20777737.2824   20777736.9634
        49.600          48.8004
 107235200.661 7  83559949.65646  20406155.223    20406153.9494   20406154.6924
        47.300          39.3004
 123468609.820 8                  23495257.399
        49.000
 116032497.154 7  90247636.493 7  21736752.621    21736753.056    21736758.214
        47.800          45.900
 117454687.688 7  91523178.97146  22350867.876    22350867.4294   22350868.4744
        44.600          41.9004
 108563531.944 8  84595062.66546  20658916.313    20658916.0094   20658916.2784
        49.300          41.9004
 116634827.215 7  90884427.52747  22194827.885    22194827.4474   22194831.0694
        46.400          45.4004
 130457968.105 6 101655588.49545  24825317.696    24825317.0624   24825318.8584
        40.000          31.9004
 114949878.757 8  89405526.348 7  21473586.288    21473586.133    21473592.754
        50.100          46.300
 107151425.403 8                  20030795.507    20030795.810
        50.900
 126245012.650 8                  24023571.836
        48.400
 152523169.892 6                  29024191.227
        40.200
 111133878.215 7                  20811758.627    20811758.007
        44.200
 137515010.461 6                  26168229.245
        38.000
 128147898.402 6  99855544.01245  24385725.576    24385725.0004   24385728.6344
        37.700          33.1004
 119729390.510 8  93122928.575 6  22389987.648    22389987.763    22389994.733
        48.600          41.700
 132428963.469 6 103191528.30144  25200350.695    25200350.0784   25200353.6894
        39.100          27.4004
 122868899.557 7  95564880.697 7  23001260.367    23001260.510    23001269.467
        43.900          42.500
 132404804.150 7                  25195747.555
        45.800
 116343633.695 8  90489538.322 7  21825764.157    21825764.040    21825770.859
        50.900          44.900
 116116734.050 7  90313079.402 7  21683970.710    21683971.430    21683978.411
        47.900          44.500
 118024940.257 7  91967615.40045  22459346.007    22459344.5544   22459344.9794
        43.600          31.0004
 25  1  1  3  9  0.0000000  0 32E34G25E03G04S31S35R06E21E13S33G12G20
                                E15R22G05G11G06G29R07R23E27E09R13E05
                                G09R24G17R12E30R14R08G19
 132160403.672 7                  25149237.652
        45.700
 114779922.608 7  89438985.51747  21841867.314    21841866.3754   21841869.9614
        44.400          42.1004
 147282246.664 6                  28026876.635
        36.800
 133869625.936 5 104313997.75842  25474546.963    25474546.4854   25474550.3504
        34.200          14.5004
 198982904.596 7                  37865180.464
        45.900
 200934721.103 7                  38236605.131
        43.900
 127425385.505 5                  23879448.691    23879450.182
        34.300
 142417615.479 6                  27101159.362
        41.000
 137577556.096 7                  26180120.848
        43.500
 202130986.885 7                  38464221.693
        45.700
 109200018.905 8  85091055.81348  20780023.498    20780022.8724   20780022.4944
        49.400          48.7004
 107218045.037 7  83546581.64946  20402890.596    20402889.3274   20402890.0504
        47.400          39.3004
 123468068.208 8                  23495154.291
        49.100
 116066740.392 7  90274270.093 7  21743167.164    21743167.786    21743173.199
        47.300          45.800
 117403827.958 7  91483548.02646  22341189.785    22341189.3614   22341190.0724
        44.900          41.9004
 108573196.069 8  84602593.14946  20660755.219    20660754.9064   20660755.3054
        49.100          41.8004
 116670955.674 7  90912579.57147  22201702.967    22201702.5204   22201706.1224
        46.100          45.3004
 130411204.792 6 101619149.59345  24816418.910    24816418.3074   24816420.4904
        39.200          31.7004
 114949754.995 8  89405430.096 7  21473562.929    21473563.046    21473569.887
        50.100          46.300
 107154210.829 8                  20031316.408    20031316.620
        50.500
 126244633.245 8                  24023499.565
        48.400
 152531177.350 6                  29025715.173
        39.200
 111172204.020 7                  20818936.115    20818935.775
        45.000
 137493477.022 6                  26164131.462
        37.900
 128143059.155 6  99851773.18445  24384804.590    24384803.9964   24384807.8964
        37.200          33.1004
 119693939.620 8  93095355.693 6  22383358.452    22383358.198    22383365.834
        48.100          41.800
 132469754.495 6 103223313.46944  25208112.344    25208111.7144   25208116.4434
        38.700          28.0004
 122934063.073 7  95615563.418 7  23013460.245    23013460.215    23013468.590
        44.500          42.500
 132442442.741 7                  25202909.700
        45.500
 116316993.587 8  90468818.271 7  21820765.927    21820765.790    21820772.676
        50.400          44.800
 116068514.635 8  90275575.441 7  21674966.563    21674967.103    21674973.842
        48.800          44.800
 118064078.047 7  91998112.35845  22466793.955    22466792.5074   22466792.7664
        43.300          31.0004
 25  1  1  3  9 15.0000000  0 32E34G25E03G04S31S35R06E21E13S33G12G20
                                E15R22G05G11G06G29R07R23E27E09R13E05
                                G09R24G17R12E30R14R08G19
 132188787.260 7                  25154638.762
        45.200
 114756738.279 7  89420919.81747  21837455.736    21837454.7754   21837458.1964
        44.600          42.2004
 147244509.013 6                  28019695.437
        36.900
 133879750.756 5 104321887.40342  25476473.513    25476473.0934   25476476.5994
        35.000          16.8004
 198982900.689 7                  37865176.090
        45.500
 200934751.468 7                  38236609.411
        43.900
 127470197.990 5                  23887848.351    23887848.381
        34.400
 142381689.735 6                  27094323.196
        41.100
 137549087.061 7                  26174703.446
        43.400
 202130970.780 7                  38464222.569
        45.600
 109212183.404 8  85100534.63848  20782338.352    20782337.7224   20782337.3194
        49.800          48.8004
 107201020.659 7  83533315.90846  20399650.781    20399649.5164   20399650.4264
        47.300          39.3004
 123467574.395 8                  23495060.378
        48.900
 116101004.571 7  90300920.008 7  21749586.623    21749586.496    21749591.614
        47.200          45.700
 117353041.284 7  91443974.01447  22331524.690    22331524.2524   22331525.6624
        45.700          42.2004
 108582933.950 8  84610181.10747  20662608.209    20662607.8964   20662608.3634
        49.300          42.0004
 116707110.631 7  90940752.25547  22208583.093    22208582.6424   22208586.2144
        46.000          45.4004
 130364433.465 6 101582704.44545  24807518.653    24807518.0504   24807520.1954
        39.100          31.6004
 114949828.974 8  89405487.649 7  21473577.005    21473576.666    21473583.543
        50.200          46.500
 107157050.844 8                  20031847.292    20031847.509
        50.900
 126244359.170 8                  24023447.251
        48.100
 152539283.548 6                  29027257.553
        38.600
 111210684.176 7                  20826141.551    20826141.728
        44.400
 137472017.826 6                  26160048.738
        36.800
 128138347.375 6  99848101.69045  24383908.129    24383907.5444   24383911.0454
        38.300          33.3004
 119658516.511 8  93067804.424 7  22376734.211    22376734.683    22376741.308
        49.000          42.000
 132510573.008 6 103255120.02944  25215880.558    25215879.9154   25215884.5514
        38.700          27.7004
 122999244.434 7  95666260.047 7  23025660.963    23025661.189    23025671.040
        42.600          43.300
 132480143.141 7                  25210084.173
        45.400
 116290533.229 8  90448238.027 7  21815802.203    21815802.101    21815808.657
        50.000          44.600
 116020405.987 8  90238157.635 7  21665982.495    21665983.081    21665989.883
        48.500          44.600
 118103277.012 7  92028656.98145  22474253.136    22474251.6834   22474251.9204
        44.400          30.7004
 25  1  1  3  9 30.0000000  0 32E34G25E03G04S31S35R06E21E13S33G12G20
                                E15R22G05G11G06G29R07R23E27E09R13E05
                                G09R24G17R12E30R14R08G19
 132217183.500 7                  25160042.634
        45.600
 114733693.367 7  89402962.75547  21833069.906    21833068.9454   21833072.9034
        44.700          42.2004
 147206768.782 6                  28012513.874
        36.200
 133889999.533 5 104329873.63143  25478423.348    25478422.9244   25478426.9964
        35.600          18.4004
 198982897.367 7                  37865176.672
        45.800
 200934781.367 7                  38236621.506
        44.200
 127515139.585 5                  23896272.668    23896270.780
        33.900
 142345819.347 6                  27087496.954
        40.500
 137520654.811 7                  26169292.854
        43.200
 202130953.924 7                  38464219.685
        45.500
 109224501.859 8  85110133.43348  20784682.317    20784681.6784   20784681.4694
        49.700          48.8004
 107184127.451 7  83520152.37546  20396436.174    20396434.9054   20396435.7504
        47.100          39.2004
 123467128.227 8                  23494975.355
        49.000
 116135289.528 7  90327586.075 7  21756009.221    21756009.257    21756014.626
        47.400          45.800
 117302327.557 7  91404456.84247  22321874.470    22321874.0144   22321875.1944
        45.600          42.2004
 108592745.404 8  84617826.39646  20664475.266    20664474.9584   20664475.4134
        49.300          41.8004
 116743291.833 7  90968945.39347  22215468.199    22215467.7484   22215471.2614
        45.800          45.3004
 130317654.411 6 101546253.26845  24798616.801    24798616.1934   24798617.6554
        40.000          31.3004
 114950100.417 8  89405698.780 7  21473627.529    21473627.383    21473634.305
        50.100          46.300
 107159945.057 8                  20032388.219    20032388.454
        50.800
 126244190.427 8                  24023415.376
        48.300
 152547488.670 6                  29028819.166
        38.300
 111249318.435 7                  20833377.160    20833376.643
        44.400
 137450632.979 6                  26155978.748
        38.300
 128133763.112 6  99844529.54245  24383035.408    24383034.8004   24383038.7834
        38.000          33.4004
 119623121.144 8  93040274.703 7  22370114.500    22370115.282    22370121.889
        49.200          42.000
 132551419.018 6 103286948.06444  25223653.195    25223652.5834   25223656.9594
        38.100          28.0004
 123064443.087 7  95716970.060 7  23037867.822    23037867.498    23037876.038
        44.500          42.500
 132517905.111 7                  25217269.731
        45.300
 116264252.815 8  90427797.733 7  21810872.255    21810872.307    21810878.478
        50.100          44.700
 115972408.774 8  90200826.508 7  21657019.506    21657019.655    21657026.323
        48.100          44.800
 118142537.002 7  92059249.15045  22481723.739    22481722.3044   22481722.9374
        43.600          30.5004
 25  1  1  3  9 45.0000000  0 32E34G25E03G04S31S35R06E21E13S33G12G20
                                E15R22G05G11G06G29R07R23E27E09R13E05
                                G09R24G17R12E30R14R08G19
 132245597.414 7                  25165449.244
        45.900
 114710793.156 7  89385118.44547  21828712.461    21828711.4874   21828715.1234
        44.900          42.5004
 147169031.478 6                  28005332.432
        37.100
 133900377.105 5 104337960.14442  25480398.809    25480398.3984   25480401.2854
        35.000          16.9004
 198982898.641 7                  37865182.664
        46.100
 200934817.051 7                  38236625.866
        44.200
 127560214.744 5                  23904718.125    23904718.261
        35.600
 142310009.676 6                  27080682.815
        40.700
 137492264.381 7                  26163890.088
        43.500
 202130943.321 7                  38464218.558
        45.800
 109236979.220 8  85119856.04948  20787056.771    20787056.1324   20787055.8474
        49.600          48.9004
 107167370.585 7  83507095.08646  20393247.484    20393246.2194   20393247.0144
        47.400          39.4004
 123466734.725 8                  23494900.353
        49.200
 116169600.439 7  90354272.330 7  21762436.872    21762436.468    21762442.127
        47.000          45.600
 117251692.535 7  91365000.99747  22312239.006    22312238.5464   22312239.7234
        44.800          42.4004
 108602635.399 8  84625532.88347  20666357.267    20666356.9544   20666357.4344
        49.200          42.0004
 116779504.249 7  90997162.85647  22222359.144    22222358.6934   22222362.2554
        45.900          45.4004
 130270872.579 6 101509799.92945  24789713.214    24789712.6064   24789715.6474
        40.900          32.0004
 114950575.091 8  89406067.949 7  21473716.167    21473716.364    21473723.017
        50.400          46.300
 107162898.998 8                  20032940.654    20032940.704
        50.300
 126244132.127 8                  24023403.920
        48.400
 152555797.652 5                  29030400.203
        35.900
 111288111.243 7                  20840641.714    20840641.291
        44.800
 137429327.774 6                  26151924.047
        37.800
 128129311.560 6  99841060.81445  24382188.401    24382187.7894   24382191.4914
        39.000          33.8004
 119587758.568 8  93012770.494 6  22363501.317    22363501.895    22363508.543
        48.700          41.900
 132592297.579 6 103318801.46744  25231432.423    25231431.8114   25231435.9734
        38.100          27.6004
 123129663.653 7  95767697.161 7  23050076.026    23050076.820    23050085.450
        44.100          42.700
 132555733.554 7                  25224468.362
        45.700
 116238157.737 8  90407501.569 7  21805976.596    21805976.556    21805983.031
        50.400          44.900
 115924528.690 8  90163586.468 7  21648077.732    21648078.387    21648085.189
        48.200          44.800
 118181862.982 7  92089892.74345  22489207.799    22489206.3644   22489206.4974
        43.600          30.7004
 25  1  1  3 10  0.0000000  0 32E34G25E03G04S31S35R06E21E13S33G12G20
                                E15R22G05G11G06G29R07R23E27E09R13E05
                                G09R24G17R12E30R14R08G19
 132274021.351 7                  25170858.243
        45.500
 114688030.289 7  89367381.15847  21824380.741    21824379.7624   21824383.5564
        44.600          42.6004
 147131289.880 6                  27998150.056
        36.500
 133910876.053 5 104346141.26742  25482396.264    25482395.8584   25482399.1884
        35.000          16.6004
 198982897.148 7                  37865180.231
        45.800
 200934849.790 7                  38236632.162
        44.400
 127605415.106 5                  23913189.113    23913188.981
        34.700
 142274253.374 6                  27073878.147
        40.400
 137463908.270 7                  26158494.465
        43.100
 202130929.157 7                  38464211.981
        45.700
 109249607.761 8  85129696.46948  20789460.044    20789459.4104   20789458.9824
        49.000          49.0004
 107150742.617 7  83494138.23646  20390083.171    20390081.9024   20390082.7914
        47.300          39.4004
 123466386.244 8                  23494834.241
        49.200
 116203929.588 7  90380972.754 7  21768867.256    21768867.502    21768872.799
        46.300          45.500
 117201129.025 7  91325600.87847  22302617.208    22302616.7434   22302617.6954
        45.100          42.5004
 108612596.236 8  84633294.57747  20668252.798    20668252.4854   20668252.9104
        48.900          42.1004
 116815740.253 7  91025398.70347  22229254.640    22229254.1894   22229257.7694
        45.200          45.4004
 130224080.603 6 101473338.67745  24780809.699    24780809.0874   24780811.8064
        39.400          32.0004
 114951244.774 8  89406588.843 7  21473841.381    21473841.243    21473847.999
        50.100          46.100
 107165904.543 8                  20033502.331    20033502.412
        50.400
 126244176.780 8                  24023412.689
        48.300
 152564203.187 6                  29031999.332
        37.100
 111327054.650 7                  20847934.541    20847934.042
        44.300
 137408094.952 6                  26147884.029
        38.200
 128124985.419 6  99837689.81145  24381364.717    24381364.1054   24381368.0734
        38.500          33.7004
 119552421.185 8  92985285.903 6  22356893.415    22356893.843    22356900.437
        48.600          41.700
 132633201.114 6 103350674.32444  25239215.678    25239215.0664   25239219.2844
        38.800          27.4004
 123194898.123 7  95818435.070 7  23062287.445    23062288.379    23062297.327
        42.400          42.600
 132593620.746 7                  25231678.078
        45.700
 116212240.510 8  90387343.751 7  21801114.078    21801114.417    21801121.519
        50.000          45.100
 115876758.681 8  90126432.059 7  21639157.501    21639158.010    21639164.378
        48.500          44.600
 118221247.481 7  92120581.94245  22496701.968    22496700.5334   22496701.1074
        43.100          30.5004
 25  1  1  3 10 15.0000000  0 32E34G25E03G04S31S35R06E21E13S33G12G20
                                E15R22G05G11G06G29R07R23E27E09R13E05
                                G09R24G17R12E30R14R08G19
 132302453.845 7                  25176268.748
        45.600
 114665403.632 7  89349750.00647  21820075.232    21820074.2444   21820077.8804
        44.600          42.5004
 147093542.898 6                  27990967.546
        37.100
 133921495.305 5 104354416.28842  25484417.767    25484417.3344   25484419.7934
        34.900          17.0004
 198982892.401 7                  37865178.179
        45.600
 200934878.843 7                  38236640.837
        44.300
 127650738.845 5                  23921681.677    23921681.907
        33.700
 142238549.256 6                  27067083.975
        40.700
 137435585.016 7                  26153104.548
        43.700
 202130912.005 7                  38464212.083
        45.600
 109262386.040 8  85139653.56448  20791891.674    20791891.0484   20791890.6144
        49.300          48.9004
 107134242.295 7  83481280.85446  20386943.164    20386941.8904   20386942.8354
        47.500          39.2004
 123466081.283 8                  23494776.284
        49.400
 116238275.560 7  90407686.291 7  21775301.712    21775301.796    21775307.173
        47.200          45.400
 117150635.964 7  91286255.65147  22293008.623    22293008.1634   22293009.1624
        45.300          42.4004
 108622626.405 8  84641110.29046  20670161.527    20670161.2144   20670161.6004
        49.500          41.9004
 116851998.228 7  91053651.66547  22236154.437    22236153.9994   22236157.4654
        45.800          45.4004
 130177277.467 6 101436868.73345  24771903.402    24771902.7904   24771905.2104
        40.000          31.5004
 114952108.218 8  89407260.427 7  21474002.407    21474002.857    21474009.358
        50.300          46.200
 107168960.524 8                  20034073.749    20034073.670
        50.500
 126244323.047 8                  24023440.503
        48.500
 152572703.325 6                  29033616.808
        36.200
 111366146.777 7                  20855254.457    20855254.616
        44.300
 137386933.259 6                  26143856.737
        38.300
 128120783.365 6  99834415.48845  24380566.378    24380565.7614   24380568.7534
        38.600          33.6004
 119517107.569 8  92957819.769 6  22350289.422    22350290.321    22350296.459
        49.200          41.400
 132674128.197 6 103382565.52944  25247003.925    25247003.2994   25247007.0264
        38.300          27.0004
 123260144.465 7  95869182.221 7  23074503.200    23074502.755    23074511.622
        43.300          42.800
 132631565.155 7                  25238898.319
        45.800
 116186499.981 8  90367323.387 7  21796285.367    21796285.629    21796292.354
        49.600          45.100
 115829097.869 8  90089362.563 7  21630257.053    21630257.562    21630264.315
        48.800          44.900
 118260688.982 7  92151315.54145  22504207.979    22504206.5444   22504206.7434
        43.300          30.2004
 25  1  1  3 10 30.0000000  0 33E34G25E03G04S31S35R06E21E13S33G12G20
                                E15R22G05G11G06G29R07R23E27E09R13E05
                                G09R24G17R12E30R14R01R08G19
 132330902.281 7                  25181682.480
        45.400
 114642920.886 7  89332230.99347  21815796.932    21815795.9444   21815799.5124
        44.900          42.7004
 147055798.197 6                  27983784.644
        36.800
 133932241.585 5 104362790.14443  25486461.014    25486460.5904   25486464.5774
        35.300          18.0004
 198982891.135 7                  37865178.375
        45.700
 200934911.939 7                  38236641.664
        43.700
 127696193.120 5                  23930200.253    23930199.888
        34.200
 142202905.070 6                  27060301.139
        40.900
 137407302.137 7                  26147722.541
        43.400
 202130897.841 7                  38464207.205
        45.500
 109275321.470 8  85149733.11948  20794353.201    20794352.5754   20794352.1714
        49.500          48.9004
 107117877.182 7  83468528.82746  20383829.079    20383827.7964   20383828.6504
        47.400          39.4004
 123465827.266 8                  23494727.727
        48.900
 116272645.865 7  90434418.725 7  21781740.250    21781740.812    21781746.086
        47.500          45.500
 117100220.897 7  91246971.19847  22283414.645    22283414.1764   22283415.4214
        45.900          42.6004
 108632733.255 8  84648985.75946  20672084.720    20672084.4074   20672084.8584
        49.300          41.9004
 116888285.555 7  91081927.49847  22243059.917    22243059.4844   22243062.7154
        45.200          45.3004
 130130470.636 6 101400395.89545  24762996.414    24762995.8154   24762998.1594
        39.300          31.7004
 114953173.289 8  89408088.825 7  21474200.911    21474201.469    21474208.578
        50.200          46.200
 107172074.515 8                  20034656.061    20034656.028
        50.400
 126244578.462 8                  24023489.256
        48.100
 152581305.930 6                  29035254.254
        36.100
 111405394.691 7                  20862605.458    20862604.845
        44.500
 137365850.419 6                  26139844.779
        37.200
 128116713.003 6  99831243.80545  24379791.369    24379790.7614   24379794.3134
        38.500          33.8004
 119481825.136 8  92930377.878 6  22343691.437    22343692.133    22343698.392
        48.500          41.700
 132715086.090 6 103414480.74444  25254798.347    25254797.7304   25254800.8544
        39.000          27.4004
 123325409.645 7  95919944.001 7  23086720.512    23086720.869    23086729.548
        43.600          42.700
 132669574.098 7                  25246131.601
        45.200
 116160944.388 8  90347446.828 7  21791491.356    21791491.048    21791498.185
        49.300          45.200
 131653509.795 6                  24628512.610    24628510.525
        36.800
 115781554.491 8  90052384.416 7  21621378.164    21621379.205    21621385.841
        48.700          45.100
 118300194.895 7  92182099.34845  22511725.408    22511723.9784   22511724.3774
        42.600          30.2004
 25  1  1  3 10 45.0000000  0 33E34G25E03G04S31S35R06E21E13S33G12G20
                                E15R22G05G11G06G29R07R23E27E09R13E05
                                G09R24G17R12E30R14R01R08G19
 132359362.406 7                  25187098.387
        45.600
 114620578.045 7  89314820.99647  21811544.931    21811543.9524   21811547.8184
        45.200          42.8004
 147018051.914 6                  27976602.564
        38.400
 133943110.777 6 104371259.58842  25488529.737    25488529.2904   25488532.9394
        36.100          17.7004
 198982888.762 7                  37865178.036
        45.900
 200934943.666 7                  38236643.932
        44.000
 127741773.254 5                  23938740.412    23938740.883
        34.000
 142167316.823 6                  27053529.019
        40.700
 137379055.436 7                  26142347.398
        43.900
 202130882.983 7                  38464204.446
        45.500
 109288409.686 8  85159931.72648  20796843.681    20796843.0554   20796842.8074
        49.600          49.0004
 107101643.148 7  83455878.93746  20380739.851    20380738.5684   20380739.4474
        47.300          39.4004
 123465619.901 8                  23494688.302
        49.400
 116307036.319 7  90461166.844 7  21788183.102    21788183.007    21788188.201
        47.700          45.400
 117049880.232 7  91207744.71847  22273835.421    22273834.9524   22273835.9494
        45.300          42.7004
 108642912.468 8  84656917.60847  20674021.894    20674021.5774   20674021.9124
        49.200          42.0004
 116924597.911 7  91110222.83847  22249969.675    22249969.2554   22249972.7314
        45.500          45.3004
 130083656.022 6 101363917.01245  24754087.948    24754087.3764   24754089.6184
        39.500          32.0004
 114954435.812 8  89409070.804 7  21474437.043    21474437.096    21474444.357
        49.800          46.100
 107175241.930 8                  20035247.359    20035247.977
        50.100
 126244938.874 8                  24023557.809
        48.500
 152590006.846 6                  29036909.569
        39.200
 111444793.762 7                  20869983.232    20869982.567
        44.100
 137344842.413 6                  26135847.300
        38.900
 128112770.321 6  99828171.59845  24379040.768    24379040.1514   24379043.7204
        38.400          33.4004
 119446570.081 8  92902957.305 6  22337099.007    22337098.578    22337105.231
        48.400          41.800
 132756070.732 6 103446416.78344  25262596.830    25262596.2044   25262600.1864
        38.800          27.5004
 123390689.073 7  95970716.868 7  23098941.642    23098941.388    23098950.045
        43.900          42.700
 132707643.169 7                  25253375.862
        45.800
 116135569.357 8  90327710.714 7  21786731.316    21786731.028    21786737.749
        50.300          45.100
 131589387.956 4                  24616514.052    24616514.404
        29.500
 115734124.537 8  90015494.467 7  21612521.222    21612521.793    21612528.112
        48.700          44.700
 118339760.979 7  92212930.04045  22519254.737    22519253.2984   22519253.6284
        43.400          30.1004
 25  1  1  3 11  0.0000000  0 33E34G25E03G04S31S35R06E21E13S33G12G20
                                E15R22G05G11G06G29R07R23E27E09R13E05
                                G09R24G17R12E30R14R01R08G19
 132387834.362 7                  25192516.401
        45.500
 114598375.593 7  89297520.39247  21807320.155    21807319.1724   21807322.8184
        44.700          42.9004
 146980304.540 6                  27969418.223
        37.700
 133954103.377 5 104379825.29442  25490621.358    25490620.9114   25490624.7554
        35.100          17.1004
 198982886.846 7                  37865181.090
        46.100
 200934975.722 7                  38236652.495
        43.900
 127787479.162 5                  23947307.571    23947306.898
        33.300
 142131784.947 6                  27046767.230
        41.000
 137350845.161 7                  26136979.080
        43.100
 202130867.997 7                  38464201.016
        45.400
 109301650.884 8  85170249.53848  20799363.479    20799362.8624   20799362.5664
        49.500          49.0004
 107085540.452 7  83443331.38846  20377675.582    20377674.2994   20377675.2104
        47.700          39.4004
 123465459.359 8                  23494657.693
        49.300
 116341447.079 8  90487930.785 7  21794629.194    21794629.588    21794634.715
        48.200          45.800
 116999614.308 7  91168576.48347  22264270.093    22264269.6154   22264270.7734
        45.800          42.9004
 108653164.169 8  84664905.94947  20675972.944    20675972.6314   20675972.7464
        49.300          42.0004
 116960935.398 7  91138537.75847  22256884.251    22256883.8314   22256887.6174
        45.500          45.3004
 130036833.926 6 101327432.28745  24745178.019    24745177.4474   24745179.6644
        39.800          31.4004
 114955896.046 8  89410206.539 7  21474710.154    21474710.138    21474717.095
        50.700          46.200
 107178463.315 8                  20035850.075    20035850.183
        50.600
 126245404.570 8                  24023646.330
        48.500
 152598806.072 6                  29038584.209
        37.800
 111484343.367 7                  20877390.131    20877389.443
        44.700
 137323909.746 6                  26131864.191
        37.900
 128108955.667 6  99825199.15045  24378315.403    24378314.7954   24378317.7344
        39.200          33.6004
 119411342.482 8  92875558.061 6  22330510.896    22330511.677    22330518.034
        48.900          41.600
 132797081.920 6 103478373.55344  25270401.275    25270400.6674   25270404.3444
        37.500          26.8004
 123455982.422 7  96021500.590 7  23111163.112    23111163.741    23111172.702
        42.800          42.200
 132745772.475 7                  25260631.626
        45.600
 116110375.642 8  90308115.625 7  21782004.928    21782005.050    21782011.691
        50.800          45.000
 131525222.286 5                  24604509.892    24604511.402
        34.400
 115686809.185 8  89978693.704 7  21603685.203    21603686.045    21603692.919
        48.800          45.300
 118379387.421 7  92243807.75644  22526795.241    22526793.7884   22526794.2954
        42.600          29.9004
 25  1  1  3 11 15.0000000  0 33E34G25E03G04S31S35R06E21E13S33G12G20
                                E15R22G05G11G06G29R07R23E27E09R13E05
                                G09R24G17R12E30R14R01R08G19
 132416318.973 7                  25197936.734
        45.700
 114576314.583 7  89280330.00647  21803122.608    21803121.6344   21803124.7034
        45.500          43.0004
 146942557.161 6                  27962236.163
        37.500
 133965220.424 5 104388488.02742  25492737.154    25492736.7394   25492739.9854
        35.800          17.7004
 198982885.337 7                  37865183.357
        46.200
 200935008.125 7                  38236656.846
        44.000
 127833311.182 5                  23955896.211    23955895.387
        33.400
 142096310.646 6                  27040016.651
        41.100
 137322672.211 7                  26131617.961
        43.200
 202130854.010 7                  38464196.791
        45.600
 109315045.779 8  85180687.11448  20801912.515    20801911.8944   20801911.5344
        49.900          49.0004
 107069570.084 7  83430886.95246  20374636.454    20374635.1584   20374636.1484
        47.400          39.5004
 123465346.444 8                  23494636.408
        49.000
 116375879.056 8  90514711.217 7  21801079.125    21801079.756    21801084.959
        48.000          45.600
 116949424.681 7  91129467.69547  22254719.049    22254718.5714   22254719.9684
        46.100          42.9004
 108663489.122 8  84672951.36447  20677937.363    20677937.0464   20677937.4614
        49.400          42.1004
 116997298.746 7  91166872.82447  22263804.288    22263803.8734   22263807.3544
        45.800          45.3004
 129990005.449 6 101290942.59345  24736267.085    24736266.4914   24736268.6594
        39.500          31.2004
 114957554.818 8  89411496.695 7  21475019.329    21475019.870    21475026.795
        50.100          46.200
 107181739.299 8                  20036462.209    20036462.545
        50.300
 126245976.498 8                  24023755.174
        48.100
 152607704.600 6                  29040277.667
        37.100
 111524044.277 7                  20884824.148    20884824.114
        44.800
 137303053.507 6                  26127894.892
        37.900
 128105270.080 6  99822327.27345  24377613.786    24377613.1834   24377616.3784
        39.000          33.9004
 119376143.152 8  92848180.822 6  22323928.845    22323928.429    22323935.636
        48.300          41.900
 132838120.860 6 103510351.92144  25278210.806    25278210.1984   25278214.0014
        39.300          26.7004
 123521290.174 7  96072295.496 7  23123389.680    23123389.457    23123399.174
        42.200          42.700
 132783962.708 7                  25267898.683
        45.500
 116085364.565 8  90288662.583 7  21777313.065    21777312.897    21777319.645
        50.600          45.000
 131461013.928 6 102247493.902 5  24592501.418    24592500.472    24592510.996
        37.400          30.600
 115639610.035 8  89941983.265 7  21594871.616    21594871.869    21594878.993
        48.500          45.300
 118419075.114 7  92274733.19644  22534347.292    22534345.8264   22534346.6604
        42.600          29.8004
 25  1  1  3 11 30.0000000  0 33E34G25E03G04S31S35R06E21E13S33G12G20
                                E15R22G05G11G06G29R07R23E27E09R13E05
                                G09R24G17R12E30R14R01R08G19
 132444813.286 7                  25203358.979
        45.600
 114554392.407 7  89263247.80347  21798950.244    21798949.2654   21798953.0284
        45.500          43.1004
 146904807.251 6                  27955052.256
        38.000
 133976458.748 5 104397245.28742  25494875.901    25494875.5044   25494878.7174
        35.800          16.6004
 198982881.100 7                  37865174.722
        45.700
 200935037.602 7                  38236661.742
        43.600
 127879265.824 5                  23964508.524    23964508.224
        33.700
 142060891.186 6                  27033276.670
        40.900
 137294533.671 7                  26126263.277
        43.400
 202130837.638 7                  38464190.906
        45.200
 109328591.452 8  85191242.18048  20804489.928    20804489.3024   20804489.2014
        49.800          49.0004
 107053729.207 7  83418543.42046  20371622.051    20371620.7554   20371621.7114
        47.400          39.5004
 123465278.193 8                  23494623.347
        49.200
 116410329.349 8  90541505.841 7  21807533.484    21807533.622    21807538.749
        48.000          45.500
 116899308.670 7  91090416.27747  22245182.230    22245181.7574   22245183.2274
        46.100          42.9004
 108673884.329 8  84681051.52947  20679915.739    20679915.4264   20679915.6094
        49.500          42.1004
 117033685.000 7  91195225.74447  22270728.103    22270727.6884   22270731.3934
        45.700          45.3004
 129943167.863 6 101254445.79945  24727354.030    24727353.4404   24727355.1554
        40.500          31.3004
 114959409.476 8  89412939.204 7  21475365.612    21475366.036    21475373.378
        49.800          46.300
 107185067.000 8                  20037084.591    20037084.705
        50.500
 126246651.826 8                  24023883.653
        48.400
 152616699.315 6                  29041989.419
        38.500
 111563893.117 7                  20892287.043    20892286.492
        44.700
 137282270.998 6                  26123939.953
        38.300
 128101710.821 6  99819553.84045  24376936.089    24376935.4904   24376939.0924
        38.600          33.6004
 119340969.024 8  92820823.176 6  22317350.512    22317350.833    22317357.298
        48.200          41.600
 132879184.627 6 103542349.64344  25286024.617    25286023.9964   25286028.4794
        38.700          26.6004
 123586608.864 7  96123098.895 7  23135619.122    23135618.119    23135626.427
        43.800          42.500
 132822210.846 7                  25275177.365
        45.500
 116060533.456 8  90269349.508 7  21772654.517    21772654.874    21772661.444
        50.700          45.200
 131396760.118 6 102197518.883 5  24580480.034    24580480.898    24580491.087
        36.300          30.900
 115592524.377 8  89905361.117 7  21586078.535    21586078.996    21586085.579
        49.200          45.000
 118458821.131 7  92305704.09644  22541910.978    22541909.5254   22541909.9984
        42.300          29.9004
 25  1  1  3 11 45.0000000  0 33E34G25E03G04S31S35R06E21E13S33G12G20
                                E15R22G05G11G06G29R07R23E27E09R13E05
                                G09R24G17R12E30R14R01R08G19
 132473319.196 7                  25208783.412
        45.900
 114532611.217 7  89246275.45547  21794805.348    21794804.3654   21794808.1694
        45.100          43.4004
 146867057.039 6                  27947868.299
        37.400
 133987820.289 6 104406098.49642  25497038.211    25497037.8184   25497040.4884
        36.300          17.5004
 198982877.220 7                  37865176.739
        46.200
 200935067.408 7                  38236670.980
        44.200
 127925345.039 5                  23973143.652    23973143.893
        34.300
 142025528.827 6                  27026547.263
        41.400
 137266431.525 7                  26120915.529
        43.600
 202130821.236 7                  38464189.842
        45.600
 109342289.942 8  85201916.32348  20807096.551    20807095.9214   20807095.9424
        49.700          49.3004
 107038019.956 7  83406302.45546  20368632.814    20368631.5184   20368632.3374
        47.700          39.7004
 123465256.508 8                  23494619.219
        49.200
 116444799.885 7  90568316.262 7  21813990.192    21813991.209    21813996.273
        47.300          45.600
 116849268.441 7  91051423.90947  22235660.015    22235659.5464   22235660.8894
        45.500          43.2004
 108684351.639 8  84689207.87547  20681907.441    20681907.1284   20681907.4484
        50.000          42.2004
 117070095.995 7  91223597.94647  22277656.993    22277656.5784   22277660.1774
        45.600          45.6004
 129896323.209 6 101217943.49845  24718438.938    24718438.3304   24718440.8414
        39.900          31.8004
 114961461.808 8  89414535.475 7  21475749.518    21475749.755    21475756.922
        50.500          46.100
 107188448.556 8                  20037716.780    20037716.876
        50.400
 126247432.579 8                  24024032.114
        48.500
 152625792.269 6                  29043719.728
        36.200
 111603891.466 7                  20899776.803    20899776.644
        44.100
 137261564.480 6                  26119999.688
        38.100
 128098279.994 6  99816880.47545  24376283.272    24376282.6784   24376286.1284
        38.900          33.9004
 119305822.227 8  92793486.804 7  22310778.506    22310778.590    22310785.390
        48.700          42.200
 132920275.327 6 103574368.31344  25293844.240    25293843.6014   25293847.8094
        38.500          27.0004
 123651940.105 7  96173912.083 7  23147846.945    23147847.569    23147856.633
        43.100          42.600
 132860518.689 7                  25282467.017
        45.800
 116035884.203 8  90250177.893 7  21768030.922    21768030.832    21768036.914
        51.100          45.100
 131332463.241 6 102147510.439 5  24568452.210    24568451.621    24568462.708
        37.100          31.200
 115545554.873 8  89868829.334 7  21577307.236    21577307.251    21577314.348
        48.100          45.200
 118498627.423 7  92336721.94945  22549486.139    22549484.6954   22549485.0564
        42.800          30.1004
 25  1  1  3 12  0.0000000  0 33E34G25E03G04S31S35R06E21E13S33G12G20
                                E15R22G05G11G06G29R07R23E27E09R13E05
                                G09R24G17R12E30R14R01R08G19
 132501838.673 7                  25214210.585
        45.500
 114510973.268 7  89229414.72847  21790687.756    21790686.7684   21790690.5924
        45.500          43.4004
 146829308.887 6                  27940685.386
        37.200
 133999307.044 5 104415049.28943  25499223.508    25499223.1064   25499226.2884
        35.400          18.2004
 198982875.355 7                  37865172.764
        45.700
 200935099.369 7                  38236676.682
        44.000
 127971550.404 5                  23981802.194    23981802.274
        34.000
 141990225.810 6                  27019829.543
        41.200
 137238367.839 7                  26115575.531
        43.400
 202130806.260 7                  38464190.843
        45.600
 109356142.954 8  85212710.87648  20809732.799    20809732.1734   20809732.1124
        49.300          49.2004
 107022444.404 7  83394165.66846  20365668.704    20365667.4034   20365668.4164
        47.600          39.6004
 123465283.340 8                  23494624.326
        49.200
 116479292.761 7  90595144.051 7  21820452.920    21820452.578    21820457.956
        47.900          45.500
 116799306.509 7  91012492.54747  22226152.486    22226152.0214   22226153.4194
        45.800          43.2004
 108694892.986 8  84697421.91347  20683913.176    20683912.8594   20683913.3874
        49.800          42.2004
 117106533.609 7  91251990.88747  22284590.858    22284590.4434   22284594.1124
        45.900          45.4004
 129849473.722 6 101181437.42445  24709523.885    24709523.2734   24709525.5974
        40.300          31.8004
 114963714.100 8  89416287.264 7  21476170.252    21476170.512    21476177.281
        50.500          46.100
 107191885.753 8                  20038359.402    20038359.265
        50.300
 126248320.835 8                  24024201.382
        48.300
 152634985.873 5                  29045468.710
        34.500
 111644040.621 7                  20907295.674    20907295.418
        44.400
 137240936.162 6                  26116074.473
        38.500
 128094979.841 6  99814308.94645  24375655.415    24375654.8254   24375658.2014
        38.600          33.8004
 119270704.739 8  92766173.223 7  22304211.162    22304211.923    22304217.976
        48.900          42.100
 132961394.963 6 103606409.56044  25301669.432    25301668.8064   25301672.4374
        39.200          27.6004
 123717285.341 7  96224736.113 7  23160080.153    23160080.766    23160089.955
        43.000          42.700
 132898888.101 7                  25289768.251
        45.900
 116011419.467 8  90231149.787 7  21763440.778    21763441.409    21763447.571
        50.700          45.000
 131268125.871 6 102097470.317 5  24556415.709    24556415.784    24556427.278
        36.300          30.800
 115498704.249 8  89832389.990 7  21568558.122    21568558.960    21568565.180
        48.700          45.200
 118538495.948 7  92367788.30745  22557072.536    22557071.0974   22557071.7274
        43.100          30.0004
 25  1  1  3 12 15.0000000  0 33E34G25E03G04S31S35R06E21E13S33G12G20
                                E15R22G05G11G06G29R07R23E27E09R13E05
                                G09R24G17R12E30R14R01R08G19
 132530370.146 7                  25219640.104
        45.400
 114489477.298 7  89212664.63447  21786597.185    21786596.1884   21786600.0324
        45.800          43.6004
 146791561.407 6                  27933501.785
        37.100
 134010917.664 5 104424096.62242  25501433.037    25501432.6484   25501435.6144
        33.600          15.5004
 198982873.703 7                  37865177.329
        46.100
 200935131.894 7                  38236687.409
        44.500
 128017879.539 5                  23990485.402    23990484.045
        33.800
 141954980.933 6                  27013122.624
        40.600
 137210341.105 7                  26110242.112
        43.700
 202130792.126 7                  38464189.904
        45.400
 109370148.922 8  85223624.61148  20812398.233    20812397.6074   20812397.3734
        49.500          49.3004
 107007001.159 7  83382131.98146  20362730.152    20362728.8564   20362729.6354
        47.500          39.7004
 123465357.138 8                  23494638.273
        49.000
 116513806.413 8  90621988.007 7  21826917.900    21826918.688    21826923.345
        48.200          45.200
 116749421.781 7  90973621.34447  22216660.097    22216659.6284   22216660.5714
        46.000          43.3004
 108705506.749 8  84705692.38147  20685933.204    20685932.8784   20685933.1254
        49.900          42.3004
 117142996.273 7  91280403.34547  22291529.400    22291528.9804   22291532.7914
        46.000          45.5004
 129802618.343 6 101144926.76245  24700608.481    24700607.8784   24700609.3164
        38.900          31.3004
 114966164.890 8  89418193.441 7  21476628.383    21476628.263    21476635.314
        50.400          46.200
 107195377.216 8                  20039012.413    20039012.117
        50.600
 126249315.197 8                  24024390.417
        48.300
 152644278.166 6                  29047237.636
        38.100
 111684339.065 7                  20914842.479    20914842.063
        44.400
 137220384.795 6                  26112163.633
        38.100
 128091808.921 6  99811838.11445  24375052.019    24375051.4254   24375054.8454
        38.200          34.2004
 119235615.212 8  92738881.387 6  22297648.717    22297649.499    22297656.062
        48.600          41.800
 133002541.864 6 103638472.02144  25309498.907    25309498.2774   25309502.8974
        39.500          28.5004
 123782642.525 7  96275569.475 6  23172315.843    23172315.501    23172323.835
        43.200          41.700
 132937317.450 7                  25297081.207
        45.300
 115987137.989 8  90212264.215 7  21758885.752    21758886.002    21758892.634
        50.700          45.100
 131203746.769 6                  24544373.126    24544372.881
        36.000
 115451971.555 8  89796042.379 7  21559831.105    21559831.300    21559838.111
        48.200          45.100
 118578425.124 7  92398901.92244  22564670.926    22564669.4644   22564669.9404
        42.800          29.9004
 25  1  1  3 12 30.0000000  0 33E34G25E03G04S31S35R06E21E13S33G12G20
                                E15R22G05G11G06G29R07R23E27E09R13E05
                                G09R24G17R12E30R14R01R08G19
 132558915.395 7                  25225071.882
        45.800
 114468125.323 7  89196026.74347  21782534.073    21782533.0764   21782536.8304
        45.700          43.6004
 146753816.762 6                  27926319.631
        37.400
 134022653.973 5 104433241.95942  25503667.025    25503666.5924   25503668.7654
        35.200          14.5004
 198982873.650 7                  37865176.019
        45.400
 200935165.516 7                  38236688.809
        44.000
 128064334.263 5                  23999190.905    23999189.820
        33.500
 141919796.199 6                  27006427.142
        40.900
 137182353.175 7                  26104915.907
        43.600
 202130779.985 7                  38464178.385
        45.300
 109384309.604 8  85234658.90348  20815092.911    20815092.2854   20815092.0894
        49.700          49.3004
 106991692.139 7  83370202.88146  20359816.982    20359815.6954   20359816.3774
        47.200          39.6004
 123465479.642 8                  23494661.503
        49.000
 116548342.794 8  90648849.619 7  21833388.185    21833388.320    21833393.121
        48.200          45.600
 116699616.349 7  90934811.93347  22207182.305    22207181.8454   22207182.9404
        46.100          43.3004
 108716194.628 8  84714020.59847  20687966.818    20687966.4924   20687966.9264
        49.800          42.2004
 117179485.664 7  91308836.62647  22298473.486    22298473.0664   22298476.4704
        45.400          45.4004
 129755758.609 6 101108412.70945  24691691.271    24691690.6774   24691692.5974
        38.500          31.4004
 114968816.065 8  89420255.478 7  21477123.450    21477123.585    21477130.600
        50.100          46.500
 107198924.677 8                  20039675.026    20039675.129
        50.300
 126250417.499 8                  24024600.307
        48.300
 152653671.239 7                  29049024.593
        42.300
 111724787.734 7                  20922417.009    20922416.581
        44.500
 137199912.409 6                  26108267.854
        37.900
 128088769.255 6  99809469.55345  24374474.290    24374473.6964   24374476.7404
        38.300          34.1004
 119200555.526 8  92711612.762 6  22291092.171    22291092.415    22291099.076
        48.300          41.600
 133043717.849 6 103670557.14444  25317334.622    25317334.0054   25317338.3064
        39.000          27.7004
 123848013.203 7  96326413.337 7  23184552.900    23184553.634    23184562.519
        43.800          42.500
 132975808.382 7                  25304405.906
        45.700
 115963041.837 8  90193522.779 7  21754365.755    21754365.822    21754371.980
        50.600          45.000
 131139328.274 6                  24532320.765    24532321.586
        37.700
 115405359.228 8  89759788.374 7  21551126.541    21551127.082    21551133.664
        49.000          45.200
 118618416.834 6  92430064.26344  22572280.992    22572279.5264   22572280.3864
        41.900          29.9004
 25  1  1  3 12 45.0000000  0 33E34G25E03G04S31S35R06E21E13S33G12G20
                                E15R22G05G11G06G29R07R23E27E09R13E05
                                G09R24G17R12E30R14R01R08G19
 132587470.198 7                  25230505.459
        45.700
 114446913.470 7  89179498.04447  21778497.995    21778497.0124   21778500.3544
        45.700          43.8004
 146716071.182 6                  27919136.860
        37.400
 134034511.475 6 104442481.70642  25505922.494    25505922.0384   25505925.2314
        36.800          16.9004
 198982872.410 7                  37865175.916
        45.600
 200935197.985 7                  38236696.370
        43.700
 128110910.219 5                  24007916.515    24007917.636
        32.600
 141884667.745 6                  26999742.418
        41.000
 137154399.906 7                  26099596.500
        43.300
 202130765.248 7                  38464178.493
        45.500
 109398620.828 8  85245810.50448  20817816.092    20817815.4584   20817815.4554
        49.600          49.3004
 106976513.180 7  83358375.13046  20356928.642    20356927.3594   20356927.9284
        47.400          39.8004
 123465646.666 8                  23494693.360
        48.900
 116582897.523 8  90675725.493 7  21839861.261    21839861.473    21839866.859
        48.400          45.400
 116649886.316 7  90896061.27647  22197718.817    22197718.3614   22197719.5924
        46.200          43.3004
 108726952.397 8  84722403.27747  20690014.029    20690013.6994   20690014.0754
        50.200          42.2004
 117215997.537 7  91337287.42647  22305421.328    22305420.9134   22305424.4144
        45.300          45.4004
 129708890.521 6 101071892.16045  24682772.519    24682771.9164   24682774.3254
        40.200          32.1004
 114971663.525 8  89422470.166 7  21477655.280    21477655.726    21477662.223
        50.100          46.200
 107202524.071 8                  20040348.057    20040348.032
        50.600
 126251623.685 8                  24024829.792
        48.100
 152663160.425 6                  29050830.542
        40.000
 111765382.089 7                  20930019.192    20930019.233
        44.600
 137179515.098 6                  26104386.614
        38.000
 128085856.796 6  99807200.11145  24373919.551    24373918.9614   24373922.4294
        38.300          33.8004
 119165521.391 8  92684364.012 6  22284541.179    22284541.260    22284547.845
        48.400          41.600
 133084918.734 6 103702661.65844  25325175.113    25325174.5144   25325179.0014
        39.000          27.9004
 123913392.575 7  96377263.928 7  23196791.785    23196792.595    23196801.627
        42.800          42.800
 133014356.600 7                  25311741.601
        45.500
 115939127.133 8  90174922.472 7  21749879.223    21749879.157    21749885.364
        50.500          45.100
 131074866.654 5 101947156.005 5  24520261.798    24520262.599    24520273.838
        34.600          30.400
 115358863.523 8  89723625.078 7  21542443.756    21542444.371    21542451.101
        48.800          45.400
 118658466.809 7  92461272.00644  22579902.216    22579900.7544   22579901.7934
        42.300          29.8004
 25  1  1  3 13  0.0000000  0 33E34G25E03G04S31S35R06E21E13S33G12G20
                                E15R22G05G11G06G29R07R23E27E09R13E05
                                G09R24G17R12E30R14R01R08G19
 132616036.620 7                  25235941.608
        46.100
 114425844.010 7  89163080.29247  21774488.365    21774487.3734   21774491.0574
        45.500          44.1004
 146678327.086 6                  27911954.485
        38.400
 134046492.615 6 104451817.81643  25508202.028    25508201.5504   25508205.1234
        36.200          19.3004
 198982871.078 7                  37865177.655
        46.000
 200935231.184 7                  38236699.845
        44.000
 128157608.735 5                  24016669.033    24016669.885
        33.500
 141849597.896 6                  26993068.720
        41.600
 137126483.412 7                  26094284.410
        44.000
 202130751.036 7                  38464174.625
        45.600
 109413084.604 8  85257080.97648  20820568.703    20820568.0694   20820567.8504
        49.300          49.5004
 106961466.487 7  83346650.44346  20354065.232    20354063.9494   20354064.6274
        47.100          40.0004
 123465860.205 8                  23494734.116
        49.200
 116617472.846 8  90702617.425 7  21846338.289    21846338.663    21846343.969
        48.200          45.600
 116600234.006 7  90857371.18047  22188270.069    22188269.6134   22188271.0674
        45.900          43.6004
 108737782.028 8  84730841.95547  20692074.821    20692074.4954   20692074.9074
        49.600          42.5004
 117252533.865 7  91365757.28547  22312373.782    22312373.3714   22312377.0904
        45.800          45.6004
 129662016.454 6 101035366.94145  24673852.417    24673851.8054   24673854.1944
        39.200          32.3004
 114974709.657 8  89424839.416 7  21478224.612    21478224.490    21478231.411
        49.400          46.200
 107206177.405 8                  20041030.660    20041030.970
        50.200
 126252935.887 8                  24025079.461
        48.600
 152672748.083 6                  29052654.640
        37.000
 111806124.044 7                  20937649.201    20937648.394
        44.100
 137159195.194 6                  26100519.694
        38.300
 128083073.841 6  99805031.57345  24373390.200    24373389.6104   24373392.7384
        39.600          34.4004
 119130514.884 8  92657136.745 6  22277994.743    22277995.341    22278001.407
        48.800          41.600
 133126146.566 6 103734787.19044  25333020.784    25333020.1814   25333024.5034
        39.300          28.7004
 123978782.299 7  96428122.606 6  23209033.231    23209032.709    23209041.929
        42.300          41.400
 133052964.087 7                  25319088.180
        45.900
 115915396.311 8  90156465.178 7  21745427.165    21745427.143    21745433.864
        50.400          45.200
 131010364.298 6 101896987.636 5  24508195.362    24508195.885    24508206.995
        36.800          32.100
 115312487.120 8  89687554.599 7  21533783.815    21533783.719    21533790.127
        48.300          45.400
 118698577.212 7  92492526.83945  22587535.091    22587533.6384   22587534.4064
        42.500          30.2004
 25  1  1  3 13 15.0000000  0 33E34G25E03G04S31S35R06E21E13S33G12G20
                                E15R22G05G11G06G29R07R23E27E09R13E05
                                G09R24G17R12E30R14R01R08G19
 132644610.552 7                  25241379.033
        45.500
 114404913.186 7  89146770.57547  21770505.713    21770504.7394   21770508.1024
        45.300          44.1004
 146640580.573 6                  27904771.161
        37.200
 134058593.079 5 104461246.95842  25510504.403    25510503.9344   25510507.6694
        33.500          16.2004
 198982865.456 7                  37865168.833
        45.500
 200935259.642 7                  38236710.232
        44.300
 128204425.191 5                  24025442.997    24025442.546
        33.700
 141814582.862 6                  26986405.387
        41.400
 137098599.689 7                  26088978.068
        43.500
 202130734.521 7                  38464166.446
        45.400
 109427696.803 8  85268467.10148  20823349.065    20823348.4314   20823348.4754
        49.200          49.6004
 106946548.113 7  83335025.74546  20351226.519    20351225.2364   20351225.7464
        47.200          40.0004
 123466116.198 8                  23494782.786
        49.100
 116652064.671 8  90729522.153 7  21852819.122    21852818.808    21852823.667
        48.500          45.400
 116550656.001 7  90818738.98647  22178835.735    22178835.2754   22178836.7444
        45.500          43.5004
 108748679.394 8  84739333.41147  20694148.675    20694148.3494   20694148.6184
        49.400          42.4004
 117289090.568 7  91394243.01647  22319330.469    22319330.0544   22319333.6604
        44.900          45.5004
 129615132.442 6 100998833.96745  24664930.793    24664930.1904   24664932.2074
        39.800          32.1004
 114977949.903 8  89427359.594 7  21478829.801    21478829.724    21478836.922
        49.500          46.200
 107209880.499 8                  20041722.984    20041723.324
        50.400
 126254350.176 8                  24025348.485
        48.300
 152682430.219 5                  29054496.942
        35.300
 111847008.917 7                  20945305.330    20945304.464
        43.700
 137138948.889 6                  26096667.078
        38.600
 128080416.487 6  99802960.90845  24372883.765    24372883.1714   24372887.0654
        38.400          34.3004
 119095532.012 8  92629927.863 6  22271452.368    22271452.861    22271459.567
        48.800          41.700
 133167397.121 6 103766930.45544  25340869.655    25340869.0614   25340873.8964
        38.100          27.5004
 124044177.841 7  96478985.762 7  23221275.881    23221275.886    23221284.306
        43.400          42.100
 133091626.597 7                  25326445.577
        45.500
 115891845.398 8  90138147.815 7  21741009.003    21741008.885    21741016.013
        50.200          45.200
 130945817.943 6 101846785.013 5  24496120.604    24496121.185    24496131.861
        37.300          32.100
 115266226.734 8  89651574.303 7  21525144.828    21525145.036    21525151.753
        48.700          45.400
 118738743.772 7  92523825.43045  22595178.655    22595177.1934   22595177.9604
        42.200          30.1004
 25  1  1  3 13 30.0000000  0 33E34G25E03G04S31S35R06E21E13S33G12G20
                                E15R22G05G11G06G29R07R23E27E09R13E05
                                G09R24G17R12E30R14R01R08G19
 132673201.802 7                  25246819.831
        45.500
 114384131.044 7  89130576.71447  21766550.716    21766549.7424   21766553.3824
        45.800          44.2004
 146602841.970 6                  27897589.919
        37.600
 134070822.761 5 104470776.73842  25512832.222    25512831.7174   25512834.7954
        34.800          16.8004
 198982866.902 7                  37865174.597
        45.800
 200935294.689 7                  38236717.651
        44.300
 128251369.284 5                  24034239.733    24034239.860
        33.100
 141779632.770 6                  26979754.847
        41.900
 137070758.594 7                  26083680.324
        42.800
 202130722.233 7                  38464171.101
        45.400
 109442467.153 8  85279976.46148  20826159.923    20826159.2894   20826159.1854
        49.300          49.5004
 106931768.036 7  83323508.81046  20348413.705    20348412.4224   20348413.1274
        47.400          39.9004
 123466424.440 8                  23494841.450
        49.000
 116686682.976 8  90756447.486 7  21859304.001    21859304.056    21859309.201
        48.400          45.800
 116501162.355 7  90780172.52547  22169417.763    22169417.3034   22169418.3404
        45.900          43.5004
 108759654.257 8  84747885.25547  20696237.192    20696236.8714   20696237.0764
        49.800          42.4004
 117325677.324 7  91422752.16247  22326292.725    22326292.3144   22326295.8514
        44.800          45.4004
 129568248.603 6 100962301.14445  24656008.839    24656008.2314   24656010.4354
        40.100          31.9004
 114981394.581 8  89430038.784 7  21479473.561    21479473.333    21479480.322
        49.800          46.300
 107213643.197 8                  20042426.561    20042426.577
        50.400
 126255876.449 8                  24025639.064
        48.400
 152692216.817 5                  29056359.529
        34.500
 111888046.227 7                  20952990.328    20952989.681
        43.300
 137118786.267 6                  26092830.061
        38.000
 128077894.730 6  99800995.91745  24372403.899    24372403.3004   24372407.2334
        38.900          34.2004
 119060582.916 8  92602745.240 6  22264916.761    22264917.830    22264923.535
        49.400          41.500
 133208680.567 6 103799099.34244  25348726.255    25348725.6744   25348730.2064
        38.500          27.4004
 124109588.674 7  96529860.859 7  23233520.871    23233520.977    23233530.032
        43.400          42.300
 133130353.872 7                  25333815.041
        45.400
 115868484.761 8  90119978.445 7  21736626.814    21736626.757    21736633.411
        50.600          44.900
 130881237.640 6 101796555.978 5  24484039.900    24484039.594    24484050.968
        37.300          32.500
 115220092.932 8  89615692.495 7  21516529.366    21516529.892    21516536.269
        49.500          45.600
 118778976.411 7  92555175.50445  22602834.341    22602832.8794   22602834.1164
        42.700          30.0004
 25  1  1  3 13 45.0000000  0 33E34G25E03G04S31S35R06E21E13S33G12G20
                                E15R22G05G11G06G29R07R23E27E09R13E05
                                G09R24G17R12E30R14R01R08G19
 132701798.165 7                  25252261.651
        45.700
 114363485.641 7  89114489.40247  21762621.942    21762620.9684   21762624.6634
        46.200          44.3004
 146565099.274 6                  27890407.734
        37.900
 134083169.429 5 104480397.59842  25515181.302    25515180.7704   25515184.1104
        34.000          16.2004
 198982861.748 7                  37865176.207
        45.900
 200935323.502 7                  38236717.771
        44.200
 128298428.251 5                  24043059.926    24043060.002
        34.300
 141744735.684 6                  26973114.024
        41.100
 137042948.002 7                  26078388.411
        43.700
 202130703.851 7                  38464169.004
        45.900
 109457383.464 8  85291599.55548  20828998.211    20828997.5774   20828997.7004
        49.600          49.5004
 106917114.204 7  83312090.25346  20345625.308    20345624.0254   20345624.5384
        47.600          39.9004
 123466772.696 8                  23494907.522
        49.000
 116721315.441 7  90783383.842 7  21865791.616    21865791.938    21865796.953
        47.800          45.300
 116451741.684 7  90741662.92647  22160012.928    22160012.4634   22160013.8294
        45.700          43.5004
 108770694.352 8  84756487.92947  20698338.047    20698337.7214   20698337.9294
        49.900          42.3004
 117362281.886 7  91451275.18647  22333258.363    22333257.9574   22333261.4284
        45.400          45.4004
 129521352.955 6 100925759.11445  24647084.920    24647084.3034   24647086.3374
        39.500          31.7004
 114985031.481 8  89432867.486 7  21480152.629    21480152.949    21480159.794
        50.100          46.100
 107217453.461 8                  20043139.124    20043138.848
        50.100
 126257502.593 8                  24025948.603
        48.300
 152702095.521 6                  29058239.624
        37.100
 111929222.934 7                  20960700.880    20960700.847
        43.800
 137098695.375 6                  26089006.753
        38.400
 128075496.550 6  99799127.21345  24371947.464    24371946.8474   24371951.0784
        39.000          34.4004
 119025655.170 8  92575579.263 7  22258385.226    22258385.358    22258392.274
        48.800          42.000
 133249984.595 6 103831284.26844  25356586.402    25356585.8214   25356589.6954
        38.500          27.1004
 124175002.053 7  96580737.907 6  23245765.491    23245765.407    23245774.529
        42.000          41.900
 133169133.581 7                  25341194.713
        45.300
 115845302.663 8  90101947.944 7  21732277.851    21732277.715    21732284.141
        49.800          44.800
 130816611.512 6 101746291.312 4  24471950.753    24471950.666    24471960.541
        36.400          29.600
 115174073.783 8  89579899.876 7  21507936.044    21507936.028    21507942.539
        48.500          45.500
 118819263.018 7  92586567.62945  22610501.417    22610499.9694   22610500.2974
        42.600          30.0004
 25  1  1  3 14  0.0000000  0 33E34G25E03G04S31S35R06E21E13S33G12G20
                                E15R22G05G11G06G29R07R23E27E09R13E05
                                G09R24G17R12E30R14R01R08G19
 132730406.365 7                  25257705.618
        45.700
 114342983.983 7  89098514.09947  21758720.608    21758719.6204   21758723.2934
        46.400          44.1004
 146527359.559 6                  27883225.434
        37.700
 134095639.465 5 104490114.45943  25517554.377    25517553.8684   25517556.9054
        35.600          18.8004
 198982857.341 7                  37865175.232
        46.100
 200935353.211 7                  38236727.627
        44.200
 128345608.622 5                  24051902.095    24051901.611
        34.100
 141709898.678 6                  26966484.605
        41.300
 137015174.669 7                  26073102.923
        43.400
 202130687.209 7                  38464165.252
        45.700
 109472452.416 8  85303341.59348  20831865.839    20831865.2004   20831865.2714
        49.900          49.3004
 106902593.538 7  83300775.45446  20342862.142    20342860.8644   20342861.3394
        47.700          39.8004
 123467167.683 8                  23494982.743
        49.100
 116755968.985 8  90810336.582 7  21872283.818    21872283.638    21872289.007
        48.300          45.500
 116402400.454 7  90703215.23247  22150623.714    22150623.2634   22150624.4274
        45.900          43.4004
 108781806.361 8  84765146.63947  20700452.607    20700452.2814   20700452.4574
        50.200          42.2004
 117398910.966 7  91479817.32247  22340228.699    22340228.3064   22340231.7124
        45.000          45.1004
 129474452.454 6 100889213.30245  24638160.028    24638159.4204   24638161.6224
        40.400          32.2004
 114988867.363 8  89435850.954 7  21480868.800    21480869.101    21480876.224
        49.700          46.100
 107221318.225 8                  20043861.814    20043861.435
        50.400
 126259235.477 8                  24026278.217
        48.600
 152712073.248 6                  29060138.085
        39.200
 111970545.738 7                  20968439.336    20968439.043
        44.100
 137078683.278 6                  26085198.875
        38.400
 128073228.885 6  99797360.20145  24371516.391    24371515.7834   24371519.2724
        38.600          34.1004
 118990755.748 8  92548435.296 7  22251859.503    22251859.141    22251866.424
        48.700          42.300
 133291316.338 6 103863490.79044  25364450.946    25364450.3654   25364454.9214
        38.600          27.0004
 124240424.387 7  96631621.929 6  23258013.352    23258013.253    23258021.887
        42.900          41.900
 133207972.360 7                  25348585.455
        45.600
 115822306.110 8  90084061.755 7  21727963.667    21727963.883    21727970.501
        50.300          44.900
 130751946.943 6 101695996.687 5  24459853.401    24459853.344    24459864.851
        37.500          33.100
 115128176.933 8  89544202.358 7  21499364.688    21499365.104    21499371.995
        48.900          45.400
 118859610.530 7  92618007.22344  22618178.767    22618177.3144   22618178.1364
        42.100          29.7004
 25  1  1  3 14 15.0000000  0 33E34G25E03G04S31S35R06E21E13S33G12G20
                                E15R22G05G11G06G29R07R23E27E09R13E05
                                G09R24G17R12E30R14R01R08G19
 132759027.583 7                  25263151.986
        45.700
 114322627.557 7  89082651.96347  21754846.751    21754845.7504   21754849.5854
        46.200          44.2004
 146489624.395 6                  27876044.707
        37.100
 134108234.859 6 104499929.15143  25519951.317    25519950.8124   25519953.6774
        37.200          20.3004
 198982855.458 7                  37865171.002
        45.600
 200935385.192 7                  38236733.006
        44.200
 128392911.145 5                  24060765.221    24060765.329
        33.700
 141675123.195 6                  26959867.278
        41.200
 136987439.900 7                  26067825.250
        43.600
 202130673.355 7                  38464161.934
        45.400
 109487675.220 8  85315203.51648  20834762.695    20834762.0654   20834762.0864
        49.400          49.3004
 106888207.252 7  83289565.36846  20340124.449    20340123.1754   20340123.7004
        47.400          39.8004
 123467610.590 8                  23495067.219
        48.800
 116790644.843 8  90837306.678 7  21878779.370    21878779.716    21878784.513
        48.700          45.200
 116353140.498 7  90664830.87147  22141250.022    22141249.5804   22141250.5074
        45.700          43.3004
 108792991.403 8  84773862.25947  20702580.853    20702580.5324   20702580.8824
        49.800          42.2004
 117435565.675 7  91508379.41847  22347204.033    22347203.6494   22347206.8944
        45.400          45.1004
 129427548.535 6 100852664.83345  24629234.650    24629234.0204   24629236.3314
        40.100          32.2004
 114992903.651 8  89438990.292 7  21481623.057    21481623.312    21481630.341
        49.700          46.000
 107225238.476 8                  20044593.517    20044594.258
        50.100
 126261076.382 8                  24026628.431
        48.400
 152722151.126 6                  29062055.884
        40.200
 112012015.398 7                  20976206.263    20976205.626
        44.100
 137058751.384 6                  26081405.595
        38.200
 128071093.151 6  99795696.00645  24371110.356    24371109.7574   24371112.5334
        39.500          33.8004
 118955885.621 8  92521314.116 6  22245337.970    22245338.290    22245344.495
        48.600          41.500
 133332676.813 6 103895719.69144  25372321.908    25372321.3274   25372325.6344
        37.600          26.8004
 124305856.517 7  96682513.556 7  23270263.443    23270263.052    23270272.161
        43.300          42.300
 133246871.315 7                  25355987.880
        45.500
 115799496.413 8  90066320.897 7  21723684.501    21723684.773    21723691.650
        50.300          45.000
 130687245.456 6 101645673.391 5  24447749.715    24447750.168    24447761.296
        37.100          32.300
 115082403.994 8  89508601.206 7  21490816.806    21490817.325    21490823.947
        49.100          45.600
 118900020.030 7  92649495.11244  22625868.713    22625867.2784   22625867.8824
        43.000          29.8004
 25  1  1  3 14 30.0000000  0 33E34G25E03G04S31S35R06E21E13S33G12G20
                                E15R22G05G11G06G29R07R23E27E09R13E05
                                G09R24G17R12E30R14R01R08G19
 132787658.106 7                  25268600.501
        45.800
 114302412.851 7  89066900.26047  21751000.127    21750999.1214   21751002.8094
        46.500          44.2004
 146451890.420 6                  27868865.023
        37.200
 134120951.307 5 104509838.05643  25522371.565    25522371.0384   25522373.8314
        34.900          18.7004
 198982852.302 7                  37865170.255
        45.500
 200935414.969 7                  38236733.726
        43.800
 128440331.721 5                  24069651.604    24069651.297
        33.600
 141640405.833 6                  26953260.898
        41.900
 136959740.002 7                  26062553.884
        43.600
 202130657.299 7                  38464159.274
        45.100
 109503047.941 8  85327182.25648  20837688.028    20837687.3944   20837687.4404
        49.200          49.3004
 106873951.821 7  83278457.25846  20337411.740    20337410.4624   20337410.9414
        47.800          39.7004
 123468097.675 8                  23495159.616
        48.900
 116825339.308 7  90864291.241 7  21885278.599    21885279.175    21885283.931
        47.900          45.100
 116303958.599 7  90626507.33047  22131890.961    22131890.5144   22131891.5084
        45.900          43.3004
 108804245.723 8  84782631.86347  20704722.503    20704722.1864   20704722.5214
        50.000          42.1004
 117472242.254 7  91536958.56047  22354183.155    22354182.7804   22354186.2514
        45.300          45.1004
 129380637.567 6 100816110.88145  24620308.026    24620307.4094   24620309.5774
        40.500          32.5004
 114997136.716 8  89442282.674 7  21482413.552    21482413.908    21482421.067
        49.600          46.200
 107229210.436 8                  20045336.824    20045336.655
        50.000
 126263021.711 8                  24026998.583
        48.400
 152732325.330 6                  29063991.890
        37.300
 112053627.598 7                  20983998.247    20983998.211
        44.400
 137038896.314 6                  26077627.757
        38.500
 128069085.744 6  99794131.81445  24370727.642    24370727.0434   24370730.0444
        39.600          33.5004
 118921041.357 8  92494213.053 6  22238821.811    22238822.183    22238828.760
        48.100          41.500
 133374062.221 6 103927968.05544  25380197.113    25380196.5414   25380200.9714
        37.200          25.7004
 124371294.174 7  96733409.487 6  23282513.251    23282513.308    23282521.277
        44.100          41.500
 133285826.587 7                  25363400.516
        45.700
 115776870.228 8  90048722.769 7  21719439.961    21719440.273    21719446.444
        50.800          45.100
 130622504.265 6 101595319.145 5  24435638.399    24435638.662    24435649.933
        36.900          31.700
 115036752.042 8  89473094.186 7  21482291.720    21482292.248    21482299.103
        49.500          45.600
 118940487.807 7  92681028.40844  22633569.065    22633567.5994   22633568.8704
        43.400          29.7004
 25  1  1  3 14 45.0000000  0 33E34G25E03G04S31S35R06E21E13S33G12G20
                                E15R22G05G11G06G29R07R23E27E09R13E05
                                G09R24G17R12E30R14R01R08G19
 132816299.449 7                  25274050.338
        45.500
 114282341.729 7  89051260.44047  21747180.674    21747179.6684   21747183.3864
        46.700          44.4004
 146414159.564 6                  27861684.933
        37.900
 134133790.734 5 104519842.84542  25524814.295    25524813.8044   25524816.9784
        35.600          17.2004
 198982848.511 7                  37865171.945
        46.000
 200935445.674 7                  38236742.893
        44.100
 128487871.551 5                  24078561.547    24078560.325
        32.700
 141605748.421 6                  26946665.405
        41.600
 136932076.638 7                  26057289.825
        43.900
 202130640.744 7                  38464157.646
        45.800
 109518572.119 8  85339279.01448  20840642.428    20840641.7984   20840641.6084
        49.400          49.3004
 106859828.957 8  83267452.43346  20334724.110    20334722.8324   20334723.4564
        48.000          39.8004
 123468630.496 8                  23495261.046
        48.900
 116860053.962 8  90891291.527 7  21891782.331    21891782.569    21891787.164
        48.200          45.200
 116254856.665 7  90588246.10047  22122547.090    22122546.6394   22122547.7314
        46.200          43.4004
 108815570.799 8  84791456.59947  20706877.544    20706877.2274   20706877.5884
        49.900          42.1004
 117508942.156 7  91565555.87747  22361166.844    22361166.4604   22361170.0404
        45.600          45.1004
 129333721.393 6 100779552.86045  24611378.896    24611378.2884   24611381.4504
        40.500          32.7004
 115001568.105 8  89445729.315 7  21483241.792    21483241.852    21483248.948
        49.100          45.900
 107233235.863 8                  20046089.380    20046089.256
        50.300
 126265073.104 8                  24027389.068
        48.300
 152742597.613 6                  29065946.433
        36.900
 112095383.790 7                  20991817.922    20991817.424
        44.000
 137019119.820 6                  26073864.144
        38.500
 128067208.454 6  99792668.99245  24370370.592    24370369.9984   24370372.6324
        38.000          33.5004
 118886224.530 8  92467133.329 7  22232311.054    22232311.644    22232317.948
        49.200          42.100
 133415473.986 6 103960236.92044  25388078.396    25388077.8334   25388081.1154
        38.600          26.7004
 124436738.437 7  96784310.577 7  23294763.955    23294762.956    23294772.865
        42.600          42.200
 133324839.642 7                  25370824.413
        45.200
 115754429.505 8  90031268.879 7  21715230.063    21715230.576    21715236.698
        50.700          44.900
 130557725.250 6 101544935.565 5  24423519.306    24423519.850    24423531.071
        36.500          31.400
 114991223.163 8  89437682.873 7  21473789.468    21473789.502    21473796.246
        48.600          45.400
 118981015.334 7  92712608.26844  22641281.022    22641279.5334   22641280.9174
        42.500          29.9004
 25  1  1  3 15  0.0000000  0 33E34G25E03G04S31S35R06E21E13S33G12G20
                                E15R22G05G11G06G29R07R23E27E09R13E05
                                G09R24G17R12E30R14R01R08G19
 132844951.964 7                  25279503.034
        45.800
 114262414.723 7  89035732.92047  21743388.860    21743387.8504   21743391.4644
        46.500          44.2004
 146376432.400 6                  27854505.622
        37.400
 134146753.284 5 104529943.53242  25527280.941    25527280.4364   25527283.8024
        35.700          17.4004
 198982845.278 7                  37865171.543
        46.100
 200935476.614 7                  38236748.836
        43.900
 128535530.391 5                  24087490.194    24087491.327
        32.800
 141571151.556 6                  26940081.770
        41.900
 136904450.109 7                  26052032.793
        43.200
 202130625.320 7                  38464154.520
        45.700
 109534247.965 8  85351493.95448  20843625.126    20843624.4964   20843624.6374
        49.500          49.2004
 106845839.061 7  83256551.22746  20332061.852    20332060.5694   20332061.2534
        47.600          39.6004
 123469209.340 8                  23495371.408
        48.700
 116894789.232 8  90918307.826 7  21898289.168    21898289.790    21898294.591
        48.800          45.300
 116205835.191 7  90550047.56147  22113218.528    22113218.0814   22113219.1314
        45.600          43.2004
 108826966.901 8  84800336.68046  20709046.192    20709045.8754   20709046.1914
        50.000          41.9004
 117545665.679 7  91594171.59147  22368154.723    22368154.3394   22368158.2654
        45.300          45.0004
 129286800.475 6 100742991.15545  24602450.954    24602450.3554   24602452.5014
        39.400          32.0004
 115006198.135 8  89449330.453 7  21484106.802    21484106.615    21484113.634
        49.200          45.800
 107237315.197 8                  20046851.665    20046851.645
        49.900
 126267230.992 8                  24027799.849
        48.200
 152752968.317 5                  29067920.216
        34.900
 112137283.386 7                  20999664.735    20999663.937
        43.700
 136999422.575 6                  26070115.835
        39.200
 128065461.765 6  99791307.94045  24370038.322    24370037.7464   24370040.8514
        39.600          33.3004
 118851435.628 8  92440075.326 6  22225805.157    22225805.505    22225812.036
        48.800          41.800
 133456912.546 6 103992526.65144  25395963.247    25395962.6804   25395966.6874
        38.800          27.7004
 124502189.307 7  96835216.779 6  23307015.418    23307015.600    23307024.767
        43.000          41.500
 133363910.690 7                  25378259.612
        45.400
 115732174.789 8  90013959.665 7  21711055.602    21711055.364    21711061.772
        50.100          45.100
 130492909.266 6 101494523.123 5  24411395.932    24411395.680    24411405.690
        38.700          31.800
 114945818.448 8  89402368.112 7  21465310.243    21465311.172    21465317.017
        49.600          45.300
 119021603.038 6  92744235.02244  22649005.484    22649004.0094   22649004.6394
        41.800          29.5004
 25  1  1  3 15 15.0000000  0 33E34G25E03G04S31S35R06E21E13S33G12G20
                                E15R22G05G11G06G29R07R23E27E09R13E05
                                G09R24G17R12E30R14R01R08G19
 132873614.885 7                  25284957.436
        45.600
 114242631.414 7  89020317.36947  21739624.275    21739623.2654   21739626.7694
        46.300          44.4004
 146338708.619 6                  27847326.794
        37.600
 134159838.462 6 104540139.86643  25529770.637    25529770.1414   25529773.7804
        36.900          19.2004
 198982842.273 7                  37865172.209
        45.900
 200935507.220 7                  38236756.214
        44.000
 128583307.539 5                  24096444.980    24096444.566
        32.300
 141536614.834 6                  26933509.635
        41.700
 136876859.833 7                  26046782.284
        43.600
 202130609.554 7                  38464150.688
        45.300
 109550074.735 8  85363826.49848  20846637.113    20846636.4834   20846636.3864
        49.800          49.3004
 106831981.408 7  83245753.06446  20329425.089    20329423.8114   20329424.2214
        47.800          39.7004
 123469833.449 8                  23495489.933
        48.800
 116929544.421 8  90945339.640 7  21904800.486    21904800.951    21904805.264
        49.100          45.000
 116156893.964 7  90511911.55947  22103905.652    22103905.2054   22103905.9444
        46.100          43.5004
 108838433.235 8  84809271.48947  20711228.207    20711227.8904   20711228.1734
        50.200          42.1004
 117582412.019 7  91622805.08847  22375147.762    22375147.3874   22375150.9044
        45.100          45.0004
 129239874.364 6 100706425.40245  24593521.923    24593521.3294   24593522.8684
        40.600          32.6004
 115011026.528 8  89453085.864 7  21485008.515    21485008.970    21485015.789
        50.000          46.100
 107241447.596 8                  20047624.663    20047624.283
        50.300
 126269494.744 8                  24028230.519
        48.300
 152763436.778 5                  29069912.179
        33.700
 112179325.657 7                  21007537.724    21007537.360
        44.200
 136979804.023 6                  26066382.379
        39.000
 128063845.099 6  99790048.21345  24369730.733    24369730.1394   24369733.0064
        38.500          33.8004
 118816673.874 8  92413038.451 6  22219304.454    22219305.170    22219311.402
        48.700          41.800
 133498376.883 6 104024836.45944  25403854.177    25403853.6144   25403857.5494
        38.500          27.3004
 124567645.610 7  96886127.234 6  23319271.029    23319271.539    23319278.381
        44.500          41.500
 133403038.896 7                  25385705.283
        45.500
 115710105.551 8  89996794.723 7  21706915.144    21706915.111    21706921.783
        50.100          45.000
 130428055.886 6 101444081.651 5  24399262.398    24399261.834    24399273.833
        36.600          32.400
 114900537.474 8  89367149.635 7  21456854.305    21456855.101    21456861.603
        49.600          45.700
 119062250.058 7  92775907.99344  22656740.369    22656738.8984   22656739.5714
        42.400          29.8004
 25  1  1  3 15 30.0000000  0 33E34G25E03G04S31S35R06E21E13S33G12G20
                                E15R22G05G11G06G29R07R23E27E09R13E05
                                G09R24G17R12E30R14R01R08G19
 132902290.580 7                  25290414.133
        45.500
 114222994.377 7  89005015.79947  21735887.364    21735886.3584   21735889.9594
        46.400          44.5004
 146300990.736 6                  27840149.344
        37.100
 134173048.465 6 104550433.43743  25532284.876    25532284.3944   25532287.1014
        37.900          20.2004
 198982841.704 7                  37865168.064
        45.700
 200935540.264 7                  38236762.331
        44.300
 128631204.476 5                  24105420.626    24105420.423
        32.100
 141502140.899 6                  26926949.627
        41.400
 136849308.163 7                  26041539.321
        43.800
 202130596.117 7                  38464141.781
        45.100
 109566054.884 8  85376278.55848  20849677.823    20849677.1934   20849677.3044
        49.600          49.4004
 106818258.616 7  83235059.98746  20326813.365    20326812.0824   20326812.8344
        47.800          39.9004
 123470505.185 8                  23495617.922
        48.800
 116964322.013 8  90972388.871 7  21911315.065    21911315.810    21911320.772
        48.700          45.300
 116108035.790 7  90473840.27847  22094607.859    22094607.4124   22094608.4704
        46.500          43.7004
 108849972.109 8  84818262.82447  20713423.861    20713423.5354   20713423.9504
        49.800          42.1004
 117619183.454 7  91651458.14647  22382144.711    22382144.3364   22382148.2954
        45.200          45.1004
 129192945.482 6 100669857.48745  24584590.395    24584589.7924   24584592.8144
        40.300          32.6004
 115016055.397 8  89456997.212 7  21485948.091    21485948.145    21485955.174
        49.700          45.800
 107245635.545 8                  20048407.063    20048407.242
        50.000
 126271866.820 8                  24028681.722
        48.500
 152774005.226 6                  29071923.177
        36.600
 112221512.337 7                  21015437.582    21015437.407
        44.200
 136960266.880 6                  26062664.708
        38.900
 128062361.059 6  99788891.84245  24369447.991    24369447.3924   24369450.6904
        39.400          33.9004
 118781941.787 8  92386024.655 7  22212809.040    22212809.847    22212816.325
        49.400          42.100
 133539869.839 6 104057168.52244  25411750.220    25411749.6574   25411753.6214
        38.600          28.2004
 124633109.411 7  96937043.518 7  23331524.637    23331524.823    23331534.065
        43.300          42.000
 133442226.486 7                  25393162.599
        45.500
 115688224.826 8  89979776.385 7  21702810.765    21702810.488    21702816.990
        50.900          45.100
 130363168.139 6 101393613.431 5  24387124.617    24387124.142    24387134.930
        36.300          32.400
 114855383.513 8  89332029.918 7  21448422.017    21448423.119    21448429.196
        49.800          45.400
 119102958.936 7  92807629.16345  22664486.965    22664485.4814   22664486.3754
        42.300          30.1004
 25  1  1  3 15 45.0000000  0 33E34G25E03G04S31S35R06E21E13S33G12G20
                                E15R22G05G11G06G29R07R23E27E09R13E05
                                G09R24G17R12E30R14R01R08G19
 132930972.778 7                  25295871.995
        45.500
 114203497.613 7  88989823.53347  21732177.361    21732176.3644   21732179.8364
        46.300          44.6004
 146263272.884 6                  27832971.866
        36.500
 134186377.100 5 104560819.47942  25534820.882    25534820.3864   25534823.6154
        34.900          17.7004
 198982837.079 7                  37865173.081
        46.100
 200935569.698 7                  38236771.127
        44.200
 128679214.909 5                  24114419.194    24114418.991
        33.600
 141467723.773 6                  26920400.145
        41.600
 136821788.934 7                  26036302.640
        43.200
 202130578.814 7                  38464142.858
        45.600
 109582181.912 8  85388845.06748  20852746.935    20852746.3094   20852746.1754
        49.300          49.4004
 106804664.484 7  83224467.16746  20324226.786    20324225.5084   20324225.8934
        47.800          40.0004
 123471218.245 8                  23495753.489
        48.700
 116999115.638 8  90999450.563 7  21917833.129    21917833.710    21917838.412
        48.400          45.000
 116059254.793 7  90435829.13247  22085325.116    22085324.6744   22085325.7664
        46.600          43.9004
 108861577.197 8  84827305.74747  20715632.413    20715632.0874   20715632.3104
        49.800          42.1004
 117655973.729 7  91680125.88047  22389146.050    22389145.6704   22389149.2024
        45.900          45.1004
 129146007.793 6 100633282.72445  24575658.540    24575657.9284   24575660.5824
        40.200          32.7004
 115021278.221 8  89461059.404 7  21486923.554    21486923.732    21486930.918
        49.400          46.100
 107249872.750 8                  20049199.521    20049199.417
        50.100
 126274341.052 8                  24029152.671
        48.300
 152784667.562 6                  29073952.454
        36.600
 112263836.619 7                  21023363.797    21023363.586
        44.000
 136940805.143 6                  26058961.024
        39.200
 128061003.533 6  99787834.05245  24369189.462    24369188.8544   24369192.6694
        39.400          34.4004
 118747232.963 8  92359028.954 7  22206318.929    22206319.265    22206325.993
        48.900          42.200
 133581385.477 6 104089518.31044  25419650.499    25419649.9274   25419653.8734
        37.400          26.5004
 124698573.717 7  96987960.183 7  23343780.871    23343780.529    23343789.101
        43.600          42.300
 133481467.096 7                  25400629.892
        45.400
 115666526.426 8  89962899.870 7  21698739.841    21698739.992    21698746.409
        50.800          45.200
 130298240.092 5 101343113.836 4  24374977.943    24374977.480    24374987.633
        35.800          29.700
 114810350.742 8  89297004.476 7  21440012.698    21440013.048    21440019.765
        48.800          45.800
 119143723.260 7  92839393.54145  22672243.840    22672242.3514   22672243.4514
        42.300          30.1004
 25  1  1  3 16  0.0000000  0 33E34G25E03G04S31S35R06E21E13S33G12G20
                                E15R22G05G11G06G29R07R23E27E09R13E05
                                G09R24G17R12E30R14R01R08G19
 132959669.163 7                  25301332.940
        45.800
 114184149.090 7  88974746.77947  21728495.140    21728494.1484   21728497.8624
        46.500          44.6004
 146225563.278 6                  27825796.090
        37.000
 134199831.917 5 104571303.82042  25537381.514    25537380.9824   25537383.8434
        33.900          14.1004
 198982836.027 7                  37865169.052
        46.000
 200935602.449 7                  38236774.646
        44.300
 128727346.123 5                  24123436.695    24123437.413
        32.400
 141433371.446 6                  26913863.499
        41.900
 136794309.868 7                  26031073.738
        43.500
 202130565.647 7                  38464143.551
        45.800
 109598463.505 8  85401532.01848  20855844.982    20855844.3564   20855844.4644
        49.300          49.4004
 106791206.794 7  83213980.66446  20321665.482    20321664.2044   20321665.0134
        47.800          39.9004
 123471980.329 8                  23495898.575
        48.800
 117033933.208 8  91026530.875 7  21924355.401    21924355.965    21924361.065
        48.600          45.200
 116010559.102 7  90397884.45347  22076058.384    22076057.9284   22076059.2094
        46.800          43.9004
 108873256.130 8  84836406.21847  20717854.883    20717854.5574   20717854.7554
        49.900          42.1004
 117692790.437 7  91708814.21047  22396152.058    22396151.6744   22396155.2604
        45.400          45.1004
 129099069.279 6 100596707.31045  24566726.586    24566725.9654   24566728.0964
        41.400          32.8004
 115026703.526 8  89465279.070 7  21487937.319    21487937.440    21487944.281
        49.400          46.100
 107254167.021 8                  20050002.223    20050002.198
        50.600
 126276925.223 8                  24029644.613
        48.400
 152795431.413 6                  29076000.503
        37.000
 112306305.779 7                  21031316.834    21031316.644
        43.900
 136921426.707 6                  26055273.559
        38.600
 128059780.395 6  99786880.97545  24368957.289    24368956.6904   24368960.1624
        38.900          34.1004
 118712555.326 8  92332057.496 6  22199834.103    22199834.531    22199840.906
        49.400          41.800
 133622931.220 6 104121891.55044  25427556.130    25427555.5584   25427559.9574
        37.300          26.1004
 124764046.083 7  97038883.090 6  23356038.088    23356038.253    23356045.725
        44.600          41.800
 133520768.335 7                  25408108.795
        45.600
 115645018.349 8  89946171.381 7  21694704.482    21694705.014    21694711.199
        51.400          44.700
 130233280.293 6 101292589.575 5  24362824.607    24362825.506    24362836.347
        36.500          31.600
 114765447.704 8  89262079.914 7  21431627.633    21431628.004    21431634.006
        49.800          45.300
 119184550.759 7  92871207.15445  22680013.119    22680011.6354   22680012.7034
        42.800          30.1004
 25  1  1  3 16 15.0000000  0 33E34G25E03G04S31S35R06E21E13S33G12G20
                                E15R22G05G11G06G29R07R23E27E09R13E05
                                G09R24G17R12E30R14R01R08G19
 132988377.220 7                  25306795.856
        45.400
 114164946.489 7  88959783.73047  21724840.816    21724839.8154   21724843.6704
        46.500          44.4004
 146187859.677 6                  27818620.548
        36.800
 134213410.459 5 104581884.51942  25539965.779    25539965.2524   25539967.7974
        33.900          13.7004
 198982837.264 7                  37865167.791
        45.700
 200935637.020 7                  38236780.124
        44.100
 128775595.083 5                  24132480.025    24132480.241
        33.500
 141399081.691 7                  26907337.688
        42.000
 136766868.522 7                  26025851.370
        44.000
 202130553.006 7                  38464137.135
        45.700
 109614897.012 8  85414337.34148  20858972.197    20858971.5804   20858971.6484
        49.500          49.1004
 106777883.225 7  83203598.67346  20319130.476    20319129.2024   20319129.5624
        47.800          39.7004
 123472788.898 8                  23496052.450
        48.900
 117068772.260 8  91053627.914 7  21930881.593    21930882.481    21930887.488
        48.300          45.200
 115961946.519 7  90360004.53847  22066807.971    22066807.5204   22066808.5634
        46.600          43.8004
 108885006.332 8  84845562.21946  20720090.765    20720090.4394   20720090.7634
        49.900          41.8004
 117729631.025 7  91737521.15047  22403162.641    22403162.2664   22403165.8024
        45.400          44.9004
 129052127.508 6 100560129.35845  24557793.501    24557792.8714   24557795.3464
        39.800          32.4004
 115032328.407 8  89469654.004 7  21488987.733    21488988.249    21488995.327
        49.700          46.100
 107258515.939 8                  20050814.981    20050815.242
        50.200
 126279616.939 8                  24030156.686
        48.600
 152806294.276 6                  29078067.572
        38.200
 112348917.309 7                  21039297.334    21039296.250
        44.400
 136902129.426 6                  26051601.734
        38.900
 128058689.278 6  99786030.78445  24368749.337    24368748.7384   24368752.3934
        39.500          33.8004
 118677906.413 8  92305108.404 6  22193354.514    22193354.824    22193361.199
        49.000          41.800
 133664504.423 6 104154286.18944  25435466.919    25435466.3524   25435471.2864
        37.700          26.8004
 124829523.499 7  97089809.984 6  23368294.426    23368294.635    23368302.617
        42.800          40.900
 133560127.543 7                  25415598.485
        45.700
 115623698.348 8  89929589.187 7  21690705.086    21690705.372    21690711.968
        50.300          45.000
 130168286.587 6 101242038.929 5  24350666.982    24350667.656    24350678.435
        37.700          32.900
 114720672.239 8  89227254.598 7  21423265.670    21423266.535    21423272.697
        49.500          45.400
 119225439.064 7  92903068.13244  22687794.226    22687792.7554   22687793.3934
        42.800          29.9004
 25  1  1  3 16 30.0000000  0 33E34G25E03G04S31S35R06E21E13S33G12G20
                                E15R22G05G11G06G29R07R23E27E09R13E05
                                G09R24G17R12E30R14R01R08G19
 133017092.745 7                  25312260.144
        45.400
 114145885.911 7  88944931.34647  21721213.887    21721212.8864   21721216.5134
        46.400          44.6004
 146150158.115 6                  27811446.444
        37.000
 134227108.923 5 104592558.77541  25542572.022    25542571.4684   25542574.4844
        35.100          11.9004
 198982834.630 7                  37865167.617
        46.000
 200935668.338 7                  38236782.834
        44.000
 128823957.239 5                  24141543.738    24141542.516
        32.400
 141364850.570 7                  26900823.265
        42.100
 136739460.747 7                  26020635.961
        43.400
 202130538.123 7                  38464133.915
        45.400
 109631478.210 8  85427257.75048  20862127.448    20862126.8314   20862126.9554
        49.400          49.3004
 106764689.572 7  83193317.91246  20316619.806    20316618.5374   20316618.8404
        47.600          39.9004
 123473639.716 8                  23496214.365
        48.900
 117103628.501 8  91080738.292 7  21937411.548    21937412.365    21937417.282
        48.000          45.300
 115913413.137 7  90322186.33747  22057572.506    22057572.0554   22057573.0074
        46.800          44.0004
 108896823.566 8  84854770.45546  20722339.661    20722339.3264   20722339.5024
        49.800          41.9004
 117766491.204 7  91766243.35247  22410176.643    22410176.2634   22410180.0614
        45.600          45.1004
 129005178.641 6 100523545.88945  24548859.462    24548858.8414   24548861.5674
        40.300          33.1004
 115038148.998 8  89474181.122 7  21490075.090    21490075.381    21490082.526
        49.300          46.100
 107262915.124 8                  20051637.280    20051637.516
        50.000
 126282412.079 8                  24030688.676
        48.400
 152817252.118 6                  29080152.568
        37.900
 112391666.082 7                  21047301.855    21047301.456
        44.000
 136882909.262 6                  26047943.633
        38.100
 128057726.164 6  99785280.32845  24368565.645    24368565.0514   24368568.8914
        39.000          33.5004
 118643282.061 8  92278178.398 6  22186879.622    22186879.816    22186885.636
        49.400          41.700
 133706101.075 6 104186699.09944  25443382.927    25443382.3464   25443386.6844
        38.900          28.4004
 124895001.246 7  97140737.104 6  23380551.627    23380551.621    23380560.631
        43.100          41.200
 133599540.406 7                  25423098.406
        45.500
 115602562.766 8  89913150.400 7  21686740.200    21686740.496    21686746.564
        50.300          44.800
 130103255.083 6 101191458.915 5  24338502.187    24338501.838    24338512.679
        36.700          32.000
 114676021.007 8  89192525.897 7  21414927.647    21414928.131    21414934.664
        49.000          45.600
 119266383.917 7  92934973.18445  22695585.477    22695584.0024   22695584.9814
        42.400          30.2004
 25  1  1  3 16 45.0000000  0 33E34G25E03G04S31S35R06E21E13S33G12G20
                                E15R22G05G11G06G29R07R23E27E09R13E05
                                G09R24G17R12E30R14R01R08G19
 133045817.311 7                  25317726.348
        45.600
 114126969.175 7  88930191.05047  21717614.465    21717613.4684   21717616.8354
        46.200          44.6004
 146112460.595 6                  27804272.759
        37.600
 134240928.436 5 104603327.33942  25545201.764    25545201.2234   25545204.2994
        35.800          17.3004
 198982831.682 7                  37865169.039
        45.700
 200935699.196 7                  38236794.102
        44.200
 128872433.935 5                  24150628.133    24150627.351
        33.200
 141330680.014 6                  26894321.272
        41.800
 136712088.206 7                  26015426.913
        43.500
 202130523.158 7                  38464130.959
        45.300
 109648208.637 8  85440294.44148  20865311.299    20865310.6874   20865310.6654
        49.200          49.2004
 106751627.639 7  83183139.78946  20314134.309    20314133.0404   20314133.2084
        47.600          39.8004
 123474534.403 8                  23496384.460
        48.900
 117138503.594 8  91107863.349 7  21943945.219    21943945.526    21943950.371
        48.400          45.100
 115864961.102 7  90284431.52247  22048352.447    22048351.9964   22048352.8844
        46.100          44.0004
 108908709.354 8  84864032.10946  20724601.466    20724601.1364   20724601.3434
        49.400          41.8004
 117803372.550 7  91794982.05347  22417194.999    22417194.6194   22417198.3674
        45.000          45.0004
 128958224.506 6 100486958.30945  24539924.113    24539923.5054   24539926.5094
        40.300          33.2004
 115044166.335 8  89478861.259 7  21491199.039    21491199.427    21491206.849
        48.900          46.200
 107267366.338 8                  20052469.534    20052469.595
        49.900
 126285312.349 8                  24031240.456
        48.400
 152828306.292 6                  29082256.093
        37.600
 112434553.420 7                  21055333.841    21055333.433
        44.300
 136863768.163 6                  26044301.768
        39.100
 128056892.794 6  99784630.96545  24368406.839    24368406.2274   24368410.3014
        39.500          33.3004
 118608684.056 8  92251268.892 7  22180409.391    22180409.874    22180416.808
        48.400          42.200
 133747722.824 6 104219131.55644  25451302.808    25451302.2144   25451306.9964
        38.000          26.1004
 124960480.603 7  97191665.465 6  23392810.268    23392809.988    23392817.854
        42.900          40.900
 133639008.447 7                  25430608.960
        45.600
 115581613.255 8  89896856.346 7  21682809.913    21682809.904    21682816.500
        50.400          44.700
 130038187.967 6 101140851.184 5  24326330.565    24326329.348    24326340.292
        36.600          31.300
 114631495.841 8  89157895.235 7  21406613.110    21406613.099    21406619.342
        49.500          45.200
 119307386.822 7  92966923.46244  22703387.832    22703386.3574   22703387.6584
        42.500          29.9004
 25  1  1  3 17  0.0000000  0 33E34G25E03G04S31S35R06E21E13S33G12G20
                                E15R22G05G11G06G29R07R23E27E09R13E05
                                G09R24G17R12E30R14R01R08G19
 133074552.450 7                  25323194.576
        45.400
 114108198.084 7  88915564.24247  21714042.360    21714041.3634   21714044.8944
        46.500          44.6004
 146074768.935 6                  27797100.485
        37.400
 134254870.717 6 104614191.48043  25547855.145    25547854.6184   25547856.9644
        38.200          20.1004
 198982829.603 7                  37865169.839
        45.700
 200935730.169 7                  38236799.946
        43.900
 128921026.218 5                  24159734.566    24159734.003
        32.600
 141296571.830 7                  26887831.103
        42.100
 136684752.505 7                  26010225.397
        43.800
 202130508.231 7                  38464128.844
        44.900
 109665089.791 8  85453448.58348  20868523.456    20868522.8394   20868523.0384
        49.400          49.1004
 106738699.061 7  83173065.58146  20311673.997    20311672.7284   20311672.9624
        47.700          39.8004
 123475474.447 8                  23496563.442
        48.800
 117173399.268 8  91135004.410 7  21950482.234    21950482.292    21950487.687
        48.000          45.300
 115816592.088 7  90246741.39347  22039148.109    22039147.6624   22039148.5184
        47.000          44.1004
 108920665.170 8  84873348.32746  20726876.523    20726876.1934   20726876.4464
        49.400          41.7004
 117840276.509 7  91823738.37047  22424217.508    22424217.1284   22424220.9514
        45.200          44.9004
 128911266.853 6 100450367.98645  24530988.351    24530987.7344   24530990.2224
        40.400          32.8004
 115050382.743 8  89483696.235 7  21492360.576    21492360.712    21492367.986
        49.700          46.500
 107271871.105 8                  20053311.955    20053311.776
        50.100
 126288319.367 8                  24031812.738
        48.500
 152839458.643 6                  29084378.646
        36.700
 112477580.483 7                  21063391.531    21063390.783
        44.900
 136844707.847 6                  26040674.718
        38.100
 128056190.877 6  99784084.02545  24368274.188    24368273.5584   24368276.8054
        39.600          33.7004
 118574113.895 8  92224381.027 7  22173944.650    22173944.601    22173951.580
        48.100          42.500
 133789371.048 6 104251584.61644  25459228.278    25459227.6844   25459232.3844
        37.800          26.0004
 125025962.640 7  97242595.915 6  23405068.210    23405068.718    23405076.780
        44.700          41.000
 133678533.047 7                  25438130.264
        45.800
 115560851.754 8  89880708.523 7  21678915.338    21678915.309    21678922.025
        50.300          44.900
 129973087.408 6 101090217.416 5  24314153.598    24314152.203    24314161.837
        38.400          33.000
 114587099.308 8  89123364.626 7  21398322.032    21398322.403    21398328.950
        49.600          45.600
 119348449.334 7  92998920.19845  22711201.979    22711200.4994   22711201.7114
        42.900          30.1004
 25  1  1  3 17 15.0000000  0 33E34G25E03G04S31S35R06E21E13S33G12G20
                                E15R22G05G11G06G29R07R23E27E09R13E05
                                G09R24G17R12E30R14R01R08G19
 133103297.685 7                  25328664.538
        45.400
 114089572.353 7  88901050.69947  21710497.975    21710496.9744   21710500.4854
        46.200          44.7004
 146037082.890 6                  27789929.260
        37.100
 134268935.264 6 104625151.01643  25550530.583    25550530.0384   25550533.2844
        36.600          20.2004
 198982827.001 7                  37865165.716
        45.400
 200935761.731 7                  38236804.982
        43.900
 128969733.101 5                  24168862.025    24168860.486
        32.300
 141262525.803 7                  26881352.040
        42.100
 136657453.168 7                  26005030.435
        43.300
 202130492.698 7                  38464127.073
        45.300
 109682121.106 8  85466719.73648  20871764.539    20871763.9224   20871764.0034
        49.400          49.3004
 106725903.467 8  83163094.99646  20309238.938    20309237.6734   20309238.0344
        48.000          40.0004
 123476459.346 8                  23496750.983
        48.800
 117208315.046 7  91162161.126 7  21957023.610    21957023.332    21957028.866
        47.500          45.500
 115768306.421 7  90209116.21447  22029959.658    22029959.2114   22029959.9744
        46.700          44.3004
 108932690.477 8  84882718.69946  20729164.817    20729164.4874   20729164.8084
        49.400          41.8004
 117877202.573 7  91852511.91247  22431244.509    22431244.1384   22431247.7444
        45.100          45.1004
 128864305.194 6 100413774.53445  24522052.432    24522051.7754   24522053.8414
        39.200          32.7004
 115056797.390 8  89488685.406 7  21493558.897    21493558.977    21493566.269
        49.300          46.400
 107276429.085 8                  20054163.765    20054163.848
        50.000
 126291432.720 8                  24032405.090
        48.400
 152850708.583 6                  29086519.447
        38.200
 112520746.169 7                  21071474.693    21071474.421
        44.100
 136825728.182 6                  26037062.877
        38.500
 128055620.139 6  99783639.29245  24368165.216    24368164.5954   24368168.1584
        38.900          34.0004
 118539571.099 8  92197514.467 7  22167484.816    22167485.530    22167491.463
        49.200          42.000
 133831045.429 6 104284058.08244  25467159.027    25467158.4244   25467162.7704
        37.500          26.0004
 125091446.426 7  97293527.712 6  23417327.289    23417327.600    23417335.563
        44.500          40.800
 133718113.634 7                  25445662.195
        45.400
 115540278.163 8  89864706.861 7  21675055.663    21675055.851    21675062.420
        50.200          44.900
 129907953.379 6 101039557.693 5  24301967.586    24301967.063    24301977.421
        38.200          33.500
 114542831.362 8  89088934.052 7  21390055.427    21390055.719    21390061.988
        49.700          45.500
 119389571.068 7  93030963.07145  22719027.476    22719025.9924   22719027.0204
        43.300          30.2004
 25  1  1  3 17 30.0000000  0 33E34G25E03G04S31S35R06E21E13S33G12G20
                                E15R22G05G11G06G29R07R23E27E09R13E05
                                G09R24G17R12E30R14R01R08G19
 133132051.264 7                  25334136.102
        45.700
 114071090.544 7  88886649.30847  21706980.716    21706979.7244   21706983.4194
        46.000          44.7004
 145999401.250 6                  27782758.444
        36.700
 134283120.294 5 104636204.41342  25553230.278    25553229.7784   25553232.4134
        34.900          16.2004
 198982823.045 7                  37865170.045
        45.700
 200935791.990 7                  38236808.456
        44.100
 129018552.593 5                  24178010.396    24178010.946
        33.000
 141228540.528 6                  26874884.610
        41.600
 136630188.559 7                  25999842.374
        43.800
 202130476.998 7                  38464127.780
        45.700
 109699300.751 8  85480106.46648  20875033.731    20875033.1144   20875033.1934
        48.800          49.1004
 106713239.213 7  83153226.75846  20306828.911    20306827.6424   20306828.0714
        47.700          39.9004
 123477487.347 8                  23496946.640
        48.800
 117243249.281 7  91189332.175 7  21963567.155    21963567.941    21963573.148
        47.900          45.700
 115720102.415 7  90171554.66447  22020786.650    22020786.2034   22020787.0444
        46.500          44.2004
 108944783.484 8  84892141.82246  20731466.025    20731465.6954   20731466.0214
        49.200          41.6004
 117914148.948 7  91881301.28247  22438275.205    22438274.8394   22438278.4674
        44.900          45.0004
 128817338.157 6 100377176.91445  24513115.203    24513114.5374   24513116.3644
        40.300          33.0004
 115063408.848 8  89493827.632 7  21494794.350    21494794.634    21494801.367
        49.700          46.300
 107281038.461 8                  20055025.402    20055025.534
        49.900
 126294650.784 8                  24033017.573
        48.400
 152862054.340 6                  29088678.275
        38.200
 112564048.536 7                  21079583.833    21079583.481
        43.900
 136806827.634 6                  26033466.507
        38.700
 128055178.995 6  99783295.53145  24368081.436    24368080.8244   24368084.1364
        38.800          33.8004
 118505053.938 8  92170667.841 7  22161030.057    22161030.202    22161036.680
        48.600          42.200
 133872744.040 6 104316550.40144  25475094.177    25475093.5834   25475097.7324
        38.100          24.7004
 125156929.712 7  97344459.142 6  23429585.603    23429585.712    23429594.007
        44.700          40.600
 133757748.341 7                  25453204.615
        45.500
 115519890.675 8  89848849.933 7  21671231.033    21671231.120    21671237.484
        50.700          44.800
 129842784.714 6 100988871.039 5  24289776.131    24289774.992    24289786.048
        36.300          33.200
 114498690.947 8  89054602.639 7  21381812.560    21381812.855    21381819.089
        49.900          45.300
 119430750.351 7  93063050.78745  22726863.405    22726861.8994   22726863.1274
        42.500          30.1004
 25  1  1  3 17 45.0000000  0 33E34G25E03G04S31S35R06E21E13S33G12G20
                                E15R22G05G11G06G29R07R23E27E09R13E05
                                G09R24G17R12E30R14R01R08G19
 133160816.184 7                  25339609.889
        45.600
 114052755.874 7  88872362.56447  21703491.927    21703490.9394   21703494.4584
        46.100          44.7004
 145961727.306 6                  27775589.443
        37.200
 134297428.695 6 104647353.88642  25555952.899    25555952.3994   25555955.0914
        36.400          16.9004
 198982821.709 7                  37865169.079
        46.000
 200935823.418 7                  38236820.887
        44.500
 129067487.181 5                  24187181.452    24187180.625
        32.800
 141194619.282 6                  26868429.739
        41.500
 136602961.722 7                  25994661.094
        43.600
 202130462.508 7                  38464123.568
        45.700
 109716631.679 8  85493611.08248  20878331.814    20878331.2114   20878331.1494
        49.400          49.1004
 106700709.169 7  83143463.09346  20304444.589    20304443.3204   20304443.6814
        47.600          39.8004
 123478561.443 8                  23497150.819
        48.600
 117278204.912 8  91216519.868 7  21970116.147    21970116.319    21970121.155
        48.200          45.300
 115671983.382 7  90134059.33247  22011629.947    22011629.5054   22011630.4084
        46.400          44.3004
 108956947.113 8  84901619.97346  20733780.637    20733780.3074   20733780.6814
        49.500          41.7004
 117951118.550 7  91910108.74147  22445310.199    22445309.8284   22445313.5684
        45.400          45.0004
 128770368.928 6 100340577.56845  24504176.773    24504176.1074   24504178.6194
        40.600          33.5004
 115070219.879 8  89499125.111 7  21496066.620    21496067.030    21496073.714
        50.200          46.500
 107285702.053 8                  20055896.964    20055897.313
        50.300
 126297976.649 8                  24033650.475
        48.300
 152873498.965 6                  29090856.567
        38.200
 112607489.984 7                  21087719.031    21087718.851
        43.700
 136788009.533 6                  26029885.126
        38.600
 128054870.569 6  99783055.20445  24368022.659    24368022.0424   24368025.4644
        39.100          33.8004
 118470565.631 8  92143843.664 7  22154580.233    22154580.513    22154587.201
        48.200          42.300
 133914470.225 6 104349064.25844  25483034.909    25483034.3194   25483038.1804
        40.200          29.9004
 125222415.256 7  97395392.340 6  23441845.045    23441845.497    23441852.871
        44.300          41.200
 133797440.029 7                  25460757.530
        45.000
 115499692.804 8  89833140.491 7  21667442.212    21667441.979    21667448.410
        50.000          45.100
 129777585.029 6 100938160.286 5  24277578.413    24277577.639    24277589.263
        36.600          33.700
 114454681.640 8  89020373.222 7  21373593.529    21373594.236    21373600.810
        49.400          45.500
 119471990.119 7  93095185.64445  22734711.738    22734710.2454   22734710.8064
        43.000          30.1004
 25  1  1  3 18  0.0000000  0 33E34G25E03G04S31S35R06E21E13S33G12G20
                                E15R22G05G11G06G29R07R23E27E09R13E05
                                G09R24G17R12E30R14R01R08G19
 133189587.915 7                  25345085.082
        45.300
 114034564.022 7  88858187.11347  21700030.165    21700029.1954   21700032.7254
        46.500          44.7004
 145924056.891 6                  27768420.849
        37.700
 134311855.964 6 104658595.84343  25558698.095    25558697.5814   25558700.3944
        38.500          20.1004
 198982816.695 7                  37865168.569
        45.900
 200935852.424 7                  38236822.984
        44.100
 129116531.996 5                  24196370.733    24196369.837
        32.200
 141160757.816 6                  26861986.156
        41.600
 136575768.160 7                  25989486.178
        43.600
 202130445.053 7                  38464114.615
        45.200
 109734109.257 8  85507229.96748  20881657.637    20881657.0254   20881657.0174
        49.300          49.1004
 106688309.270 8  83133800.84446  20302084.924    20302083.6554   20302084.0684
        48.100          39.9004
 123479677.055 8                  23497363.155
        48.700
 117313177.504 7  91243720.770 7  21976667.505    21976667.474    21976673.021
        47.400          45.400
 115623945.222 7  90096627.01747  22002488.712    22002488.2704   22002489.0394
        46.400          44.4004
 108969176.782 8  84911149.58646  20736107.807    20736107.4774   20736107.9014
        49.400          41.6004
 117988106.821 7  91938930.75847  22452349.045    22452348.6744   22452352.2064
        45.200          45.1004
 128723393.098 6 100303973.09345  24495237.283    24495236.6354   24495239.7564
        39.400          33.4004
 115077225.794 8  89504574.160 7  21497375.026    21497375.637    21497382.840
        50.200          46.400
 107290415.678 8                  20056778.355    20056778.598
        50.200
 126301405.867 8                  24034302.954
        48.400
 152885038.006 6                  29093052.094
        36.800
 112651065.550 7                  21095879.846    21095879.415
        44.100
 136769269.542 6                  26026318.742
        39.000
 128054690.611 6  99782915.01545  24367987.782    24367987.1744   24367990.9344
        39.000          33.5004
 118436101.680 8  92117038.421 7  22148135.435    22148135.532    22148142.385
        49.100          42.400
 133956219.196 6 104381595.85444  25490979.517    25490978.9274   25490982.8944
        37.300          27.1004
 125287898.038 7  97446323.358 6  23454102.747    23454102.827    23454112.517
        43.600          41.500
 133837184.089 7                  25468320.566
        45.100
 115479680.269 8  89817575.227 7  21663687.284    21663687.498    21663694.416
        50.000          45.000
 129712350.027 6 100887422.082 5  24265374.807    24265375.476    24265385.924
        37.600          33.200
 114410799.354 8  88986242.586 7  21365399.770    21365399.581    21365405.466
        49.200          45.400
 119513285.665 7  93127363.95745  22742569.833    22742568.3274   22742569.1384
        43.100          30.3004
 25  1  1  3 18 15.0000000  0 32E34G25E03G04S31S35R06E21E13S33G12G20
                                E15R22G05G11G06G29R07R23E27R13E05G09
                                R24G17R12E30R14R01R08G19
 133218374.929 7                  25350563.078
        45.500
 114016523.778 7  88844129.79147  21696597.139    21696596.1654   21696599.7484
        46.500          44.6004
 145886398.764 6                  27761255.223
        37.400
 134326410.607 6 104669937.10043  25561468.557    25561468.0704   25561469.8134
        37.800          20.3004
 198982817.649 7                  37865171.565
        46.000
 200935887.265 7                  38236827.250
        44.000
 129165695.228 5                  24205585.295    24205585.368
        33.400
 141126964.909 6                  26855555.486
        41.900
 136548616.448 7                  25984319.574
        44.000
 202130433.241 7                  38464116.690
        45.600
 109751741.970 8  85520969.73348  20885013.250    20885012.6334   20885012.3934
        49.000          49.0004
 106676048.113 8  83124246.70446  20299751.839    20299750.5654   20299750.8034
        48.000          39.9004
 123480842.689 8                  23497584.913
        49.000
 117348175.726 8  91270941.584 7  21983224.047    21983223.932    21983229.466
        48.000          45.400
 115575996.936 7  90059264.73147  21993364.302    21993363.8514   21993364.7384
        46.700          44.4004
 108981480.945 8  84920737.24346  20738449.294    20738448.9644   20738449.3014
        49.400          41.5004
 118025122.190 7  91967773.89347  22459392.441    22459392.0794   22459396.0364
        45.600          45.1004
 128676419.549 6 100267370.38545  24486298.791    24486298.1614   24486300.3524
        40.200          33.1004
 115084435.790 8  89510181.944 7  21498721.965    21498722.123    21498729.169
        49.000          46.400
 107295188.055 8                  20057670.255    20057670.691
        50.300
 126304947.044 8                  24034976.877
        48.500
 112694783.580 7                  21104067.246    21104066.245
        44.000
 136750616.439 6                  26022769.041
        38.100
 128054647.667 6  99782881.56345  24367980.086    24367979.4744   24367982.4514
        39.100          33.4004
 118401670.673 8  92090258.806 7  22141696.735    22141696.731    22141703.459
        48.900          42.400
 133997999.302 6 104414151.65944  25498929.936    25498929.3464   25498933.6934
        38.000          25.7004
 125353386.203 7  97497258.581 6  23466362.716    23466363.225    23466370.876
        44.100          40.700
 133876988.872 7                  25475895.378
        45.800
 115459862.194 8  89802161.165 7  21659969.775    21659969.894    21659976.373
        50.400          44.900
 129647089.225 6 100836663.757 5  24253166.464    24253166.341    24253176.435
        37.600          33.000
 114367053.625 8  88952218.170 7  21357229.881    21357230.016    21357236.411
        48.700          45.400
 119554645.558 7  93159592.40945  22750440.303    22750438.7974   22750439.7254
        42.600          30.3004
 25  1  1  3 18 30.0000000  0 32E34G25E03G04S31S35R06E21E13S33G12G20
                                E15R22G05G11G06G29R07R23E27R13E05G09
                                R24G17R12E30R14R01R08G19
 133247165.415 7                  25356041.787
        45.600
 113998623.536 7  88830181.57547  21693190.949    21693189.9794   21693193.3924
        46.500          44.7004
 145848741.417 6                  27754088.597
        37.900
 134341080.955 5 104681368.52242  25564260.119    25564259.6684   25564261.0224
        32.700          13.8004
 198982812.886 7                  37865167.483
        46.000
 200935915.710 7                  38236834.333
        44.100
 129214964.552 5                  24214818.573    24214817.605
        31.400
 141093229.010 6                  26849136.067
        41.400
 136521494.844 7                  25979158.451
        43.900
 202130415.075 7                  38464113.623
        46.100
 109769517.824 8  85534821.04448  20888395.764    20888395.1614   20888395.0234
        49.200          49.1004
 106663913.870 7  83114791.45846  20297442.572    20297441.2984   20297441.7194
        47.900          40.0004
 123482046.499 8                  23497814.086
        49.000
 117383187.597 7  91298173.040 7  21989783.107    21989782.913    21989788.796
        47.200          45.600
 115528127.058 7  90021963.54347  21984254.939    21984254.4924   21984255.4214
        46.600          44.5004
 108993847.684 8  84930373.66446  20740802.536    20740802.2014   20740802.6354
        49.400          41.5004
 118062152.801 7  91996628.90747  22466439.363    22466438.9924   22466442.7184
        44.900          45.1004
 128629436.441 6 100230760.22545  24477358.693    24477358.0674   24477359.6514
        40.300          33.5004
 115091837.734 8  89515938.989 7  21500105.007    21500105.061    21500112.144
        49.300          46.500
 107300006.968 8                  20058571.014    20058571.486
        49.900
 126308588.417 8                  24035669.833
        48.600
 112738631.456 7                  21112277.185    21112277.369
        43.700
 136732038.653 6                  26019234.546
        39.100
 128054730.108 6  99782945.82645  24367995.322    24367994.7104   24367998.2144
        38.800          33.7004
 118367260.720 8  92063495.551 7  22135261.390    22135261.923    22135268.664
        49.000          42.600
 134039799.092 6 104446722.85244  25506883.927    25506883.3514   25506887.7804
        39.100          27.0004
 125418867.310 7  97548188.342 6  23478620.266    23478620.474    23478629.042
        43.300          40.800
 133916842.470 7                  25483479.179
        45.600
 115440226.676 8  89786889.089 7  21656287.108    21656286.922    21656292.651
        51.000          45.000
 129581790.776 6 100785876.177 5  24240951.035    24240951.227    24240961.362
        37.500          33.000
 114323432.704 8  88918290.797 7  21349084.253    21349084.629    21349090.854
        49.200          45.600
 119596058.139 7  93191861.91845  22758321.061    22758319.5684   22758320.2814
        43.200          30.4004
 25  1  1  3 18 45.0000000  0 32E34G25E03G04S31S35R06E21E13S33G12G20
                                E15R22G05G11G06G29R07R23E27R13E05G09
                                R24G17R12E30R14R01R08G19
 133275968.125 7                  25361522.443
        45.500
 113980872.237 7  88816349.40247  21689812.521    21689811.5474   21689815.4214
        46.500          44.6004
 145811094.059 6                  27746924.167
        37.000
 134355875.320 6 104692896.49542  25567075.358    25567074.8894   25567076.4274
        37.200          16.4004
 198982810.349 7                  37865163.592
        46.000
 200935947.074 7                  38236832.258
        43.800
 129264348.399 5                  24224073.094    24224072.169
        31.800
 141059559.168 7                  26842728.889
        42.300
 136494412.079 7                  25974004.991
        43.600
 202130400.551 7                  38464110.090
        45.400
 109787445.511 8  85548790.66248  20891807.198    20891806.5954   20891806.5364
        49.300          48.9004
 106651915.403 7  83105442.01346  20295159.503    20295158.2344   20295158.4784
        47.900          39.9004
 123483297.206 8                  23498052.031
        49.000
 117418222.166 7  91325422.112 7  21996346.283    21996346.602    21996351.903
        47.800          45.400
 115480344.770 7  89984730.60647  21975162.306    21975161.8594   21975162.6944
        46.900          44.4004
 109006285.723 8  84940065.64046  20743169.342    20743169.0124   20743169.5454
        49.300          41.4004
 118099207.305 7  92025502.53847  22473490.717    22473490.3464   22473493.9214
        45.100          45.1004
 128582452.874 6 100194149.72145  24468417.473    24468416.8524   24468418.9104
        40.700          33.4004
 115099440.451 8  89521852.220 7  21501524.953    21501525.428    21501532.349
        49.600          46.600
 107304881.446 8                  20059482.747    20059482.875
        50.400
 126312338.821 8                  24036383.341
        48.700
 112782617.623 7                  21120514.515    21120514.724
        44.200
 136713545.223 6                  26015715.026
        38.900
 128054946.795 6  99783114.67045  24368037.503    24368036.9044   24368039.5364
        39.200          33.5004
 118332880.797 8  92036755.683 7  22128833.079    22128832.718    22128839.240
        48.700          42.400
 134081627.605 5 104479316.36444  25514843.147    25514842.5754   25514847.2374
        35.500          24.0004
 125484349.883 7  97599119.188 6  23490879.197    23490879.830    23490888.831
        44.100          41.800
 133956753.501 7                  25491074.176
        45.300
 115420782.768 8  89771766.060 7  21652638.550    21652639.169    21652645.233
        50.300          45.000
 129516464.266 6 100735066.796 5  24228729.424    24228729.375    24228740.288
        37.300          32.800
 114279946.352 8  88884468.125 7  21340963.243    21340963.425    21340970.320
        48.600          45.500
 119637532.183 7  93224179.31145  22766212.997    22766211.5004   22766212.5604
        43.600          30.2004
 25  1  1  3 19  0.0000000  0 32E34G25E03G04S31S35R06E21E13S33G12G20
                                E15R22G05G11G06G29R07R23E27R13E05G09
                                R24G17R12E30R14R01R08G19
 133304778.055 7                  25367005.154
        45.100
 113963265.200 7  88802629.64447  21686462.372    21686461.4024   21686464.9054
        45.900          44.7004
 145773451.934 6                  27739761.344
        37.800
 134370789.213 5 104704517.66742  25569913.895    25569913.4044   25569914.4194
        34.900          14.7004
 198982805.947 7                  37865162.810
        45.900
 200935976.698 7                  38236844.332
        44.100
 129313841.338 5                  24233347.957    24233346.676
        31.900
 141025950.651 6                  26836332.771
        41.900
 136467363.265 7                  25968857.530
        43.800
 202130383.868 7                  38464110.824
        45.600
 109805519.905 8  85562874.59548  20895246.549    20895245.9414   20895245.9784
        49.100          49.0004
 106640047.753 7  83096194.49846  20292901.119    20292899.8504   20292900.1074
        47.800          40.0004
 123484589.821 8                  23498298.090
        48.800
 117453274.286 7  91352684.882 7  22002912.298    22002912.661    22002918.025
        47.400          45.300
 115432645.317 7  89947562.21247  21966085.088    21966084.6234   21966085.7834
        46.700          44.5004
 109018789.988 8  84949809.22046  20745549.000    20745548.6654   20745549.0084
        49.300          41.4004
 118136280.711 7  92054390.89147  22480545.496    22480545.1304   22480548.7604
        45.400          45.1004
 128535464.062 6 100157535.10945  24459475.632    24459475.0064   24459477.2214
        40.900          34.0004
 115107238.986 8  89527917.754 7  21502981.656    21502982.211    21502989.047
        49.600          46.700
 107309806.584 8                  20060403.263    20060403.434
        50.300
 126316193.375 8                  24037116.955
        48.500
 112826736.560 7                  21128777.200    21128776.212
        43.400
 136695131.411 6                  26012210.680
        39.200
 128055292.954 6  99783384.41745  24368102.832    24368102.2514   24368105.5024
        39.600          34.0004
 118298525.908 8  92010035.262 7  22122408.284    22122408.123    22122415.164
        49.500          42.800
 134123479.699 6 104511928.32844  25522807.622    25522807.0464   25522811.7294
        40.600          28.9004
 125549828.453 7  97650046.962 6  23503137.164    23503137.558    23503145.088
        43.000          40.700
 133996716.847 7                  25498678.513
        45.500
 115401525.809 8  89756788.444 7  21649026.490    21649026.425    21649032.726
        49.800          45.000
 129451105.132 6 100684232.042 5  24216502.320    24216503.172    24216514.496
        38.400          34.100
 114236589.974 8  88850746.527 7  21332867.004    21332867.181    21332873.129
        49.000          45.300
 119679062.676 7  93256540.70045  22774116.009    22774114.5034   22774115.4384
        43.300          30.2004
 25  1  1  3 19 15.0000000  0 32E34G25E03G04S31S35R06E21E13S33G12G20
                                E15R22G05G11G06G29R07R23E27R13E05G09
                                R24G17R12E30R14R01R08G19
 133333601.789 7                  25372489.708
        45.400
 113945809.179 7  88789027.56547  21683140.707    21683139.7424   21683143.1384
        46.500          44.7004
 145735821.935 6                  27732600.949
        37.500
 134385829.098 4 104716236.92841  25572774.229    25572773.8274   25572776.2354
        28.800           6.5004
 198982806.853 7                  37865161.844
        46.000
 200936010.776 7                  38236850.856
        43.900
 129363449.758 5                  24242645.460    24242644.235
        32.200
 140992410.411 6                  26829950.794
        41.700
 136440355.035 7                  25963717.873
        44.000
 202130371.166 7                  38464105.073
        45.500
 109823747.586 8  85577077.98248  20898715.459    20898714.8474   20898714.5894
        49.300          49.0004
 106628317.596 7  83087054.12746  20290669.046    20290667.7814   20290667.8734
        47.600          40.0004
 123485930.892 8                  23498553.277
        48.700
 117488350.820 8  91379966.590 7  22009483.564    22009484.050    22009489.231
        48.000          45.300
 115385035.634 7  89910463.77547  21957025.626    21957025.1664   21957025.9724
        46.700          44.6004
 109031367.037 8  84959609.52046  20747942.317    20747941.9824   20747942.3054
        49.200          41.4004
 118173379.532 7  92083299.05347  22487605.035    22487604.6694   22487608.4914
        45.400          45.1004
 128488476.837 6 100120921.74945  24450533.954    24450533.3284   24450536.1904
        39.800          34.1004
 115115240.109 8  89534140.834 7  21504476.677    21504476.846    21504483.826
        49.600          46.700
 107314788.995 8                  20061334.511    20061334.851
        50.200
 126320158.745 8                  24037871.533
        48.400
 112870994.502 7                  21137065.340    21137064.566
        44.500
 136676804.043 6                  26008723.085
        39.100
 128055775.330 6  99783760.31245  24368194.557    24368193.9584   24368197.6314
        39.200          33.9004
 118264202.790 8  91983339.533 7  22115989.279    22115989.721    22115996.052
        48.900          42.400
 134165362.215 6 104544563.99244  25530778.592    25530778.0294   25530782.2894
        36.800          26.4004
 125615309.285 7  97700976.477 6  23515395.314    23515395.814    23515403.107
        43.800          40.600
 134036738.993 7                  25506294.845
        45.200
 115382462.540 8  89741961.461 7  21645450.145    21645449.824    21645456.210
        50.400          44.700
 129385720.430 6 100633377.387 5  24204272.137    24204271.371    24204281.966
        37.700          33.500
 114193370.973 8  88817131.780 7  21324795.820    21324795.965    21324802.861
        49.200          45.700
 119720656.179 7  93288951.18245  22782031.068    22782029.5574   22782030.4294
        43.400          30.3004
 25  1  1  3 19 30.0000000  0 32E34G25E03G04S31S35R06E21E13S33G12G20
                                E15R22G05G11G06G29R07R23E27R13E05G09
                                R24G17R12E30R14R01R08G19
 133362434.551 7                  25377976.620
        45.100
 113928499.683 7  88775539.66347  21679846.396    21679845.4264   21679849.2294
        46.000          44.4004
 145698199.702 6                  27725441.110
        37.700
 134400990.270 5 104728050.90041  25575659.768    25575659.3624   25575661.2864
        35.700          11.6004
 198982807.296 7                  37865161.902
        45.900
 200936044.451 7                  38236853.262
        44.000
 129413168.427 5                  24251961.627    24251961.531
        32.300
 140958933.907 7                  26823580.001
        42.000
 136413382.683 7                  25958585.166
        43.800
 202130358.507 7                  38464100.973
        45.600
 109842123.744 8  85591397.06148  20902211.795    20902211.1874   20902211.4474
        49.000          48.6004
 106616720.345 7  83078017.31746  20288461.998    20288460.7334   20288460.9844
        47.600          39.7004
 123487315.656 8                  23498816.834
        48.800
 117523446.955 7  91407263.579 7  22016057.903    22016058.623    22016063.674
        47.600          45.000
 115337511.607 7  89873432.07947  21947981.782    21947981.3094   21947982.4064
        46.900          44.4004
 109044012.019 8  84969462.74946  20750348.423    20750348.0844   20750348.5924
        49.100          41.0004
 118210498.956 7  92112223.26747  22494668.569    22494668.2034   22494672.1074
        45.700          44.9004
 128441486.558 6 100084306.00445  24441592.403    24441591.7914   24441594.0314
        39.500          33.6004
 115123438.852 8  89540517.634 7  21506007.853    21506008.377    21506015.473
        49.500          46.600
 107319823.795 8                  20062276.002    20062276.056
        50.400
 126324230.238 8                  24038646.163
        48.400
 112915386.112 7                  21145377.885    21145377.970
        43.700
 136658558.623 6                  26005251.259
        39.000
 128056389.264 6  99784238.71945  24368311.520    24368310.9304   24368314.1394
        40.200          33.5004
 118229906.421 8  91956664.628 7  22109575.306    22109575.286    22109582.725
        48.500          42.600
 134207269.899 6 104577219.32944  25538752.862    25538752.2994   25538757.0964
        36.900          25.1004
 125680787.133 7  97751903.688 6  23527652.316    23527651.937    23527661.398
        42.900          40.600
 134076815.065 7                  25513921.124
        45.200
 115363588.544 8  89727281.692 7  21641909.329    21641909.467    21641915.808
        50.100          44.700
 129320305.861 6 100582499.505 5  24192034.227    24192033.568    24192043.891
        37.500          32.700
 114150284.962 8  88783620.470 7  21316749.837    21316750.085    21316756.829
        49.400          45.500
 119762308.035 7  93321407.14045  22789956.920    22789955.4054   22789956.6124
        43.200          30.1004
 25  1  1  3 19 45.0000000  0 32E34G25E03G04S31S35R06E21E13S33G12G20
                                E15R22G05G11G06G29R07R23E27R13E05G09
                                R24G17R12E30R14R01R08G19
 133391272.205 7                  25383464.387
        45.000
 113911332.796 7  88762162.88447  21676580.125    21676579.1604   21676582.3834
        46.500          44.4004
 145660581.431 6                  27718283.102
        38.000
 134416268.350 6 104739955.85043  25578567.617    25578567.1884   25578568.7884
        40.600          21.9004
 198982803.251 7                  37865164.075
        45.700
 200936074.439 7                  38236862.549
        44.100
 129462992.366 5                  24261296.442    24261297.475
        31.900
 140925517.329 6                  26817220.903
        41.700
 136386442.132 7                  25953458.445
        43.100
 202130342.238 7                  38464103.329
        45.700
 109860644.103 8  85605828.50448  20905736.437    20905735.8384   20905735.7574
        48.900          48.6004
 106605251.947 7  83069080.91146  20286279.613    20286278.3484   20286278.6364
        47.800          39.7004
 123488739.943 8                  23499087.759
        48.800
 117558558.561 7  91434572.591 7  22022636.408    22022636.179    22022641.480
        47.800          45.600
 115290069.225 7  89836463.99847  21938953.829    21938953.3564   21938954.3924
        46.600          44.4004
 109056720.774 8  84979365.67246  20752767.052    20752766.7134   20752766.9854
        49.200          40.9004
 118247634.792 7  92141160.26747  22501735.560    22501735.1944   22501738.8544
        45.300          44.9004
 128394489.362 6 100047684.86545  24432649.211    24432648.6124   24432650.3974
        40.300          33.2004
 115131831.064 8  89547044.919 7  21507575.362    21507576.177    21507583.170
        49.600          46.600
 107324906.777 8                  20063226.034    20063226.249
        50.000
 126328403.828 8                  24039440.338
        48.200
 112959906.854 7                  21153715.636    21153715.386
        43.900
 136640391.279 6                  26001793.952
        38.900
 128057130.782 6  99784816.52045  24368452.440    24368451.8504   24368455.4514
        39.500          33.4004
 118195633.119 8  91930007.662 7  22103166.307    22103166.405    22103173.119
        48.700          42.400
 134249198.988 6 104609891.31344  25546731.381    25546730.8234   25546735.7954
        39.600          28.5004
 125746257.444 7  97802825.027 7  23539909.627    23539909.817    23539919.117
        44.700          42.000
 134116940.804 7                  25521556.975
        45.100
 115344899.982 8  89712746.167 7  21638403.651    21638403.536    21638409.358
        50.200          44.700
 129254857.924 6 100531595.670 5  24179790.845    24179792.094    24179801.058
        39.100          31.600
 114107328.543 8  88750209.962 7  21308727.912    21308728.504    21308734.689
        49.100          45.600
 119804014.026 7  93353905.26544  22797893.906    22797892.3954   22797893.1344
        43.100          29.9004
 25  1  1  3 20  0.0000000  0 32E34G25E03G04S31S35R06E21E13S33G12G20
                                E15R22G05G11G06G29R07R23E27R13E05G09
                                R24G17R12E30R14R01R08G19
 133420116.993 7                  25388953.344
        44.600
 113894310.943 7  88748899.11547  21673340.509    21673339.5444   21673343.1894
        46.400          44.4004
 145622969.616 6                  27711125.035
        38.300
 134431665.656 6 104751953.68843  25581497.476    25581497.0524   25581499.5434
        38.700          23.6004
 198982797.473 7                  37865157.936
        45.600
 200936102.175 7                  38236868.805
        43.900
 129512923.889 5                  24270653.932    24270655.458
        32.500
 140892163.178 6                  26810873.936
        41.100
 136359535.661 7                  25948338.359
        43.300
 202130324.095 7                  38464096.295
        45.300
 109879310.740 8  85620373.93148  20909288.534    20909287.9404   20909287.9064
        49.000          48.6004
 106593914.735 7  83060246.72946  20284122.248    20284120.9834   20284121.2354
        47.900          39.8004
 123490205.985 8                  23499366.691
        48.400
 117593687.934 8  91461895.430 7  22029216.521    22029217.347    22029222.483
        48.200          45.400
 115242711.164 7  89799561.63047  21929941.965    21929941.5004   21929942.4904
        46.600          44.4004
 109069495.441 8  84989319.95246  20755197.792    20755197.4444   20755197.9334
        49.300          40.9004
 118284789.233 7  92170111.77347  22508805.471    22508805.1004   22508809.1154
        45.400          45.0004
 128347487.944 6 100011060.43645  24423704.853    24423704.2364   24423706.2764
        39.700          33.7004
 115140419.165 8  89553724.563 7  21509180.380    21509180.703    21509187.342
        49.300          46.500
 107330040.696 8                  20064186.478    20064186.078
        50.200
 126332681.801 8                  24040254.575
        48.000
 113004558.550 7                  21162077.961    21162077.088
        44.000
 136622304.505 6                  25998352.798
        38.300
 128058002.235 6  99785495.55845  24368618.415    24368617.8164   24368621.5504
        38.700          33.7004
 118161385.002 8  91903370.298 7  22096761.745    22096761.695    22096768.204
        48.300          42.300
 134291151.566 6 104642581.62043  25554714.203    25554713.6364   25554719.1844
        36.300          23.6004
 125811721.955 7  97853741.859 6  23552164.211    23552164.338    23552172.092
        44.100          41.000
 134157118.302 7                  25529202.060
        44.900
 115326399.198 8  89698356.701 7  21634932.000    21634932.215    21634938.762
        49.600          44.700
 129189379.320 6 100480667.988 5  24167541.282    24167541.950    24167552.376
        38.300          33.100
 114064504.478 8  88716902.415 7  21300730.748    21300731.253    21300737.661
        49.300          45.600
 119845776.301 7  93386447.26444  22805841.042    22805839.5404   22805840.1514
        43.900          29.9004
 25  1  1  3 20 15.0000000  0 32E34G25E03G04S31S35R06E21E13S33G12G20
                                E15R22G05G11G06G29R07R23E27R13E05G09
                                R24G17R12E30R14R01R08G19
 133448973.312 7                  25394444.532
        44.900
 113877438.816 7  88735752.01547  21670129.819    21670128.8544   21670132.5064
        46.600          44.3004
 145585369.129 6                  27703970.331
        37.800
 134447186.478 5 104764047.80942  25584450.296    25584449.8054   25584453.0774
        33.800          14.2004
 198982794.747 7                  37865162.278
        45.700
 200936133.172 7                  38236876.085
        44.000
 129562966.773 5                  24280033.990    24280032.182
        31.100
 140858876.132 6                  26804539.929
        41.600
 136332667.714 7                  25943225.296
        43.600
 202130308.116 7                  38464090.031
        45.000
 109898127.975 8  85635036.70648  20912869.225    20912868.6264   20912868.6924
        49.400          48.5004
 106582713.127 8  83051518.21446  20281990.664    20281989.3994   20281989.6174
        48.000          39.6004
 123491718.135 8                  23499654.556
        48.400
 117628839.594 7  91489235.601 7  22035800.989    22035801.847    22035807.417
        47.500          45.300
 115195442.231 7  89762728.71047  21920947.099    21920946.6434   21920947.4554
        47.100          44.3004
 109082340.351 8  84999328.96946  20757642.101    20757641.7534   20757642.2524
        49.000          40.7004
 118321966.633 7  92199081.16747  22515880.526    22515880.1514   22515883.7634
        45.700          44.7004
 128300486.542 6  99974436.02245  24414760.393    24414759.7724   24414762.5524
        40.600          34.0004
 115149207.552 8  89560559.961 7  21510821.495    21510822.016    21510829.537
        49.300          46.500
 107335229.824 8                  20065155.848    20065156.076
        50.500
 126337068.640 7                  24041089.513
        47.800
 113049345.227 7                  21170463.960    21170464.153
        43.400
 136604302.943 6                  25994926.754
        38.200
 128059008.292 6  99786279.51345  24368809.854    24368809.2514   24368812.8054
        39.900          33.0004
 118127166.479 8  91876755.934 7  22090362.294    22090362.311    22090369.312
        48.200          42.600
 134333131.854 6 104675293.50544  25562703.331    25562702.7684   25562707.5094
        37.000          26.1004
 125877184.673 7  97904657.265 6  23564417.968    23564418.605    23564427.057
        43.300          41.100
 134197351.851 7                  25536858.117
        44.600
 115308091.087 8  89684117.063 7  21631497.955    21631497.727    21631504.337
        50.300          44.600
 129123874.995 6 100429720.302 5  24155287.121    24155287.285    24155298.685
        37.600          33.900
 114021817.719 8  88683701.621 7  21292759.024    21292759.361    21292766.422
        48.700          45.900
 119887599.275 7  93419036.55544  22813799.678    22813798.1764   22813798.7584
        43.500          29.8004
 25  1  1  3 20 30.0000000  0 32E34G25E03G04S31S35R06E21E13S33G12G20
                                E15R22G05G11G06G29R07R23E27R13E05G09
                                R24G17R12E30R14R01R08G19
 133477838.787 7                  25399937.261
        44.900
 113860714.192 7  88722719.85047  21666947.180    21666946.2104   21666949.8864
        46.800          44.4004
 145547777.846 6                  27696816.785
        37.900
 134462828.498 6 104776236.32143  25587428.443    25587427.8894   25587429.8634
        37.500          18.5004
 198982791.807 7                  37865159.791
        45.800
 200936163.807 7                  38236877.645
        44.100
 129613118.406 5                  24289431.570    24289431.779
        32.700
 140825654.096 6                  26798217.682
        41.900
 136305835.972 7                  25938119.676
        43.500
 202130292.769 7                  38464088.966
        45.300
 109917093.356 8  85649814.92048  20916478.206    20916477.6074   20916477.6854
        49.600          48.4004
 106571644.854 8  83042893.59546  20279884.690    20279883.4254   20279883.3894
        48.000          39.6004
 123493274.024 8                  23499950.537
        48.400
 117664011.271 7  91516591.321 7  22042390.724    22042390.873    22042396.514
        47.400          45.700
 115148260.193 7  89725963.49447  21911968.538    21911968.0824   21911968.9284
        47.100          44.4004
 109095253.104 8  85009390.85546  20760099.281    20760098.9334   20760099.4894
        49.200          40.7004
 118359164.538 7  92228066.54047  22522958.749    22522958.3694   22522962.2524
        45.400          44.9004
 128253483.109 6  99937810.03445  24405815.828    24405815.2114   24405818.1534
        39.900          33.6004
 115158193.726 8  89567549.212 7  21512500.748    21512500.793    21512507.862
        49.100          46.500
 107340471.661 8                  20066135.938    20066136.068
        50.300
 126341562.075 8                  24041944.465
        48.000
 113094263.900 7                  21178876.600    21178876.075
        44.000
 136586384.484 6                  25991517.256
        38.400
 128060146.658 6  99787166.57045  24369026.833    24369026.2344   24369028.8884
        39.800          33.0004
 118092975.315 8  91850162.843 7  22083968.864    22083968.602    22083975.312
        48.900          42.500
 134375137.398 6 104708024.99244  25570697.157    25570696.6124   25570700.9604
        36.800          26.8004
 125942642.957 7  97955569.253 6  23576672.694    23576672.743    23576681.507
        42.500          41.400
 134237638.969 7                  25544524.756
        44.800
 115289973.625 8  89670025.710 7  21628099.302    21628099.366    21628105.533
        50.500          44.900
 129058343.283 6 100378751.298 5  24143027.899    24143028.305    24143038.999
        37.900          33.100
 113979266.584 8  88650606.320 7  21284812.974    21284813.493    21284819.906
        48.700          45.800
 119929480.637 7  93451671.33344  22821769.511    22821768.0224   22821768.5134
        43.500          29.7004
 25  1  1  3 20 45.0000000  0 32E34G25E03G04S31S35R06E21E13S33G12G20
                                E15R22G05G11G06G29R07R23E27R13E05G09
                                R24G17R12E30R14R01R08G19
 133506714.591 7                  25405432.395
        44.700
 113844138.525 7  88709803.75847  21663793.227    21663792.2444   21663795.5814
        46.900          44.5004
 145510197.277 6                  27689666.133
        37.600
 134478592.544 5 104788519.83642  25590428.036    25590427.4954   25590430.1474
        33.500          15.0004
 198982790.881 7                  37865159.993
        46.000
 200936196.252 7                  38236887.474
        44.400
 129663379.620 5                  24298850.904    24298850.505
        31.700
 140792498.571 6                  26791908.558
        41.300
 136279041.666 7                  25933020.754
        43.500
 202130278.956 7                  38464085.662
        45.600
 109936208.004 8  85664709.44248  20920115.641    20920115.0384   20920115.0694
        49.300          48.6004
 106560711.192 8  83034373.86646  20277803.684    20277802.4154   20277802.7654
        48.100          39.8004
 123494874.808 8                  23500255.337
        48.600
 117699204.143 7  91543963.549 7  22048983.129    22048983.453    22048989.465
        47.900          45.800
 115101166.964 7  89689267.48747  21903006.814    21903006.3544   21903007.4124
        46.700          44.6004
 109108234.810 8  85019506.46746  20762569.714    20762569.3614   20762569.7614
        49.000          40.9004
 118396384.113 7  92257068.79647  22530041.626    22530041.2464   22530044.8734
        45.400          45.0004
 128206478.967 6  99901183.48545  24396872.200    24396871.6014   24396873.5674
        40.600          33.9004
 115167379.095 8  89574693.400 7  21514217.011    21514217.167    21514223.785
        49.800          46.300
 107345767.482 8                  20067125.785    20067126.000
        50.200
 126346163.346 8                  24042819.954
        48.100
 113139315.468 7                  21187313.205    21187312.945
        43.800
 136568550.578 6                  25988123.528
        38.500
 128061418.670 6  99788157.77445  24369268.133    24369267.5394   24369270.5924
        38.800          33.1004
 118058812.825 8  91823592.062 7  22077579.808    22077580.008    22077585.985
        48.700          42.200
 134417170.245 6 104740777.77143  25578696.337    25578695.7924   25578699.5704
        36.300          23.2004
 126008097.440 7  98006478.294 6  23588925.715    23588926.209    23588934.482
        43.000          41.200
 134277980.720 7                  25552201.462
        44.800
 115272048.064 8  89656083.627 7  21624736.871    21624736.867    21624742.805
        50.500          44.600
 128992785.710 6 100327762.142 5  24130765.117    24130764.384    24130774.474
        38.700          33.500
 113936852.897 8  88617617.951 7  21276892.431    21276892.868    21276899.276
        48.400          45.800
 119971421.591 7  93484352.55944  22829751.035    22829749.5464   22829749.5014
        43.000          29.8004
 25  1  1  3 21  0.0000000  0 32E34G25E03G04S31S35R06E21E13S33G12G20
                                E15R22G05G11G06G29R07R23E27R13E05G09
                                R24G17R12E30R14R01R08G19
 133535595.774 7                  25410928.161
        44.800
 113827707.110 7  88697000.07147  21660666.185    21660665.1974   21660668.7464
        46.700          44.5004
 145472622.840 6                  27682515.202
        38.400
 134494474.411 6 104800895.19743  25593450.377    25593449.8544   25593452.3614
        39.000          20.0004
 198982786.825 7                  37865160.216
        46.000
 200936225.679 7                  38236893.081
        44.200
 129713744.873 5                  24308289.466    24308289.009
        31.500
 140759404.898 6                  26785610.967
        41.500
 136252279.931 7                  25927928.132
        43.700
 202130261.729 7                  38464086.739
        45.400
 109955466.849 8  85679716.32948  20923780.405    20923779.8064   20923779.8854
        49.100          48.6004
 106549907.312 7  83025955.26946  20275747.751    20275746.4734   20275746.8654
        47.800          39.9004
 123496515.539 8                  23500567.255
        48.700
 117734413.319 7  91571348.449 7  22055579.212    22055579.422    22055584.836
        47.300          45.400
 115054157.754 7  89652636.94347  21894061.460    21894061.0004   21894061.8734
        46.700          44.6004
 109121280.466 8  85029671.90646  20765052.293    20765051.9404   20765052.2404
        49.000          40.8004
 118433620.333 7  92286084.02947  22537127.551    22537127.1804   22537130.7404
        45.100          45.1004
 128159469.351 6  99864552.65645  24387925.402    24387924.7944   24387927.3084
        40.500          33.8004
 115176758.479 8  89581988.472 7  21515968.271    21515968.832    21515976.084
        49.400          46.300
 107351112.474 8                  20068125.227    20068125.072
        50.200
 126350867.602 8                  24043715.325
        48.100
 113184494.240 7                  21195773.086    21195773.036
        43.700
 136550796.529 6                  25984744.824
        38.300
 128062819.538 6  99789249.37545  24369535.198    24369534.6264   24369537.3744
        39.000          33.3004
 118024673.963 8  91797039.637 7  22071196.020    22071196.141    22071202.954
        48.700          42.600
 134459224.943 6 104773547.52744  25586698.464    25586697.9284   25586702.6974
        37.200          27.5004
 126073542.799 7  98057380.209 6  23601178.724    23601178.455    23601186.593
        44.200          41.400
 134318372.022 7                  25559887.488
        44.700
 115254309.640 8  89642287.090 7  21621408.237    21621408.432    21621415.225
        49.500          44.900
 128927197.909 6 100276749.544 5  24118494.877    24118494.381    24118505.196
        38.100          33.100
 113894572.135 8  88584732.931 7  21268997.545    21268997.404    21269003.629
        48.700          45.800
 120013417.175 7  93517076.34744  22837742.145    22837740.6564   22837741.3504
        43.100          29.6004
 25  1  1  3 21 15.0000000  0 32E34G25E03G04S31S35R06E21E13S33G12G20
                                E15R22G05G11G06G29R07R23E27R13E05G09
                                R24G17R12E30R14R01R08G19
 133564488.912 7                  25416426.282
        45.000
 113811426.682 7  88684314.03147  21657568.185    21657567.1934   21657570.6544
        46.400          44.7004
 145435061.515 6                  27675367.911
        38.300
 134510480.152 6 104813367.18343  25596495.821    25596495.2984   25596498.2334
        39.000          21.0004
 198982786.062 7                  37865159.586
        45.900
 200936257.994 7                  38236900.576
        44.400
 129764220.705 5                  24317748.761    24317748.396
        31.800
 140726379.904 6                  26779326.551
        41.300
 136225557.363 7                  25922843.183
        43.500
 202130248.429 7                  38464082.326
        45.500
 109974876.474 8  85694840.70348  20927474.202    20927473.6034   20927473.4324
        49.200          48.8004
 106539239.851 7  83017642.97146  20273717.914    20273716.6364   20273716.8914
        47.800          40.0004
 123498202.744 8                  23500888.586
        48.700
 117769645.497 7  91598751.248 7  22062179.521    22062179.940    22062185.214
        47.700          45.400
 115007239.505 7  89616077.28347  21885133.107    21885132.6424   21885133.6264
        46.600          44.7004
 109134396.588 8  85039892.26046  20767548.085    20767547.7234   20767548.1304
        48.600          40.9004
 118470879.737 7  92315117.32447  22544217.734    22544217.3684   22544221.0084
        45.300          45.1004
 128112461.127 6  99827922.93245  24378980.857    24378980.2364   24378982.1134
        39.700          34.1004
 115186338.853 8  89589439.875 7  21517758.447    21517759.019    21517765.887
        49.700          46.400
 107356512.987 8                  20069134.786    20069134.635
        50.100
 126355681.469 8                  24044631.156
        48.200
 113229806.769 7                  21204258.809    21204258.923
        43.800
 136533129.120 6                  25981382.706
        38.800
 128064355.912 6  99790446.56845  24369828.015    24369827.4484   24369829.7204
        40.000          33.6004
 117990565.685 8  91770511.020 7  22064817.055    22064817.591    22064824.086
        48.600          42.600
 134501308.296 6 104806339.74044  25594707.170    25594706.6074   25594711.2434
        38.000          27.2004
 126138985.261 7  98108279.882 6  23613428.787    23613429.708    23613437.605
        44.600          41.500
 134358819.342 7                  25567584.924
        44.700
 115236765.320 8  89628641.516 7  21618117.694    21618117.122    21618124.111
        49.900          44.700
 128861587.127 6 100225719.012 5  24106220.613    24106221.007    24106232.407
        38.900          34.400
 113852431.871 8  88551957.205 7  21261127.600    21261127.787    21261134.647
        48.700          45.800
 120055473.895 7  93549847.78044  22845745.570    22845744.0814   22845744.5894
        43.000          29.8004
 25  1  1  3 21 30.0000000  0 32E34G25E03G04S31S35R06E21E13S33G12G20
                                E15R22G05G11G06G29R07R23E27R13E05G09
                                R24G17R12E30R14R01R08G19
 133593384.648 7                  25421924.965
        44.700
 113795288.137 7  88671738.55147  21654497.389    21654496.3974   21654499.6424
        46.200          44.6004
 145397504.205 6                  27668220.721
        38.300
 134526600.556 6 104825928.53243  25599563.370    25599562.8564   25599565.9504
        38.100          19.3004
 198982779.255 7                  37865158.942
        46.000
 200936284.947 7                  38236906.295
        44.200
 129814796.817 5                  24327224.701    24327226.036
        32.100
 140693414.511 6                  26773053.536
        41.300
 136198864.653 7                  25917763.754
        44.000
 202130228.620 7                  38464077.903
        45.700
 109994427.385 8  85710075.17048  20931194.410    20931193.8024   20931193.8494
        49.100          48.8004
 106528699.531 7  83009429.74246  20271712.169    20271710.8914   20271711.0874
        47.600          40.0004
 123499927.060 8                  23501216.699
        48.600
 117804891.238 7  91626164.588 7  22068782.269    22068782.787    22068787.784
        47.600          45.600
 114960403.406 7  89579581.63547  21876220.611    21876220.1464   21876220.9804
        46.600          44.8004
 109147573.752 8  85050160.17546  20770055.579    20770055.2134   20770055.6824
        48.700          40.9004
 118508152.954 7  92344161.37947  22551310.871    22551310.5094   22551313.8734
        45.300          45.1004
 128065445.233 6  99791287.22345  24370033.345    24370032.7284   24370035.3404
        41.900          34.8004
 115196110.428 8  89597039.999 7  21519583.671    21519584.094    21519591.284
        49.800          46.200
 107361959.917 8                  20070152.788    20070152.926
        50.500
 126360595.690 8                  24045566.574
        48.100
 113275242.762 7                  21212767.946    21212767.357
        43.600
 136515539.314 6                  25978035.670
        38.700
 128066018.679 6  99791742.26045  24370143.791    24370143.2194   24370146.0604
        39.300          33.3004
 117956478.235 8  91743998.614 7  22058442.746    22058443.297    22058449.753
        49.100          42.800
 134543410.653 4 104839146.69343  25602719.646    25602719.0704   25602723.1564
        24.500          22.3004
 126204414.858 7  98159169.556 6  23625675.767    23625675.949    23625685.965
        42.100          41.600
 134399313.209 7                  25575290.453
        44.200
 115219405.828 8  89615139.703 7  21614860.772    21614860.524    21614867.053
        50.300          44.600
 128795944.090 6 100174663.411 5  24093940.793    24093940.049    24093951.109
        38.300          33.500
 113810422.691 8  88519283.445 7  21253282.551    21253282.871    21253289.315
        48.300          45.700
 120097582.483 7  93582659.62444  22853758.318    22853756.8434   22853757.2094
        43.300          29.8004
 25  1  1  3 21 45.0000000  0 32E34G25E03G04S31S35R06E21E13S33G12G20
                                E15R22G05G11G06G29R07R23E27R13E05G09
                                R24G17R12E30R14R01R08G19
 133622292.255 7                  25427425.973
        45.000
 113779300.954 7  88659281.01547  21651454.780    21651453.7794   21651457.3964
        46.200          44.8004
 145359960.516 6                  27661075.843
        37.700
 134542845.008 5 104838586.58542  25602654.621    25602654.0894   25602657.2184
        35.800          17.1004
 198982776.005 7                  37865157.591
        46.100
 200936315.288 7                  38236913.409
        44.600
 129865482.328 5                  24336724.746    24336724.715
        31.200
 140660518.308 7                  26766793.375
        42.100
 136172211.154 7                  25912691.394
        44.100
 202130213.071 7                  38464073.727
        45.900
 110014128.605 8  85725426.76148  20934943.551    20934942.9484   20934942.8754
        49.200          48.9004
 106518295.788 7  83001322.94146  20269732.357    20269731.0744   20269731.3214
        47.800          40.1004
 123501697.742 8                  23501553.564
        48.900
 117840160.025 7  91653595.850 7  22075389.141    22075389.708    22075395.197
        47.800          45.700
 114913658.940 7  89543157.39147  21867325.703    21867325.2434   21867325.7204
        47.000          45.0004
 109160821.180 8  85060482.84346  20772576.453    20772576.0874   20772576.6264
        48.900          40.9004
 118545449.140 7  92373223.33647  22558407.720    22558407.3544   22558411.0714
        45.500          45.2004
 128018431.075 6  99754652.85645  24361086.407    24361085.7774   24361088.9874
        39.500          34.6004
 115206082.796 8  89604796.289 7  21521446.995    21521447.097    21521454.273
        48.900          46.500
 107367462.716 8                  20071181.454    20071181.485
        50.400
 126365619.593 8                  24046522.133
        48.200
 113320811.577 7                  21221301.802    21221301.189
        43.500
 136498036.616 6                  25974704.995
        38.600
 128067817.159 6  99793143.69945  24370486.043    24370485.4764   24370488.2604
        39.500          33.2004
 117922421.421 8  91717510.009 7  22052073.523    22052074.066    22052081.058
        49.000          42.900
 134585541.473 6 104871975.88844  25610735.785    25610735.1954   25610740.2534
        38.900          27.0004
 126269840.701 7  98210056.309 6  23637925.305    23637924.783    23637933.708
        42.800          40.800
 134439862.734 7                  25583006.816
        44.700
 115202240.842 8  89601789.183 7  21611640.347    21611640.593    21611647.109
        49.900          44.800
 128730279.116 6 100123590.732 5  24081656.792    24081656.050    24081667.361
        36.200          33.100
 113768555.110 7  88486719.800 7  21245463.712    21245464.418    21245471.327
        47.800          45.900
 120139752.086 7  93615519.01344  22861783.247    22861781.7814   22861781.8084
        43.800          29.9004
 25  1  1  3 22  0.0000000  0 31E34G25E03G04S31S35R06E21E13S33G12G20
                                E15R22G05G11G06G29R07R23E27R13E05G09
                                R24R12E30R14R01R08G19
 133651210.049 7                  25432928.753
        44.800
 113763463.682 7  88646940.29447  21648441.162    21648440.1704   21648443.6344
        46.600          44.7004
 145322429.076 6                  27653934.436
        38.700
 134559211.531 5 104851339.84841  25605768.487    25605767.9114   25605771.6184
        32.000           9.4004
 198982774.430 7                  37865163.400
        46.200
 200936347.407 7                  38236916.817
        44.500
 129916275.453 5                  24346243.615    24346243.677
        31.600
 140627689.883 7                  26760546.283
        42.200
 136145595.225 7                  25907626.772
        43.800
 202130198.739 7                  38464070.798
        45.500
 110033978.398 8  85740894.12548  20938720.779    20938720.1764   20938720.1804
        49.100          48.9004
 106508027.021 7  82993321.31446  20267778.304    20267777.0214   20267777.2134
        47.600          40.1004
 123503513.098 8                  23501898.936
        48.900
 117875450.201 7  91681043.755 7  22081999.748    22082000.711    22082006.276
        47.700          45.600
 114867004.803 7  89506803.52947  21858447.428    21858446.9724   21858447.7474
        46.900          45.0004
 109174137.129 8  85070858.90446  20775110.455    20775110.0894   20775110.5334
        48.900          40.8004
 118582766.607 7  92402301.87247  22565508.736    22565508.3614   22565512.3844
        45.300          45.1004
 127971417.279 6  99718018.79345  24352140.780    24352140.1634   24352142.6474
        40.900          34.5004
 115216253.999 8  89612707.208 7  21523346.845    21523346.817    21523354.275
        48.900          46.100
 107373019.630 8                  20072220.203    20072220.484
        50.400
 126370751.586 8                  24047498.988
        48.100
 113366510.673 7                  21229859.237    21229859.039
        43.500
 136480619.573 6                  25971390.375
        38.100
 128069749.882 6  99794649.74945  24370853.981    24370853.4094   24370856.2794
        40.500          34.0004
 117888393.322 8  91691043.732 7  22045710.432    22045710.732    22045717.814
        49.000          43.000
 126335260.662 7  98260938.493 6  23650172.319    23650172.275    23650180.910
        43.500          41.200
 134480466.152 7                  25590733.285
        44.400
 115185269.017 8  89588588.877 7  21608456.781    21608456.646    21608463.443
        50.100          44.700
 128664590.887 6 100072499.905 5  24069369.269    24069368.630    24069378.403
        39.200          33.100
 113726827.755 8  88454265.217 7  21237671.618    21237672.517    21237678.366
        48.400          45.600
 120181981.115 7  93648424.71544  22869818.773    22869817.3024   22869817.8694
        43.100          29.7004
 25  1  1  3 22 15.0000000  0 31E34G25E03G04S31S35R06E21E13S33G12G20
                                E15R22G05G11G06G29R07R23E27R13E05G09
                                R24R12E30R14R01R08G19
 133680133.661 7                  25438432.791
        44.700
 113747772.176 7  88634713.15647  21645454.969    21645453.9634   21645457.5694
        46.200          44.7004
 145284905.815 6                  27646793.825
        37.600
 134575696.070 4 104864184.94441  25608905.823    25608905.3144   25608908.6454
        29.800           8.3004
 198982770.656 7                  37865162.215
        46.300
 200936377.116 7                  38236920.689
        44.500
 129967171.075 5                  24355780.662    24355781.366
        32.400
 140594925.175 6                  26754311.404
        41.300
 136119012.533 7                  25902568.408
        44.000
 202130182.257 7                  38464072.350
        45.800
 110053972.296 8  85756473.78148  20942525.545    20942524.9424   20942524.9014
        49.300          48.8004
 106497888.970 7  82985421.54446  20265849.092    20265847.8094   20265847.9854
        47.700          40.0004
 123505368.730 8                  23502252.209
        48.600
 117910757.423 7  91708504.923 7  22088614.753    22088615.126    22088620.298
        47.900          45.700
 114820437.067 7  89470516.99647  21849585.770    21849585.3144   21849586.1994
        47.200          45.0004
 109187517.190 8  85081284.92246  20777656.472    20777656.1014   20777656.6804
        48.700          40.7004
 118620100.961 7  92431393.56447  22572613.190    22572612.8194   22572616.8624
        45.000          44.9004
 127924399.629 6  99681381.70245  24343193.604    24343192.9784   24343195.1414
        40.700          34.6004
 115226619.758 8  89620769.483 7  21525283.212    21525283.691    21525290.497
        49.200          46.200
 107378626.162 8                  20073268.398    20073268.400
        50.300
 126375987.373 7                  24048495.219
        47.800
 113412335.222 7                  21238440.705    21238440.744
        43.400
 136463284.098 6                  25968091.809
        38.400
 128071812.548 6  99796257.04845  24371246.038    24371245.4664   24371248.7714
        39.300          33.2004
 117854389.775 8  91664596.583 7  22039351.866    22039351.351    22039358.728
        48.000          43.000
 126400669.817 7  98311812.277 6  23662417.552    23662417.657    23662425.071
        44.400          40.900
 134521118.952 7                  25598469.370
        44.100
 115168485.710 8  89575535.232 7  21605308.276    21605308.070    21605315.157
        50.100          44.700
 128598875.535 6 100021388.025 5  24057074.776    24057075.943    24057086.114
        39.300          33.700
 113685236.828 7  88421916.767 7  21229904.592    21229905.188    21229912.101
        47.800          45.800
 120224265.160 7  93681373.28444  22877865.062    22877863.5784   22877864.2634
        43.300          29.5004
 25  1  1  3 22 30.0000000  0 31E34G25E03G04S31S35R06E21E13S33G12G20
                                E15R22G05G11G06G29R07R23E27R13E05G09
                                R24R12E30R14R01R08G19
 133709065.938 7                  25443938.442
        44.600
 113732229.472 7  88622601.96847  21642497.540    21642496.5434   21642499.8424
        46.600          44.6004
 145247394.029 6                  27639655.702
        37.800
 134592300.855 5 104877123.70241  25612065.284    25612064.7844   25612068.5894
        34.600           7.9004
 198982767.545 7                  37865157.292
        46.000
 200936407.068 7                  38236927.115
        44.500
 130018171.499 5                  24365337.564    24365338.878
        33.200
 140562227.276 6                  26748089.295
        41.200
 136092466.002 7                  25897516.479
        43.600
 202130165.307 7                  38464063.831
        45.500
 110074113.273 8  85772168.04148  20946358.145    20946357.5374   20946357.5954
        48.900          48.6004
 106487884.517 7  82977625.87846  20263945.197    20263943.9104   20263944.2104
        47.400          39.9004
 123507267.494 8                  23502613.452
        48.600
 117946084.660 7  91735981.626 7  22095232.550    22095232.975    22095238.313
        47.900          45.600
 114773958.956 7  89434300.29647  21840741.235    21840740.7794   21840741.7094
        47.000          44.9004
 109200964.149 8  85091763.07146  20780215.425    20780215.0594   20780215.5084
        48.600          40.6004
 118657454.981 7  92460500.58447  22579721.938    22579721.5724   22579725.0924
        45.000          44.8004
 127877381.204 6  99644744.01545  24334246.606    24334245.9724   24334247.8984
        39.700          34.6004
 115237183.093 8  89628985.413 7  21527256.147    21527256.603    21527263.895
        48.300          46.300
 107384285.482 8                  20074326.508    20074326.547
        50.700
 126381329.883 7                  24049512.042
        47.800
 113458287.709 7                  21247046.146    21247045.630
        43.000
 136446033.260 6                  25964808.424
        37.900
 128074008.141 6  99797967.91645  24371664.313    24371663.7374   24371666.1624
        39.300          33.1004
 117820413.778 8  91638170.815 7  22032998.168    22032998.343    22033004.991
        48.900          42.900
 126466070.749 7  98362679.641 6  23674660.024    23674659.967    23674669.089
        43.900          41.600
 134561823.883 7                  25606215.186
        44.500
 115151894.633 8  89562631.078 7  21602195.592    21602195.919    21602202.076
        49.700          44.700
 128533136.501 6  99970257.709 5  24044778.014    24044777.720    24044788.293
        39.600          34.100
 113643785.674 7  88389677.006 7  21222164.276    21222164.393    21222171.177
        47.300          45.900
 120266607.035 7  93714366.91244  22885923.007    22885921.5274   22885921.7784
        42.500          29.4004
 25  1  1  3 22 45.0000000  0 31E34G25E03G04S31S35R06E21E13S33G12G20
                                E15R22G05G11G06G29R07R23E27R13E05G09
                                R24R12E30R14R01R08G19
 133738007.487 7                  25449445.944
        45.000
 113716836.373 7  88610607.35547  21639568.370    21639567.3734   21639570.6434
        46.300          44.6004
 145209894.666 6                  27632519.843
        38.200
 134609026.704 6 104890156.80643  25615248.575    25615248.0934   25615251.4454
        40.800          21.3004
 198982765.242 7                  37865152.784
        45.700
 200936438.315 7                  38236935.012
        44.300
 130069277.162 5                  24374916.812    24374916.132
        31.400
 140529597.099 7                  26741880.251
        42.200
 136065956.238 7                  25892471.995
        43.100
 202130151.343 7                  38464061.721
        45.500
 110094401.565 8  85787977.09648  20950218.965    20950218.3574   20950218.3324
        49.200          48.7004
 106478014.229 7  82969934.75446  20262067.084    20262065.8014   20262065.9544
        47.900          39.9004
 123509209.931 8                  23502982.960
        48.700
 117981432.565 8  91763474.420 7  22101854.410    22101854.863    22101860.504
        48.000          46.000
 114727571.375 7  89398154.13947  21831914.042    21831913.5774   21831914.4454
        46.800          45.0004
 109214478.491 8  85102293.72646  20782787.323    20782786.9524   20782787.1784
        48.600          40.6004
 118694829.205 7  92489623.35347  22586833.845    22586833.4794   22586837.1674
        45.200          44.8004
 127830362.820 6  99608106.36645  24325299.398    24325298.7594   24325300.6104
        41.100          34.8004
 115247944.535 8  89637355.408 7  21529267.105    21529267.375    21529274.176
        49.600          46.300
 107389998.250 8                  20075394.562    20075394.406
        50.700
 126386779.765 7                  24050549.069
        47.800
 113504368.364 7                  21255675.486    21255675.120
        42.700
 136428867.929 6                  25961542.181
        38.000
 128076337.440 6  99799782.95145  24372107.429    24372106.8394   24372109.8674
        39.200          33.9004
 117786465.812 8  91611766.875 7  22026649.052    22026649.444    22026656.364
        48.800          43.000
 126531463.581 7  98413540.704 6  23686901.869    23686902.111    23686910.406
        44.100          40.800
 134602581.423 7                  25613971.073
        44.100
 115135496.431 8  89549876.938 7  21599119.378    21599119.527    21599126.047
        49.900          44.700
 128467374.967 6  99919109.909 5  24032475.444    24032474.520    24032485.250
        38.300          33.200
 113602475.746 7  88357547.081 7  21214449.839    21214450.138    21214456.636
        47.400          45.900
 120309007.488 7  93747406.18444  22893991.590    22893990.1244   22893990.4364
        43.200          29.2004
 25  1  1  3 23  0.0000000  0 31E34G25E03G04S31S35R06E21E13S33G12G20
                                E15R22G05G11G06G29R07R23E27R13E05G09
                                R24R12E30R14R01R08G19
 133766959.736 7                  25454955.168
        45.100
 113701594.522 7  88598730.59547  21636668.220    21636667.2374   21636670.2284
        46.400          44.5004
 145172409.523 6                  27625386.562
        39.000
 134625875.155 6 104903285.45143  25618455.171    25618454.6714   25618457.4604
        39.100          22.6004
 198982765.991 7                  37865155.803
        46.000
 200936472.665 7                  38236941.853
        44.300
 130120489.204 5                  24384515.219    24384513.245
        32.300
 140497036.358 6                  26735683.875
        41.700
 136039484.770 7                  25887434.449
        43.500
 202130139.416 7                  38464058.716
        45.400
 110114838.559 8  85803902.02048  20954107.807    20954107.2044   20954107.3914
        49.100          48.6004
 106468279.740 7  82962349.44946  20260214.555    20260213.2594   20260213.5354
        47.600          39.9004
 123511197.484 8                  23503361.289
        48.600
 118016802.658 7  91790984.483 7  22108480.433    22108480.613    22108486.170
        47.400          45.400
 114681276.244 7  89362080.02947  21823104.398    21823103.9384   21823104.7764
        47.200          45.0004
 109228061.668 8  85112878.01746  20785372.093    20785371.7184   20785371.9644
        48.300          40.5004
 118732225.040 7  92518762.95447  22593950.016    22593949.6544   22593953.3564
        44.900          44.6004
 127783346.210 6  99571470.07845  24316351.345    24316350.7114   24316353.4264
        40.800          34.7004
 115258905.482 8  89645880.603 7  21531314.105    21531314.609    21531321.629
        49.200          46.300
 107395765.755 8                  20076472.593    20076472.398
        50.300
 126392338.555 7                  24051606.618
        47.700
 113550578.029 7                  21264329.514    21264328.631
        42.700
 136411789.770 6                  25958292.424
        38.100
 128078802.055 6  99801703.45145  24372577.098    24372576.4994   24372579.3704
        38.500          33.5004
 117752547.570 8  91585386.042 7  22020306.777    22020306.693    22020313.412
        48.600          43.000
 126596849.365 7  98464396.294 6  23699141.637    23699141.676    23699149.778
        43.600          40.200
 134643392.851 7                  25621737.217
        44.400
 115119292.707 8  89537274.062 7  21596079.520    21596079.477    21596086.247
        49.800          44.600
 128401592.796 6  99867946.004 5  24020169.605    24020169.715    24020179.170
        39.200          33.500
 113561308.957 7  88325528.500 7  21206762.262    21206762.632    21206769.398
        47.400          46.100
 120351467.822 7  93780492.11144  22902071.590    22902070.1284   22902070.1224
        44.000          29.1004
 25  1  1  3 23 15.0000000  0 31E34G25E03G04S31S35R06E21E13S33G12G20
                                E15R22G05G11G06G29R07R23E27R13E05G09
                                R24R12E30R14R01R08G19
 133795915.692 7                  25460465.456
        45.000
 113686497.154 7  88586966.41547  21633795.091    21633794.1084   21633797.2864
        46.600          44.6004
 145134931.814 6                  27618254.279
        38.300
 134642838.860 4 104916503.78942  25621682.930    25621682.4164   25621685.1894
        29.400          14.5004
 198982762.492 7                  37865153.164
        46.000
 200936502.212 7                  38236945.162
        44.400
 130171800.223 5                  24394128.857    24394128.078
        31.300
 140464538.320 7                  26729499.673
        42.200
 136013044.628 7                  25882403.223
        43.600
 202130122.570 7                  38464055.304
        45.800
 110135417.113 8  85819937.25048  20958024.091    20958023.4884   20958023.3974
        48.900          48.6004
 106458674.134 7  82954864.57146  20258386.696    20258385.4044   20258385.6344
        47.700          39.9004
 123513223.114 8                  23503746.742
        48.900
 118052187.885 8  91818506.291 7  22115109.348    22115109.955    22115114.697
        48.000          45.600
 114635066.792 7  89326072.67547  21814311.009    21814310.5404   21814311.3884
        47.200          45.0004
 109241706.578 8  85123510.41546  20787968.658    20787968.2964   20787968.5194
        48.400          40.5004
 118769635.430 7  92547913.89647  22601068.858    22601068.4924   22601072.3584
        45.300          44.5004
 127736324.510 6  99534829.83245  24307403.839    24307403.2094   24307405.3074
        41.000          34.5004
 115270058.834 8  89654555.434 7  21533398.125    21533398.350    21533405.512
        49.500          46.300
 107401581.081 8                  20077559.888    20077559.561
        50.600
 126397999.287 7                  24052684.013
        47.800
 113596909.265 7                  21273006.237    21273005.202
        43.000
 136394792.025 6                  25955058.224
        38.500
 128081395.003 6  99803723.94645  24373069.273    24373068.6744   24373072.3984
        39.200          33.4004
 117718651.816 8  91559022.699 7  22013968.133    22013968.320    22013975.111
        49.400          43.000
 126662220.610 7  98515240.577 6  23711381.162    23711380.426    23711388.698
        44.900          41.300
 134684251.057 7                  25629512.167
        44.100
 115103276.703 8  89524817.169 7  21593074.889    21593074.810    21593081.447
        49.700          44.700
 128335783.428 6  99816760.983 5  24007858.004    24007858.649    24007867.792
        38.800          33.500
 113520278.805 7  88293616.170 7  21199100.203    21199100.534    21199106.955
        47.100          46.000
 120393981.055 7  93813619.26244  22910161.110    22910159.6304   22910160.0874
        42.600          29.2004
 25  1  1  3 23 30.0000000  0 31E34G25E03G04S31S35R06E21E13S33G12G20
                                E15R22G05G11G06G29R07R23E27R13E05G09
                                R24R12E30R14R01R08G19
 133824878.752 7                  25465977.039
        45.100
 113671547.880 7  88575317.64147  21630950.291    21630949.3084   21630952.5474
        46.400          44.6004
 145097465.310 6                  27611125.708
        39.200
 134659921.638 6 104929815.04542  25624933.397    25624932.9244   25624935.8574
        36.000          16.1004
 198982758.212 7                  37865150.280
        45.800
 200936531.072 7                  38236945.932
        44.100
 130223213.101 5                  24403763.186    24403763.450
        31.900
 140432106.691 7                  26723328.138
        42.000
 135986639.271 7                  25877378.487
        43.500
 202130104.965 7                  38464055.138
        45.600
 110156140.593 8  85836085.40448  20961967.716    20961967.1224   20961966.9614
        49.200          48.6004
 106449200.879 7  82947482.82746  20256583.860    20256582.5684   20256582.8954
        47.600          39.9004
 123515290.235 8                  23504140.134
        49.000
 118087591.800 7  91846042.686 7  22121740.949    22121741.684    22121747.482
        47.100          45.600
 114588946.950 7  89290135.14847  21805534.912    21805534.4434   21805535.0204
        47.100          45.1004
 109255416.587 8  85134193.53946  20790577.468    20790577.1064   20790577.4424
        48.700          40.5004
 118807063.773 7  92577078.82247  22608191.235    22608190.8644   22608194.7274
        44.900          44.3004
 127689301.359 6  99498188.45845  24298455.391    24298454.7654   24298457.2234
        40.300          34.7004
 115281407.867 8  89663382.477 7  21535518.238    21535518.332    21535525.406
        49.000          46.300
 107407447.503 8                  20078656.180    20078656.316
        50.800
 126403765.465 8                  24053781.265
        48.000
 113643364.925 7                  21281705.811    21281705.101
        42.600
 136377878.394 6                  25951839.288
        38.600
 128084119.923 6  99805847.28545  24373588.244    24373587.6594   24373590.9724
        38.900          33.4004
 117684782.206 8  91532679.715 7  22007633.937    22007634.240    22007641.178
        48.700          43.000
 126727580.439 7  98566075.969 6  23723615.205    23723615.693    23723624.457
        44.900          41.000
 134725159.339 7                  25637296.731
        44.100
 115087451.976 8  89512509.085 7  21590106.999    21590106.954    21590112.947
        50.700          44.800
 128269951.145 6  99765558.079 5  23995542.615    23995542.075    23995553.296
        37.800          33.300
 113479389.272 7  88261813.247 7  21191463.986    21191464.384    21191471.365
        47.200          46.200
 120436550.654 7  93846790.32744  22918262.362    22918260.8914   22918260.9594
        43.300          29.1004
 25  1  1  3 23 45.0000000  0 31E34G25E03G04S31S35R06E21E13S33G12G20
                                E15R22G05G11G06G29R07R23E27R13E05G09
                                R24R12E30R14R01R08G19
 133853850.903 7                  25471490.121
        44.800
 113656748.855 7  88563785.94547  21628133.833    21628132.8364   21628136.3554
        47.000          44.6004
 145060012.324 6                  27603997.394
        39.200
 134677125.036 6 104943220.21543  25628207.740    25628207.2934   25628209.4474
        38.900          20.6004
 198982755.068 7                  37865150.347
        45.600
 200936561.411 7                  38236959.203
        44.600
 130274729.214 5                  24413417.640    24413417.509
        30.600
 140399743.738 7                  26717169.761
        42.300
 135960270.734 7                  25872360.790
        44.000
 202130089.894 7                  38464051.816
        45.600
 110177010.887 8  85852347.96348  20965938.833    20965938.2344   20965938.4424
        49.500          48.6004
 106439861.883 7  82940205.69546  20254806.819    20254805.5184   20254805.6854
        47.900          39.9004
 123517400.789 8                  23504541.737
        49.000
 118123016.432 7  91873595.122 7  22128377.863    22128378.091    22128383.754
        47.300          45.700
 114542918.832 7  89254269.09547  21796776.261    21796775.7964   21796776.1584
        47.300          45.1004
 109269193.594 8  85144928.86546  20793199.022    20793198.6514   20793199.0924
        49.000          40.5004
 118844511.965 7  92606259.23047  22615317.486    22615317.1024   22615320.8894
        44.600          44.3004
 127642278.904 6  99461547.62645  24289507.715    24289507.0854   24289508.9254
        39.900          34.4004
 115292954.848 8  89672363.447 7  21537675.062    21537675.501    21537682.307
        49.400          46.200
 107413367.495 8                  20079762.808    20079763.271
        51.200
 126409639.135 7                  24054898.871
        47.900
 113689946.675 7                  21290429.246    21290428.003
        43.100
 136361051.084 6                  25948637.412
        38.200
 128086978.829 6  99808075.01545  24374132.585    24374131.9914   24374134.8334
        38.900          33.2004
 117650940.792 8  91506358.635 7  22001305.622    22001305.727    22001312.071
        48.500          42.700
 126792930.260 7  98616903.595 6  23735848.692    23735849.373    23735857.354
        44.200          40.700
 134766119.531 7                  25645091.321
        44.100
 115071820.853 8  89500351.552 7  21587173.833    21587174.496    21587180.814
        50.600          44.800
 128204098.253 6  99714339.187 5  23983223.901    23983223.792    23983234.566
        38.500          34.300
 113438643.138 7  88230121.828 7  21183854.948    21183855.395    21183862.094
        46.900          46.100
 120479178.491 7  93880006.77944  22926373.839    22926372.3734   22926372.7514
        43.100          29.1004
