     2.11           OBSERVATION DATA    M (MIXED)           RINEX VERSION / TYPE
teqc  2019Feb25                         20260317 16:20:09UTCPGM / RUN BY / DATE
Linux 2.4.21-27.ELsmp|Opteron|gcc -static|Linux 64|=+       COMMENT
BIT 2 OF LLI FLAGS DATA COLLECTED UNDER A/S CONDITION       COMMENT
-Unknown-                                                   MARKER NAME
-Unknown-           -Unknown-                               OBSERVER / AGENCY
-Unknown-           -Unknown-           -Unknown-           REC # / TYPE / VERS
-Unknown-           -Unknown-                               ANT # / TYPE
        0.0000        0.0000        0.0000                  APPROX POSITION XYZ
        0.0000        0.0000        0.0000                  ANTENNA: DELTA H/E/N
     1     1                                                WAVELENGTH FACT L1/2
     7    L1    L2    C1    P1    P2    S1    S2            # / TYPES OF OBSERV
 SNR is mapped to RINEX snr flag value [0-9]                COMMENT
  L1 & L2: min(max(int(snr_dBHz/6), 0), 9)                  COMMENT
  2025     1     1    23     0    0.0000000     GPS         TIME OF FIRST OBS
    18                                                      LEAP SECONDS
                                                            END OF HEADER
 25  1  1 23  0  0.0000000  0 32E03E05G17S31S35G07G15E33E25S48S33G30
                                E11E31R13G06G24E12R23E10R04R11G21G03
                                E24R21G13G14G02R12G19R22
 146458151.532 6                  27870052.753
        38.100
 137235253.487 6                  26115021.654
        37.200
 107360682.327 8  83657861.01248  20429978.644    20429977.9964   20429978.8124
        49.500          51.5004
 198973861.647 7                  37863474.929
        45.300
 200894037.177 7                  38228876.898
        43.900
 130862834.323 5 101971033.45344  24902390.322    24902389.6344   24902403.6254
        35.400          24.5004
 134471470.278 6 104782958.03944  25589081.884    25589081.4374   25589088.5104
        37.500          24.4004
 133700042.629 7                  25442201.834
        43.700
 138984420.875 6                  26447839.293
        41.400
 413005530.320 5                  78592143.764
        32.400
 202132045.652 7                  38464431.081
        44.800
 117861204.975 7  91839920.34346  22428244.480    22428243.5594   22428251.0774
        43.200          40.9004
 138912817.775 6                  26434190.106
        37.500
 130209034.889 7                  24777905.381
        44.500
 118308264.158 7                  22155333.778    22155334.190
        42.800
 121315006.766 7  94531302.10246  23085437.326    23085436.9554   23085446.2374
        42.400          39.3004
 127004095.999 6  98964263.65945  24168073.200    24168072.8254   24168077.2184
        38.600          31.8004
 126998995.735 7                  24167029.663
        43.400
 114275945.831 8                  21362632.800    21362632.789
        48.000
 130056078.268 7                  24748784.387
        45.700
 131503639.761 6 102280636.103 6  24557383.755    24557384.019    24557393.929
        40.700          37.700
 111444566.280 8  86679262.572 7  20855286.029    20855286.167    20855293.738
        50.700          47.100
 132397695.450 5 103167198.19842  25194380.558    25194379.2894   25194381.7484
        33.000          15.2004
 126255392.742 6  98380922.80745  24025572.641    24025572.2754   24025581.2324
        36.400          31.9004
 125147852.729 7                  23814780.100
        47.700
 114444103.211 8  89012298.459 7  21386551.809    21386552.549    21386559.245
        51.700          46.400
 127341719.132 6  99227300.27343  24232340.459    24232339.8514   24232347.9574
        38.300          20.1004
 106068074.213 8  82650609.16246  20184020.858    20184020.5054   20184021.8504
        49.300          41.8004
 123085471.063 7  95910918.24245  23422318.262    23422317.0284   23422317.4494
        44.200          31.6004
 103499725.733 8  80499838.962 8  19375354.289    19375354.595    19375361.830
        51.900          48.100
 111079381.895 7  86555547.74946  21137620.755    21137619.3424   21137620.4094
        47.500          39.7004
 102144895.189 8  79446242.455 8  19135108.961    19135109.024    19135114.487
        52.600          50.800
 25  1  1 23  0 15.0000000  0 32E03E05G17S31S35G07G15E33E25S48S33G30
                                E11E31R13G06G24E12R23E10R04R11G21G03
                                E24R21G13G14G02R12G19R22
 146468838.829 6                  27872086.182
        37.200
 137269456.085 6                  26121530.175
        37.800
 107366168.046 8  83662135.61648  20431022.420    20431021.7724   20431022.6894
        49.500          51.4004
 198973864.978 7                  37863476.865
        45.500
 200894055.564 7                  38228882.255
        43.900
 130919923.821 6 102015518.73244  24913254.585    24913253.9554   24913267.6384
        36.800          25.7004
 134503319.758 6 104807775.68043  25595142.241    25595141.7944   25595149.0784
        37.200          20.0004
 133726608.450 7                  25447257.098
        43.900
 138951410.170 6                  26441557.627
        41.300
 413005779.233 5                  78592135.138
        32.500
 202132043.780 7                  38464431.014
        44.700
 117910279.159 7  91878159.86046  22437583.438    22437582.5174   22437589.6544
        43.900          40.9004
 138866257.062 6                  26425329.654
        38.000
 130230521.632 7                  24781994.267
        44.800
 118252818.041 7                  22144950.513    22144950.707
        43.100
 121260527.824 6  94488851.11246  23075069.707    23075069.3104   23075078.9724
        41.400          39.1004
 126962411.833 6  98931782.50345  24160141.574    24160141.2084   24160144.8824
        38.600          31.4004
 126981173.116 7                  24163638.062
        43.700
 114223762.929 8                  21352877.662    21352877.037
        48.000
 130020850.024 7                  24742080.513
        45.800
 131507304.045 6 102283486.034 6  24558068.766    24558069.345    24558078.664
        40.800          38.100
 111485540.225 8  86711131.158 7  20862953.464    20862953.868    20862961.252
        50.800          47.200
 132452832.731 5 103210162.33042  25204872.667    25204871.4474   25204874.1914
        33.500          16.0004
 126222153.938 6  98355022.60645  24019247.860    24019247.5164   24019255.6714
        37.000          32.3004
 125137826.397 7                  23812872.371
        47.900
 114496698.994 8  89053206.314 7  21396380.089    21396380.706    21396387.898
        51.000          46.200
 127380952.945 6  99257871.92243  24239806.920    24239806.3264   24239813.7254
        38.600          19.6004
 106074834.158 8  82655876.65446  20185307.022    20185306.6654   20185308.2244
        49.000          41.8004
 123129624.256 7  95945323.33745  23430720.291    23430719.0574   23430719.4724
        43.300          31.5004
 103479414.355 8  80484041.227 8  19371552.287    19371552.455    19371559.364
        52.600          48.100
 111053087.933 8  86535058.97546  21132617.435    21132616.0184   21132616.8244
        48.100          39.7004
 102140548.402 8  79442861.655 8  19134294.307    19134294.653    19134300.267
        52.800          50.900
 25  1  1 23  0 30.0000000  0 32E03E05G17S31S35G07G15E33E25S48S33G30
                                E11E31R13G06G24E12R23E10R04R11G21G03
                                E24R21G13G14G02R12G19R22
 146479624.317 6                  27874138.535
        37.800
 137303693.797 6                  26128045.530
        37.600
 107371730.410 8  83666469.94548  20432080.829    20432080.1864   20432081.1584
        49.700          51.5004
 198973874.284 7                  37863478.515
        45.600
 200894079.681 7                  38228885.783
        44.200
 130977019.519 5 102060008.87344  24924119.214    24924118.5934   24924132.2904
        35.600          24.8004
 134535232.035 6 104832642.23043  25601214.949    25601214.5164   25601222.1954
        36.000          21.1004
 133753263.671 7                  25452329.483
        44.000
 138918405.367 6                  26435277.258
        41.400
 413006032.104 5                  78592142.225
        32.500
 202132047.883 7                  38464431.958
        45.000
 117959425.403 7  91916455.48946  22446935.364    22446934.4574   22446941.9944
        43.500          40.7004
 138819732.006 6                  26416476.018
        38.000
 130252056.702 7                  24786091.957
        45.000
 118197407.691 7                  22134574.089    22134573.774
        42.400
 121206106.254 6  94446444.83846  23064714.330    23064713.9414   23064722.8694
        41.700          39.4004
 126920829.392 6  98899380.60945  24152228.369    24152228.0164   24152231.8634
        38.600          31.7004
 126963459.156 7                  24160267.100
        43.800
 114171694.728 7                  21343143.019    21343143.567
        47.900
 129985701.953 7                  24735392.040
        46.100
 131511143.742 6 102286472.336 6  24558785.186    24558786.043    24558795.760
        39.700          37.500
 111526636.669 8  86743095.017 7  20870643.927    20870644.514    20870651.428
        50.500          46.900
 132507994.435 5 103253145.49642  25215369.863    25215368.6474   25215371.2404
        34.000          16.0004
 126188997.005 6  98329186.19845  24012937.567    24012937.2234   24012946.0864
        38.600          32.8004
 125127846.117 8                  23810973.209
        48.100
 114549376.259 8  89094177.514 7  21406224.508    21406224.670    21406232.121
        51.000          46.100
 127420233.880 6  99288480.29643  24247281.893    24247281.2994   24247289.0394
        39.100          19.8004
 106081690.635 8  82661219.36946  20186611.976    20186611.6054   20186612.9634
        49.100          41.8004
 123173847.897 7  95979783.32645  23439135.858    23439134.6294   23439134.8824
        43.900          31.7004
 103459241.217 8  80468351.017 8  19367775.410    19367775.987    19367782.810
        52.200          48.000
 111026872.182 8  86514631.14646  21127628.596    21127627.1754   21127628.1174
        48.000          39.9004
 102136387.384 8  79439625.309 8  19133514.982    19133515.177    19133520.702
        52.700          50.600
 25  1  1 23  0 45.0000000  0 31E03E05G17S31S35G07E33E25S48S33G30E11
                                E31R13G06G24E12R23E10R04R11G21G03E24
                                R21G13G14G02R12G19R22
 146490499.775 6                  27876207.933
        38.200
 137337958.268 6                  26134566.171
        37.200
 107377360.972 8  83670857.40948  20433152.279    20433151.6364   20433152.6044
        49.700          51.3004
 198973881.067 7                  37863479.915
        45.600
 200894100.715 7                  38228890.594
        44.000
 131034113.254 6 102104497.48844  24934984.663    24934984.0604   24934996.6564
        36.000          24.3004
 133779999.953 7                  25457417.189
        44.100
 138885398.434 6                  26428995.706
        41.900
 413004682.857 5                  78592150.095
        33.000
 202132048.631 7                  38464430.111
        44.900
 118008635.334 7  91954800.72846  22456300.131    22456299.2334   22456306.4484
        43.500          40.5004
 138773234.670 6                  26407627.792
        38.500
 130273631.969 7                  24790197.924
        45.300
 118142025.530 6                  22124202.192    22124202.544
        41.600
 121151734.301 7  94404077.22246  23054367.245    23054366.8654   23054376.0264
        42.400          39.3004
 126879340.909 6  98867051.95345  24144333.249    24144332.9104   24144337.5664
        38.700          32.2004
 126945845.755 7                  24156915.464
        43.800
 114119733.314 7                  21333430.478    21333429.794
        47.100
 129950626.082 7                  24728717.400
        46.300
 131515151.245 6 102289589.353 6  24559534.709    24559535.308    24559544.216
        40.900          37.000
 111567847.139 8  86775147.603 7  20878356.154    20878356.310    20878363.743
        50.200          47.100
 132563172.746 5 103296141.57842  25225869.653    25225868.4014   25225871.3434
        33.400          15.7004
 126155914.208 6  98303407.57445  24006641.771    24006641.4274   24006650.9274
        38.200          33.0004
 125117903.884 8                  23809081.150
        48.400
 114602126.155 8  89135205.213 7  21416082.539    21416082.147    21416089.661
        50.900          46.100
 127459553.512 6  99319118.80043  24254763.657    24254763.0814   24254771.3834
        38.500          19.1004
 106088635.619 8  82666631.04546  20187933.653    20187933.2874   20187934.5694
        48.800          41.7004
 123218133.566 7  96014291.64345  23447562.905    23447561.6674   23447562.1154
        43.900          31.2004
 103439198.342 8  80452762.136 8  19364023.770    19364023.848    19364030.770
        52.200          48.200
 111000726.592 8  86494257.98746  21122653.308    21122651.8874   21122652.7304
        48.100          39.7004
 102132403.804 8  79436527.001 8  19132768.536    19132768.939    19132774.424
        52.500          50.600
 25  1  1 23  1  0.0000000  0 31E03E05G17S31S35G07E33E25S48S33G30E11
                                E31R13G06G24E12R23E10R04R11G21G03E24
                                R21G13G14G02R12G19R22
 146501464.442 6                  27878294.581
        37.500
 137372248.540 6                  26141091.650
        37.400
 107383059.199 8  83675297.60148  20434236.504    20434235.8614   20434236.9284
        49.700          51.4004
 198973884.199 7                  37863479.409
        45.500
 200894118.616 7                  38228893.697
        43.900
 131091203.855 6 102148983.64943  24945847.690    24945847.0474   24945860.7054
        36.600          23.7004
 133806816.478 7                  25462520.052
        43.900
 138852388.780 6                  26422714.269
        41.300
 413004929.823 5                  78592164.923
        32.500
 202132046.239 7                  38464431.931
        44.800
 118057908.009 7  91993194.89746  22465676.134    22465675.2404   22465682.8464
        44.000          40.6004
 138726764.648 6                  26398784.643
        38.000
 130295246.864 7                  24794310.688
        44.800
 118086670.989 7                  22113836.213    22113836.133
        42.400
 121097411.635 7  94361748.01346  23044029.809    23044029.4254   23044038.7484
        42.100          39.4004
 126837946.042 6  98834796.23045  24136456.379    24136456.0264   24136460.5174
        39.400          32.1004
 126928332.433 7                  24153582.862
        43.700
 114067878.201 7                  21323736.483    21323735.960
        47.400
 129915622.032 7                  24722056.285
        46.300
 131519325.071 6 102292835.696 6  24560311.563    24560313.187    24560323.656
        40.300          37.100
 111609170.903 8  86807288.266 7  20886089.219    20886089.400    20886097.181
        50.200          47.300
 132618366.370 5 103339149.58842  25236373.594    25236372.3424   25236374.3044
        34.000          15.6004
 126122905.320 6  98277686.52945  24000360.562    24000360.2454   24000369.2544
        37.200          32.4004
 125107999.169 8                  23807196.156
        48.400
 114654947.780 8  89176288.706 7  21425953.498    21425953.661    21425960.585
        51.200          46.100
 127498910.864 6  99349786.72743  24262252.981    24262252.3874   24262260.8234
        38.400          19.1004
 106095668.575 8  82672111.27046  20189272.112    20189271.7464   20189272.9214
        48.800          41.7004
 123262480.412 7  96048847.64245  23456001.709    23456000.4934   23456000.8504
        43.600          31.3004
 103419285.500 8  80437274.384 8  19360295.850    19360296.058    19360303.100
        52.200          48.200
 110974650.581 8  86473939.04546  21117691.094    21117689.6644   21117690.5574
        48.000          39.9004
 102128596.945 8  79433566.141 8  19132055.710    19132055.769    19132061.330
        52.400          50.500
 25  1  1 23  1 15.0000000  0 31E03E05G17S31S35G07E33E25S48S33G30E11
                                E31R13G06G24E12R23E10R04R11G21G03E24
                                R21G13G14G02R12G19R22
 146512524.549 6                  27880399.315
        38.400
 137406570.812 6                  26147623.459
        37.200
 107388831.322 8  83679795.37248  20435334.668    20435334.0294   20435335.3154
        49.200          51.2004
 198973890.914 7                  37863480.921
        45.600
 200894139.979 7                  38228898.303
        44.100
 131148297.349 5 102193472.06643  24956711.938    24956711.2814   24956724.9364
        35.600          23.4004
 133833719.425 7                  25467639.474
        44.100
 138819382.853 6                  26416433.854
        41.700
 413005178.154 5                  78592158.506
        32.700
 202132047.327 7                  38464432.637
        45.000
 118107249.431 7  92031642.62846  22475065.516    22475064.6314   22475072.4134
        43.200          40.3004
 138680328.564 6                  26389948.650
        38.500
 130316907.770 7                  24798433.126
        45.100
 118031351.501 7                  22103477.002    22103476.913
        42.600
 121043144.970 6  94319462.43446  23033702.909    23033702.5204   23033712.0324
        41.700          39.3004
 126796651.508 6  98802618.69345  24128598.829    24128598.4634   24128601.9714
        39.400          32.2004
 126910925.603 7                  24150270.340
        44.000
 114016136.357 7                  21314063.588    21314063.402
        47.400
 129880696.294 7                  24715409.914
        46.300
 131523671.672 6 102296216.280 6  24561125.454    24561126.204    24561135.264
        39.700          37.300
 111650614.205 8  86839521.929 7  20893845.054    20893845.134    20893852.620
        50.400          47.000
 132673581.269 5 103382174.18742  25246880.446    25246879.1634   25246881.5574
        33.100          15.9004
 126089977.073 6  98252028.32445  23994094.755    23994094.4384   23994102.9014
        38.100          32.4004
 125098138.440 8                  23805319.919
        48.400
 114707846.941 8  89217432.508 7  21435838.331    21435839.153    21435846.081
        51.300          46.300
 127538311.718 6  99380488.54643  24269750.732    24269750.1204   24269758.6564
        39.100          19.2004
 106102795.965 8  82677665.08246  20190628.276    20190627.9054   20190629.2324
        48.900          41.6004
 123306894.543 7  96083456.06245  23464453.907    23464452.7004   23464452.7624
        43.300          31.1004
 103399509.462 8  80421893.016 8  19356593.981    19356593.992    19356600.959
        52.500          48.300
 110948650.445 8  86453679.22746  21112743.471    21112742.0414   21112742.8684
        48.100          39.7004
 102124973.121 8  79430747.625 8  19131376.779    19131376.870    19131382.395
        52.700          50.500
 25  1  1 23  1 30.0000000  0 31E03E05G17S31S35G07E33E25S48S33G30E11
                                E31R13G06G24E12R23E10R04R11G21G03E24
                                R21G13G14G02R12G19R22
 146523675.956 6                  27882521.289
        38.400
 137440920.688 6                  26154159.420
        37.500
 107394673.087 8  83684347.41448  20436446.671    20436446.0324   20436446.9514
        49.400          51.1004
 198973896.665 7                  37863486.157
        45.500
 200894159.459 7                  38228899.479
        43.700
 131205389.213 6 102237959.21244  24967576.666    24967576.0054   24967589.1194
        36.100          24.4004
 133860704.527 7                  25472774.460
        44.400
 138786376.692 7                  26410152.666
        42.300
 413005427.745 5                  78592160.751
        32.600
 202132046.667 7                  38464430.187
        44.600
 118156655.243 7  92070140.53946  22484467.445    22484466.5784   22484474.1784
        43.700          40.3004
 138633922.553 6                  26381117.118
        38.200
 130338610.692 7                  24802562.650
        45.200
 117976062.839 6                  22093123.579    22093122.424
        41.800
 120988930.595 7  94277217.60346  23023386.438    23023386.0414   23023395.0824
        42.200          39.1004
 126755453.560 6  98770516.41245  24120758.440    24120758.0784   24120761.7014
        39.400          31.8004
 126893621.371 7                  24146977.516
        44.100
 113964503.890 7                  21304411.415    21304411.128
        47.000
 129845845.012 7                  24708777.932
        46.600
 131528187.038 6 102299728.176 5  24561968.591    24561969.637    24561978.147
        40.600          35.300
 111692172.908 8  86871845.329 7  20901621.702    20901622.265    20901629.680
        49.900          47.100
 132728813.037 5 103425211.93942  25257390.627    25257389.3534   25257391.7614
        34.600          15.6004
 126057125.802 6  98226430.11745  23987842.833    23987842.5164   23987851.3634
        38.100          32.6004
 125088317.754 8                  23803450.891
        48.500
 114760819.119 8  89258633.104 7  21445737.370    21445737.765    21445745.002
        50.600          46.200
 127577751.665 6  99411220.81443  24277255.979    24277255.3454   24277264.2934
        38.200          18.8004
 106110013.821 8  82683289.38846  20192001.891    20192001.5204   20192002.7534
        48.800          41.5004
 123351371.451 7  96118113.41245  23472917.247    23472916.0494   23472916.4484
        43.700          31.0004
 103379866.448 8  80406615.130 8  19352916.597    19352916.794    19352923.720
        52.600          48.300
 110922722.142 8  86433475.38646  21107809.685    21107808.2554   21107808.8664
        48.100          39.6004
 102121528.130 8  79428068.203 8  19130731.051    19130731.552    19130737.117
        52.700          50.600
 25  1  1 23  1 45.0000000  0 31E03E05G17S31S35G07E33E25S48S33G30E11
                                E31R13G06G24E12R23E10R04R11G21G03E24
                                R21G13G14G02R12G19R22
 146534920.055 6                  27884660.952
        38.300
 137475299.498 6                  26160701.571
        37.300
 107400586.063 8  83688954.94448  20437571.821    20437571.1824   20437572.1374
        49.600          51.5004
 198973902.737 7                  37863484.646
        45.300
 200894181.019 7                  38228905.476
        43.700
 131262480.641 5 102282446.02244  24978440.671    24978440.0374   24978453.2614
        35.600          24.2004
 133887773.161 7                  25477925.240
        44.600
 138753371.852 7                  26403871.735
        42.600
 413005677.017 5                  78592160.881
        32.200
 202132048.017 7                  38464432.378
        44.600
 118206126.630 7  92108689.54946  22493881.708    22493880.8414   22493888.3704
        43.500          40.5004
 138587548.360 6                  26372292.923
        38.500
 130360357.235 7                  24806700.969
        45.200
 117920807.090 7                  22082775.769    22082775.429
        42.800
 120934770.394 6  94235014.98746  23013079.872    23013079.4614   23013088.5154
        41.400          39.4004
 126714354.063 6  98738490.85845  24112937.224    24112936.8404   24112940.8874
        39.000          32.3004
 126876421.285 7                  24143704.456
        43.900
 113912982.618 7                  21294780.130    21294779.642
        47.600
 129811069.928 7                  24702160.192
        46.600
 131532872.513 6 102303372.359 5  24562843.139    24562844.537    24562853.678
        40.800          35.400
 111733848.285 8  86904259.502 7  20909420.594    20909421.173    20909428.936
        50.100          47.100
 132784063.033 5 103468263.90042  25267904.755    25267903.4414   25267905.8924
        34.200          16.2004
 126024353.467 6  98200893.39245  23981606.676    23981606.3554   23981614.6524
        38.000          32.9004
 125078538.769 8                  23801589.974
        48.500
 114813865.552 8  89299891.454 7  21455651.149    21455651.240    21455657.851
        50.700          46.300
 127617231.860 6  99441984.44743  24284769.958    24284769.3504   24284777.5224
        37.600          19.0004
 106117323.785 8  82688985.46846  20193393.005    20193392.6344   20193393.7634
        48.900          41.8004
 123395912.504 7  96152820.74445  23481393.293    23481392.1004   23481392.1184
        43.900          31.1004
 103360358.447 8  80391442.263 8  19349264.971    19349265.115    19349271.831
        52.700          48.400
 110896867.283 7  86413328.77446  21102889.374    21102887.9444   21102888.8564
        47.900          40.0004
 102118263.411 8  79425529.014 8  19130119.782    19130120.018    19130125.435
        52.400          50.600
 25  1  1 23  2  0.0000000  0 31E03E05G17S31S35G07E33E25S48S33G30E11
                                E31R13G06G24E12R23E10R04R11G21G03E24
                                R21G13G14G02R12G19R22
 146546255.989 6                  27886817.680
        38.200
 137509706.256 6                  26167249.207
        37.700
 107406569.484 8  83693617.36448  20438710.331    20438709.6884   20438710.7374
        49.300          51.3004
 198973909.354 7                  37863485.191
        45.700
 200894201.740 7                  38228911.208
        44.100
 131319570.926 5 102326931.94343  24989305.211    24989304.6084   24989317.6944
        34.700          22.9004
 133914924.366 7                  25483092.099
        44.500
 138720367.725 7                  26397591.382
        42.000
 413005923.454 5                  78592163.202
        32.600
 202132048.607 7                  38464432.432
        45.000
 118255662.521 7  92147288.82946  22503307.834    22503306.9544   22503314.8904
        43.000          40.3004
 138541205.484 6                  26363473.669
        38.800
 130382146.665 7                  24810847.470
        45.100
 117865583.973 7                  22072434.063    22072434.019
        42.800
 120880663.970 6  94192854.27146  23002783.535    23002783.1334   23002792.4394
        41.900          39.5004
 126673352.606 6  98706541.70145  24105135.031    24105134.6384   24105139.1984
        38.700          32.7004
 126859324.656 7                  24140451.142
        44.000
 113861572.186 7                  21285168.645    21285169.119
        47.100
 129776370.484 7                  24695557.339
        46.600
 131537727.365 6 102307148.246 5  24563750.105    24563751.029    24563759.825
        39.600          35.600
 111775639.421 8  86936763.697 7  20917241.226    20917241.647    20917249.174
        49.900          47.100
 132839330.208 5 103511329.20442  25278419.908    25278418.6074   25278422.5044
        33.200          14.4004
 125991659.729 6  98175417.92545  23975385.049    23975384.7284   23975392.8414
        38.200          32.6004
 125068800.842 8                  23799736.898
        48.500
 114866984.781 8  89341206.419 7  21465577.306    21465577.567    21465584.509
        51.100          46.300
 127656751.266 6  99472778.63243  24292289.877    24292289.2834   24292297.7854
        39.400          19.0004
 106124725.223 8  82694752.82846  20194801.300    20194800.9344   20194802.2174
        48.900          41.6004
 123440516.673 7  96187577.24745  23489881.265    23489880.0674   23489879.9954
        43.800          31.1004
 103340985.003 8  80376374.028 8  19345637.581    19345638.240    19345644.983
        52.900          48.500
 110871085.155 8  86393238.82946  21097983.505    21097982.0794   21097982.6634
        48.100          39.9004
 102115178.140 8  79423129.375 8  19129541.659    19129541.756    19129547.492
        52.600          50.600
 25  1  1 23  2 15.0000000  0 31E03E05G17S31S35G07E33E25S48S33G30E11
                                E31R13G06G24E12R23E10R04R11G21G03E24
                                R21G13G14G02R12G19R22
 146557680.683 6                  27888992.715
        37.200
 137544137.735 6                  26173801.082
        37.600
 107412620.447 8  83698332.41248  20439861.747    20439861.1044   20439862.1934
        49.100          51.3004
 198973912.034 7                  37863483.841
        45.500
 200894219.375 7                  38228914.826
        44.100
 131376656.786 5 102371414.42143  25000167.567    25000166.9194   25000180.9164
        34.500          22.0004
 133942154.934 7                  25488273.984
        44.900
 138687361.368 7                  26391310.761
        42.100
 413006166.423 5                  78592171.483
        32.400
 202132045.445 7                  38464433.755
        44.800
 118305259.597 7  92185935.79346  22512746.257    22512745.3864   22512753.0324
        43.600          40.2004
 138494891.190 6                  26354660.362
        38.800
 130403976.052 7                  24815001.239
        45.300
 117810390.600 7                  22062098.831    22062098.141
        42.400
 120826608.625 6  94150733.36446  22992497.171    22992496.7474   22992505.9014
        40.900          39.3004
 126632446.516 6  98674666.84645  24097351.326    24097350.9424   24097354.4924
        39.600          32.3004
 126842328.622 7                  24137216.664
        44.100
 113810269.809 7                  21275578.724    21275578.732
        47.100
 129741743.874 7                  24688968.328
        46.800
 131542748.742 6 102311053.713 5  24564687.980    24564688.473    24564697.328
        40.500          35.000
 111817543.145 8  86969355.444 7  20925083.438    20925083.411    20925091.152
        49.300          47.200
 132894611.087 5 103554405.21542  25288940.453    25288939.1844   25288941.9614
        34.000          16.1004
 125959041.965 6  98150001.65245  23969177.043    23969176.7304   23969185.9964
        38.300          33.3004
 125059101.094 8                  23797891.219
        48.600
 114920173.473 8  89382575.415 7  21475516.591    21475517.126    21475523.660
        50.500          46.100
 127696306.490 6  99503600.75043  24299816.194    24299815.6274   24299824.8274
        39.000          18.8004
 106132215.244 8  82700589.21046  20196226.609    20196226.2384   20196227.5564
        48.600          41.6004
 123485180.453 7  96222380.19545  23498380.256    23498379.0544   23498379.2754
        43.800          31.0004
 103321743.278 8  80361408.244 8  19342035.415    19342036.116    19342042.818
        52.500          48.400
 110845372.782 7  86373203.24646  21093090.361    21093088.9224   21093089.7074
        47.700          39.9004
 102112269.060 8  79420866.783 8  19128996.750    19128996.836    19129002.544
        52.100          50.600
 25  1  1 23  2 30.0000000  0 31E03E05G17S31S35G07E33E25S48S33G30E11
                                E31R13G06G24E12R23E10R04R11G21G03E24
                                R21G13G14G02R12G19R22
 146569200.126 6                  27891184.582
        38.700
 137578599.800 6                  26180359.613
        37.900
 107418744.276 8  83703104.24048  20441027.274    20441026.6404   20441027.5074
        49.400          51.1004
 198973918.338 7                  37863482.110
        45.800
 200894241.152 7                  38228917.898
        44.400
 131433744.156 6 102415898.07443  25011030.895    25011030.2164   25011044.0164
        36.500          22.9004
 133969470.881 7                  25493472.301
        44.800
 138654358.998 7                  26385030.540
        42.400
 413004812.837 5                  78592172.190
        32.500
 202132046.458 7                  38464431.640
        45.100
 118354923.675 7  92224634.97246  22522196.927    22522196.0514   22522203.8384
        43.000          40.0004
 138448611.795 6                  26345853.696
        39.200
 130425851.579 7                  24819164.084
        45.200
 117755234.097 7                  22051768.903    22051768.594
        42.200
 120772610.963 7  94108657.39246  22982221.487    22982221.0764   22982230.4834
        42.000          39.2004
 126591642.255 6  98642871.32645  24089585.320    24089584.9144   24089589.8604
        39.300          32.6004
 126825439.430 7                  24134003.002
        44.100
 113759082.097 7                  21266009.486    21266009.388
        47.400
 129707196.433 7                  24682393.891
        46.600
 131547942.590 6 102315093.417 6  24565658.212    24565659.388    24565668.184
        41.700          36.900
 111859565.598 8  87002039.552 7  20932947.432    20932947.761    20932955.185
        50.200          47.300
 132949911.637 5 103597496.56142  25299463.795    25299462.5574   25299465.6694
        34.400          16.1004
 125926506.729 6  98124649.67545  23962986.242    23962985.9384   23962994.5254
        38.700          32.7004
 125049445.776 8                  23796053.841
        48.700
 114973437.352 8  89424002.896 7  21485470.971    21485471.235    21485477.926
        51.000          46.400
 127735903.186 6  99534455.14743  24307351.557    24307350.9674   24307359.8104
        38.300          19.0004
 106139800.075 8  82706499.47346  20197670.020    20197669.6494   20197670.8974
        49.000          41.5004
 123529909.695 7  96257234.15845  23506891.934    23506890.7454   23506890.9914
        44.000          30.8004
 103302640.157 8  80346550.275 8  19338459.457    19338460.043    19338466.763
        52.600          48.400
 110819736.343 7  86353226.82946  21088211.905    21088210.4704   21088211.2514
        47.800          39.8004
 102109542.433 8  79418746.095 8  19128485.749    19128486.105    19128491.652
        52.300          50.600
 25  1  1 23  2 45.0000000  0 31E03E05G17S31S35G07E33E25S48S33G30E11
                                E31R13G06G24E12R23E10R04R11G21G03E24
                                R21G13G14G02R12G19R22
 146580811.017 6                  27893393.958
        37.700
 137613088.979 6                  26186922.353
        37.100
 107424937.483 8  83707930.12748  20442205.555    20442204.9124   20442206.0254
        50.000          51.2004
 198973924.883 7                  37863484.829
        45.700
 200894261.344 7                  38228922.530
        44.300
 131490829.451 5 102460380.12143  25021894.365    25021893.6724   25021906.8264
        34.300          22.3004
 133996868.789 7                  25498685.748
        44.100
 138621357.512 6                  26378750.756
        41.800
 413005058.485 5                  78592179.460
        32.600
 202132046.307 7                  38464434.560
        45.100
 118404651.221 7  92263383.61046  22531660.004    22531659.1154   22531666.6544
        44.000          40.0004
 138402364.373 6                  26337052.847
        38.800
 130447770.108 7                  24823335.453
        44.800
 117700111.097 7                  22041445.935    22041445.742
        42.300
 120718667.998 7  94066624.05446  22971956.543    22971956.1194   22971965.2524
        42.400          39.2004
 126550937.024 6  98611152.99245  24081840.213    24081839.7894   24081844.1554
        38.900          32.7004
 126808653.944 7                  24130808.535
        43.600
 113708006.270 7                  21256461.164    21256460.940
        47.200
 129672725.146 7                  24675834.221
        46.400
 131553305.065 6 102319264.066 6  24566659.201    24566660.334    24566669.658
        40.500          36.800
 111901703.335 8  87034813.324 7  20940832.935    20940833.087    20940840.909
        49.700          47.100
 133005228.380 5 103640600.53042  25309990.316    25309989.0644   25309991.7394
        34.000          15.2004
 125894051.275 6  98099359.86145  23956810.650    23956810.3374   23956818.4104
        38.300          33.0004
 125039831.815 8                  23794224.394
        48.200
 115026772.586 8  89465485.876 7  21495437.050    21495437.480    21495444.708
        50.300          46.400
 127775537.811 6  99565339.10443  24314894.324    24314893.7254   24314901.9534
        39.100          18.6004
 106147476.616 8  82712481.19946  20199130.829    20199130.4674   20199131.6824
        48.600          41.5004
 123574701.000 7  96292136.47945  23515415.450    23515414.2484   23515414.4094
        44.500          30.8004
 103283672.580 8  80331797.733 8  19334909.177    19334909.159    19334915.982
        52.500          48.400
 110794172.541 8  86333307.01546  21083347.427    21083346.0014   21083346.6094
        48.300          39.9004
 102106994.764 8  79416764.600 8  19128008.554    19128008.884    19128014.360
        52.400          50.600
 25  1  1 23  3  0.0000000  0 31E03E05G17S31S35G07E33E25S48S33G30E11
                                E31R13G06G24E12R23E10R04R11G21G03E24
                                R21G13G14G02R12G19R22
 146592512.312 6                  27895620.469
        37.700
 137647604.186 6                  26193490.682
        37.000
 107431199.406 8  83712809.55748  20443397.104    20443396.4524   20443397.6154
        49.900          51.2004
 198973929.469 7                  37863488.558
        45.800
 200894280.946 7                  38228925.017
        44.200
 131547911.621 6 102504859.73743  25032756.071    25032755.3964   25032769.6224
        36.900          23.0004
 134024347.602 7                  25503914.847
        44.100
 138588356.082 7                  26372470.634
        42.300
 413005302.787 5                  78592189.839
        33.000
 202132045.834 7                  38464429.440
        45.100
 118454441.016 7  92302180.75446  22541134.482    22541133.5884   22541141.3884
        43.300          39.8004
 138356148.191 6                  26328258.001
        38.600
 130469730.769 7                  24827514.050
        44.700
 117645021.407 7                  22031129.623    22031129.118
        42.000
 120664779.244 7  94024632.95646  22961702.015    22961701.5914   22961710.3824
        42.300          39.4004
 126510330.158 6  98579511.31345  24074113.260    24074112.8634   24074116.9144
        39.800          32.8004
 126791971.423 7                  24127633.969
        43.700
 113657041.481 7                  21246934.125    21246933.594
        47.400
 129638329.290 7                  24669288.923
        46.000
 131558836.020 6 102323565.862 6  24567692.060    24567693.091    24567702.652
        39.600          37.200
 111943955.303 8  87067675.941 7  20948740.084    20948740.065    20948747.493
        49.900          47.100
 133060560.229 5 103683716.25042  25320519.802    25320518.5464   25320521.0564
        35.300          14.8004
 125861675.043 6  98074131.78545  23950649.164    23950648.8474   23950657.2964
        38.300          33.1004
 125030258.439 8                  23792402.646
        48.300
 115080178.051 8  89507023.439 7  21505417.829    21505417.967    21505425.137
        50.700          46.500
 127815209.140 6  99596251.70043  24322443.549    24322442.9374   24322451.0004
        39.700          19.1004
 106155244.069 8  82718533.76546  20200609.033    20200608.6804   20200609.7504
        49.300          41.5004
 123619553.265 7  96327086.30745  23523950.187    23523948.9804   23523949.6014
        44.200          30.9004
 103264839.879 8  80317150.070 8  19331383.308    19331383.763    19331390.407
        52.800          48.300
 110768680.700 8  86313443.27346  21078496.482    21078495.0614   21078495.6274
        48.400          39.9004
 102104625.098 8  79414921.540 8  19127564.416    19127564.852    19127570.449
        52.600          50.600
 25  1  1 23  3 15.0000000  0 31E03E05G17S31S35G07E33E25S48S33G30E11
                                E31R13G06G24E12R23E10R04R11G21G03E24
                                R21G13G14G02R12G19R22
 146604303.588 6                  27897864.147
        38.400
 137682144.810 6                  26200063.666
        38.000
 107437529.590 8  83717742.17348  20444601.863    20444601.2204   20444602.1984
        49.900          51.4004
 198973933.255 7                  37863489.600
        45.600
 200894300.536 7                  38228924.520
        43.900
 131604989.924 5 102549336.33043  25043617.954    25043617.2794   25043631.2834
        35.400          23.3004
 134051906.776 7                  25509158.940
        44.400
 138555354.461 7                  26366190.474
        42.000
 413005544.726 5                  78592186.758
        32.600
 202132043.487 7                  38464426.923
        44.800
 118504292.357 7  92341025.86246  22550621.152    22550620.2674   22550627.8544
        43.100          40.0004
 138309963.161 6                  26319469.188
        38.300
 130491733.248 7                  24831701.061
        44.900
 117589964.788 7                  22020820.097    22020818.737
        42.400
 120610944.703 7  93982684.11446  22951457.208    22951456.7794   22951465.8454
        42.400          39.4004
 126469821.678 6  98547946.27145  24066404.925    24066404.5284   24066408.2894
        39.900          33.4004
 126775391.485 7                  24124478.618
        43.600
 113606187.834 7                  21237427.033    21237426.812
        47.400
 129604008.723 7                  24662757.779
        46.600
 131564534.413 6 102327997.815 6  24568757.008    24568757.288    24568766.782
        39.300          37.700
 111986321.046 8  87100627.031 7  20956667.638    20956668.095    20956675.694
        49.500          47.200
 133115906.572 5 103726843.30642  25331051.930    25331050.6434   25331053.3054
        34.900          16.1004
 125829378.065 6  98048965.44845  23944503.505    23944503.1924   23944511.4404
        38.500          33.2004
 125020725.385 8                  23790588.704
        48.400
 115133652.702 8  89548614.831 7  21515410.313    21515411.064    21515417.787
        50.700          46.300
 127854916.417 6  99627192.28043  24329999.925    24329999.3314   24330007.1304
        39.500          18.5004
 106163102.182 8  82724656.97846  20202104.111    20202103.7544   20202105.1234
        49.100          41.6004
 123664465.739 7  96362083.05745  23532496.972    23532495.7744   23532496.1464
        44.500          31.0004
 103246142.131 8  80302607.373 8  19327883.225    19327883.560    19327890.120
        52.900          48.400
 110743260.366 8  86293635.25446  21073658.974    21073657.5444   21073658.2754
        48.600          40.1004
 102102432.996 8  79413216.595 8  19127153.811    19127154.223    19127159.695
        52.200          50.800
 25  1  1 23  3 30.0000000  0 31E03E05G17S31S35G07E33E25S48S33G30E11
                                E31R13G06G24E12R23E10R04R11G21G03E24
                                R21G13G14G02R12G19R22
 146616191.686 6                  27900126.821
        38.000
 137716717.515 6                  26206642.537
        37.000
 107443934.669 8  83722733.15248  20445820.619    20445819.9714   20445821.0424
        50.000          51.4004
 198973943.101 7                  37863490.977
        45.800
 200894324.541 7                  38228930.535
        44.000
 131662070.596 6 102593814.78543  25054480.361    25054479.6684   25054492.9394
        36.200          21.7004
 134079553.047 7                  25514420.013
        44.400
 138522359.621 7                  26359911.706
        42.300
 413005791.976 5                  78592189.151
        32.700
 202132046.779 7                  38464430.527
        45.000
 118554211.876 7  92379924.08446  22560120.609    22560119.7464   22560127.3784
        43.000          39.9004
 138263816.474 6                  26310687.981
        38.600
 130513784.545 7                  24835897.206
        44.400
 117534948.824 6                  22010516.414    22010516.436
        41.700
 120557171.640 6  93940783.17246  22941224.251    22941223.8094   22941233.1414
        41.300          39.4004
 126429418.873 6  98516463.58645  24058715.429    24058715.0494   24058720.1524
        40.000          33.6004
 126758921.254 7                  24121344.886
        43.600
 113555452.548 8                  21227942.815    21227942.666
        48.000
 129569770.558 7                  24656242.374
        46.300
 131570407.414 6 102332565.584 5  24569853.789    24569854.105    24569863.876
        39.800          35.100
 112028807.320 8  87133671.891 7  20964618.805    20964618.909    20964626.570
        49.600          47.000
 133171273.717 5 103769986.53642  25341587.897    25341586.6324   25341589.3064
        35.400          16.6004
 125797167.726 6  98023866.61345  23938373.898    23938373.5814   23938381.8074
        38.900          33.2004
 125011239.746 8                  23788783.626
        48.300
 115187203.235 8  89590265.247 7  21525417.653    21525417.934    21525425.198
        50.500          46.400
 127894666.300 6  99658166.06943  24337564.135    24337563.5234   24337571.6404
        39.100          18.0004
 106171057.990 8  82730856.31846  20203618.074    20203617.7264   20203619.0674
        48.900          41.6004
 123709444.971 7  96397131.83345  23541056.411    23541055.2044   23541055.2114
        44.200          31.1004
 103227586.786 8  80288175.454 8  19324409.266    19324409.789    19324416.554
        52.300          48.500
 110717918.322 8  86273888.23946  21068836.411    21068834.9764   21068835.8454
        48.700          40.1004
 102100425.381 8  79411655.135 8  19126777.757    19126778.084    19126783.578
        52.300          50.700
 25  1  1 23  3 45.0000000  0 31E03E05G17S31S35G07E33E25S48S33G30E11
                                E31R13G06G24E12R23E10R04R11G21G03E24
                                R21G13G14G02R12G19R22
 146628161.777 6                  27902404.190
        38.500
 137751307.456 6                  26213225.309
        37.700
 107450400.153 8  83727771.20148  20447050.993    20447050.3414   20447051.3684
        49.900          51.4004
 198973943.190 7                  37863489.256
        45.500
 200894340.148 7                  38228935.284
        43.800
 131719138.946 6 102638283.64643  25065339.582    25065338.8764   25065352.2924
        36.300          22.9004
 134107271.590 7                  25519694.691
        44.100
 138489357.065 7                  26353631.947
        42.300
 413006030.759 5                  78592197.097
        32.400
 202132040.865 7                  38464430.545
        44.800
 118604184.590 7  92418863.76546  22569630.200    22569629.3374   22569637.0804
        43.400          39.7004
 138217693.669 6                  26301910.656
        38.200
 130535870.080 7                  24840099.898
        44.700
 117479959.036 7                  22000218.413    22000218.057
        42.100
 120503445.759 7  93898918.98946  22931000.576    22931000.1474   22931009.2364
        42.400          39.4004
 126389107.366 6  98485052.04645  24051044.922    24051044.5604   24051049.2044
        40.400          33.8004
 126742546.136 7                  24118228.751
        43.700
 113504821.297 8                  21218476.847    21218477.592
        48.200
 129535600.366 7                  24649739.941
        46.200
 131576440.182 6 102337257.631 6  24570979.882    24570980.445    24570990.332
        38.700          36.900
 112071399.219 8  87166798.905 7  20972589.008    20972589.307    20972597.009
        50.100          46.900
 133226647.095 5 103813134.64342  25352124.296    25352123.0134   25352126.4484
        35.000          16.5004
 125765029.811 6  97998824.22445  23932257.651    23932257.3344   23932265.9874
        39.100          33.5004
 125001786.973 8                  23786984.658
        48.100
 115240814.417 8  89631962.838 7  21535436.039    21535436.989    21535443.747
        50.600          46.300
 127934443.748 6  99689161.32843  24345133.210    24345132.6024   24345141.1444
        39.800          18.5004
 106179096.969 8  82737120.46446  20205147.793    20205147.4454   20205148.8054
        48.800          41.5004
 123754476.091 7  96432221.03245  23549625.878    23549624.6854   23549624.3744
        44.200          31.0004
 103209159.331 8  80273843.006 8  19320960.096    19320960.335    19320966.756
        52.600          48.500
 110692640.196 8  86254191.02746  21064026.075    21064024.6404   21064025.5824
        48.700          40.1004
 102098587.234 8  79410225.491 8  19126433.437    19126433.612    19126439.281
        52.300          50.800
 25  1  1 23  4  0.0000000  0 31E03E05G17S31S35G07E33E25S48S33G30E11
                                E31R13G06G24E12R23E10R04R11G21G03E24
                                R21G13G14G02R12G19R22
 146640228.907 6                  27904700.510
        38.200
 137785929.449 6                  26219813.535
        38.300
 107456941.389 8  83732868.27748  20448295.654    20448294.9974   20448296.1074
        49.700          51.5004
 198973950.227 7                  37863492.945
        45.700
 200894361.765 7                  38228940.220
        44.000
 131776210.053 5 102682754.66643  25076200.289    25076199.5704   25076213.0144
        32.700          20.3004
 134135077.368 7                  25524985.797
        44.400
 138456361.967 7                  26347352.842
        42.500
 413006275.245 5                  78592193.470
        32.200
 202132041.649 7                  38464428.751
        44.800
 118654225.291 7  92457856.41146  22579152.888    22579152.0304   22579159.3284
        43.100          39.7004
 138171610.083 6                  26293141.090
        38.400
 130558004.990 7                  24844312.209
        44.900
 117425011.159 7                  21989928.969    21989928.393
        43.000
 120449782.514 7  93857103.62646  22920788.837    22920788.3994   22920797.2714
        42.100          39.5004
 126348902.654 6  98453723.72045  24043393.570    24043393.1904   24043398.2224
        39.500          33.3004
 126726281.325 7                  24115133.472
        44.000
 113454309.567 7                  21209034.891    21209035.162
        47.700
 129501513.436 7                  24643253.544
        46.300
 131582647.740 6 102342085.574 5  24572139.151    24572139.923    24572149.613
        37.700          35.500
 112114111.847 8  87200019.807 7  20980582.371    20980582.418    20980589.846
        50.200          46.600
 133282041.363 5 103856299.00742  25362665.511    25362664.2064   25362667.5384
        33.300          16.3004
 125732979.808 6  97973850.32845  23926158.429    23926158.1214   23926166.9264
        38.000          33.2004
 124992382.310 8                  23785195.082
        48.400
 115294501.067 8  89673719.122 7  21545468.456    21545469.146    21545476.731
        50.100          46.700
 127974263.370 6  99720189.43843  24352711.136    24352710.5464   24352718.9174
        38.400          18.6004
 106187234.309 8  82743461.25346  20206696.305    20206695.9574   20206697.3064
        48.700          41.5004
 123799573.956 7  96467362.24445  23558207.392    23558206.2034   23558206.1694
        44.200          31.3004
 103190875.425 8  80259622.198 8  19317536.932    19317537.357    19317544.113
        52.400          48.600
 110667441.182 8  86234555.46446  21059230.825    21059229.3864   21059230.3484
        48.100          40.1004
 102096933.762 8  79408939.481 8  19126123.808    19126123.957    19126129.455
        52.600          50.700
 25  1  1 23  4 15.0000000  0 31E03E05G17S31S35G07E33E25S48S33G30E11
                                E31R13G06G24E12R23E10R04R11G21G03E24
                                R21G13G14G02R12G19R22
 146652389.257 6                  27907015.057
        36.700
 137820579.585 6                  26226407.341
        37.900
 107463553.845 8  83738020.85148  20449553.968    20449553.3114   20449554.3914
        49.800          51.4004
 198973959.185 7                  37863494.425
        45.500
 200894385.551 7                  38228943.565
        43.700
 131833279.826 5 102727224.61343  25087060.468    25087059.7934   25087073.5574
        35.700          23.6004
 134162966.463 7                  25530292.973
        43.900
 138423370.727 7                  26341074.766
        42.500
 413004919.648 5                  78592202.624
        32.800
 202132044.634 7                  38464430.706
        44.700
 118704329.939 7  92496898.90446  22588687.390    22588686.5274   22588694.0354
        42.900          39.6004
 138125562.268 6                  26284379.057
        38.000
 130580185.618 7                  24848533.164
        44.800
 117370102.004 7                  21979645.561    21979645.669
        42.100
 120396178.550 7  93815334.43846  22910588.016    22910587.5834   22910596.5304
        42.200          39.5004
 126308801.361 6  98422475.98145  24035762.749    24035762.3474   24035766.8224
        40.200          33.6004
 126710123.223 7                  24112058.584
        43.600
 113403913.946 8                  21199614.403    21199614.160
        48.200
 129467506.249 7                  24636781.969
        46.100
 131589026.654 6 102347046.885 6  24573330.090    24573331.195    24573341.207
        38.700          36.000
 112156941.273 8  87233331.565 7  20988597.088    20988597.368    20988605.190
        49.600          46.800
 133337452.698 5 103899476.68542  25373211.500    25373210.2804   25373211.8434
        35.100          17.2004
 125701014.418 6  97948942.37245  23920076.099    23920075.8094   23920083.6374
        39.000          33.6004
 124983022.150 8                  23783413.888
        48.300
 115348258.940 8  89715530.802 7  21555514.923    21555515.442    21555521.968
        50.400          46.300
 128014121.156 6  99751247.31143  24360296.155    24360295.5614   24360304.0764
        38.900          19.4004
 106195466.418 8  82749875.88646  20208262.811    20208262.4674   20208263.8274
        48.900          41.6004
 123844734.508 7  96502552.29145  23566800.979    23566799.7774   23566800.2304
        44.800          31.4004
 103172731.764 8  80245510.469 8  19314140.590    19314141.012    19314147.724
        52.800          48.600
 110642317.422 8  86214978.54146  21054450.133    21054448.7034   21054449.4104
        48.400          40.2004
 102095461.117 8  79407794.112 8  19125847.825    19125847.978    19125853.494
        52.500          50.700
 25  1  1 23  4 30.0000000  0 31E03E05G17S31S35G07E33E25S48S33G30E11
                                E31R13G06G24E12R23E10R04R11G21G03E24
                                R21G13G14G02R12G19R22
 146664637.511 6                  27909345.874
        38.000
 137855252.462 6                  26233005.381
        36.500
 107470232.550 8  83743225.05448  20450824.717    20450824.0604   20450825.2974
        49.800          51.2004
 198973965.261 7                  37863494.085
        45.600
 200894407.353 7                  38228948.063
        43.900
 131890342.857 5 102771689.35543  25097918.670    25097918.0134   25097932.5084
        34.900          21.5004
 134190933.550 7                  25535614.912
        44.200
 138390378.254 7                  26334796.020
        43.100
 413005161.099 5                  78592200.786
        32.500
 202132044.413 7                  38464429.860
        44.800
 118754493.067 7  92535986.95046  22598233.181    22598232.3234   22598240.0684
        43.300          39.4004
 138079545.290 6                  26275621.794
        38.800
 130602406.887 7                  24852761.374
        44.900
 117315226.449 7                  21969370.232    21969369.541
        42.200
 120342629.085 7  93773607.73246  22900398.321    22900397.9064   22900406.3994
        42.000          39.1004
 126268798.670 6  98391305.06545  24028150.813    24028150.4114   24028154.5914
        40.300          33.8004
 126694066.758 7                  24109002.960
        44.100
 113353629.550 8                  21190213.407    21190214.040
        48.100
 129433573.852 7                  24630324.836
        46.500
 131595571.304 6 102352137.088 6  24574553.184    24574554.058    24574562.971
        39.600          36.300
 112199882.193 8  87266730.024 7  20996633.288    20996633.191    20996640.897
        49.400          46.700
 133392875.655 5 103942663.42242  25383756.729    25383755.5134   25383758.2324
        34.600          16.3004
 125669128.873 6  97924096.62745  23914007.937    23914007.6204   23914015.7084
        38.800          33.3004
 124973701.493 8                  23781640.217
        48.600
 115402082.363 8  89757393.467 7  21565573.196    21565573.807    21565580.838
        50.300          46.600
 128054011.618 6  99782330.63243  24367886.762    24367886.1864   24367895.6314
        39.500          19.3004
 106203788.272 8  82756360.45646  20209846.427    20209846.0744   20209847.4344
        49.100          41.3004
 123889952.413 7  96537787.03945  23575405.700    23575404.4894   23575404.6734
        44.200          31.1004
 103154723.267 8  80231503.867 8  19310769.786    19310769.552    19310776.442
        52.900          48.600
 110617263.885 8  86195456.33546  21049682.229    21049680.7944   21049681.8474
        48.400          40.1004
 102094163.935 8  79406785.210 8  19125604.553    19125604.963    19125610.448
        52.200          50.600
 25  1  1 23  4 45.0000000  0 31E03E05G17S31S35G07E33E25S48S33G30E11
                                E31R13G06G24E12R23E10R04R11G21G03E24
                                R21G13G14G02R12G19R22
 146676975.144 6                  27911693.311
        37.800
 137889949.389 6                  26239608.417
        37.400
 107476978.837 8  83748481.91748  20452108.690    20452108.0334   20452109.0644
        50.100          51.4004
 198973970.367 7                  37863494.166
        45.600
 200894427.687 7                  38228951.171
        43.900
 131947400.330 5 102816149.72043  25108776.774    25108776.1354   25108790.2294
        35.200          21.7004
 134218979.981 7                  25540951.923
        44.300
 138357386.179 7                  26328517.960
        42.700
 413005401.663 5                  78592201.622
        32.400
 202132043.927 7                  38464430.097
        44.800
 118804715.912 7  92575121.53446  22607790.298    22607789.4184   22607797.2904
        43.400          39.6004
 138033560.894 6                  26266871.090
        38.600
 130624670.377 7                  24856998.499
        44.600
 117260386.589 7                  21959099.825    21959099.373
        42.500
 120289135.990 7  93731924.95246  22890218.305    22890217.8764   22890226.7104
        42.300          39.5004
 126228896.431 6  98360212.43945  24020557.766    24020557.3694   24020561.4724
        40.400          33.9004
 126678113.575 7                  24105967.367
        43.900
 113303458.395 8                  21180834.549    21180834.843
        48.200
 129399717.977 7                  24623882.306
        46.600
 131602282.779 6 102357356.954 6  24575805.463    24575806.716    24575816.554
        37.600          37.500
 112242935.982 8  87300216.269 7  21004690.219    21004690.326    21004697.580
        49.800          46.500
 133448311.471 5 103985860.16742  25394306.641    25394305.4034   25394307.4654
        35.200          16.2004
 125637325.107 6  97899314.59045  23907956.069    23907955.7654   23907963.7294
        39.000          33.6004
 124964422.020 8                  23779874.451
        48.600
 115455972.479 8  89799308.013 7  21575643.509    21575643.561    21575651.187
        49.200          46.500
 128093935.806 6  99813440.22243  24375484.632    24375484.0874   24375493.1724
        40.200          19.2004
 106212201.490 8  82762916.21546  20211447.522    20211447.1744   20211448.4544
        48.700          41.4004
 123935228.739 7  96573067.30545  23584021.873    23584020.6754   23584020.4444
        44.800          31.3004
 103136852.005 8  80217604.017 8  19307423.196    19307424.130    19307430.935
        52.500          48.300
 110592282.289 8  86175990.18846  21044928.359    21044926.9244   21044928.0074
        48.400          40.1004
 102093043.630 8  79405913.888 8  19125394.909    19125395.025    19125400.554
        52.400          50.500
 25  1  1 23  5  0.0000000  0 31E03E05G17S31S35G07E33E25S48S33G30E11
                                E31R13G06G24E12R23E10R04R11G21G03E24
                                R21G13G14G02R12G19R22
 146689402.996 6                  27914058.051
        38.400
 137924671.063 6                  26246215.218
        37.800
 107483793.354 8  83753791.94648  20453405.477    20453404.8164   20453405.8084
        49.800          51.4004
 198973975.961 7                  37863496.612
        45.700
 200894447.790 7                  38228956.086
        44.000
 132004453.029 5 102860606.35843  25119633.094    25119632.4514   25119646.7694
        35.200          21.8004
 134247106.493 7                  25546304.374
        44.500
 138324395.562 7                  26322240.213
        42.400
 413005640.915 5                  78592203.536
        32.300
 202132042.347 7                  38464428.671
        45.000
 118854999.077 7  92614303.12346  22617359.103    22617358.2184   22617365.8424
        43.200          39.5004
 137987610.309 6                  26258126.802
        38.300
 130646977.090 7                  24861242.912
        44.900
 117205583.739 7                  21948837.239    21948836.941
        42.600
 120235700.542 7  93690287.09346  22880050.107    22880049.6694   22880058.2544
        42.200          39.5004
 126189095.937 6  98329199.08245  24012983.708    24012983.2974   24012987.7644
        39.500          34.0004
 126662264.695 7                  24102951.315
        44.100
 113253401.538 7                  21171476.161    21171477.137
        47.900
 129365939.764 7                  24617454.407
        46.700
 131609162.569 6 102362707.788 6  24577091.208    24577091.333    24577101.958
        36.600          37.900
 112286103.438 8  87333790.941 7  21012768.370    21012768.858    21012776.152
        50.100          46.700
 133503760.924 5 104029067.56942  25404858.371    25404857.1194   25404859.0324
        35.500          16.6004
 125605604.529 6  97874597.37245  23901919.623    23901919.3154   23901927.5174
        38.500          33.8004
 124955184.742 8                  23778116.643
        48.600
 115509929.759 8  89841274.808 7  21585726.946    21585727.369    21585734.490
        50.200          46.400
 128133894.419 6  99844576.64743  24383088.649    24383088.0824   24383097.1714
        39.900          19.5004
 106220707.118 8  82769543.98046  20213065.918    20213065.5654   20213066.9934
        49.000          41.4004
 123980564.300 7  96608393.73445  23592648.375    23592647.1734   23592647.6394
        44.600          31.5004
 103119119.146 8  80203811.818 8  19304104.113    19304104.451    19304111.310
        52.400          48.400
 110567373.464 8  86156580.74646  21040188.703    21040187.2774   21040187.9704
        48.600          40.2004
 102092101.107 8  79405180.852 8  19125218.345    19125218.485    19125223.956
        52.300          50.500
 25  1  1 23  5 15.0000000  0 31E03E05G17S31S35G07E33E25S48S33G30E11
                                E31R13G06G24E12R23E10R04R11G21G03E24
                                R21G13G14G02R12G19R22
 146701921.460 6                  27916440.011
        38.600
 137959417.817 6                  26252827.667
        37.600
 107490676.580 8  83759155.51448  20454715.227    20454714.5664   20454715.6224
        49.900          51.3004
 198973981.359 7                  37863497.421
        45.600
 200894468.868 7                  38228961.626
        44.000
 132061501.313 5 102905059.59143  25130489.102    25130488.4634   25130502.1974
        35.800          21.5004
 134275313.560 7                  25551671.842
        44.400
 138291407.056 7                  26315962.855
        42.900
 413005879.782 5                  78592212.756
        32.300
 202132041.235 7                  38464426.703
        44.700
 118905342.826 7  92653531.91946  22626938.899    22626938.0104   22626946.0794
        43.500          39.4004
 137941694.279 6                  26249389.292
        39.000
 130669327.633 7                  24865496.229
        45.000
 117150818.993 7                  21938580.592    21938581.069
        43.000
 120182323.698 7  93648694.88946  22869892.412    22869891.9614   22869900.7534
        42.500          39.6004
 126149398.087 6  98298265.72045  24005429.420    24005429.0184   24005433.7854
        39.600          33.8004
 126646520.770 7                  24099955.393
        44.100
 113203459.944 7                  21162140.208    21162140.858
        47.600
 129332239.970 7                  24611041.635
        46.700
 131616210.896 6 102368189.711 6  24578407.479    24578408.105    24578417.966
        37.700          37.600
 112329384.935 8  87367454.291 7  21020867.841    21020867.838    21020875.669
        49.600          46.700
 133559224.038 5 104072285.60142  25415412.312    25415411.0524   25415413.5324
        35.300          16.4004
 125573968.083 6  97849945.72545  23895899.476    23895899.1684   23895907.1934
        39.800          33.5004
 124945990.382 8                  23776366.784
        48.600
 115563954.416 8  89883293.978 7  21595822.283    21595822.795    21595830.010
        49.800          46.400
 128173887.615 6  99875740.02343  24390698.994    24390698.4134   24390707.7654
        39.900          19.3004
 106229305.832 8  82776244.28346  20214702.224    20214701.8764   20214703.2584
        48.500          41.3004
 124025959.411 7  96643766.57045  23601287.044    23601285.8464   23601286.1214
        44.800          31.4004
 103101525.712 8  80190128.040 8  19300810.750    19300810.949    19300817.692
        52.400          48.400
 110542537.944 8  86137228.42246  21035462.395    21035460.9694   21035461.9354
        48.700          40.2004
 102091336.783 8  79404586.401 8  19125074.798    19125075.277    19125080.771
        52.700          50.600
 25  1  1 23  5 30.0000000  0 31E03E05G17S31S35G07E33E25S48S33G30E11
                                E31R13G06G24E12R23E10R04R11G21G03E24
                                R21G13G14G02R12G19R22
 146714527.491 6                  27918839.505
        38.300
 137994186.442 6                  26259444.753
        37.500
 107497625.497 8  83764570.27148  20456037.785    20456037.1194   20456037.9354
        49.600          51.5004
 198973983.945 7                  37863499.393
        45.700
 200894486.881 7                  38228964.720
        44.000
 132118542.008 5 102949506.91243  25141343.270    25141342.6184   25141356.0774
        34.100          19.4004
 134303597.942 7                  25557054.336
        44.400
 138258417.730 7                  26309685.026
        42.600
 413006115.147 5                  78592215.028
        32.500
 202132038.464 7                  38464429.060
        45.000
 118955743.842 7  92692805.34346  22636529.773    22636528.8794   22636537.2044
        42.400          39.4004
 137895810.110 6                  26240657.734
        38.600
 130691719.090 7                  24869757.119
        45.100
 117096089.760 7                  21928332.181    21928332.320
        42.900
 120129002.775 6  93607146.25746  22859745.845    22859745.3804   22859754.0964
        41.300          39.8004
 126109800.180 6  98267410.22645  23997894.255    23997893.8134   23997898.4844
        40.100          34.2004
 126630878.905 7                  24096978.999
        44.000
 113153630.872 7                  21152825.938    21152825.780
        47.700
 129298615.801 7                  24604643.313
        46.700
 131623424.574 6 102373800.157 6  24579755.535    24579755.342    24579765.288
        39.100          38.600
 112372777.340 8  87401203.916 7  21028988.121    21028988.582    21028996.055
        50.000          46.800
 133614697.573 5 104115511.74842  25425968.185    25425966.9564   25425969.8124
        34.800          16.6004
 125542413.263 6  97825357.68845  23889894.458    23889894.1374   23889902.7384
        39.000          33.7004
 124936836.075 8                  23774624.978
        48.700
 115618042.835 8  89925362.751 7  21605929.818    21605930.142    21605938.157
        49.200          46.500
 128213911.948 6  99906927.65443  24398315.709    24398315.1014   24398324.2664
        38.000          19.3004
 106237994.726 8  82783014.85646  20216355.787    20216355.4394   20216356.7044
        48.400          41.3004
 124071410.549 7  96679183.06045  23609936.030    23609934.8374   23609935.1374
        45.100          31.8004
 103084069.005 8  80176550.606 8  19297542.785    19297543.047    19297549.812
        52.500          48.400
 110517772.776 8  86117930.92046  21030749.624    21030748.1764   21030749.2114
        48.500          40.4004
 102090747.465 8  79404128.061 8  19124964.418    19124965.029    19124970.371
        52.200          50.600
 25  1  1 23  5 45.0000000  0 31E03E05G17S31S35G07E33E25S48S33G30E11
                                E31R13G06G24E12R23E10R04R11G21G03E24
                                R21G13G14G02R12G19R22
 146727225.623 6                  27921255.579
        38.800
 138028981.321 6                  26266065.768
        37.800
 107504644.765 8  83770039.84748  20457373.396    20457372.7354   20457373.6224
        49.600          51.3004
 198973989.473 7                  37863499.997
        45.500
 200894507.296 7                  38228967.327
        43.900
 132175579.290 5 102993951.55043  25152197.560    25152196.8904   25152210.2784
        33.900          22.3004
 134331964.136 7                  25562452.142
        44.600
 138225432.388 7                  26303408.133
        42.500
 413006352.386 5                  78592213.422
        32.200
 202132036.465 7                  38464426.864
        44.700
 119006206.438 7  92732126.74546  22646133.158    22646132.2784   22646139.8974
        42.700          39.3004
 137849962.638 6                  26231933.146
        38.900
 130714156.183 7                  24874026.714
        44.700
 117041401.332 7                  21918090.589    21918090.248
        42.500
 120075742.837 6  93565645.13846  22849611.676    22849611.2384   22849618.7304
        41.900          39.7004
 126070307.291 6  98236636.57045  23990378.401    23990377.9364   23990383.4394
        39.000          34.4004
 126615343.884 7                  24094022.566
        43.900
 113103919.344 8                  21143532.336    21143532.572
        48.100
 129265072.124 7                  24598259.882
        46.600
 131630808.432 6 102379543.008 6  24581134.122    24581134.445    24581144.229
        40.600          39.200
 112416285.240 8  87435043.371 7  21037129.730    21037130.307    21037138.021
        49.200          46.900
 133670186.023 5 104158749.52742  25436527.927    25436526.7074   25436528.6284
        35.200          16.3004
 125510945.049 6  97800837.14045  23883906.010    23883905.6844   23883914.3104
        38.000          33.4004
 124927726.614 8                  23772891.418
        48.700
 115672199.465 8  89967484.574 7  21616050.377    21616050.980    21616058.271
        49.700          46.500
 128253971.814 6  99938142.97343  24405939.503    24405938.9044   24405947.1764
        39.100          18.8004
 106246778.588 8  82789859.42846  20218027.374    20218027.0354   20218028.1834
        48.400          41.3004
 124116922.170 7  96714646.67345  23618596.857    23618595.6594   23618595.6784
        44.100          31.6004
 103066754.070 8  80163083.439 8  19294301.339    19294301.666    19294308.378
        52.500          48.400
 110493082.627 8  86098691.87546  21026051.310    21026049.8574   21026050.8024
        48.300          40.3004
 102090337.801 8  79403809.449 8  19124887.730    19124888.207    19124893.656
        52.400          50.500
 25  1  1 23  6  0.0000000  0 31E03E05G17S31S35G07E33E25S48S33G30E11
                                E31R13G06G24E12R23E10R04R11G21G03E24
                                R21G13G14G02R12G19R22
 146740019.057 6                  27923690.505
        38.200
 138063805.597 6                  26272692.873
        37.300
 107511737.660 8  83775566.79248  20458723.037    20458722.3764   20458723.3284
        49.800          51.3004
 198974000.329 7                  37863501.589
        45.600
 200894533.323 7                  38228972.376
        43.800
 132232616.222 5 103038395.94543  25163052.391    25163051.7394   25163064.6554
        34.200          19.4004
 134360415.314 7                  25567865.994
        44.400
 138192454.435 7                  26297132.523
        42.900
 413004994.839 5                  78592220.984
        32.600
 202132040.312 7                  38464430.849
        44.900
 119056733.700 7  92771498.54246  22655748.197    22655747.3264   22655755.0794
        42.800          39.2004
 137804155.486 6                  26223216.406
        39.000
 130736642.265 7                  24878305.709
        45.000
 116986757.148 7                  21907857.081    21907857.141
        42.600
 120022547.531 7  93524194.38446  22839487.881    22839487.4164   22839495.8894
        42.400          39.9004
 126030923.047 6  98205947.57445  23982883.820    23982883.3694   23982889.0584
        40.200          34.9004
 126599919.064 7                  24091087.375
        44.300
 113054329.178 7                  21134261.405    21134262.018
        47.600
 129231612.443 7                  24591892.579
        46.800
 131638365.585 6 102385420.650 6  24582545.125    24582545.304    24582556.045
        41.000          39.300
 112459911.771 8  87468975.083 7  21045294.498    21045294.635    21045302.046
        50.100          46.900
 133725692.535 5 104202001.36742  25447089.432    25447088.2124   25447091.1104
        34.900          16.6004
 125479567.221 6  97776387.02845  23877935.069    23877934.7164   23877942.9274
        38.500          33.6004
 124918665.457 8                  23771167.047
        48.900
 115726427.121 8  90009661.651 7  21626184.000    21626184.312    21626192.313
        48.700          46.500
 128294070.131 6  99969388.27643  24413569.735    24413569.1234   24413577.8924
        39.200          19.0004
 106255660.848 8  82796780.67446  20219717.460    20219717.1214   20219718.4434
        48.400          41.1004
 124162497.320 7  96750159.79445  23627269.199    23627268.0064   23627268.2114
        44.800          31.9004
 103049584.695 8  80149729.492 8  19291087.262    19291087.473    19291094.185
        52.800          48.500
 110468470.888 8  86079513.92646  21021368.030    21021366.5864   21021367.3454
        48.200          40.3004
 102090111.027 8  79403633.084 8  19124845.646    19124845.700    19124851.037
        52.700          50.500
 25  1  1 23  6 15.0000000  0 31E03E05G17S31S35G07E33E25S48S33G30E11
                                E31R13G06G24E12R23E10R04R11G21G03E24
                                R21G13G14G02R12G19R22
 146752896.126 6                  27926140.983
        37.200
 138098647.423 6                  26279323.175
        36.500
 107518892.213 8  83781141.79048  20460084.325    20460083.6594   20460084.7764
        49.600          51.4004
 198974004.270 7                  37863504.227
        45.800
 200894553.060 7                  38228978.444
        44.000
 132289641.079 5 103082830.89543  25173902.395    25173901.7474   25173916.4424
        34.000          22.5004
 134388939.666 7                  25573294.305
        44.300
 138159472.383 7                  26290856.316
        43.300
 413005230.677 5                  78592227.249
        32.700
 202132039.290 7                  38464428.076
        44.900
 119107313.675 7  92810911.42446  22665372.905    22665372.0344   22665380.2344
        43.000          39.3004
 137758377.297 6                  26214504.624
        39.000
 130759165.858 7                  24882591.938
        44.900
 116932146.160 7                  21897631.199    21897630.897
        44.000
 119969405.725 7  93482785.34246  22829375.370    22829374.8974   22829383.2254
        42.000          40.1004
 125991636.180 6  98175334.45545  23975408.462    23975408.0064   23975412.9794
        39.500          34.4004
 126584592.968 7                  24088170.940
        44.100
 113004849.031 8                  21125011.669    21125012.373
        48.200
 129198225.381 7                  24585539.375
        46.700
 131646084.266 6 102391423.924 6  24583986.244    24583986.615    24583996.802
        41.500          38.000
 112503645.072 8  87502989.844 7  21053478.533    21053478.447    21053486.336
        50.000          47.000
 133781205.140 5 104245257.90542  25457653.840    25457652.6244   25457654.8894
        35.300          16.5004
 125448268.535 6  97751998.57245  23871979.392    23871979.0444   23871986.8074
        39.200          33.8004
 124909641.157 8                  23769449.938
        48.700
 115780713.669 8  90051884.513 7  21636329.807    21636329.579    21636336.878
        49.200          46.300
 128334194.873 6 100000654.13643  24421204.593    24421203.9904   24421213.3044
        39.700          19.3004
 106264630.041 8  82803769.66146  20221424.227    20221423.8884   20221425.2484
        48.700          41.2004
 124208124.163 7  96785713.18945  23635951.890    23635950.6794   23635950.8184
        45.600          32.0004
 103032549.447 8  80136479.862 8  19287898.002    19287898.312    19287905.238
        52.500          48.500
 110443926.047 8  86060388.10846  21016697.227    21016695.7834   21016696.5834
        48.600          40.4004
 102090055.239 8  79403589.718 8  19124834.905    19124835.164    19124840.551
        52.400          50.600
 25  1  1 23  6 30.0000000  0 31E03E05G17S31S35G07E33E25S48S33G30E11
                                E31R13G06G24E12R23E10R04R11G21G03E24
                                R21G13G14G02R12G19R22
 146765865.252 6                  27928608.628
        38.800
 138133515.188 6                  26285958.278
        37.200
 107526116.959 8  83786771.47748  20461459.295    20461458.6294   20461459.5804
        49.800          51.4004
 198974011.548 7                  37863502.237
        45.600
 200894575.464 7                  38228984.901
        44.100
 132346661.979 5 103127262.79444  25184754.042    25184753.3854   25184767.3224
        35.300          24.0004
 134417545.652 7                  25578738.009
        44.600
 138126494.932 7                  26284580.657
        43.000
 413005469.725 5                  78592232.069
        32.900
 202132039.448 7                  38464428.184
        44.700
 119157954.626 7  92850371.80946  22675010.013    22675009.1464   22675016.8134
        42.800          39.2004
 137712636.816 6                  26205800.657
        38.400
 130781735.562 7                  24886886.795
        44.700
 116877577.209 7                  21887411.848    21887411.621
        43.500
 119916326.280 7  93441424.90546  22819274.819    22819274.3464   22819282.5364
        42.300          40.2004
 125952455.613 6  98144804.15345  23967952.528    23967952.0954   23967956.6604
        39.900          34.7004
 126569374.280 7                  24085274.984
        44.200
 112955487.575 7                  21115784.826    21115784.670
        47.600
 129164919.709 7                  24579201.345
        47.000
 131653973.136 7 102397559.622 6  24585460.109    24585460.668    24585470.479
        42.400          38.100
 112547493.666 8  87537094.276 7  21061684.022    21061684.585    21061692.188
        49.900          47.000
 133836732.195 5 104288525.74142  25468220.497    25468219.2864   25468221.5304
        35.700          16.1004
 125417057.995 6  97727678.79245  23866040.114    23866039.7664   23866047.4554
        37.800          33.5004
 124900662.408 8                  23767741.285
        48.800
 115835067.290 8  90094159.545 7  21646486.575    21646486.905    21646494.057
        49.800          46.300
 128374354.327 6 100031947.06843  24428847.146    24428846.5654   24428855.4234
        39.900          19.8004
 106273694.839 8  82810833.14746  20223149.111    20223148.7544   20223150.2394
        48.400          41.2004
 124253811.048 7  96821313.37345  23644645.279    23644644.0454   23644644.8424
        45.000          32.0004
 103015657.396 8  80123341.614 8  19284735.930    19284736.177    19284742.790
        52.700          48.600
 110419456.773 8  86041321.17446  21012040.891    21012039.4434   21012040.2294
        48.500          40.6004
 102090179.035 8  79403686.024 8  19124857.827    19124858.314    19124863.727
        52.200          50.600
 25  1  1 23  6 45.0000000  0 31E03E05G17S31S35G07E33E25S48S33G30E11
                                E31R13G06G24E12R23E10R04R11G21G03E24
                                R21G13G14G02R12G19R22
 146778923.313 6                  27931093.819
        37.900
 138168405.532 6                  26292597.635
        37.100
 107533408.585 8  83792453.27848  20462847.012    20462846.3464   20462847.0944
        49.900          51.3004
 198974018.680 7                  37863505.980
        45.700
 200894597.945 7                  38228985.214
        44.200
 132403675.771 5 103171689.11143  25195603.520    25195602.8594   25195615.8854
        33.300          19.9004
 134446229.982 7                  25584195.933
        44.400
 138093519.102 7                  26278305.737
        43.100
 413005707.168 5                  78592226.770
        32.500
 202132039.581 7                  38464428.121
        44.900
 119208653.157 7  92889877.06046  22684657.291    22684656.4334   22684664.5844
        42.900          39.2004
 137666931.262 6                  26197103.411
        38.800
 130804348.410 7                  24891189.972
        44.900
 116823047.885 7                  21877200.945    21877200.653
        43.600
 119863306.529 7  93400111.00546  22809185.062    22809184.5894   22809193.0134
        43.100          40.1004
 125913378.626 6  98114354.57645  23960515.728    23960515.3134   23960520.8394
        38.700          34.6004
 126554259.976 7                  24082398.777
        44.300
 112906242.323 8                  21106578.349    21106578.811
        48.300
 129131692.554 7                  24572878.502
        46.700
 131662028.716 6 102403824.980 6  24586963.339    24586964.564    24586974.805
        40.900          37.000
 112591454.311 8  87571285.871 7  21069910.660    21069910.913    21069918.784
        49.300          47.100
 133892270.315 5 104331802.21242  25478788.854    25478787.6074   25478789.9424
        35.400          16.1004
 125385933.003 6  97703425.66645  23860117.924    23860117.5944   23860124.5134
        38.400          33.6004
 124891726.284 8                  23766040.907
        48.500
 115889484.439 8  90136483.991 7  21656655.693    21656655.683    21656663.479
        49.100          46.400
 128414545.010 6 100063264.32343  24436495.296    24436494.7424   24436503.7984
        38.400          19.6004
 106282852.301 8  82817968.83446  20224891.741    20224891.3794   20224892.8614
        48.300          41.1004
 124299554.536 7  96856957.67245  23653350.427    23653349.1844   23653349.5534
        45.200          31.8004
 102998905.844 8  80110312.644 8  19281600.414    19281600.411    19281606.917
        52.700          48.500
 110395059.809 8  86022310.58246  21007398.184    21007396.7364   21007397.6034
        48.400          40.5004
 102090479.201 8  79403919.515 8  19124914.151    19124914.531    19124919.945
        52.400          50.600
 25  1  1 23  7  0.0000000  0 31E03E05G17S31S35G07E33E25S48S33G30E11
                                E31R13G06G24E12R23E10R04R11G21G03E24
                                R21G13G14G02R12G19R22
 146792070.007 6                  27933595.464
        38.200
 138203318.092 6                  26299241.303
        36.800
 107540766.849 8  83798187.00748  20464247.126    20464246.4564   20464247.2974
        49.600          51.3004
 198974024.659 7                  37863505.519
        45.900
 200894619.387 7                  38228988.165
        44.100
 132460681.955 5 103216109.55943  25206450.760    25206450.0814   25206463.2774
        33.500          19.2004
 134474992.341 7                  25589669.368
        44.400
 138060544.845 7                  26272030.908
        42.800
 413005943.060 5                  78592233.196
        32.700
 202132039.449 7                  38464430.943
        45.200
 119259408.817 7  92929426.82746  22694316.385    22694315.5404   22694323.1554
        42.400          39.1004
 137621260.730 6                  26188411.986
        39.000
 130827004.248 7                  24895501.024
        44.700
 116768558.288 7                  21866996.016    21866995.977
        43.600
 119810346.588 7  93358843.70646  22799106.646    22799106.1684   22799114.8664
        42.000          40.1004
 125874405.393 6  98083985.83345  23953100.493    23953100.0874   23953104.2514
        38.700          34.5004
 126539250.065 7                  24079542.320
        44.200
 112857113.439 7                  21097394.200    21097394.639
        47.900
 129098543.953 7                  24566570.615
        46.900
 131670251.066 6 102410220.139 5  24588499.733    24588500.598    24588509.935
        41.100          34.900
 112635526.721 8  87605564.372 7  21078157.723    21078158.441    21078166.223
        49.100          47.000
 133947819.000 5 104375086.89942  25489359.174    25489357.9274   25489360.5044
        34.700          15.8004
 125354893.744 6  97679239.35945  23854210.422    23854210.0834   23854217.8804
        39.000          33.8004
 124882832.776 8                  23764348.414
        48.700
 115943964.594 8  90178857.441 7  21666836.939    21666836.812    21666844.398
        49.500          46.500
 128454766.568 6 100094605.61443  24444149.968    24444149.4274   24444157.6064
        39.700          18.8004
 106292102.374 8  82825176.68746  20226651.950    20226651.5884   20226653.0844
        48.300          40.9004
 124345354.196 7  96892645.73345  23662065.995    23662064.7394   23662065.0764
        45.400          32.0004
 102982294.903 8  80097393.030 8  19278490.414    19278490.662    19278497.405
        52.700          48.500
 110370735.158 7  86003356.34346  21002769.321    21002767.8734   21002768.7134
        47.800          40.5004
 102090955.409 8  79404289.912 8  19125003.457    19125003.740    19125009.109
        52.500          50.500
 25  1  1 23  7 15.0000000  0 31E03E05G17S31S35G07E33E25S48S33G30E11
                                E31R13G06G24E12R23E10R04R11G21G03E24
                                R21G13G14G02R12G19R22
 146805308.281 6                  27936114.253
        38.400
 138238255.699 6                  26305889.514
        37.600
 107548194.845 8  83803975.07248  20465660.819    20465660.1494   20465660.7734
        49.200          51.2004
 198974033.381 7                  37863509.548
        45.700
 200894643.607 7                  38228991.984
        44.100
 132517683.513 5 103260526.32543  25217297.091    25217296.4124   25217310.9054
        35.200          20.9004
 134503835.687 7                  25595158.340
        44.800
 138027575.351 7                  26265757.153
        43.100
 413006181.248 5                  78592240.905
        32.600
 202132040.815 7                  38464431.148
        44.900
 119310224.373 7  92969023.26946  22703986.191    22703985.3244   22703993.1064
        42.900          39.1004
 137575628.537 6                  26179728.514
        38.700
 130849706.269 7                  24899821.007
        44.800
 116714112.148 7                  21856799.775    21856799.917
        43.900
 119757449.913 7  93317625.67746  22789041.227    22789040.7454   22789048.5814
        42.500          40.3004
 125835539.334 6  98053700.61345  23945704.331    23945703.9164   23945708.4784
        39.600          34.5004
 126524347.723 7                  24076706.638
        44.500
 112808104.382 7                  21088232.729    21088232.638
        47.600
 129065477.215 7                  24560277.819
        47.200
 131678643.172 6 102416747.322 6  24590066.537    24590067.097    24590077.310
        41.000          36.500
 112679713.826 8  87639932.099 7  21086426.769    21086427.303    21086435.545
        49.500          47.100
 134003381.304 5 104418382.17542  25499933.065    25499931.8004   25499933.4864
        35.700          15.1004
 125323943.802 6  97655122.64945  23848320.987    23848320.6574   23848328.1144
        38.800          34.0004
 124873985.074 8                  23762664.737
        49.000
 115998510.467 8  90221282.018 7  21677029.805    21677029.800    21677037.180
        49.100          46.300
 128495021.683 6 100125973.07843  24451810.303    24451809.7454   24451818.5064
        39.900          19.4004
 106301448.238 7  82832459.18246  20228430.548    20228430.1864   20228431.5334
        47.800          40.9004
 124391212.967 7  96928379.87245  23670792.269    23670791.0004   23670791.5244
        44.900          32.0004
 102965828.183 8  80084585.593 8  19275407.796    19275407.894    19275414.717
        52.700          48.500
 110346485.985 8  85984460.91646  20998154.916    20998153.4724   20998154.2364
        48.400          40.5004
 102091610.638 8  79404799.560 8  19125126.318    19125126.630    19125131.882
        52.400          50.600
 25  1  1 23  7 30.0000000  0 31E03E05G17S31S35G07E33E25S48S33G30E11
                                E31R13G06G24E12R23E10R04R11G21G03E24
                                R21G13G14G02R12G19R22
 146818631.278 6                  27938649.908
        39.700
 138273211.395 6                  26312541.922
        37.700
 107555685.608 8  83809812.04948  20467086.083    20467085.4134   20467086.1964
        49.700          51.2004
 198974037.735 7                  37863508.618
        45.900
 200894663.351 7                  38228997.238
        44.100
 132574673.368 5 103304934.01643  25228142.111    25228141.4414   25228156.0124
        35.000          21.6004
 134532752.994 7                  25600660.744
        44.500
 137994603.913 7                  26259482.700
        43.400
 413006414.030 5                  78592246.450
        32.700
 202132037.220 7                  38464429.699
        45.100
 119361092.734 7  93008660.86246  22713666.000    22713665.1424   22713673.1454
        43.000          39.1004
 137530028.079 6                  26171051.019
        39.000
 130872447.711 7                  24904148.635
        45.100
 116659702.792 7                  21846610.893    21846610.440
        43.200
 119704610.065 7  93276451.92146  22778985.436    22778984.9454   22778993.2574
        43.100          40.5004
 125796773.993 6  98023493.87045  23938327.361    23938326.9284   23938331.1554
        39.200          34.4004
 126509546.233 7                  24073889.818
        44.700
 112759208.344 7                  21079092.285    21079091.818
        47.900
 129032485.713 7                  24553999.856
        47.200
 131687197.737 6 102423400.825 6  24591664.824    24591664.937    24591674.824
        41.500          36.000
 112724008.633 8  87674383.586 7  21094716.663    21094716.417    21094724.310
        49.600          47.100
 134058950.112 6 104461682.57042  25510506.812    25510505.5524   25510507.6754
        36.400          16.3004
 125293076.753 6  97631070.53145  23842446.796    23842446.4574   23842454.1814
        38.600          33.8004
 124865176.551 8                  23760988.367
        49.100
 116053114.760 8  90263752.018 7  21687234.239    21687234.458    21687241.141
        49.100          46.300
 128535303.226 6 100157361.13543  24459476.099    24459475.5234   24459484.2854
        39.100          19.7004
 106310883.219 8  82839811.12146  20230225.734    20230225.3634   20230226.9614
        48.400          40.9004
 124437123.589 7  96964154.41145  23679528.732    23679527.4584   23679527.9254
        45.200          32.0004
 102949498.940 8  80071885.100 8  19272350.623    19272351.039    19272357.952
        52.400          48.600
 110322305.538 8  85965619.04246  20993553.570    20993552.1224   20993552.7664
        48.800          40.6004
 102092437.905 8  79405443.022 8  19125281.214    19125281.415    19125286.819
        52.400          50.400
 25  1  1 23  7 45.0000000  0 30E03E05G17S31S35E33E25S48S33G30E11E31
                                R13G06G24E12R23E10R04R11G21G03E24R21
                                G13G14G02R12G19R22
 146832042.609 6                  27941201.126
        38.200
 138308188.644 6                  26319197.643
        37.900
 107563242.747 8  83815700.75048  20468524.101    20468523.4404   20468524.2434
        49.800          51.2004
 198974041.371 7                  37863511.082
        45.800
 200894682.465 7                  38229000.632
        44.200
 134561747.840 7                  25606178.602
        44.500
 137961634.417 7                  26253208.677
        43.400
 413005045.738 5                  78592240.717
        32.000
 202132035.013 7                  38464428.040
        45.200
 119412017.311 7  93048342.25646  22723356.940    22723356.0774   22723363.7464
        42.500          39.0004
 137484463.408 6                  26162380.140
        38.900
 130895232.392 7                  24908484.493
        44.800
 116605334.595 7                  21836430.128    21836429.910
        44.200
 119651831.096 7  93235325.57146  22768942.328    22768941.8324   22768949.7344
        43.000          40.6004
 125758113.482 6  97993368.81545  23930970.731    23930970.2934   23930974.3074
        40.500          34.9004
 126494849.408 7                  24071093.256
        44.400
 112710429.354 7                  21069973.358    21069972.897
        47.900
 128999573.398 7                  24547736.944
        47.200
 131695918.884 6 102430183.968 5  24593292.821    24593293.954    24593303.729
        41.800          35.800
 112768414.653 8  87708921.569 7  21103026.461    21103026.619    21103034.781
        49.100          47.100
 134114528.805 5 104504990.65642  25521083.068    25521081.8304   25521084.2294
        35.500          16.0004
 125262296.697 6  97607086.20345  23836589.557    23836589.2364   23836596.8394
        39.800          34.0004
 124856411.079 8                  23759320.634
        48.800
 116107780.785 8  90306270.047 7  21697449.831    21697449.965    21697457.327
        49.200          46.300
 128575614.399 6 100188772.28243  24467146.366    24467145.8084   24467155.1344
        40.100          19.2004
 106320411.163 8  82847235.49546  20232038.816    20232038.4324   20232040.0664
        48.700          41.0004
 124483089.582 7  96999972.09345  23688275.769    23688274.5094   23688274.9204
        44.700          32.1004
 102933311.438 8  80059294.826 8  19269320.845    19269320.907    19269327.614
        53.100          48.700
 110298197.611 8  85946833.68246  20988965.910    20988964.4574   20988965.1594
        48.900          40.7004
 102093440.886 8  79406223.137 8  19125468.971    19125469.362    19125474.663
        52.700          50.500
 25  1  1 23  8  0.0000000  0 30E03E05G17S31S35E33E25S48S33G30E11E31
                                R13G06G24E12R23E10R04R11G21G03E24R21
                                G13G14G02R12G19R22
 146845545.542 6                  27943771.460
        38.000
 138343190.595 6                  26325858.652
        36.900
 107570869.607 8  83821643.77548  20469975.570    20469974.9094   20469975.5584
        49.700          51.3004
 198974048.312 7                  37863511.332
        45.900
 200894704.587 7                  38229004.580
        44.300
 134590823.421 7                  25611711.252
        44.200
 137928670.298 7                  26246935.558
        42.800
 413005279.776 5                  78592240.597
        32.500
 202132034.601 7                  38464426.095
        45.000
 119463001.135 7  93088069.82146  22733059.055    22733058.2014   22733065.7854
        43.200          39.2004
 137438938.082 6                  26153717.130
        38.600
 130918063.732 7                  24912829.128
        44.700
 116551011.272 7                  21826256.663    21826256.088
        43.300
 119599116.764 7  93194249.57646  22758910.644    22758910.1394   22758918.5254
        42.800          40.7004
 125719561.435 6  97963328.28145  23923634.351    23923633.9224   23923638.2974
        39.500          35.4004
 126480260.623 7                  24068316.870
        44.300
 112661771.405 8                  21060877.175    21060876.977
        48.100
 128966743.820 7                  24541489.489
        47.100
 131704809.419 7 102437098.757 5  24594953.345    24594953.606    24594963.828
        42.800          35.900
 112812935.213 8  87743548.637 7  21111358.459    21111358.119    21111366.218
        50.000          47.100
 134170120.468 5 104548308.82842  25531661.870    25531660.6414   25531662.9304
        34.500          15.6004
 125231607.473 6  97583172.64545  23830749.527    23830749.1924   23830756.7124
        39.300          34.1004
 124847692.133 8                  23757661.198
        48.600
 116162511.507 8  90348838.381 7  21707677.681    21707677.585    21707685.113
        49.500          46.400
 128615958.296 6 100220208.93843  24474823.746    24474823.2054   24474832.3114
        40.200          18.8004
 106330035.513 8  82854734.99246  20233870.354    20233869.9704   20233871.5224
        48.500          41.0004
 124529113.992 7  97035835.29345  23697034.267    23697033.0244   23697033.1654
        44.800          32.1004
 102917269.461 8  80046817.734 8  19266317.317    19266317.841    19266324.459
        53.200          48.500
 110274165.577 8  85928107.45046  20984392.620    20984391.1634   20984392.0214
        48.900          40.8004
 102094622.782 8  79407142.402 8  19125690.348    19125690.850    19125695.995
        52.700          50.500
 25  1  1 23  8 15.0000000  0 30E03E05G17S31S35E33E25S48S33G30E11E31
                                R13G06G24E12R23E10R04R11G21G03E24R21
                                G13G14G02R12G19R22
 146859132.937 6                  27946356.636
        38.800
 138378210.051 6                  26332522.342
        37.700
 107578558.982 8  83827635.51248  20471438.879    20471438.2274   20471438.7584
        49.700          51.2004
 198974050.841 7                  37863512.218
        46.000
 200894723.597 7                  38229008.609
        44.200
 134619972.600 7                  25617258.230
        44.300
 137895704.707 7                  26240662.593
        42.800
 413005510.746 5                  78592250.470
        32.900
 202132030.764 7                  38464426.605
        45.200
 119514036.970 7  93127837.91546  22742770.345    22742769.4824   22742777.6354
        42.700          39.1004
 137393445.419 6                  26145060.098
        38.300
 130940934.824 7                  24917181.222
        44.700
 116496726.255 7                  21816091.256    21816090.968
        43.900
 119546460.538 7  93153218.86046  22748890.529    22748890.0424   22748898.2854
        42.600          40.7004
 125681111.285 6  97933367.15845  23916317.288    23916316.8594   23916321.7354
        38.900          35.2004
 126465773.120 7                  24065560.007
        44.700
 112613227.707 7                  21051801.815    21051801.743
        47.800
 128933990.229 7                  24535257.010
        47.000
 131713862.333 7 102444139.781 6  24596644.245    24596644.706    24596654.285
        42.600          36.300
 112857563.068 8  87778259.157 7  21119708.868    21119709.666    21119717.783
        49.400          47.200
 134225717.877 5 104591631.53342  25542242.704    25542241.4664   25542242.9014
        34.900          16.4004
 125201002.479 6  97559324.71745  23824925.310    23824924.9664   23824932.8444
        40.100          34.1004
 124839012.919 8                  23756009.681
        48.900
 116217299.478 8  90391451.263 7  21717915.575    21717916.273    21717923.210
        49.300          46.200
 128656327.616 6 100251665.38943  24482505.620    24482505.0664   24482514.3134
        40.500          19.5004
 106339749.450 8  82862304.29646  20235719.003    20235718.6234   20235720.0324
        48.200          40.8004
 124575189.658 7  97071738.42745  23705802.145    23705800.9204   23705801.0694
        44.600          32.1004
 102901366.173 8  80034448.521 8  19263340.457    19263340.487    19263347.458
        53.000          48.600
 110250202.470 8  85909434.93646  20979832.663    20979831.2064   20979831.9774
        49.000          40.8004
 102095976.455 8  79408195.275 8  19125943.940    19125944.320    19125949.634
        52.800          50.700
 25  1  1 23  8 30.0000000  0 30E03E05G17S31S35E33E25S48S33G30E11E31
                                R13G06G24E12R23E10R04R11G21G03E24R21
                                G13G14G02R12G19R22
 146872813.937 6                  27948960.368
        38.300
 138413255.966 6                  26339191.642
        37.300
 107586320.038 8  83833683.10848  20472915.574    20472914.9264   20472915.6094
        49.700          51.1004
 198974058.457 7                  37863515.594
        45.800
 200894746.881 7                  38229014.319
        44.200
 134649204.381 7                  25622820.518
        44.500
 137862746.952 7                  26234390.989
        43.100
 413005746.907 5                  78592254.025
        32.600
 202132030.533 7                  38464426.721
        45.000
 119565133.646 7  93167653.41646  22752494.192    22752493.3344   22752501.1914
        43.300          38.9004
 137347994.807 6                  26136411.107
        38.600
 130963854.927 7                  24921542.821
        44.800
 116442489.349 7                  21805933.915    21805933.225
        43.500
 119493871.893 7  93112240.80546  22738883.407    22738882.9294   22738890.7134
        42.400          40.5004
 125642772.515 6  97903492.82345  23909022.142    23909021.7094   23909025.9384
        39.200          34.8004
 126451396.124 7                  24062823.990
        44.600
 112564807.982 8                  21042750.625    21042750.754
        48.400
 128901321.989 7                  24529040.115
        47.000
 131723086.648 6 102451314.073 5  24598367.104    24598367.099    24598376.861
        40.700          33.800
 112902307.471 8  87813060.323 7  21128082.171    21128082.627    21128091.169
        48.800          47.300
 134281329.969 6 104634965.63842  25552824.804    25552823.6064   25552825.6754
        36.100          16.0004
 125170491.346 6  97535549.93345  23819118.671    23819118.3184   23819126.9794
        39.600          34.1004
 124830382.728 8                  23754367.456
        48.900
 116272153.706 8  90434115.663 7  21728166.906    21728166.860    21728174.239
        50.000          46.300
 128696731.222 6 100283148.55043  24490194.683    24490194.1334   24490203.0044
        39.200          19.3004
 106349562.274 8  82869950.65846  20237586.279    20237585.9044   20237587.3334
        48.200          40.7004
 124621325.512 7  97107688.46145  23714581.759    23714580.5664   23714580.4604
        44.900          32.0004
 102885611.286 8  80022194.750 8  19260390.893    19260391.108    19260397.958
        52.700          48.600
 110226317.590 8  85890823.37246  20975287.396    20975285.9254   20975286.7834
        48.500          40.8004
 102097511.041 8  79409388.866 8  19126231.461    19126231.894    19126237.115
        52.500          50.800
 25  1  1 23  8 45.0000000  0 30E03E05G17S31S35E33E25S48S33G30E11E31
                                R13G06G24E12R23E10R04R11G21G03E24R21
                                G13G14G02R12G19R22
 146886583.060 6                  27951581.376
        38.200
 138448322.801 6                  26345865.256
        36.800
 107594147.361 8  83839782.33948  20474405.039    20474404.3914   20474405.0764
        49.600          51.0004
 198974066.489 7                  37863516.126
        45.600
 200894770.301 7                  38229018.532
        44.100
 134678513.242 7                  25628398.343
        44.400
 137829791.791 7                  26228119.921
        43.400
 413005982.206 5                  78592261.139
        32.600
 202132032.349 7                  38464427.267
        45.000
 119616285.571 7  93207511.97246  22762227.383    22762226.5124   22762235.2834
        42.900          39.0004
 137302581.184 6                  26127768.930
        38.500
 130986818.753 7                  24925912.824
        45.000
 116388295.696 7                  21795785.833    21795784.878
        43.600
 119441345.906 7  93071311.56946  22728887.703    22728887.2384   22728894.9644
        42.100          40.6004
 125604540.137 6  97873701.38145  23901746.078    23901745.6314   23901750.3494
        39.000          34.9004
 126437124.412 7                  24060108.201
        44.700
 112516506.918 7                  21033720.908    21033720.880
        47.500
 128868733.978 7                  24522838.934
        47.000
 131732476.797 6 102458617.210 5  24600120.559    24600121.129    24600130.632
        40.400          32.100
 112947162.730 8  87847947.704 7  21136476.663    21136477.012    21136484.825
        49.500          47.200
 134336951.302 6 104678306.96142  25563407.837    25563406.5774   25563409.8144
        36.200          16.5004
 125140069.149 6  97511844.46045  23813330.299    23813329.9604   23813337.6234
        38.700          33.8004
 124821796.379 8                  23752733.387
        49.000
 116327068.165 8  90476826.933 7  21738428.207    21738429.032    21738436.242
        49.900          46.300
 128737163.283 6 100314653.88743  24497888.864    24497888.3144   24497897.2184
        38.600          19.0004
 106359468.753 7  82877669.99346  20239471.291    20239470.9204   20239472.4754
        47.900          40.8004
 124667515.883 7  97143680.98345  23723370.981    23723369.7884   23723369.9444
        44.700          32.0004
 102869999.773 8  80010052.463 8  19257468.077    19257468.608    19257475.440
        52.600          48.600
 110202505.631 8  85872268.63646  20970756.318    20970754.8614   20970755.4874
        48.600          40.8004
 102099221.023 8  79410718.873 8  19126551.840    19126552.130    19126557.435
        52.500          50.700
 25  1  1 23  9  0.0000000  0 30E03E05G17S31S35E33E25S48S33G30E11E31
                                R13G06G24E12R23E10R04R11G21G03E24R21
                                G13G14G02R12G19R22
 146900438.036 6                  27954217.066
        38.800
 138483408.103 6                  26352541.403
        37.700
 107602038.834 8  83845931.55748  20475906.695    20475906.0434   20475906.7404
        49.800          51.0004
 198974072.403 7                  37863514.950
        45.800
 200894791.902 7                  38229020.754
        44.100
 134707896.872 7                  25633989.605
        44.300
 137796837.160 7                  26221848.613
        43.200
 413006214.918 5                  78592260.097
        32.600
 202132030.408 7                  38464427.701
        45.000
 119667490.224 7  93247411.61746  22771971.775    22771970.9124   22771979.1324
        42.900          38.8004
 137257202.558 6                  26119133.459
        38.400
 131009824.203 7                  24930290.411
        44.700
 116334143.144 7                  21785644.685    21785644.374
        43.900
 119388880.742 7  93030429.73046  22718903.814    22718903.3584   22718911.1464
        42.700          40.7004
 125566412.291 6  97843991.40145  23894491.005    23894490.5674   23894495.0164
        39.500          35.4004
 126422955.888 7                  24057412.310
        44.600
 112468322.741 8                  21024713.197    21024713.530
        48.500
 128836224.202 7                  24516652.440
        47.300
 131742030.965 6 102466047.922 5  24601905.633    24601904.917    24601915.511
        37.900          34.000
 112992126.511 8  87882919.478 7  21144890.754    21144891.139    21144899.623
        48.700          47.400
 134392579.203 6 104721653.39042  25573994.172    25573992.9034   25573995.5134
        36.000          16.5004
 125109734.114 6  97488206.89745  23807556.829    23807556.4674   23807564.4184
        39.100          33.8004
 124813251.829 8                  23751107.443
        48.900
 116382040.278 8  90519583.024 7  21748701.359    21748701.646    21748708.655
        49.400          45.900
 128777621.294 6 100346179.43243  24505587.462    24505586.9174   24505596.6054
        40.100          19.5004
 106369466.829 8  82885460.70846  20241373.989    20241373.6274   20241375.0744
        48.200          40.7004
 124713758.248 7  97179714.00845  23732170.837    23732169.6444   23732169.5164
        44.700          31.8004
 102854529.744 8  79998020.233 8  19254572.558    19254572.615    19254579.430
        52.600          48.700
 110178764.340 8  85853768.96646  20966238.417    20966236.9554   20966237.6144
        49.000          40.9004
 102101104.087 8  79412183.492 8  19126904.517    19126904.829    19126910.179
        52.600          50.600
 25  1  1 23  9 15.0000000  0 30E03E05G17S31S35E33E25S48S33G30E11E31
                                R13G06G24E12R23E10R04R11G21G03E24R21
                                G13G14G02R12G19R22
 146914382.731 6                  27956870.998
        38.700
 138518515.702 6                  26359222.618
        37.100
 107609997.969 8  83852133.50148  20477421.085    20477420.4334   20477421.2924
        49.700          51.1004
 198974079.410 7                  37863515.205
        46.100
 200894814.837 7                  38229025.485
        44.400
 134737359.061 7                  25639596.189
        44.700
 137763887.176 7                  26215578.044
        43.200
 413006449.018 5                  78592263.916
        33.100
 202132030.268 7                  38464430.893
        45.400
 119718751.249 7  93287355.18346  22781726.731    22781725.8554   22781733.8834
        42.900          39.0004
 137211863.192 6                  26110505.871
        38.700
 131032875.325 7                  24934677.133
        44.600
 116280036.444 7                  21775511.889    21775511.131
        43.600
 119336480.740 7  92989598.68346  22708932.248    22708931.7974   22708939.8354
        42.500          40.8004
 125528393.329 6  97814366.26845  23887256.056    23887255.6004   23887260.3784
        39.800          35.8004
 126408894.549 7                  24054736.472
        44.800
 112420259.606 7                  21015728.160    21015728.480
        47.600
 128803796.854 7                  24510481.592
        47.400
 131751753.460 6 102473609.876 5  24603721.567    24603721.380    24603731.285
        38.600          33.700
 113037202.713 8  87917978.742 7  21153326.737    21153327.038    21153335.030
        49.100          47.500
 134448217.534 5 104765007.94242  25584581.918    25584580.6264   25584583.3624
        35.300          16.3004
 125079490.667 6  97464640.71145  23801801.305    23801800.9484   23801809.1854
        39.300          34.1004
 124804753.211 8                  23749490.206
        49.100
 116437073.677 8  90562386.796 7  21758985.586    21758985.680    21758993.740
        49.000          46.100
 128818108.868 6 100377728.02243  24513292.440    24513291.9044   24513301.4034
        39.800          19.4004
 106379560.568 8  82893325.96246  20243294.568    20243294.2024   20243295.8964
        48.200          40.9004
 124760056.392 7  97215790.50345  23740980.891    23740979.6844   23740979.8874
        44.900          32.1004
 102839205.672 8  79986101.527 8  19251703.471    19251703.984    19251710.727
        52.600          48.500
 110155097.821 8  85835327.55946  20961734.675    20961733.2184   20961734.0284
        48.700          41.0004
 102103164.008 8  79413785.682 8  19127290.686    19127290.766    19127296.139
        52.800          50.600
 25  1  1 23  9 30.0000000  0 30E03E05G17S31S35E33E25S48S33G30E11E31
                                R13G06G24E12R23E10R04R11G21G03E24R21
                                G13G14G02R12G19R22
 146928412.508 6                  27959540.581
        38.400
 138553640.800 6                  26365906.916
        36.700
 107618020.055 8  83858384.49148  20478947.678    20478947.0304   20478947.8284
        49.800          51.0004
 198974084.250 7                  37863517.297
        45.900
 200894834.879 7                  38229030.632
        44.300
 134766895.124 7                  25645216.693
        44.200
 137730937.414 7                  26209308.294
        42.800
 413006678.598 5                  78592269.702
        32.900
 202132027.341 7                  38464427.772
        45.200
 119770063.864 7  93327338.95546  22791491.469    22791490.5844   22791498.5384
        43.400          39.1004
 137166558.816 6                  26101884.475
        39.000
 131055967.654 7                  24939071.119
        44.500
 116225971.288 7                  21765386.827    21765386.739
        43.700
 119284141.739 7  92948815.14946  22698972.686    22698972.2304   22698979.9174
        42.800          40.7004
 125490479.049 6  97784822.69345  23880041.424    23880040.9514   23880045.3884
        39.700          35.3004
 126394936.055 7                  24052080.083
        44.400
 112372313.583 8                  21006765.314    21006765.470
        48.100
 128771447.600 7                  24504325.792
        47.200
 131761638.656 6 102481298.139 6  24605567.537    24605567.498    24605577.301
        40.100          36.000
 113082386.597 8  87953121.730 7  21161782.239    21161781.866    21161790.439
        48.400          47.400
 134503861.650 5 104808367.01342  25595170.733    25595169.4104   25595171.5974
        35.500          15.4004
 125049334.650 6  97441142.66845  23796064.288    23796063.9584   23796070.5914
        38.900          34.1004
 124796296.132 8                  23747880.908
        48.700
 116492163.323 8  90605234.320 7  21769280.635    21769280.894    21769288.282
        49.800          46.000
 128858621.149 6 100409295.88943  24521001.463    24521000.9094   24521010.2884
        40.100          19.4004
 106389745.572 8  82901262.33246  20245232.729    20245232.3584   20245234.0094
        48.400          40.8004
 124806405.455 7  97251906.67145  23749800.518    23749799.3164   23749799.7644
        45.200          32.1004
 102824023.230 8  79974292.968 8  19248861.750    19248861.772    19248868.542
        52.500          48.500
 110131501.600 8  85816940.92846  20957244.548    20957243.0914   20957243.7644
        48.500          41.1004
 102105396.135 8  79415521.800 8  19127708.497    19127708.862    19127714.258
        52.600          50.600
 25  1  1 23  9 45.0000000  0 30E03E05G17S31S35E33E25S48S33G30E11E31
                                R13G06G24E12R23E10R04R11G21G03E24R21
                                G13G14G02R12G19R22
 146942532.704 6                  27962227.652
        38.700
 138588788.623 6                  26372594.518
        36.800
 107626110.556 8  83864688.79148  20480487.320    20480486.6724   20480487.3774
        49.800          51.0004
 198974091.764 7                  37863519.283
        45.800
 200894858.485 7                  38229036.593
        44.300
 134796510.336 7                  25650852.264
        44.200
 137697993.406 7                  26203039.113
        43.100
 413005310.921 5                  78592272.171
        32.900
 202132027.542 7                  38464428.184
        45.000
 119821433.197 7  93367366.92646  22801266.551    22801265.6534   22801273.9214
        42.700          39.1004
 137121295.135 6                  26093270.870
        38.600
 131079106.696 7                  24943474.578
        44.800
 116171953.831 7                  21755271.154    21755270.761
        43.700
 119231869.581 7  92908083.71546  22689025.705    22689025.2454   22689032.6584
        43.500          40.8004
 125452675.230 6  97755365.20046  23872847.565    23872847.0874   23872851.7014
        40.000          36.1004
 126381085.918 7                  24049444.569
        44.600
 112324490.294 7                  20997825.432    20997825.226
        47.900
 128739182.094 7                  24498185.590
        47.200
 131771691.948 6 102489117.110 5  24607444.135    24607444.762    24607454.452
        41.200          35.400
 113127683.474 8  87988352.586 7  21170258.531    21170259.038    21170267.410
        48.900          47.300
 134559516.777 5 104851734.62942  25605761.709    25605760.4404   25605762.5544
        35.900          16.5004
 125019271.915 6  97417717.31445  23790342.798    23790342.4454   23790349.5664
        40.000          34.0004
 124787886.194 8                  23746280.546
        48.900
 116547314.365 8  90648129.575 7  21779586.904    21779587.277    21779594.576
        49.800          46.200
 128899163.375 6 100440887.06743  24528716.971    24528716.3954   24528725.4604
        39.200          19.1004
 106400027.400 8  82909274.14946  20247189.422    20247189.0474   20247190.5674
        48.400          40.9004
 124852810.598 7  97288066.54545  23758631.378    23758630.1714   23758630.2584
        45.000          32.1004
 102808988.318 8  79962599.165 8  19246047.357    19246047.172    19246053.995
        52.900          48.600
 110107981.112 8  85798613.31446  20952768.891    20952767.4434   20952767.9294
        49.300          41.3004
 102107805.863 8  79417396.052 8  19128160.234    19128160.443    19128165.677
        52.800          50.600
 25  1  1 23 10  0.0000000  0 30E03E05G17S31S35E33E25S48S33G30E11E31
                                R13G06G24E12R23E10R04R11G21G03E24R21
                                G13G14G02R12G19R22
 146956738.198 6                  27964930.228
        38.300
 138623953.997 6                  26379287.222
        37.300
 107634264.354 8  83871042.41448  20482038.805    20482038.1534   20482038.9634
        49.500          50.8004
 198974096.908 7                  37863520.669
        45.800
 200894879.654 7                  38229038.569
        44.200
 134826199.504 7                  25656502.163
        44.400
 137665050.307 7                  26196770.088
        43.000
 413005541.114 5                  78592274.067
        32.900
 202132025.810 7                  38464427.687
        45.000
 119872853.895 7  93407434.90846  22811051.844    22811050.9774   22811059.0344
        42.900          38.8004
 137076067.327 6                  26084664.346
        38.400
 131102287.527 7                  24947885.752
        44.600
 116117979.251 7                  21745163.777    21745163.039
        43.600
 119179659.564 7  92867400.71046  22679089.766    22679089.3104   22679097.3704
        43.200          40.7004
 125414977.194 6  97725990.14545  23865673.349    23865672.8934   23865677.9804
        38.200          35.3004
 126367339.186 7                  24046828.573
        44.600
 112276784.985 8                  20988906.886    20988907.522
        48.200
 128706995.522 7                  24492060.912
        47.200
 131781908.713 6 102497063.353 5  24609352.141    24609352.794    24609362.431
        40.300          34.600
 113173088.074 8  88023667.238 7  21178755.545    21178755.693    21178764.128
        49.400          47.200
 134615177.512 5 104895106.63642  25616353.526    25616352.2704   25616354.3704
        35.600          16.1004
 124989297.895 6  97394361.07345  23784637.856    23784637.4944   23784645.5194
        39.200          34.0004
 124779518.524 8                  23744688.248
        48.700
 116602521.384 8  90691068.376 7  21789903.613    21789904.182    21789911.240
        50.100          46.100
 128939729.967 6 100472497.24843  24536436.441    24536435.8514   24536445.2964
        39.900          18.8004
 106410401.150 8  82917357.59646  20249163.372    20249162.9974   20249164.6234
        48.400          40.6004
 124899266.487 7  97324265.95645  23767471.663    23767470.4474   23767470.5664
        45.200          32.0004
 102794096.221 8  79951016.424 8  19243259.053    19243259.128    19243266.104
        52.200          48.400
 110084531.469 8  85780340.89846  20948306.421    20948304.9684   20948305.5584
        48.600          41.0004
 102110387.939 8  79419404.351 8  19128643.425    19128644.035    19128649.310
        52.400          50.700
 25  1  1 23 10 15.0000000  0 30E03E05G17S31S35E33E25S48S33G30E11E31
                                R13G06G24E12R23E10R04R11G21G03E24R21
                                G13G14G02R12G19R22
 146971032.013 6                  27967650.994
        38.400
 138659139.833 6                  26385982.480
        36.500
 107642484.501 8  83877447.73248  20483603.309    20483602.6664   20483603.1634
        49.500          50.8004
 198974102.842 7                  37863520.338
        45.700
 200894901.487 7                  38229042.294
        44.100
 134855965.618 7                  25662166.007
        44.200
 137632111.337 7                  26190502.294
        42.600
 413005771.770 5                  78592268.683
        32.500
 202132024.705 7                  38464427.209
        44.900
 119924328.846 7  93447545.17646  22820847.043    22820846.1724   22820854.4274
        43.400          39.0004
 137030878.847 6                  26076065.112
        38.400
 131125513.350 7                  24952305.290
        44.300
 116064051.444 7                  21735064.785    21735064.675
        44.000
 119127515.232 7  92826768.87946  22669167.176    22669166.7204   22669174.5674
        43.200          40.8004
 125377388.439 6  97696700.22445  23858521.311    23858520.8824   23858524.9624
        39.600          35.5004
 126353699.140 7                  24044232.865
        44.400
 112229201.215 7                  20980011.994    20980011.811
        47.900
 128674891.230 7                  24485951.751
        46.900
 131792292.225 6 102505139.405 5  24611291.757    24611291.954    24611301.765
        41.100          35.900
 113218603.465 8  88059068.054 7  21187273.464    21187273.495    21187281.719
        48.700          47.100
 134670846.838 5 104938485.33742  25626947.404    25626946.1174   25626948.0874
        35.400          15.9004
 124959416.117 6  97371076.70945  23778952.299    23778951.9784   23778959.2304
        39.000          33.9004
 124771196.398 8                  23743104.572
        48.600
 116657786.845 8  90734052.636 7  21800231.269    21800231.735    21800238.922
        49.900          46.100
 128980323.853 6 100504128.65943  24544161.629    24544161.0484   24544170.5204
        39.100          18.9004
 106420870.076 8  82925515.20246  20251155.521    20251155.1414   20251156.7944
        48.200          40.7004
 124945776.106 7  97360507.23045  23776322.172    23776320.9524   23776321.1954
        44.500          32.0004
 102779350.500 8  79939547.543 8  19240498.543    19240498.809    19240505.718
        52.700          48.500
 110061155.747 8  85762126.08646  20943858.220    20943856.7764   20943857.2644
        48.700          41.1004
 102113145.402 8  79421549.070 8  19129160.359    19129160.566    19129165.836
        52.800          50.600
 25  1  1 23 10 30.0000000  0 30E03E05G17S31S35E33E25S48S33G30E11E31
                                R13G06G24E12R23E10R04R11G21G03E24R21
                                G13G14G02R12G19R22
 146985411.330 6                  27970387.234
        38.000
 138694343.092 6                  26392682.079
        36.800
 107650768.411 8  83883902.74148  20485179.576    20485178.9284   20485179.5314
        49.700          50.8004
 198974107.767 7                  37863521.778
        45.700
 200894922.257 7                  38229047.195
        44.100
 134885805.785 7                  25667844.525
        44.000
 137599173.917 7                  26184234.434
        43.000
 413005999.130 5                  78592272.439
        32.600
 202132022.111 7                  38464425.049
        44.800
 119975854.943 7  93487695.30146  22830652.084    22830651.2264   22830659.5064
        43.300          39.0004
 136985727.178 6                  26067472.745
        38.600
 131148781.468 7                  24956733.336
        44.400
 116010167.977 7                  21724973.583    21724973.260
        43.700
 119075434.219 7  92786186.38646  22659256.064    22659255.6134   22659263.7614
        42.400          40.8004
 125339906.601 6  97667493.62545  23851388.323    23851387.8724   23851392.4124
        39.400          35.8004
 126340163.130 7                  24041657.102
        44.800
 112181736.371 8                  20971138.814    20971138.958
        48.000
 128642866.674 7                  24479857.526
        47.200
 131802838.739 6 102513342.231 5  24613260.887    24613261.341    24613270.772
        40.200          34.600
 113264226.716 8  88094552.779 7  21195810.910    21195811.244    21195819.599
        48.700          47.000
 134726521.641 6 104981868.34642  25637541.703    25637540.4474   25637542.3894
        36.500          16.2004
 124929624.263 6  97347862.41345  23773282.737    23773282.3894   23773290.1114
        39.100          34.0004
 124762917.245 8                  23741529.188
        48.800
 116713107.785 8  90777080.049 7  21810569.238    21810569.397    21810577.269
        49.900          46.000
 129020941.871 6 100535778.89743  24551890.924    24551890.3574   24551900.4354
        38.600          18.6004
 106431431.539 8  82933744.91946  20253165.400    20253165.0294   20253166.5564
        48.000          40.8004
 124992336.562 7  97396788.11545  23785182.379    23785181.1594   23785181.2504
        44.900          31.9004
 102764748.713 8  79928190.610 8  19237765.135    19237765.266    19237772.206
        52.900          48.600
 110037851.274 8  85743966.79146  20939423.296    20939421.8664   20939422.5464
        48.900          41.2004
 102116075.317 8  79423827.909 8  19129708.904    19129709.382    19129714.679
        52.400          50.600
 25  1  1 23 10 45.0000000  0 30E03E05G17S31S35E33E25S48S33G30E11E31
                                R13G06G24E12R23E10R04R11G21G03E24R21
                                G13G14G02R12G19R22
 146999878.401 6                  27973140.354
        38.700
 138729566.036 6                  26399384.599
        36.900
 107659118.122 8  83890409.02348  20486768.435    20486767.7874   20486768.4104
        49.400          50.7004
 198974112.935 7                  37863522.319
        45.900
 200894943.598 7                  38229051.930
        44.200
 134915722.201 7                  25673537.702
        44.200
 137566240.526 7                  26177967.495
        43.300
 413006225.998 5                  78592276.683
        32.600
 202132019.498 7                  38464425.165
        45.200
 120027434.313 7  93527886.92646  22840467.656    22840466.8024   22840474.9864
        43.300          39.1004
 136940614.951 6                  26058888.556
        38.400
 131172094.386 7                  24961169.854
        44.400
 115956331.603 7                  21714892.103    21714891.835
        44.100
 119023419.228 7  92745655.35646  22649358.500    22649358.0624   22649365.4894
        43.000          40.7004
 125302534.328 6  97638372.40545  23844276.667    23844276.2204   23844280.5734
        39.000          35.9004
 126326733.582 7                  24039101.541
        45.100
 112134393.414 8                  20962288.374    20962288.812
        48.300
 128610924.454 7                  24473778.918
        47.200
 131813550.711 6 102521673.499 6  24615261.613    24615262.012    24615271.881
        41.600          36.200
 113309960.105 8  88130123.138 7  21204369.001    21204369.094    21204377.752
        48.400          46.900
 134782203.930 5 105025257.15642  25648137.870    25648136.5964   25648138.2574
        35.500          16.1004
 124899925.175 6  97324720.40945  23767630.987    23767630.6434   23767638.1864
        39.200          34.0004
 124754683.632 8                  23739962.183
        48.900
 116768486.313 8  90820152.224 7  21820918.007    21820918.476    21820925.538
        49.700          45.600
 129061586.022 6 100567449.49543  24559625.807    24559625.2084   24559635.3004
        38.400          18.7004
 106442088.069 8  82942048.71246  20255193.608    20255193.2514   20255194.4364
        48.200          40.7004
 125038949.905 7  97433110.21545  23794052.675    23794051.4554   23794051.3754
        45.100          31.9004
 102750293.542 8  79916947.697 8  19235059.087    19235059.268    19235066.128
        52.800          48.700
 110014620.572 8  85725864.98546  20935002.663    20935001.2244   20935001.8734
        49.100          41.3004
 102119179.985 8  79426242.653 8  19130290.706    19130291.068    19130296.325
        52.700          50.600
 25  1  1 23 11  0.0000000  0 30E03E05G17S31S35E33E25S48S33G30E11E31
                                R13G06G24E12R23E10R04R11G21G03E24R21
                                G13G14G02R12G19R22
 147014436.279 6                  27975910.173
        38.900
 138764811.580 6                  26406091.865
        36.500
 107667536.492 8  83896968.79948  20488370.334    20488369.6864   20488370.3604
        49.600          50.7004
 198974121.887 7                  37863524.899
        45.900
 200894968.785 7                  38229055.391
        44.300
 134945717.825 7                  25679245.370
        44.300
 137533314.437 7                  26171701.620
        43.200
 413006456.654 5                  78592281.244
        32.600
 202132020.984 7                  38464426.377
        45.200
 120079069.779 7  93568122.25746  22850293.400    22850292.5334   22850301.0774
        43.000          39.2004
 136895545.539 6                  26050312.008
        39.200
 131195455.270 7                  24965614.898
        44.700
 115902546.055 7                  21704819.819    21704819.394
        44.200
 118971473.796 7  92705178.52146  22639472.930    22639472.4794   22639480.5214
        43.000          40.8004
 125265275.152 6  97609339.31745  23837186.875    23837186.4334   23837190.3064
        39.800          35.6004
 126313413.782 7                  24036566.922
        45.000
 112087175.644 8                  20953461.858    20953461.377
        48.200
 128579067.886 7                  24467716.899
        47.500
 131824431.297 6 102530135.947 5  24617293.914    24617294.007    24617303.858
        40.300          34.400
 113355806.597 8  88165781.502 7  21212949.694    21212949.467    21212957.696
        49.400          46.900
 134837896.743 6 105068654.17742  25658735.212    25658733.9204   25658736.4274
        36.000          16.8004
 124870322.353 6  97301653.41045  23761997.652    23761997.3174   23762004.8094
        38.500          34.1004
 124746498.779 8                  23738404.652
        49.100
 116823925.092 8  90863271.299 7  21831278.475    21831278.331    21831285.787
        49.700          45.400
 129102259.289 6 100599142.78443  24567365.673    24567365.0744   24567374.9414
        38.800          18.8004
 106452842.889 8  82950429.09846  20257239.654    20257239.2924   20257241.0134
        48.200          40.7004
 125085619.026 7  97469475.77745  23802933.532    23802932.3304   23802932.3044
        44.300          31.9004
 102735988.541 8  79905821.601 8  19232381.221    19232381.254    19232388.220
        52.800          48.600
 109991466.769 8  85707823.09646  20930596.454    20930595.0064   20930595.8004
        49.100          41.3004
 102122462.410 8  79428795.684 8  19130905.702    19130905.948    19130911.312
        52.800          50.400
 25  1  1 23 11 15.0000000  0 29E03E05G17S31S35E33E25S48S33G30E11E31
                                R13G06G24E12R23E10R11G21G03E24R21G13
                                G14G02R12G19R22
 147029076.738 6                  27978696.658
        38.800
 138800071.347 6                  26412801.517
        36.700
 107676015.632 8  83903575.93248  20489983.837    20489983.1944   20489983.8694
        49.400          50.8004
 198974127.093 7                  37863525.767
        46.100
 200894989.422 7                  38229059.295
        44.300
 134975784.467 7                  25684967.257
        43.800
 137500387.722 7                  26165436.143
        43.100
 413006681.601 5                  78592284.535
        32.900
 202132017.822 7                  38464425.380
        45.200
 120130752.975 7  93608394.78346  22860128.905    22860128.0474   22860136.0404
        43.200          39.2004
 136850511.132 6                  26041741.881
        37.900
 131218856.153 7                  24970067.891
        44.200
 115848803.542 7                  21694756.262    21694754.965
        44.200
 118919590.227 7  92664749.88946  22629600.082    22629599.6314   22629607.2594
        42.200          40.8004
 125228121.297 6  97580388.28746  23830115.252    23830114.8234   23830120.1214
        40.100          36.2004
 126300195.674 7                  24034051.521
        44.700
 112040075.371 8                  20944656.666    20944656.820
        48.300
 128547289.121 7                  24461669.745
        47.100
 113401757.965 8  88201521.414 7  21221548.076    21221548.339    21221556.939
        48.400          46.900
 134893591.970 6 105112053.09342  25669334.270    25669332.9694   25669334.7454
        36.300          16.9004
 124840808.145 6  97278655.46745  23756381.450    23756381.1064   23756388.2864
        38.800          34.1004
 124738354.806 8                  23736855.084
        48.700
 116879415.576 8  90906430.554 7  21841647.913    21841648.301    21841655.412
        49.800          45.600
 129142953.082 6 100630852.07343  24575109.483    24575108.8894   24575118.9384
        39.200          18.7004
 106463688.076 8  82958879.89446  20259303.257    20259302.9044   20259304.7794
        48.000          40.8004
 125132335.490 7  97505878.24245  23811823.583    23811822.3764   23811822.1984
        44.400          32.1004
 102721825.873 8  79894806.201 8  19229729.646    19229729.935    19229736.897
        52.700          48.600
 109968381.751 8  85689834.80446  20926203.650    20926202.2024   20926202.8474
        49.000          41.4004
 102125914.295 8  79431480.494 8  19131552.251    19131552.562    19131557.882
        53.000          50.400
 25  1  1 23 11 30.0000000  0 29E03E05G17S31S35E33E25S48S33G30E11E31
                                R13G06G24E12R23E10R11G21G03E24R21G13
                                G14G02R12G19R22
 147043807.592 6                  27981499.417
        38.500
 138835353.074 6                  26419515.301
        36.000
 107684563.191 8  83910236.37748  20491610.526    20491609.8874   20491610.4084
        49.300          50.7004
 198974135.621 7                  37863526.768
        45.600
 200895014.575 7                  38229062.989
        44.100
 135005929.793 7                  25690703.624
        43.700
 137467468.340 7                  26159171.397
        42.600
 413005310.243 5                  78592287.651
        32.500
 202132018.700 7                  38464426.489
        44.900
 120182491.457 7  93648710.39346  22869974.604    22869973.7414   22869981.6904
        42.700          39.3004
 136805519.870 6                  26033180.478
        38.100
 131242304.956 7                  24974530.011
        44.000
 115795112.399 7                  21684700.377    21684700.508
        44.600
 118867776.755 7  92624375.88146  22619739.940    22619739.4934   22619747.3444
        42.300          40.9004
 125191081.019 6  97551525.75846  23823067.029    23823066.6094   23823071.9364
        39.600          36.3004
 126287087.253 7                  24031557.240
        44.400
 111993100.683 7                  20935874.826    20935874.880
        47.700
 128515596.221 7                  24455638.797
        47.000
 113447821.926 8  88237348.904 7  21230168.343    21230168.438    21230176.609
        48.700          47.100
 134949297.182 6 105155459.78942  25679934.113    25679932.7994   25679935.1284
        36.200          17.3004
 124811390.850 6  97255733.03745  23750782.955    23750782.5894   23750790.0734
        40.000          34.2004
 124730259.719 8                  23735314.574
        48.600
 116934965.266 8  90949635.883 7  21852028.470    21852029.289    21852036.369
        49.800          45.600
 129183675.045 6 100662583.30843  24582858.379    24582857.7854   24582867.4234
        39.500          18.6004
 106474631.577 8  82967407.30346  20261385.922    20261385.5744   20261387.2494
        48.300          40.8004
 125179106.865 7  97542323.49445  23820723.641    23820722.4394   23820722.4044
        45.500          31.9004
 102707813.997 8  79883908.076 8  19227106.759    19227106.886    19227113.727
        52.800          48.500
 109945373.491 8  85671906.32246  20921825.283    20921823.8264   20921824.4754
        49.200          41.5004
 102129543.435 8  79434303.156 8  19132232.064    19132232.397    19132237.649
        52.800          50.300
 25  1  1 23 11 45.0000000  0 29E03E05G17S31S35E33E25S48S33G30E11E31
                                R13G06G24E12R23E10R11G21G03E24R21G13
                                G14G02R12G19R22
 147058624.386 6                  27984319.434
        39.100
 138870652.236 6                  26426233.029
        36.100
 107693174.738 8  83916946.67948  20493249.262    20493248.6364   20493249.1284
        49.600          50.5004
 198974143.761 7                  37863530.551
        45.500
 200895039.114 7                  38229069.159
        44.100
 135036149.337 7                  25696453.836
        44.100
 137434552.106 7                  26152907.711
        43.000
 413005538.421 5                  78592289.266
        32.400
 202132019.623 7                  38464424.079
        44.800
 120234280.607 7  93689065.48246  22879829.660    22879828.8024   22879836.8914
        44.000          39.3004
 136760567.685 6                  26024626.089
        38.200
 131265797.449 7                  24979000.330
        44.100
 115741469.009 7                  21674655.236    21674654.651
        44.100
 118816029.422 7  92584053.41346  22609892.827    22609892.3944   22609900.0444
        42.500          40.8004
 125154150.309 6  97522748.61345  23816039.639    23816039.2194   23816044.3744
        39.200          35.9004
 126274084.314 7                  24029082.676
        44.600
 111946247.955 7                  20927116.953    20927116.482
        47.800
 128483985.068 7                  24449623.276
        47.200
 113493993.993 8  88273260.482 7  21238809.387    21238809.419    21238817.590
        48.900          46.800
 135005007.822 6 105198870.72642  25690535.659    25690534.3584   25690536.2814
        36.200          16.2004
 124782066.544 6  97232883.05945  23745203.124    23745202.7804   23745209.7754
        40.100          34.2004
 124722209.353 8                  23733782.780
        48.600
 116990569.403 8  90992883.574 7  21862419.383    21862419.354    21862427.195
        48.900          45.500
 129224420.518 6 100694332.86343  24590611.773    24590611.1974   24590621.2264
        38.700          18.6004
 106485669.231 8  82976008.07546  20263486.280    20263485.9364   20263487.6424
        48.500          40.6004
 125225928.603 7  97578807.98545  23829633.383    23829632.1634   23829632.1924
        45.500          31.7004
 102693948.778 8  79873124.033 8  19224511.247    19224511.440    19224518.125
        53.000          48.500
 109922437.681 8  85654034.29746  20917460.672    20917459.2104   20917459.9214
        49.400          41.4004
 102133345.318 8  79437260.209 8  19132944.290    19132944.619    19132949.867
        52.800          50.500
 25  1  1 23 12  0.0000000  0 29E03E05G17S31S35E33E25S48S33G30E11E31
                                R13G06G24E12R23E10R11G21G03E24R21G13
                                G14G02R12G19R22
 147073525.390 6                  27987154.901
        38.600
 138905966.889 6                  26432952.832
        36.800
 107701848.529 8  83923705.49248  20494899.521    20494898.8954   20494899.6714
        49.800          50.4004
 198974149.946 7                  37863531.150
        45.600
 200895061.405 7                  38229072.786
        44.100
 135066441.276 7                  25702218.358
        44.000
 137401637.537 7                  26146644.291
        42.500
 413005763.987 5                  78592294.180
        32.600
 202132018.652 7                  38464425.121
        45.000
 120286118.485 7  93729458.54346  22889693.750    22889692.8704   22889701.3894
        43.400          39.1004
 136715653.176 6                  26016079.084
        38.000
 131289332.039 7                  24983479.126
        44.400
 115687872.021 7                  21664618.022    21664617.700
        44.100
 118764346.945 7  92543781.48446  22600058.046    22600057.6134   22600065.0954
        43.100          40.8004
 125117327.886 6  97494055.85046  23809032.775    23809032.3374   23809037.1894
        40.200          36.0004
 126261185.290 7                  24026628.077
        44.600
 111899515.272 8                  20918380.758    20918380.327
        48.700
 128452454.231 7                  24443622.848
        47.300
 113540272.277 8  88309254.656 7  21247469.792    21247469.973    21247478.001
        49.300          46.700
 135060722.020 6 105242284.45642  25701137.513    25701136.1994   25701138.1944
        36.400          16.5004
 124752834.056 6  97210104.62645  23739640.296    23739639.9524   23739647.0814
        40.600          34.3004
 124714202.234 8                  23732258.952
        48.700
 117046225.915 8  91036171.973 7  21872820.567    21872820.201    21872828.269
        49.300          45.500
 129265187.506 6 100726099.16843  24598369.866    24598369.3124   24598379.0264
        39.800          18.6004
 106496799.486 8  82984681.00046  20265604.397    20265604.0534   20265605.6214
        48.500          40.5004
 125272798.763 7  97615330.21245  23838552.493    23838551.2594   23838551.1924
        45.100          31.6004
 102680228.930 8  79862453.043 8  19221942.775    19221942.958    19221949.772
        52.900          48.500
 109899572.745 8  85636217.49646  20913109.633    20913108.1624   20913108.8184
        49.200          41.3004
 102137318.103 8  79440350.169 8  19133688.747    19133688.800    19133693.985
        53.000          50.500
 25  1  1 23 12 15.0000000  0 29E03E05G17S31S35E33E25S48S33G30E11E31
                                R13G06G24E12R23E10R11G21G03E24R21G13
                                G14G02R12G19R22
 147088511.400 6                  27990006.472
        38.300
 138941297.795 6                  26439676.966
        37.000
 107710585.424 8  83930513.47548  20496562.171    20496561.5454   20496562.2384
        49.700          50.4004
 198974155.012 7                  37863530.873
        45.300
 200895082.902 7                  38229076.743
        44.000
 135096806.398 7                  25707996.565
        43.800
 137368725.639 7                  26140381.369
        42.900
 413005988.017 5                  78592294.256
        32.100
 202132015.332 7                  38464423.122
        44.800
 120338005.699 7  93769890.04546  22899567.841    22899566.9564   22899575.2504
        43.400          39.0004
 136670777.510 6                  26007539.149
        38.400
 131312909.723 7                  24987965.743
        44.200
 115634322.792 7                  21654589.579    21654589.608
        44.000
 118712730.623 7  92503561.10646  22590235.667    22590235.2434   22590242.6354
        43.700          40.7004
 125080614.986 6  97465448.43545  23802045.790    23802045.3434   23802050.6554
        40.300          35.9004
 126248391.245 7                  24024193.480
        44.700
 111852904.247 8                  20909666.815    20909666.767
        48.300
 128421004.801 7                  24437638.321
        47.000
 113586657.506 8  88345332.013 7  21256150.302    21256150.170    21256157.948
        49.400          46.300
 135116440.310 6 105285701.33942  25711740.188    25711738.8694   25711741.1404
        36.200          16.0004
 124723694.659 6  97187398.73245  23734095.201    23734094.8304   23734101.9024
        40.200          34.3004
 124706239.394 8                  23730743.696
        48.500
 117101935.188 8  91079501.409 7  21883231.099    21883231.059    21883238.537
        49.900          45.500
 129305976.510 6 100757882.65543  24606131.791    24606131.2464   24606140.8104
        39.800          18.4004
 106508023.364 8  82993426.88146  20267740.269    20267739.9214   20267741.4924
        48.500          40.5004
 125319718.024 7  97651890.69145  23847480.888    23847479.6594   23847479.8244
        44.900          31.8004
 102666655.697 8  79851896.094 8  19219401.837    19219402.048    19219408.809
        52.600          48.500
 109876779.725 8  85618456.73146  20908772.337    20908770.8714   20908771.3934
        49.100          41.3004
 102141462.547 8  79443573.644 8  19134464.576    19134465.230    19134470.393
        52.900          50.400
 25  1  1 23 12 30.0000000  0 29E03E05G17S31S35E33E25S48S33G30E11E31
                                R13G06G24E12R23E10R11G21G03E24R21G13
                                G14G02R12G19R22
 147103584.420 6                  27992874.634
        38.100
 138976646.924 6                  26446403.099
        36.300
 107719387.486 8  83937372.23448  20498237.181    20498236.5554   20498237.2104
        49.800          50.3004
 198974161.326 7                  37863531.222
        45.800
 200895105.067 7                  38229080.951
        44.200
 135127246.632 7                  25713788.902
        43.700
 137335818.680 7                  26134119.247
        43.200
 413006212.860 5                  78592299.300
        32.600
 202132014.551 7                  38464422.894
        45.100
 120389944.109 7  93810361.43846  22909451.115    22909450.2214   22909458.9944
        43.800          38.9004
 136625943.093 6                  25999007.598
        38.000
 131336532.722 7                  24992460.875
        44.300
 115580823.788 7                  21644571.472    21644571.103
        44.200
 118661182.946 7  92463394.20846  22580426.172    22580425.7344   22580433.2324
        42.200          40.6004
 125044014.111 6  97436928.30645  23795081.312    23795080.8614   23795085.2844
        40.200          35.3004
 126235704.332 7                  24021779.115
        44.900
 111806417.203 8                  20900976.594    20900976.571
        48.600
 128389639.136 7                  24431669.593
        47.100
 113633151.879 8  88381494.267 7  21264850.646    21264850.535    21264859.175
        48.400          46.500
 135172164.552 6 105329122.89242  25722344.177    25722342.8724   25722345.2094
        37.100          17.8004
 124694650.913 6  97164767.37645  23728568.291    23728567.9164   23728574.8874
        39.900          34.2004
 124698323.151 8                  23729237.127
        48.500
 117157699.279 8  91122873.492 7  21893652.029    21893652.207    21893659.412
        50.500          45.500
 129346789.531 6 100789684.85843  24613899.046    24613898.5144   24613907.7904
        39.000          18.4004
 106519343.130 8  83002247.48146  20269894.319    20269893.9754   20269895.5754
        48.100          40.4004
 125366688.296 7  97688490.92145  23856418.930    23856417.6964   23856418.1554
        44.500          31.4004
 102653231.711 8  79841455.227 8  19216888.738    19216888.978    19216895.743
        52.400          48.600
 109854060.777 8  85600753.68846  20904448.918    20904447.4524   20904448.0904
        49.400          41.2004
 102145780.726 8  79446932.234 8  19135274.079    19135274.209    19135279.287
        53.100          50.500
 25  1  1 23 12 45.0000000  0 29E03E05G17S31S35E33E25S48S33G30E11E31
                                R13G06G24E12R23E10R11G21G03E24R21G13
                                G14G02R12G19R22
 147118740.758 6                  27995759.296
        38.200
 139012010.391 6                  26453132.822
        36.400
 107728251.066 8  83944278.93348  20499923.823    20499923.1974   20499923.8704
        49.700          50.4004
 198974165.041 7                  37863530.873
        45.700
 200895125.270 7                  38229085.991
        44.000
 135157758.207 7                  25719595.459
        44.200
 137302913.179 7                  26127857.384
        43.100
 413006434.157 5                  78592300.132
        32.500
 202132009.348 7                  38464424.427
        44.900
 120441929.751 7  93850869.63946  22919343.571    22919342.6864   22919351.4534
        43.100          39.0004
 136581146.495 6                  25990482.991
        38.800
 131360197.457 7                  24996964.124
        44.400
 115527371.938 7                  21634561.219    21634560.813
        44.100
 118609700.641 7  92423278.26346  22570629.897    22570629.4684   22570636.5694
        42.700          40.9004
 125007521.946 6  97408492.89245  23788137.089    23788136.6294   23788141.1414
        40.400          35.9004
 126223120.972 7                  24019384.751
        45.100
 111760050.720 8                  20892308.449    20892308.648
        48.600
 128358353.811 7                  24425716.126
        47.300
 113679751.307 8  88417738.219 7  21273571.280    21273571.791    21273579.367
        49.000          46.400
 135227891.036 6 105372546.20142  25732949.299    25732947.9944   25732949.5594
        36.200          17.3004
 124665699.626 6  97142208.05845  23723058.542    23723058.1534   23723065.6384
        39.900          34.6004
 124690450.029 8                  23727739.016
        48.800
 117213514.010 8  91166284.954 7  21904081.566    21904082.030    21904089.633
        49.000          45.300
 129387622.227 6 100821502.38243  24621668.792    24621668.2344   24621678.4024
        39.200          18.2004
 106530755.279 8  83011140.06746  20272066.107    20272065.7684   20272067.2554
        48.400          40.4004
 125413705.751 7  97725127.91245  23865366.114    23865364.8764   23865365.0134
        45.500          31.4004
 102639953.439 8  79831127.672 8  19214403.207    19214403.194    19214409.982
        52.100          48.500
 109831412.294 8  85583105.55146  20900139.081    20900137.6064   20900138.1934
        49.000          41.3004
 102150268.776 8  79450422.947 8  19136114.448    19136114.977    19136120.073
        52.900          50.300
 25  1  1 23 13  0.0000000  0 29E03E05G17S31S35E33E25S48S33G30E11E31
                                R13G06G24E12R23E10R11G21G03E24R21G13
                                G14G02R12G19R22
 147133985.807 6                  27998660.372
        38.400
 139047393.487 6                  26459866.006
        36.800
 107737181.475 8  83951237.70448  20501623.183    20501622.5574   20501623.2484
        49.800          50.4004
 198974171.503 7                  37863533.869
        45.800
 200895148.132 7                  38229088.329
        44.100
 135188346.519 7                  25725415.953
        43.900
 137270014.761 7                  26121597.068
        43.200
 413006658.537 5                  78592296.782
        32.700
 202132007.890 7                  38464422.979
        45.000
 120493967.855 7  93891418.70546  22929246.854    22929245.9834   22929254.1564
        43.300          39.1004
 136536393.509 6                  25981966.523
        38.500
 131383909.553 7                  25001476.711
        44.600
 115473973.454 7                  21624561.602    21624561.223
        44.200
 118558289.627 7  92383217.87446  22560845.970    22560845.5504   22560853.2314
        43.000          41.2004
 124971144.335 6  97380146.73246  23781214.738    23781214.2694   23781218.7924
        39.800          36.2004
 126210646.850 7                  24017010.894
        45.000
 111713810.760 8                  20883664.587    20883664.693
        48.700
 128327154.534 7                  24419779.197
        47.500
 113726461.323 8  88454068.204 7  21282312.650    21282312.740    21282320.539
        49.000          46.400
 135283625.065 6 105415975.34442  25743554.383    25743553.0784   25743555.1974
        36.300          16.6004
 124636846.690 6  97119725.38345  23717567.736    23717567.3614   23717574.9914
        39.900          34.5004
 124682625.697 8                  23726250.165
        48.900
 117269384.443 8  91209739.761 7  21914523.103    21914523.081    21914530.210
        49.100          45.300
 129428479.852 6 100853339.33543  24629444.092    24629443.5164   24629453.3954
        39.000          18.3004
 106542265.412 8  83020109.00446  20274256.153    20274255.8184   20274257.5674
        48.200          40.6004
 125460775.569 7  97761805.72845  23874322.822    23874321.5624   23874321.8074
        45.000          31.6004
 102626826.926 8  79820918.178 8  19211945.743    19211945.912    19211952.754
        52.700          48.700
 109808839.826 8  85565516.65046  20895843.811    20895842.3404   20895842.7564
        48.800          41.4004
 102154932.151 8  79454050.039 8  19136988.105    19136988.602    19136993.676
        52.800          50.600
 25  1  1 23 13 15.0000000  0 29E03E05G17S31S35E33E25S48S33G30E11E31
                                R13G06G24E12R23E10R11G21G03E24R21G13
                                G14G02R12G19R22
 147149318.740 6                  28001577.777
        38.100
 139082795.371 6                  26466603.097
        36.100
 107746177.812 8  83958247.84348  20503335.189    20503334.5684   20503335.2004
        49.600          50.4004
 198974180.519 7                  37863536.740
        45.700
 200895173.305 7                  38229091.898
        44.100
 135219010.672 7                  25731251.158
        43.800
 137237122.905 7                  26115338.601
        42.800
 413006882.800 5                  78592305.694
        32.200
 202132009.237 7                  38464421.682
        44.900
 120546057.466 7  93932007.91546  22939158.951    22939158.0934   22939166.7954
        43.000          39.0004
 136491683.671 6                  25973458.572
        38.900
 131407668.374 7                  25005997.799
        44.500
 115420627.924 7                  21614571.933    21614571.301
        44.100
 118506949.590 7  92343212.78046  22551076.260    22551075.8364   22551083.3494
        43.100          41.2004
 124934880.975 6  97351889.60245  23774313.671    23774313.1984   23774318.1214
        40.200          35.7004
 126198281.356 7                  24014657.854
        44.900
 111667697.010 8                  20875044.418    20875043.812
        48.300
 128296040.852 7                  24413858.265
        47.400
 113773281.167 8  88490483.600 7  21291074.570    21291074.526    21291082.550
        49.400          46.600
 135339365.706 6 105459409.66142  25754160.811    25754159.4744   25754162.0604
        36.500          15.5004
 124608091.848 6  97097319.13545  23712095.913    23712095.5564   23712102.9194
        39.700          34.6004
 124674849.609 8                  23724770.317
        49.000
 117325309.590 8  91253237.094 7  21924974.324    21924974.094    21924981.774
        49.500          45.600
 129469361.414 6 100885194.94043  24637224.027    24637223.4554   24637233.4374
        39.200          19.0004
 106553872.996 8  83029153.88246  20276465.142    20276464.8074   20276466.3614
        48.300          40.5004
 125507896.830 7  97798523.61445  23883289.909    23883288.6444   23883288.8374
        44.500          31.4004
 102613851.928 8  79810826.515 8  19209516.587    19209517.025    19209523.826
        52.400          48.600
 109786342.663 8  85547986.42446  20891562.702    20891561.2364   20891561.6704
        49.200          41.4004
 102159769.968 8  79457812.808 8  19137894.703    19137894.804    19137899.868
        53.200          50.500
 25  1  1 23 13 30.0000000  0 29E03E05G17S31S35E33E25S48S33G30E11E31
                                R13G06G24E12R23E10R11G21G03E24R21G13
                                G14G02R12G19R22
 147164732.208 6                  28004511.110
        38.200
 139118208.511 6                  26473342.539
        37.200
 107755232.770 8  83965303.66148  20505058.270    20505057.6494   20505058.2904
        49.500          50.3004
 198974185.174 7                  37863536.825
        45.600
 200895194.018 7                  38229096.566
        43.900
 135249743.235 7                  25737099.490
        43.700
 137204230.425 7                  26109078.930
        43.000
 413005502.436 5                  78592306.025
        32.200
 202132005.849 7                  38464421.530
        44.700
 120598190.975 7  93972631.32646  22949079.887    22949079.0384   22949087.5824
        43.000          38.9004
 136447010.029 6                  25964957.175
        38.500
 131431466.730 7                  25010526.325
        44.600
 115367328.630 7                  21604590.632    21604589.758
        44.000
 118455673.593 7  92303257.59946  22541318.827    22541318.3984   22541325.4814
        42.500          41.0004
 124898724.878 6  97323716.05946  23767433.643    23767433.1614   23767437.8594
        40.200          36.1004
 126186017.313 7                  24012324.043
        44.900
 111621702.310 8                  20866446.491    20866446.389
        48.600
 128265005.652 7                  24407952.409
        47.200
 113820203.137 8  88526978.423 7  21299855.197    21299855.022    21299863.555
        48.700          46.600
 135395105.436 6 105502843.23142  25764768.353    25764767.0214   25764768.9054
        36.400          16.8004
 124579428.291 6  97074984.02545  23706641.324    23706640.9944   23706648.4434
        40.100          34.7004
 124667114.684 8                  23723298.428
        48.800
 117381281.714 8  91296770.975 7  21935433.352    21935433.872    21935441.136
        49.400          45.100
 129510259.533 6 100917063.44042  24645007.126    24645006.5594   24645015.8454
        39.600          17.8004
 106565570.865 7  83038269.10946  20278691.096    20278690.7614   20278692.4024
        47.900          40.4004
 125555061.945 7  97835275.68145  23892265.290    23892264.0564   23892264.0904
        44.100          30.9004
 102601021.125 8  79800847.002 8  19207114.968    19207115.044    19207121.850
        52.000          48.700
 109763913.442 8  85530509.14546  20887294.461    20887292.9954   20887293.5104
        49.000          41.4004
 102164774.706 8  79461705.395 8  19138832.007    19138832.288    19138837.447
        53.000          50.300
 25  1  1 23 13 45.0000000  0 29E03E05G17S31S35E33E25S48S33G30E11E31
                                R13G06G24E12R23E10R11G21G03E24R21G13
                                G14G02R12G19R22
 147180232.716 6                  28007460.779
        38.700
 139153639.348 6                  26480084.182
        36.400
 107764352.886 8  83972410.24948  20506793.606    20506792.9764   20506793.7944
        49.500          50.3004
 198974190.895 7                  37863538.716
        45.600
 200895216.757 7                  38229102.178
        44.100
 135280550.636 7                  25742961.834
        43.600
 137171344.082 7                  26102820.706
        43.200
 413005723.943 5                  78592304.742
        32.400
 202132003.166 7                  38464421.458
        45.000
 120650374.723 7  94013293.88946  22959009.915    22959009.0704   22959017.7454
        42.800          38.8004
 136402379.452 6                  25956464.010
        38.600
 131455311.309 7                  25015063.905
        44.300
 115314082.346 7                  21594618.936    21594618.031
        43.200
 118404468.646 7  92263357.77346  22531574.735    22531574.3204   22531581.4544
        42.400          41.1004
 124862683.022 6  97295631.53646  23760574.338    23760573.8654   23760579.2854
        39.800          36.1004
 126173861.359 7                  24010010.669
        44.900
 111575833.692 8                  20857871.526    20857870.926
        48.200
 128234055.760 7                  24402062.938
        47.100
 113867233.827 8  88563557.808 7  21308656.571    21308656.383    21308664.366
        49.200          46.600
 135450850.650 6 105546281.11342  25775376.045    25775374.7044   25775377.2934
        36.100          17.1004
 124550862.979 6  97052725.46945  23701205.686    23701205.3654   23701212.1354
        40.700          34.6004
 124659427.652 8                  23721835.571
        48.800
 117437307.058 8  91340346.258 7  21945902.888    21945903.206    21945910.872
        48.700          45.400
 129551180.325 6 100948949.60143  24652793.761    24652793.1944   24652803.0054
        39.000          18.6004
 106577365.720 7  83047459.91146  20280935.827    20280935.4974   20280936.8664
        47.900          40.3004
 125602277.375 7  97872066.95045  23901249.954    23901248.7164   23901248.8454
        44.500          31.0004
 102588341.838 8  79790985.333 8  19204741.221    19204741.453    19204748.415
        52.300          48.800
 109741559.205 8  85513090.29246  20883040.311    20883038.8404   20883039.6164
        49.000          41.4004
 102169952.876 8  79465732.881 8  19139801.953    19139802.362    19139807.494
        53.100          50.200
 25  1  1 23 14  0.0000000  0 29E03E05G17S31S35E33E25S48S33G30E11E31
                                R13G06G24E12R23E10R11G21G03E24R21G13
                                G14G02R12G19R22
 147195818.698 6                  28010426.627
        38.200
 139189086.219 6                  26486829.773
        36.500
 107773536.634 8  83979566.42848  20508541.337    20508540.7114   20508541.3894
        49.400          50.3004
 198974197.747 7                  37863537.549
        45.600
 200895240.127 7                  38229104.454
        43.900
 135311431.325 7                  25748838.275
        43.800
 137138462.604 7                  26096563.583
        42.800
 413005946.163 5                  78592312.058
        32.400
 202132001.760 7                  38464422.353
        44.900
 120702606.969 7  94053994.24946  22968949.524    22968948.6974   22968957.2324
        42.400          38.7004
 136357790.712 6                  25947979.110
        38.900
 131479200.755 7                  25019610.175
        44.400
 115260888.454 7                  21584658.144    21584656.852
        44.200
 118353333.682 7  92223512.49346  22521844.261    22521843.8724   22521850.6754
        43.000          41.2004
 124826754.320 6  97267635.16946  23753737.941    23753737.4764   23753742.1024
        41.000          36.3004
 126161812.225 7                  24007717.862
        45.000
 111530090.022 8                  20849319.951    20849320.034
        48.900
 128203189.949 7                  24396189.177
        47.500
 113914371.635 8  88600220.517 7  21317477.585    21317477.486    21317485.518
        48.700          46.400
 135506599.582 6 105589721.86742  25785985.689    25785984.3394   25785986.4594
        36.600          17.4004
 124522394.938 6  97030542.69745  23695788.382    23695788.0694   23695794.6304
        40.300          34.6004
 124651787.272 8                  23720381.761
        48.800
 117493383.739 8  91383961.476 7  21956382.856    21956382.659    21956389.909
        49.100          45.200
 129592122.009 6 100980852.06043  24660584.475    24660583.9084   24660594.2094
        40.100          18.8004
 106589256.274 7  83056725.28146  20283198.292    20283197.9714   20283199.5874
        47.900          40.2004
 125649541.348 7  97908896.03445  23910244.020    23910242.7824   23910242.8794
        43.900          30.8004
 102575812.876 8  79781240.600 8  19202395.778    19202395.949    19202402.817
        52.300          48.900
 109719278.637 8  85495728.84446  20878800.597    20878799.1174   20878799.7354
        48.900          41.3004
 102175302.916 8  79469894.041 8  19140804.244    19140804.645    19140809.656
        53.200          50.200
 25  1  1 23 14 15.0000000  0 29E03E05G17S31S35E33E25S48S33G30E11E31
                                R13G06G24E12R23E10R11G21G03E24R21G13
                                G14G02R12G19R22
 147211487.712 6                  28013408.167
        38.100
 139224546.548 6                  26493577.890
        36.500
 107782781.614 8  83986770.31648  20510300.607    20510299.9814   20510300.6514
        49.400          50.1004
 198974202.682 7                  37863540.764
        45.600
 200895261.344 7                  38229111.121
        44.000
 135342382.746 7                  25754728.059
        43.800
 137105583.740 7                  26090307.128
        42.600
 413006164.779 5                  78592312.853
        32.700
 202131998.291 7                  38464419.164
        44.700
 120754885.073 7  94094730.33346  22978898.039    22978897.2214   22978905.7024
        42.800          38.7004
 136313241.666 6                  25939501.402
        38.700
 131503132.787 7                  25024163.977
        44.000
 115207744.813 7                  21574705.579    21574704.984
        44.400
 118302266.708 7  92183720.18646  22512125.977    22512125.6024   22512132.8654
        43.400          41.2004
 124790936.744 6  97239725.39945  23746921.958    23746921.4804   23746926.1824
        40.200          35.7004
 126149867.567 7                  24005444.796
        45.100
 111484469.323 8                  20840791.264    20840791.228
        49.000
 128172406.050 7                  24390331.267
        47.100
 113961614.055 8  88636964.589 7  21326318.795    21326318.809    21326326.636
        49.000          46.300
 135562349.734 6 105633163.59642  25796593.741    25796592.3784   25796595.1284
        36.400          16.9004
 124494022.197 6  97008434.20145  23690389.605    23690389.2794   23690395.5844
        38.800          34.6004
 124644191.324 8                  23718936.230
        48.800
 117549509.254 8  91427614.690 7  21966871.139    21966870.940    21966877.868
        49.300          44.700
 129633081.846 6 101012768.64842  24668378.972    24668378.4224   24668388.5154
        38.700          17.6004
 106601240.251 7  83066063.44946  20285478.978    20285478.6614   20285480.0524
        47.800          40.1004
 125696851.146 7  97945760.84145  23919247.031    23919245.7884   23919245.7354
        44.300          30.7004
 102563432.186 8  79771611.189 8  19200078.103    19200078.325    19200085.202
        52.500          48.900
 109697069.120 8  85478422.75846  20874574.242    20874572.7534   20874573.3594
        48.900          41.1004
 102180822.205 8  79474186.859 8  19141838.019    19141838.507    19141843.598
        52.800          50.100
 25  1  1 23 14 30.0000000  0 29E03E05G17S31S35E33E25S48S33G30E11E31
                                R13G06G24E12R23E10R11G21G03E24R21G13
                                G14G02R12G19R22
 147227245.780 6                  28016406.802
        38.500
 139260026.250 6                  26500329.492
        36.200
 107792093.975 8  83994026.71748  20512072.678    20512072.0574   20512072.7234
        49.100          50.3004
 198974211.559 7                  37863542.674
        45.500
 200895287.052 7                  38229115.535
        43.900
 135373410.896 7                  25760632.620
        43.700
 137072713.829 7                  26084052.149
        43.100
 413006387.902 5                  78592314.794
        32.300
 202131999.493 7                  38464421.606
        44.700
 120807214.854 7  94135506.68946  22988855.939    22988855.1264   22988863.7514
        42.600          38.6004
 136268738.727 6                  25931033.266
        38.800
 131527113.616 7                  25028727.418
        44.300
 115154658.276 7                  21564764.140    21564764.048
        44.000
 118251274.234 7  92143985.93246  22502422.373    22502421.9934   22502429.2514
        42.900          41.4004
 124755236.745 6  97211907.24545  23740129.051    23740128.5644   23740132.7154
        39.000          35.5004
 126138033.659 7                  24003192.854
        45.200
 111438978.002 8                  20832287.282    20832287.530
        49.100
 128141710.445 7                  24384490.037
        47.400
 114008967.070 8  88673794.698 7  21335179.311    21335179.566    21335187.773
        48.400          46.200
 135618106.881 6 105676610.79042  25807204.088    25807202.6934   25807205.0994
        36.300          17.0004
 124465751.344 6  96986405.09745  23685009.789    23685009.4814   23685015.8954
        39.800          34.9004
 124636646.132 8                  23717500.477
        48.900
 117605689.275 8  91471310.288 7  21977369.317    21977369.943    21977376.907
        49.800          45.400
 129674065.675 6 101044703.93743  24676178.351    24676177.7844   24676187.3564
        38.800          18.2004
 106613323.952 7  83075479.31846  20287778.350    20287778.0334   20287779.5264
        47.400          40.1004
 125744212.977 7  97982666.18445  23928259.305    23928258.0714   23928258.3044
        43.700          30.8004
 102551206.325 8  79762102.204 8  19197789.275    19197789.547    19197796.469
        52.500          48.700
 109674936.937 8  85461176.93046  20870362.551    20870361.0624   20870361.7074
        48.700          41.3004
 102186516.889 8  79478616.082 8  19142904.372    19142905.239    19142910.389
        52.800          50.100
 25  1  1 23 14 45.0000000  0 29E03E05G17S31S35E33E25S48S33G30E11E31
                                R13G06G24E12R23E10R11G21G03E24R21G13
                                G14G02R12G19R22
 147243084.856 6                  28019421.448
        38.300
 139295517.248 6                  26507083.724
        36.500
 107801465.409 8  84001329.14748  20513856.151    20513855.5344   20513856.0564
        49.300          50.2004
 198974217.266 7                  37863543.206
        45.700
 200895309.173 7                  38229121.035
        44.100
 135404507.660 7                  25766550.109
        43.900
 137039844.983 7                  26077797.531
        43.300
 413006606.088 5                  78592312.751
        32.500
 202131996.951 7                  38464421.767
        45.100
 120859588.095 7  94176316.92046  22998822.304    22998821.5004   22998830.1974
        42.400          38.6004
 136224274.209 6                  25922571.357
        39.300
 131551135.376 7                  25033298.815
        44.400
 115101621.210 7                  21554831.012    21554830.665
        43.400
 118200348.695 7  92104303.83846  22492731.284    22492730.9044   22492738.2934
        43.200          41.5004
 124719646.775 6  97184174.83145  23733355.920    23733355.4424   23733360.2684
        39.200          35.9004
 126126302.644 7                  24000960.568
        45.300
 111393608.381 8                  20823805.658    20823805.577
        48.000
 128111095.355 7                  24378664.217
        47.800
 114056422.517 8  88710704.423 7  21344061.088    21344060.589    21344068.795
        49.600          46.400
 135673862.805 5 105720057.01742  25817813.463    25817812.0824   25817814.8644
        35.800          16.8004
 124437574.841 6  96964449.52745  23679647.345    23679647.0464   23679653.8704
        40.500          34.7004
 124629143.886 8                  23716072.703
        49.000
 117661915.233 8  91515041.593 7  21987876.649    21987877.205    21987884.044
        50.100          45.400
 129715065.210 6 101076651.46443  24683980.582    24683980.0504   24683989.1344
        39.800          18.0004
 106625499.511 7  83084966.77146  20290095.291    20290094.9784   20290096.4264
        47.700          40.1004
 125791618.351 7  98019605.46145  23937280.432    23937279.2164   23937279.0254
        43.900          30.5004
 102539127.532 8  79752707.581 8  19195527.747    19195528.355    19195535.263
        52.500          48.800
 109652874.097 8  85443985.14146  20866164.194    20866162.7054   20866163.3014
        48.700          41.3004
 102192378.664 8  79483175.243 8  19144002.868    19144003.340    19144008.476
        52.900          50.000
 25  1  1 23 15  0.0000000  0 29E03E05G17S31S35E33E25S48S33G30E11E31
                                R13G06G24E12R23E10R11G21G03E24R21G13
                                G14G02R12G19R22
 147259010.318 6                  28022451.820
        38.300
 139331024.778 6                  26513840.325
        36.400
 107810901.599 8  84008682.03448  20515651.628    20515651.0114   20515651.6944
        49.000          50.4004
 198974225.069 7                  37863544.628
        45.700
 200895333.588 7                  38229125.417
        44.200
 135435678.400 7                  25772481.404
        43.800
 137006982.877 7                  26071543.786
        43.200
 413006825.721 5                  78592315.814
        32.300
 202131996.360 7                  38464422.116
        45.000
 120912009.987 7  94217165.05246  23008797.980    23008797.1534   23008805.9364
        42.600          38.7004
 136179853.871 6                  25914118.512
        38.500
 131575203.626 7                  25037878.225
        44.200
 115048639.640 7                  21544910.337    21544909.959
        44.200
 118149495.927 7  92064678.44446  22483054.472    22483054.0924   22483061.0624
        43.100          41.7004
 124684172.594 6  97156532.63946  23726606.047    23726605.5914   23726609.7864
        39.900          36.3004
 126114680.070 7                  23998748.806
        45.000
 111348366.051 8                  20815348.484    20815348.107
        49.000
 128080566.476 7                  24372854.849
        47.700
 114103985.718 8  88747697.984 7  21352961.278    21352961.899    21352969.475
        49.700          46.500
 135729623.221 6 105763506.76942  25828424.676    25828423.2684   25828425.6184
        36.700          16.9004
 124409498.557 6  96942572.03945  23674304.630    23674304.3314   23674310.8624
        39.300          34.7004
 124621690.228 8                  23714654.591
        48.600
 117718192.324 8  91558812.697 7  21998393.563    21998393.477    21998400.803
        50.000          45.300
 129756085.618 6 101108615.24743  24691786.287    24691785.7154   24691795.4964
        39.300          18.5004
 106637772.556 7  83094530.18346  20292430.722    20292430.4094   20292431.9144
        47.700          40.2004
 125839072.700 7  98056582.90245  23946310.558    23946309.3244   23946309.3774
        43.600          30.7004
 102527201.887 8  79743432.095 8  19193295.543    19193295.991    19193302.734
        52.600          48.900
 109630886.159 8  85426851.71646  20861979.936    20861978.4434   20861979.1194
        48.200          41.4004
 102198412.977 8  79487868.627 8  19145133.347    19145133.766    19145138.920
        52.500          50.000
 25  1  1 23 15 15.0000000  0 30E03E05G17S31S35E33E25S48S33G30G11E11
                                E31R13G06G24E12R23E10R11G21G03E24R21
                                G13G14G02R12G19R22
 147275017.273 6                  28025497.400
        38.100
 139366543.836 6                  26520599.709
        36.900
 107820397.600 8  84016081.52748  20517458.663    20517458.0514   20517458.7304
        49.500          50.4004
 198974229.996 7                  37863544.239
        45.700
 200895355.260 7                  38229128.717
        44.200
 135466918.143 7                  25778426.141
        43.900
 136974122.835 7                  26065290.809
        43.200
 413005442.466 5                  78592317.352
        32.200
 202131992.478 7                  38464419.656
        45.000
 120964475.437 7  94258047.13546  23018781.720    23018780.8984   23018789.8214
        42.800          38.7004
 136311867.151 5                  25939286.378
        35.000
 136135473.188 6                  25905672.968
        39.100
 131599313.655 7                  25042466.895
        44.500
 114995709.171 7                  21534997.676    21534997.807
        44.200
 118098711.522 7  92025106.33346  22473390.421    22473390.0464   22473396.9204
        43.600          41.8004
 124648809.826 6  97128977.27346  23719876.327    23719875.8804   23719880.5754
        39.800          36.1004
 126103161.223 7                  23996556.966
        45.100
 111303246.706 8                  20806913.261    20806913.540
        48.800
 128050119.218 7                  24367060.439
        47.600
 114151651.649 8  88784771.462 7  21361881.138    21361881.735    21361889.651
        49.100          46.700
 135785382.839 6 105806955.87042  25839035.825    25839034.4354   25839036.3944
        36.700          17.5004
 124381518.106 6  96920769.22045  23668979.863    23668979.5554   23668986.2064
        40.300          35.2004
 124614280.572 8                  23713244.393
        48.900
 117774515.276 8  91602619.479 7  22008918.228    22008918.470    22008926.158
        49.600          45.100
 129797121.851 6 101140591.34043  24699595.423    24699594.8334   24699605.0104
        39.900          18.9004
 106650138.408 7  83104165.91446  20294783.952    20294783.6354   20294785.0474
        47.900          40.2004
 125886570.819 7  98093594.44145  23955349.011    23955347.7864   23955347.9264
        44.100          30.7004
 102515424.696 8  79734272.069 8  19191091.352    19191091.177    19191097.987
        52.900          48.600
 109608968.416 8  85409772.99246  20857809.355    20857807.8714   20857808.2354
        48.700          41.4004
 102204614.795 8  79492692.291 8  19146295.520    19146295.628    19146300.621
        52.700          50.100
 25  1  1 23 15 30.0000000  0 30E03E05G17S31S35E33E25S48S33G30G11E11
                                E31R13G06G24E12R23E10R11G21G03E24R21
                                G13G14G02R12G19R22
 147291110.858 6                  28028559.937
        37.900
 139402079.510 6                  26527361.686
        36.300
 107829958.305 8  84023531.43948  20519277.922    20519277.3104   20519278.0864
        49.200          50.4004
 198974237.306 7                  37863546.524
        45.500
 200895379.396 7                  38229133.596
        44.100
 135498232.006 7                  25784385.416
        43.300
 136941270.278 7                  26059039.430
        42.700
 413005661.568 5                  78592319.901
        32.300
 202131991.738 7                  38464418.570
        44.800
 121016989.386 7  94298966.99746  23028774.923    23028774.1054   23028783.1064
        42.600          38.6004
 136255398.154 5 106173104.22342  25928540.038    25928539.9804   25928557.2114
        34.100          14.0004
 136091137.677 6                  25897236.544
        38.800
 131623470.838 7                  25047063.624
        44.100
 114942835.683 7                  21525095.984    21525095.913
        43.200
 118048001.120 7  91985591.86946  22463740.385    22463739.9924   22463746.8864
        43.700          41.8004
 124613564.040 6  97101513.05946  23713169.365    23713168.9184   23713173.0344
        39.900          36.0004
 126091751.498 7                  23994385.747
        45.000
 111258255.991 8                  20798503.092    20798503.156
        48.700
 128019759.060 7                  24361283.499
        47.700
 114199425.605 8  88821928.923 7  21370821.316    21370821.519    21370830.039
        48.400          46.600
 135841146.747 6 105850408.32342  25849647.350    25849645.9734   25849647.9924
        36.300          17.3004
 124353639.166 6  96899045.48845  23663674.876    23663674.5814   23663680.8864
        39.600          35.0004
 124606920.298 8                  23711843.678
        48.800
 117830889.305 8  91646465.953 7  22019453.446    22019453.854    22019460.768
        50.000          45.100
 129838178.895 6 101172583.67443  24707408.993    24707408.3944   24707417.9324
        39.200          18.4004
 106662602.431 7  83113878.14246  20297155.490    20297155.1694   20297156.8854
        47.800          40.1004
 125934117.781 7  98130644.03645  23964397.017    23964395.8104   23964395.8654
        43.300          30.6004
 102503801.707 8  79725231.972 8  19188914.715    19188915.299    19188922.226
        52.800          48.800
 109587126.284 8  85392753.18646  20853652.741    20853651.2444   20853651.7644
        48.600          41.4004
 102210989.252 8  79497650.219 8  19147489.548    19147489.739    19147494.745
        52.700          50.000
 25  1  1 23 15 45.0000000  0 30E03E05G17S31S35E33E25S48S33G30G11E11
                                E31R13G06G24E12R23E10R11G21G03E24R21
                                G13G14G02R12G19R22
 147307287.120 6                  28031638.202
        37.600
 139437627.754 6                  26534126.630
        36.500
 107839579.785 8  84031028.70448  20521108.800    20521108.1884   20521108.9964
        49.300          50.6004
 198974243.752 7                  37863547.324
        45.800
 200895402.538 7                  38229138.027
        44.200
 135529615.981 7                  25790357.376
        43.900
 136908421.499 7                  26052788.009
        42.800
 413005879.238 5                  78592321.434
        32.500
 202131989.040 7                  38464419.679
        45.000
 121069547.750 7  94339921.46946  23038776.836    23038776.0184   23038784.5434
        42.300          38.7004
 136198920.207 5 106129095.75242  25917791.678    25917791.2984   25917809.8904
        34.200          13.2004
 136046843.795 6                  25888807.121
        38.800
 131647671.358 7                  25051668.954
        44.300
 114890015.522 7                  21515205.562    21515204.505
        44.600
 117997361.220 7  91946132.35047  22454103.854    22454103.4484   22454110.3334
        43.600          42.1004
 124578431.684 6  97074137.21846  23706483.728    23706483.2904   23706487.2564
        40.300          36.3004
 126080447.125 7                  23992234.540
        44.900
 111213390.492 8                  20790115.664    20790115.819
        49.100
 127989482.366 7                  24355521.817
        47.500
 114247303.319 8  88859167.116 7  21379781.706    21379781.480    21379789.480
        49.100          46.300
 135896911.156 6 105893861.18743  25860258.535    25860257.1764   25860259.7344
        36.400          18.1004
 124325858.330 6  96877398.20245  23658387.730    23658387.4314   23658394.1274
        40.900          35.3004
 124599605.742 8                  23710451.859
        48.800
 117887309.905 8  91690348.670 7  22029997.012    22029997.072    22030004.452
        49.600          45.200
 129879252.276 6 101204588.73243  24715224.518    24715223.9194   24715234.1234
        39.500          18.6004
 106675160.926 7  83123663.98746  20299545.371    20299545.0504   20299546.6824
        47.700          40.3004
 125981709.407 7  98167728.44245  23973453.323    23973452.1214   23973452.3584
        44.000          30.7004
 102492329.338 8  79716309.035 8  19186767.526    19186767.619    19186774.501
        52.800          48.700
 109565355.797 8  85375789.20946  20849509.898    20849508.3964   20849508.9574
        48.600          41.6004
 102217532.263 8  79502739.258 8  19148714.928    19148715.509    19148720.377
        52.800          50.100
 25  1  1 23 16  0.0000000  0 30E03E05G17S31S35E33E25S48S33G30G11E11
                                E31R13G06G24E12R23E10R11G21G03E24R21
                                G13G14G02R12G19R22
 147323547.460 6                  28034732.568
        37.400
 139473189.809 6                  26540894.075
        37.100
 107849263.613 8  84038574.55148  20522951.643    20522951.0224   20522951.7654
        49.500          50.6004
 198974250.136 7                  37863547.919
        45.600
 200895426.064 7                  38229142.074
        44.100
 135561071.392 7                  25796342.869
        44.200
 136875578.105 7                  26046538.231
        42.700
 413006097.879 5                  78592322.396
        32.500
 202131987.033 7                  38464419.330
        45.000
 121122151.692 7  94380911.45946  23048787.020    23048786.2024   23048794.8024
        42.700          38.6004
 136142434.925 5 106085081.53742  25907043.721    25907043.1044   25907061.1734
        35.100          15.6004
 136002593.253 6                  25880386.443
        38.900
 131671916.797 7                  25056282.427
        44.100
 114837251.021 7                  21505323.650    21505323.641
        44.700
 117946793.727 7  91906729.24847  22444480.632    22444480.2214   22444487.5234
        43.300          42.1004
 124543414.620 6  97046851.21946  23699819.725    23699819.2784   23699823.8324
        39.100          36.4004
 126069249.673 7                  23990103.685
        45.000
 111168651.701 8                  20781751.773    20781752.038
        48.900
 127959290.783 7                  24349776.436
        47.800
 114295286.222 8  88896487.119 7  21388760.623    21388760.480    21388769.111
        48.900          46.500
 135952677.054 6 105937315.20142  25870870.669    25870869.3104   25870871.4934
        36.300          17.2004
 124298177.489 6  96855828.83045  23653119.876    23653119.6084   23653126.5734
        40.200          35.3004
 124592338.532 8                  23709069.009
        48.900
 117943778.059 8  91734268.367 7  22040549.132    22040549.274    22040556.775
        48.700          44.800
 129920343.699 6 101236607.83443  24723044.444    24723043.8814   24723053.9224
        39.000          18.7004
 106687815.495 7  83133524.69146  20301953.462    20301953.1414   20301954.7584
        47.700          40.3004
 126029346.848 7  98204848.53645  23982518.662    23982517.4644   23982517.2634
        44.000          30.5004
 102481009.400 8  79707504.632 8  19184648.528    19184648.535    19184655.421
        52.900          48.700
 109543658.460 8  85358882.23146  20845381.171    20845379.6694   20845380.0534
        48.400          41.6004
 102224245.232 8  79507960.467 8  19149972.782    19149973.015    19149977.878
        53.000          50.100
 25  1  1 23 16 15.0000000  0 30E03E05G17S31S35E33E25S48S33G30G11E11
                                E31R13G06G24E12R23E10R11G21G03E24R21
                                G13G14G02R12G19R22
 147339895.264 6                  28037843.550
        37.000
 139508769.033 6                  26547664.177
        36.300
 107859013.175 8  84046171.61848  20524806.736    20524806.1024   20524807.0374
        49.300          50.6004
 198974261.007 7                  37863551.568
        45.400
 200895453.293 7                  38229147.413
        43.600
 135592601.644 7                  25802343.150
        43.300
 136842743.782 7                  26040290.228
        42.800
 413006318.924 5                  78592324.989
        31.900
 202131988.981 7                  38464419.750
        44.700
 121174804.450 7  94421939.48946  23058806.612    23058805.8124   23058814.4834
        42.700          38.8004
 136085946.031 5 106041064.50942  25896294.184    25896293.7114   25896311.6384
        34.500          14.6004
 135958389.825 6                  25871974.348
        38.400
 131696210.770 7                  25060905.549
        43.800
 114784546.045 7                  21495453.390    21495453.040
        43.600
 117896302.497 7  91867385.56647  22434872.913    22434872.5074   22434879.2314
        43.800          42.2004
 124508516.698 6  97019658.07046  23693179.989    23693179.5384   23693183.3074
        39.500          36.4004
 126058162.707 7                  23987993.927
        44.800
 111124043.594 8                  20773412.776    20773413.021
        48.900
 127929188.075 7                  24344048.366
        47.300
 114343377.834 8  88933891.652 7  21397760.576    21397760.613    21397768.502
        48.700          46.300
 136008447.803 6 105980772.98743  25881483.159    25881481.7914   25881484.3574
        36.900          18.1004
 124270600.596 6  96834340.46945  23647872.620    23647872.3484   23647878.9594
        40.600          35.2004
 124585122.384 8                  23707695.628
        48.500
 118000297.425 8  91778227.876 7  22051111.500    22051111.609    22051118.940
        49.100          44.600
 129961455.700 6 101268642.92643  24730867.917    24730867.3414   24730877.7814
        38.500          18.5004
 106700569.758 7  83143463.08246  20304380.631    20304380.3104   20304381.8344
        47.900          40.3004
 126077033.639 7  98242007.09245  23991592.984    23991591.7774   23991591.5004
        44.200          30.5004
 102469845.829 8  79698821.867 8  19182558.736    19182558.834    19182565.519
        53.100          48.700
 109522038.095 8  85342035.22546  20841266.833    20841265.3364   20841265.8034
        48.700          41.6004
 102231131.544 8  79513316.511 8  19151262.587    19151262.952    19151267.981
        52.800          50.200
 25  1  1 23 16 30.0000000  0 30E03E05G17S31S35E33E25S48S33G30G11E11
                                E31R13G06G24E12R23E10R11G21G03E24R21
                                G13G14G02R12G19R22
 147356323.197 6                  28040969.509
        37.900
 139544357.982 6                  26554437.360
        36.600
 107868821.130 8  84053814.18848  20526673.245    20526672.6154   20526673.4524
        49.100          50.5004
 198974268.197 7                  37863552.896
        45.600
 200895478.126 7                  38229151.317
        43.900
 135624199.269 7                  25808355.726
        43.300
 136809911.422 7                  26034042.370
        43.000
 413006535.169 5                  78592329.550
        32.200
 202131987.400 7                  38464419.044
        44.800
 121227498.501 7  94462999.69346  23068833.786    23068832.9734   23068842.0924
        42.000          38.6004
 136029446.616 5 105997039.31942  25885542.123    25885541.6364   25885560.1054
        34.300          13.2004
 135914226.509 6                  25863570.855
        38.900
 131720546.095 7                  25065536.588
        43.700
 114731893.831 7                  21485593.280    21485593.322
        44.600
 117845880.650 7  91828095.94947  22425277.378    22425276.9724   22425284.1754
        42.600          42.1004
 124473731.025 6  96992552.37946  23686560.074    23686559.6144   23686563.9694
        39.600          36.6004
 126047179.124 7                  23985903.768
        45.000
 111079559.244 8                  20765096.744    20765097.028
        48.300
 127899167.181 7                  24338335.361
        47.400
 114391570.466 8  88971374.781 7  21406779.159    21406779.442    21406787.148
        49.100          46.000
 136064215.795 6 106024228.66842  25892095.155    25892093.8324   25892096.5104
        36.600          17.7004
 124243120.822 6  96812927.78145  23642642.989    23642642.7084   23642649.6024
        40.400          35.1004
 124577950.203 8                  23706331.008
        48.600
 118056859.811 8  91822220.867 7  22061681.443    22061681.376    22061688.608
        49.200          44.600
 130002580.867 6 101300688.26843  24738694.454    24738693.8914   24738704.0114
        38.600          18.4004
 106713416.572 7  83153473.58946  20306825.207    20306824.8814   20306826.4924
        47.600          40.2004
 126124762.135 7  98279198.14845  24000675.365    24000674.1494   24000673.9604
        43.500          30.4004
 102458831.722 8  79690255.367 8  19180496.733    19180496.848    19180503.663
        52.800          48.500
 109500487.369 8  85325242.47946  20837165.664    20837164.1674   20837164.7974
        48.300          41.5004
 102238183.610 8  79518801.484 8  19152584.099    19152584.143    19152589.042
        53.000          50.000
 25  1  1 23 16 45.0000000  0 30E03E05G17S31S35E33E25S48S33G30G11E11
                                E31R13G06G24E12R23E10R11G21G03E24R21
                                G13G14G02R12G19R22
 147372831.676 6                  28044110.765
        37.200
 139579957.000 6                  26561211.278
        36.500
 107878688.027 8  84061502.68648  20528550.861    20528550.2274   20528551.0554
        49.300          50.6004
 198974273.000 7                  37863554.425
        45.300
 200895499.291 7                  38229156.356
        43.700
 135655864.694 7                  25814381.539
        43.200
 136777081.722 7                  26027794.642
        42.800
 413006748.380 5                  78592326.863
        31.900
 202131983.642 7                  38464418.091
        44.600
 121280234.077 7  94504092.26446  23078869.202    23078868.3934   23078877.3754
        42.500          38.6004
 135972937.662 5 105953006.74142  25874788.532    25874788.0544   25874806.6444
        34.700          14.6004
 135870104.132 6                  25855173.938
        38.900
 131744923.433 7                  25070175.097
        43.700
 114679295.452 7                  21475743.251    21475742.754
        44.100
 117795529.134 7  91788861.13247  22415696.319    22415695.9134   22415702.4054
        43.100          42.1004
 124439058.479 6  96965534.83646  23679961.485    23679961.0344   23679965.8664
        40.100          36.4004
 126036299.533 7                  23983833.474
        44.900
 111035199.304 8                  20756804.724    20756804.480
        48.500
 127869228.864 7                  24332638.216
        47.400
 114439864.590 8  89008936.841 7  21415816.384    21415816.685    21415824.807
        48.900          46.200
 136119981.565 6 106067682.59642  25902706.577    25902705.2544   25902708.2664
        36.100          17.1004
 124215739.114 6  96791591.50245  23637432.246    23637431.9654   23637438.8294
        40.500          35.2004
 124570822.716 8                  23704974.532
        48.500
 118113465.587 8  91866247.576 7  22072258.868    22072259.486    22072266.763
        49.100          44.700
 130043719.628 6 101332744.22343  24746522.501    24746521.9344   24746533.0754
        39.100          18.5004
 106726356.627 7  83163556.74846  20309287.485    20309287.1554   20309288.9034
        47.600          40.1004
 126172532.801 7  98316422.05745  24009765.757    24009764.5414   24009764.5504
        44.100          30.4004
 102447967.865 8  79681805.683 8  19178462.798    19178463.123    19178469.875
        53.000          48.500
 109479006.971 8  85308504.54046  20833078.188    20833076.6824   20833077.1674
        48.600          41.5004
 102245401.880 8  79524415.698 8  19153935.913    19153936.402    19153941.310
        53.200          50.200
 25  1  1 23 17  0.0000000  0 30E03E05G17S31S35E33E25S48S33G30G11E11
                                E31R13G06G24E12R23E10R11G21G03E24R21
                                G13G14G02R12G19R22
 147389424.556 6                  28047268.886
        37.200
 139615569.820 6                  26567988.576
        37.100
 107888617.652 8  84069240.05948  20530440.352    20530439.7134   20530440.5794
        49.100          50.4004
 198974279.251 7                  37863554.457
        45.400
 200895522.605 7                  38229159.817
        43.700
 135687601.663 7                  25820421.213
        43.300
 136744258.755 7                  26021548.893
        42.400
 413006962.521 5                  78592323.943
        31.900
 202131980.746 7                  38464415.430
        44.600
 121333014.830 7  94545220.02746  23088913.190    23088912.3814   23088921.3774
        42.400          38.4004
 135916423.308 6 105908969.93242  25864033.757    25864033.2664   25864051.9764
        36.200          15.5004
 135826026.923 6                  25846786.890
        39.300
 131769346.778 7                  25074822.967
        43.600
 114626755.206 7                  21465904.075    21465903.744
        44.000
 117745252.251 7  91749684.46447  22406128.255    22406127.8494   22406134.9264
        43.200          42.1004
 124404503.333 6  96938608.77346  23673385.858    23673385.4074   23673390.1444
        40.000          36.2004
 126025527.965 7                  23981783.504
        44.800
 110990968.140 8                  20748535.672    20748535.663
        48.000
 127839377.254 7                  24326957.500
        47.500
 114488264.020 8  89046580.808 7  21424873.747    21424874.149    21424882.127
        48.900          46.200
 136175748.662 6 106111137.53242  25913319.147    25913317.7884   25913320.5084
        36.500          17.2004
 124188459.825 6  96770335.03445  23632241.783    23632241.5064   23632247.3024
        39.800          35.0004
 124563744.009 8                  23703627.470
        48.600
 118170118.536 8  91910310.977 7  22082847.080    22082847.331    22082853.835
        50.400          45.000
 130084875.561 6 101364813.55843  24754354.432    24754353.8334   24754365.0684
        39.400          18.7004
 106739393.950 7  83173715.70246  20311768.514    20311768.1754   20311769.7994
        47.800          40.0004
 126220349.219 7  98353681.62645  24018864.626    24018863.3884   24018863.6534
        44.800          30.3004
 102437258.503 8  79673476.193 8  19176457.855    19176458.321    19176465.099
        52.400          48.500
 109457600.768 8  85291824.41246  20829004.869    20829003.3584   20829003.6884
        48.300          41.4004
 102252790.149 8  79530162.151 8  19155319.843    19155320.351    19155325.447
        52.700          50.000
 25  1  1 23 17 15.0000000  0 30E03E05G17S31S35E33E25S48S33G30G11E11
                                E31R13G06G24E12R23E10R11G21G03E24R21
                                G13G14G02R12G19R22
 147406100.228 6                  28050442.144
        36.400
 139651194.770 6                  26574767.611
        37.000
 107898608.502 8  84077025.14448  20532341.654    20532341.0114   20532341.7794
        49.400          50.5004
 198974284.875 7                  37863555.235
        45.400
 200895544.994 7                  38229164.374
        43.800
 135719408.530 7                  25826473.690
        43.600
 136711441.213 7                  26015304.065
        42.800
 413005576.598 5                  78592334.711
        32.100
 202131977.559 7                  38464417.519
        44.800
 121385839.002 7  94586381.61646  23098965.247    23098964.4344   23098973.4634
        42.600          38.4004
 135859902.271 6 105864927.93342  25853278.093    25853277.6154   25853296.0964
        36.100          17.4004
 135781993.554 6                  25838406.863
        39.200
 131793814.704 7                  25079478.942
        44.100
 114574272.070 7                  21456075.549    21456075.502
        44.100
 117695048.879 7  91710565.07747  22396574.930    22396574.5414   22396581.4024
        43.300          42.2004
 124370064.401 6  96911773.25846  23666832.505    23666832.0674   23666836.4584
        38.900          36.2004
 126014863.043 7                  23979754.160
        45.100
 110946864.730 8                  20740291.567    20740291.355
        49.300
 127809611.045 7                  24321293.237
        47.800
 114536767.120 8  89084305.404 7  21433950.827    21433950.501    21433958.788
        48.900          45.900
 136231515.582 6 106154592.39142  25923931.324    25923929.9744   25923932.2944
        36.500          16.3004
 124161281.861 6  96749157.52345  23627069.926    23627069.6634   23627075.2314
        39.600          35.0004
 124556712.770 8                  23702289.558
        48.700
 118226816.463 8  91954409.380 7  22093441.593    22093441.942    22093448.884
        49.500          44.700
 130126046.670 6 101396894.72643  24762189.382    24762188.7704   24762199.5924
        38.500          18.4004
 106752527.204 7  83183949.40546  20314267.724    20314267.3854   20314268.9984
        47.700          40.0004
 126268209.749 7  98390975.56645  24027972.080    24027970.8284   24027971.3914
        43.700          30.2004
 102426702.580 8  79665266.039 8  19174482.196    19174482.337    19174489.067
        52.800          48.800
 109436267.291 8  85275200.95846  20824945.184    20824943.6784   20824944.0684
        48.400          41.4004
 102260346.734 8  79536039.517 8  19156735.528    19156735.995    19156740.921
        52.900          50.100
 25  1  1 23 17 30.0000000  0 30E03E05G17S31S35E33E25S48S33G30G11E11
                                E31R13G06G24E12R23E10R11G21G03E24R21
                                G13G14G02R12G19R22
 147422858.424 6                  28053631.184
        38.000
 139686831.467 6                  26581549.749
        36.400
 107908660.308 8  84084857.72548  20534254.578    20534253.9444   20534254.5834
        49.100          50.6004
 198974291.041 7                  37863556.594
        45.600
 200895568.060 7                  38229169.449
        44.000
 135751285.046 7                  25832539.475
        43.900
 136678629.061 7                  26009060.421
        42.700
 413005789.656 5                  78592330.342
        32.100
 202131974.562 7                  38464417.054
        44.900
 121438706.126 7  94627576.68146  23109025.442    23109024.6204   23109033.8274
        42.000          38.4004
 135803374.742 5 105820880.87542  25842520.512    25842520.0304   25842538.9194
        34.200          14.2004
 135738004.232 6                  25830036.024
        39.300
 131818327.157 7                  25084143.450
        44.100
 114521846.543 7                  21446258.161    21446258.323
        44.400
 117644919.244 7  91671503.14547  22387035.399    22387035.0064   22387042.0954
        43.600          42.3004
 124335741.912 6  96885028.49146  23660301.386    23660300.9714   23660305.5554
        39.700          36.6004
 126004304.625 7                  23977744.978
        45.000
 110902889.009 8                  20732070.096    20732070.304
        48.700
 127779930.318 7                  24315645.070
        47.700
 114585373.400 8  89122110.244 7  21443046.947    21443046.895    21443054.891
        48.200          46.200
 136287281.798 6 106198046.68042  25934543.302    25934541.9574   25934543.7194
        36.700          17.2004
 124134205.510 6  96728059.18645  23621917.085    23621916.8134   23621922.6974
        40.400          35.2004
 124549728.986 8                  23700960.486
        48.700
 118283559.005 8  91998542.469 7  22104045.273    22104045.572    22104052.952
        49.300          44.800
 130167232.617 6 101428987.44543  24770027.023    24770026.4024   24770036.7244
        39.500          18.7004
 106765756.330 7  83194257.81946  20316785.004    20316784.6604   20316786.4054
        47.900          40.2004
 126316113.910 7  98428303.51645  24037088.745    24037087.5294   24037087.2054
        43.000          30.1004
 102416300.228 8  79657175.313 8  19172534.476    19172534.834    19172541.698
        52.700          48.700
 109415006.448 8  85258634.09946  20820899.328    20820897.8174   20820898.2784
        48.400          41.5004
 102268071.326 8  79542047.539 8  19158183.013    19158183.097    19158187.978
        53.100          50.300
 25  1  1 23 17 45.0000000  0 30E03E05G17S31S35E33E25S48S33G30G11E11
                                E31R13G06G24E12R23E10R11G21G03E24R21
                                G13G14G02R12G19R22
 147439699.395 6                  28056835.314
        37.000
 139722480.065 6                  26588333.397
        36.900
 107918773.350 8  84092738.02648  20536178.879    20536178.2454   20536179.0354
        49.100          50.5004
 198974297.177 7                  37863558.767
        45.600
 200895591.228 7                  38229172.584
        44.000
 135783231.361 7                  25838618.618
        43.900
 136645822.820 7                  26002817.425
        42.900
 413006002.548 5                  78592331.201
        32.300
 202131971.337 7                  38464416.280
        45.000
 121491616.242 7  94668805.24346  23119094.044    23119093.2264   23119102.4504
        43.100          38.4004
 135746841.393 5 105776829.26142  25831762.444    25831762.0024   25831780.7814
        35.000          16.2004
 135694059.502 6                  25821673.686
        39.200
 131842884.574 7                  25088816.705
        43.900
 114469479.331 7                  21436452.081    21436451.076
        43.900
 117594864.029 7  91632499.20047  22377510.066    22377509.6864   22377516.7744
        43.600          42.1004
 124301536.509 6  96858374.94846  23653792.270    23653791.8734   23653796.4914
        39.300          36.4004
 125993853.210 7                  23975756.086
        45.300
 110859041.497 8                  20723873.062    20723873.323
        49.300
 127750335.587 7                  24310013.570
        47.900
 114634083.180 8  89159995.613 7  21452162.144    21452161.926    21452170.289
        48.700          46.000
 136343047.521 5 106241500.62342  25945155.264    25945153.9144   25945155.5764
        35.700          17.4004
 124107231.507 6  96707040.59645  23616783.764    23616783.4874   23616789.8114
        39.800          35.2004
 124542793.208 8                  23699640.710
        48.800
 118340346.028 8  92042710.185 7  22114657.234    22114657.484    22114664.998
        49.600          45.000
 130208433.407 6 101461091.73343  24777867.588    24777866.9624   24777876.9404
        39.200          18.5004
 106779081.788 8  83204641.29646  20319320.787    20319320.4394   20319322.1554
        48.000          40.1004
 126364061.748 7  98465665.50345  24046212.710    24046211.5344   24046211.0104
        44.200          30.1004
 102406052.183 8  79649204.627 8  19170616.113    19170616.401    19170623.153
        52.500          48.500
 109393818.774 8  85242124.25946  20816867.311    20816865.8054   20816866.3454
        48.900          41.4004
 102275964.031 8  79548186.340 8  19159661.148    19159661.586    19159666.507
        52.800          50.300
 25  1  1 23 18  0.0000000  0 30E03E05G17S31S35E33E25S48S33G30G11E11
                                E31R13G06G24E12R23E10R11G21G03E24R21
                                G13G14G02R12G19R22
 147456621.551 6                  28060055.964
        37.500
 139758138.985 6                  26595119.433
        37.000
 107928946.191 8  84100664.92248  20538115.000    20538114.3744   20538114.8544
        49.500          50.5004
 198974301.812 7                  37863558.852
        45.500
 200895613.113 7                  38229177.833
        44.000
 135815245.896 7                  25844710.935
        43.400
 136613021.210 7                  25996575.268
        42.900
 413006214.855 5                  78592336.696
        32.100
 202131967.623 7                  38464415.578
        44.800
 121544567.709 7  94710066.03646  23129170.193    23129169.3714   23129178.8804
        42.500          38.3004
 135690301.099 5 105732772.28342  25821003.282    25821002.8674   25821020.9264
        35.100          15.0004
 135650158.239 6                  25813319.208
        39.500
 131867485.600 7                  25093497.934
        44.100
 114417169.667 7                  21426655.387    21426655.598
        44.500
 117544882.240 7  91593552.45847  22367998.965    22367998.5814   22368005.3734
        43.500          42.1004
 124267447.115 6  96831811.79646  23647305.179    23647304.8044   23647309.4374
        40.300          36.4004
 125983507.428 7                  23973787.346
        45.200
 110815321.294 8                  20715699.856    20715700.543
        48.700
 127720825.661 8                  24304397.917
        48.000
 114682894.781 8  89197960.152 7  21461296.633    21461296.821    21461304.625
        48.700          46.100
 136398811.129 5 106284952.87542  25955767.067    25955765.7264   25955767.0684
        35.600          16.9004
 124080358.818 6  96686100.95645  23611670.340    23611670.0684   23611675.9564
        41.100          34.8004
 124535904.207 8                  23698329.772
        48.900
 118397175.974 8  92086911.258 7  22125277.302    22125278.026    22125284.744
        49.800          44.700
 130249647.369 6 101493206.29743  24785710.296    24785709.6624   24785720.0864
        39.800          18.4004
 106792502.303 8  83215098.84246  20321874.618    20321874.2704   20321876.0204
        48.200          40.0004
 126412051.619 7  98503060.24145  24055344.684    24055343.5134   24055343.1684
        43.500          30.0004
 102395957.310 8  79641353.057 8  19168726.490    19168726.510    19168733.445
        52.700          48.500
 109372702.895 8  85225670.35846  20812849.013    20812847.5024   20812848.0694
        48.400          41.3004
 102284023.207 8  79554454.598 8  19161171.075    19161171.340    19161176.324
        53.000          50.300
 25  1  1 23 18 15.0000000  0 30E03E05G17S31S35E33E25S48S33G30G11E11
                                E31R13G06G24E12R23E10R11G21G03E24R21
                                G13G14G02R12G19R22
 147473628.310 6                  28063292.737
        37.600
 139793811.436 6                  26601907.292
        36.400
 107939182.049 8  84108640.92448  20540062.667    20540062.0414   20540062.6884
        49.500          50.2004
 198974308.981 7                  37863558.955
        45.500
 200895637.412 7                  38229183.400
        44.100
 135847331.945 7                  25850816.659
        43.700
 136580227.799 7                  25990334.945
        42.500
 413006429.195 5                  78592336.991
        32.200
 202131965.761 7                  38464414.639
        44.900
 121597563.656 7  94751361.49946  23139255.774    23139254.9474   23139263.8164
        42.700          38.1004
 135633757.507 5 105688712.69342  25810243.697    25810243.2464   25810260.5344
        35.600          15.4004
 135606304.066 6                  25804973.917
        39.100
 131892133.770 7                  25098188.437
        43.900
 114364921.479 7                  21416870.824    21416870.319
        44.000
 117494977.657 7  91554665.88647  22358502.232    22358501.8394   22358508.7874
        43.400          42.1004
 124233477.542 6  96805342.02246  23640841.462    23640841.1004   23640845.3764
        40.300          36.2004
 125973270.765 7                  23971839.476
        45.000
 110771732.026 8                  20707551.657    20707551.941
        49.000
 127691404.176 7                  24298799.029
        47.700
 114731811.553 8  89236006.489 7  21470450.709    21470450.362    21470459.226
        48.000          46.100
 136454575.935 6 106328406.04342  25966377.765    25966376.3844   25966378.6354
        36.700          16.6004
 124053591.324 6  96665243.27745  23606576.765    23606576.4794   23606582.3224
        39.200          34.8004
 124529065.527 8                  23697028.426
        48.700
 118454051.750 8  92131148.000 7  22135906.515    22135906.429    22135913.147
        49.500          44.700
 130290877.695 6 101525333.61543  24793556.170    24793555.5314   24793565.7624
        39.900          18.2004
 106806021.401 7  83225633.20546  20324447.267    20324446.9194   20324448.6384
        47.900          40.0004
 126460086.764 7  98540490.24544  24064485.487    24064484.2894   24064484.2244
        44.500          29.9004
 102386019.485 8  79633623.643 8  19166866.067    19166866.203    19166873.076
        52.600          48.600
 109351662.209 8  85209275.04746  20808845.088    20808843.5914   20808844.1384
        48.500          41.1004
 102292252.229 8  79560854.953 8  19162712.762    19162712.873    19162717.790
        52.800          50.300
 25  1  1 23 18 30.0000000  0 30E03E05G17S31S35E33E25S48S33G30G11E11
                                E31R13G06G24E12R23E10R11G21G03E24R21
                                G13G14G02R12G19R22
 147490719.030 6                  28066544.209
        37.000
 139829496.776 6                  26608698.125
        36.600
 107949480.639 8  84116665.81048  20542022.291    20542021.6704   20542022.4494
        49.600          50.4004
 198974318.364 7                  37863562.792
        45.300
 200895663.797 7                  38229188.453
        43.800
 135879488.919 7                  25856935.951
        44.000
 136547442.303 7                  25984096.264
        42.800
 413006645.503 5                  78592338.731
        31.800
 202131965.760 7                  38464415.945
        44.600
 121650603.309 7  94792691.01146  23149348.468    23149347.6414   23149357.0334
        42.700          38.1004
 135577210.589 6 105644650.50742  25799482.596    25799482.1494   25799499.7454
        37.000          16.6004
 135562496.872 6                  25796637.802
        39.400
 131916828.713 7                  25102887.686
        44.000
 114312734.428 7                  21407097.682    21407097.548
        44.200
 117445150.228 7  91515839.41547  22349020.285    22349019.8924   22349026.8914
        43.700          42.0004
 124199627.627 6  96778965.48146  23634399.237    23634398.8534   23634403.7404
        39.700          36.1004
 125963142.936 7                  23969912.069
        45.300
 110728273.645 8                  20699427.318    20699427.634
        48.900
 127662070.855 7                  24293217.259
        47.700
 114780832.904 8  89274134.163 7  21479623.893    21479624.320    21479632.232
        48.300          45.800
 136510340.945 6 106371859.39142  25976989.482    25976988.0834   25976990.3504
        37.800          17.7004
 124026928.961 6  96644467.51345  23601503.100    23601502.8054   23601508.7384
        41.000          35.0004
 124522276.919 8                  23695736.523
        48.700
 118510972.709 8  92175419.870 7  22146543.802    22146543.784    22146550.600
        49.700          44.900
 130332123.441 6 101557472.91443  24801404.980    24801404.3284   24801414.3994
        39.700          18.7004
 106819638.749 8  83236244.12746  20327038.472    20327038.1244   20327039.9344
        48.000          40.0004
 126508166.629 7  98577955.09544  24073634.788    24073633.5814   24073633.4864
        43.400          29.7004
 102376238.580 8  79626016.271 8  19165035.125    19165035.230    19165042.027
        52.700          48.600
 109330696.315 8  85192938.01946  20804855.434    20804853.9324   20804854.4634
        48.600          41.2004
 102300650.497 8  79567386.947 8  19164285.653    19164286.102    19164291.108
        53.000          50.200
 25  1  1 23 18 45.0000000  0 30E03E05G17S31S35E33E25S48S33G30G11E11
                                E31R13G06G24E12R23E10R11G21G03E24R21
                                G13G14G02R12G19R22
 147507888.653 6                  28069812.113
        38.100
 139865189.819 6                  26615490.703
        37.000
 107959836.495 8  84124735.32048  20543992.719    20543992.0984   20543993.1024
        49.600          50.3004
 198974324.325 7                  37863562.479
        45.200
 200895687.375 7                  38229192.827
        43.700
 135911711.641 7                  25863067.500
        43.500
 136514659.846 7                  25977857.593
        42.900
 413006857.722 5                  78592339.021
        32.000
 202131963.391 7                  38464414.053
        44.500
 121703681.384 7  94834050.46046  23159448.826    23159447.9954   23159457.4984
        42.200          38.1004
 135520655.572 6 105600581.97342  25788719.901    25788719.4544   25788737.0194
        37.000          16.6004
 135518731.880 6                  25788309.401
        38.900
 131941565.462 7                  25107595.172
        43.700
 114260604.338 7                  21397335.949    21397335.584
        44.500
 117395395.242 7  91477069.40147  22339552.469    22339552.0724   22339558.7494
        44.000          42.1004
 124165892.730 6  96752678.57046  23627979.627    23627979.2384   23627984.2744
        40.300          36.4004
 125953118.876 7                  23968004.493
        45.000
 110684941.399 8                  20691326.603    20691327.567
        49.300
 127632820.908 7                  24287651.043
        47.800
 114829953.551 8  89312339.081 7  21488817.112    21488816.469    21488824.940
        48.400          45.700
 136566101.356 6 106415309.17642  25987600.613    25987599.2054   25987601.3714
        36.800          16.6004
 124000367.153 6  96623770.10245  23596447.856    23596447.5484   23596453.7214
        40.400          34.8004
 124515533.494 8                  23694453.480
        48.500
 118567933.287 8  92219722.590 7  22157187.499    22157187.296    22157194.909
        48.900          44.900
 130373379.241 6 101589620.05843  24809255.967    24809255.3194   24809265.9784
        40.400          18.9004
 106833349.446 7  83246927.79046  20329647.736    20329647.3884   20329648.9614
        47.800          39.9004
 126556285.673 7  98615450.46644  24082791.340    24082790.1424   24082789.9564
        44.200          29.4004
 102366609.586 8  79618527.074 8  19163232.378    19163232.665    19163239.467
        52.700          48.600
 109309800.236 8  85176655.38546  20800878.874    20800877.3634   20800878.0774
        48.600          41.2004
 102309212.648 8  79574046.414 8  19165889.957    19165890.140    19165895.084
        53.000          50.200
 25  1  1 23 19  0.0000000  0 30E03E05G17S31S35E33E25S48S33G30G11E11
                                E31R13G06G24E12R23E10R11G21G03E24R21
                                G13G14G02R12G19R22
 147525139.299 6                  28073094.208
        36.700
 139900892.575 6                  26622284.233
        37.100
 107970251.913 8  84132851.24148  20545974.816    20545974.2044   20545975.0904
        49.100          50.3004
 198974329.693 7                  37863563.963
        45.500
 200895710.138 7                  38229197.222
        43.900
 135944002.185 7                  25869212.189
        43.600
 136481882.829 7                  25971620.268
        42.500
 413007068.016 5                  78592341.575
        32.300
 202131959.191 7                  38464413.745
        44.800
 121756799.801 7  94875441.33146  23169557.502    23169556.6574   23169565.6364
        42.300          38.0004
 135464095.052 5 105556509.16642  25777956.174    25777955.7544   25777973.3714
        34.800          15.5004
 135475011.574 6                  25779989.217
        39.000
 131966346.370 7                  25112310.633
        43.700
 114208534.083 7                  21387585.209    21387584.214
        43.900
 117345715.384 7  91438357.91047  22330098.383    22330097.9634   22330104.8894
        43.300          42.1004
 124132275.372 6  96726483.24346  23621582.290    23621581.8974   23621586.6794
        39.600          36.3004
 125943201.017 7                  23966117.248
        44.800
 110641737.647 8                  20683250.352    20683250.350
        48.700
 127603656.757 7                  24282101.308
        47.600
 114879175.455 8  89350622.740 7  21498027.660    21498028.016    21498036.245
        48.400          45.700
 136621859.114 5 106458756.89242  25998211.097    25998209.6674   25998211.6694
        35.400          16.0004
 123973908.534 6  96603153.09945  23591412.781    23591412.4734   23591418.7324
        40.100          34.9004
 124508837.718 8                  23693179.234
        48.500
 118624935.328 8  92264057.512 7  22167839.762    22167840.208    22167847.186
        49.500          45.000
 130414647.112 6 101621776.64043  24817108.924    24817108.2724   24817119.6324
        39.400          18.2004
 106847155.837 7  83257686.01646  20332275.015    20332274.6764   20332276.1734
        47.800          40.0004
 126604445.857 7  98652977.88844  24091955.960    24091954.7674   24091954.2914
        43.600          29.5004
 102357135.423 8  79611158.288 8  19161458.691    19161459.050    19161465.950
        52.200          48.600
 109288976.334 8  85160428.99546  20796916.649    20796915.1474   20796915.3564
        48.200          41.2004
 102317940.757 8  79580834.974 8  19167524.887    19167525.202    19167530.124
        53.000          50.100
 25  1  1 23 19 15.0000000  0 30E03E05G17S31S35E33E25S48S33G30G11E11
                                E31R13G06G24E12R23E10R11G21G03E24R21
                                G13G14G02R12G19R22
 147542470.858 6                  28076392.195
        37.200
 139936604.876 6                  26629080.404
        36.900
 107980726.669 8  84141013.39748  20547968.310    20547967.7024   20547968.3564
        49.200          50.3004
 198974335.124 7                  37863564.589
        45.600
 200895732.598 7                  38229201.211
        44.100
 135976360.452 7                  25875369.736
        43.900
 136449111.456 7                  25965384.150
        43.000
 413005676.820 5                  78592347.517
        32.400
 202131955.377 7                  38464412.126
        44.900
 121809958.332 7  94916863.47546  23179673.324    23179672.4754   23179681.4804
        42.300          37.9004
 135407529.426 5 105512432.38742  25767192.398    25767191.9604   25767208.7544
        34.500          15.1004
 135431336.247 6                  25771678.373
        39.300
 131991171.537 7                  25117034.849
        43.800
 114156523.688 7                  21377844.405    21377844.515
        44.200
 117296111.029 7  91399705.26347  22320658.804    22320658.3844   22320665.3434
        43.100          42.1004
 124098775.963 6  96700379.82246  23615208.056    23615207.6724   23615211.7954
        40.400          36.3004
 125933389.464 7                  23964250.237
        45.200
 110598662.792 8                  20675198.047    20675198.169
        48.800
 127574578.665 7                  24276567.878
        47.900
 114928498.626 8  89388985.178 7  21507257.575    21507258.138    21507266.488
        48.400          45.900
 136677614.014 5 106502202.38042  26008820.503    26008819.0954   26008821.3624
        35.000          15.3004
 123947553.562 6  96582616.86345  23586397.996    23586397.7014   23586403.4454
        41.100          34.8004
 124502189.799 8                  23691914.104
        48.800
 118681978.480 8  92308424.425 7  22178499.785    22178500.485    22178506.487
        50.400          44.700
 130455926.705 6 101653942.34643  24824964.513    24824963.8654   24824975.4594
        38.800          19.0004
 106861058.108 8  83268518.95646  20334920.352    20334920.0084   20334921.7424
        48.200          39.9004
 126652647.144 7  98690537.33844  24101128.571    24101127.3784   24101126.8324
        43.100          28.9004
 102347816.278 8  79603910.061 8  19159714.530    19159714.505    19159721.337
        52.600          48.700
 109268224.667 8  85144258.88946  20792967.225    20792965.7234   20792966.4264
        48.500          41.1004
 102326834.771 8  79587752.550 8  19169190.872    19169191.298    19169196.259
        52.700          50.200
 25  1  1 23 19 30.0000000  0 30E03E05G17S31S35E33E25S48S33G30G11E11
                                E31R13G06G24E12R23E10R11G21G03E24R21
                                G13G14G02R12G19R22
 147559884.561 6                  28079705.836
        37.600
 139972327.899 6                  26635879.001
        36.800
 107991262.098 8  84149222.83348  20549972.811    20549972.2084   20549973.1734
        49.300          50.4004
 198974340.567 7                  37863566.168
        45.600
 200895755.206 7                  38229206.698
        44.100
 136008787.557 7                  25881540.290
        43.800
 136416347.189 7                  25959149.349
        43.100
 413005886.232 5                  78592343.734
        31.900
 202131951.059 7                  38464412.318
        44.800
 121863158.022 7  94958317.67746  23189797.155    23189796.2974   23189805.2334
        42.700          38.0004
 135350960.308 5 105468352.88742  25756426.954    25756426.5344   25756443.7384
        35.500          15.1004
 135387707.479 6                  25763375.991
        39.400
 132016042.372 7                  25121767.643
        43.700
 114104575.238 7                  21368116.144    21368116.125
        44.400
 117246583.870 7  91361112.75847  22311234.211    22311233.7784   22311240.6024
        43.400          42.2004
 124065396.124 6  96674369.58146  23608855.467    23608855.0654   23608859.9724
        40.900          36.4004
 125923685.570 7                  23962403.479
        45.300
 110555718.746 8                  20667170.228    20667170.431
        49.300
 127545588.117 8                  24271050.871
        48.000
 114977924.145 8  89427427.212 7  21516507.766    21516507.399    21516516.330
        48.200          46.100
 136733367.385 6 106545646.68342  26019429.857    26019428.4584   26019430.5644
        36.800          16.6004
 123921303.940 6  96562162.71845  23581402.030    23581401.7224   23581408.3124
        39.800          34.9004
 124495591.159 8                  23690658.695
        48.700
 118739063.756 8  92352824.092 7  22189167.202    22189167.541    22189174.674
        49.200          45.000
 130497219.048 6 101686117.97143  24832822.373    24832821.7394   24832833.2354
        39.700          19.0004
 106875057.653 8  83279427.69646  20337584.165    20337583.8214   20337585.7424
        48.200          40.1004
 126700890.659 7  98728129.70544  24110308.719    24110307.5124   24110307.3284
        43.800          29.3004
 102338653.843 8  79596783.737 8  19157999.208    19157999.324    19158006.090
        52.600          48.700
 109247546.622 8  85128146.15446  20789032.123    20789030.6214   20789031.4924
        48.300          41.2004
 102335895.723 8  79594799.972 8  19170888.436    19170888.869    19170893.745
        53.000          50.100
 25  1  1 23 19 45.0000000  0 30E03E05G17S31S35E33E25S48S33G30G11E11
                                E31R13G06G24E12R23E10R11G21G03E24R21
                                G13G14G02R12G19R22
 147577380.830 6                  28083035.788
        38.000
 140008061.939 6                  26642678.509
        37.500
 108001858.690 8  84157479.92548  20551989.439    20551988.8224   20551989.6514
        49.200          50.5004
 198974347.866 7                  37863568.359
        45.900
 200895780.055 7                  38229210.673
        44.300
 136041283.932 7                  25887724.134
        44.300
 136383590.716 7                  25952916.030
        43.400
 413006096.639 5                  78592348.287
        32.700
 202131949.396 7                  38464412.926
        45.200
 121916399.119 7  94999804.15246  23199928.363    23199927.4874   23199936.7364
        42.300          37.9004
 135294388.583 6 105424271.35642  25745661.500    25745661.1114   25745678.0934
        36.300          16.3004
 135344126.078 6                  25755082.665
        39.100
 132040959.527 7                  25126509.211
        44.200
 114052689.927 7                  21358399.680    21358399.687
        44.600
 117197134.845 7  91322581.13247  22301824.719    22301824.2954   22301830.7354
        43.200          42.4004
 124032136.785 6  96648453.23746  23602526.432    23602526.0034   23602531.0384
        40.200          36.4004
 125914089.985 7                  23960577.400
        45.600
 110512906.049 8                  20659166.528    20659166.647
        49.100
 127516685.885 8                  24265551.221
        48.200
 115027452.497 7  89465949.220 7  21525776.025    21525775.668    21525784.304
        47.600          45.800
 136789119.363 6 106589089.88842  26030039.097    26030037.6894   26030039.2704
        36.000          15.9004
 123895160.621 6  96541791.39745  23576427.395    23576427.0914   23576433.1454
        40.500          35.0004
 124489042.582 8                  23689412.241
        48.900
 118796191.459 8  92397256.743 7  22199843.084    22199843.124    22199850.213
        49.200          44.800
 130538524.467 6 101718303.81243  24840683.124    24840682.4944   24840693.4314
        40.100          18.8004
 106889155.163 7  83290412.77246  20340267.125    20340266.7774   20340268.4124
        47.900          40.2004
 126749176.661 7  98765755.18044  24119497.346    24119496.1394   24119495.9814
        43.200          29.2004
 102329649.034 8  79589779.978 8  19156313.391    19156313.398    19156320.302
        52.300          48.800
 109226942.757 8  85112091.22046  20785111.501    20785110.0044   20785110.7204
        48.400          41.3004
 102345124.031 8  79601977.545 8  19172617.276    19172617.437    19172622.417
        52.500          50.000
 25  1  1 23 20  0.0000000  0 30E03E05G17S31S35E33E25S48S33G30G11E11
                                E31R13G06G24E12R23E10R11G21G03E24R21
                                G13G14G02R12G19R22
 147594958.009 6                  28086380.045
        37.000
 140043805.259 6                  26649480.284
        37.500
 108012514.802 8  84165783.39548  20554017.331    20554016.7104   20554017.4334
        49.700          50.5004
 198974354.815 7                  37863568.842
        45.800
 200895804.595 7                  38229213.557
        44.100
 136073847.834 7                  25893921.074
        44.400
 136350840.631 7                  25946683.638
        43.100
 413006306.676 5                  78592346.261
        32.400
 202131947.094 7                  38464410.646
        45.000
 121969679.778 6  95041321.45746  23210067.211    23210066.3354   23210075.9214
        41.300          37.8004
 135237812.944 5 105380186.77642  25734895.828    25734895.4444   25734911.6154
        35.100          16.0004
 135300590.733 6                  25746798.241
        38.800
 132065921.462 7                  25131259.552
        44.000
 114000866.601 7                  21348695.334    21348695.023
        44.500
 117147762.726 7  91284109.43547  22292429.265    22292428.8504   22292435.5114
        43.100          42.3004
 123998996.625 6  96622629.75846  23596220.782    23596220.3444   23596224.5354
        39.900          36.2004
 125904601.251 7                  23958772.007
        45.700
 110470223.343 8                  20651187.702    20651187.783
        48.900
 127487870.590 8                  24260067.783
        48.200
 115077081.813 7  89504549.770 7  21535062.983    21535063.050    21535071.717
        47.600          45.800
 136844868.138 6 106632530.62442  26040647.339    26040645.9404   26040647.8724
        36.300          17.1004
 123869122.467 6  96521502.02145  23571472.460    23571472.1564   23571478.2164
        40.100          35.0004
 124482542.616 8                  23688175.497
        49.000
 118853359.667 8  92441720.904 7  22210526.472    22210526.626    22210533.778
        49.100          45.100
 130579840.937 6 101750498.26543  24848544.789    24848544.1774   24848555.7784
        40.200          18.7004
 106903349.164 8  83301473.03146  20342968.360    20342968.0164   20342969.4104
        48.000          40.1004
 126797503.340 7  98803412.35444  24128693.559    24128692.3704   24128692.1054
        43.700          29.0004
 102320800.576 8  79582897.850 8  19154656.880    19154656.970    19154663.870
        52.200          48.800
 109206411.419 8  85096092.79746  20781204.384    20781202.8914   20781203.6894
        48.100          41.3004
 102354517.895 8  79609283.901 8  19174376.797    19174377.334    19174382.170
        52.500          50.100
 25  1  1 23 20 15.0000000  0 30E03E05G17S31S35E33E25S48S33G30G11E11
                                E31R13G06G24E12R23E10R11G21G03E24R21
                                G13G14G02R12G19R22
 147612617.134 6                  28089741.199
        36.700
 140079558.853 6                  26656284.411
        36.900
 108023231.503 8  84174134.07748  20556056.477    20556055.8564   20556056.7354
        49.200          50.5004
 198974363.255 7                  37863571.440
        45.700
 200895829.985 7                  38229219.469
        44.200
 136106480.292 7                  25900130.644
        44.400
 136318098.259 7                  25940453.007
        43.300
 413006517.167 5                  78592350.648
        32.500
 202131945.647 7                  38464412.452
        45.000
 122023000.881 6  95082870.26446  23220214.543    23220213.6894   23220222.5474
        41.900          37.6004
 135181234.878 5 105336100.31542  25724129.145    25724128.7484   25724145.0214
        35.100          16.5004
 135257102.899 6                  25738522.514
        39.300
 132090929.471 7                  25136018.218
        44.200
 113949106.679 7                  21339002.610    21339001.654
        44.200
 117098469.092 7  91245698.89047  22283048.910    22283048.4994   22283055.1564
        43.300          42.4004
 123965977.211 6  96596900.36446  23589937.791    23589937.3404   23589941.2304
        40.200          36.4004
 125895220.571 7                  23956986.844
        45.500
 110427672.310 8                  20643232.735    20643233.343
        49.100
 127459143.582 8                  24254601.175
        48.200
 115126813.198 7  89543229.711 7  21544369.269    21544369.637    21544378.304
        47.000          45.800
 136900614.718 6 106675969.66442  26051255.059    26051253.6114   26051255.8894
        36.600          16.3004
 123843191.024 6  96501295.80945  23566538.116    23566537.8174   23566543.6064
        40.800          35.1004
 124476092.663 8                  23686947.933
        49.000
 118910569.039 8  92486217.106 7  22221216.912    22221217.037    22221224.269
        49.200          44.500
 130621169.435 6 101782702.08343  24856409.991    24856409.3704   24856420.4764
        39.700          18.5004
 106917640.961 7  83312609.50346  20345687.713    20345687.3744   20345689.0564
        47.800          40.1004
 126845871.589 7  98841101.92444  24137897.826    24137896.6334   24137895.9744
        43.300          28.7004
 102312109.999 8  79576138.521 8  19153030.058    19153030.073    19153037.026
        52.200          48.700
 109185954.071 8  85080152.03646  20777311.698    20777310.2014   20777310.7704
        48.700          41.2004
 102364078.378 8  79616719.837 8  19176168.112    19176168.290    19176173.274
        52.700          50.100
 25  1  1 23 20 30.0000000  0 30E03E05G17S31S35E33E25S48S33G30G11E11
                                E31R13G06G24E12R23E10R11G21G03E24R21
                                G13G14G02R12G19R22
 147630355.693 6                  28093117.041
        37.200
 140115320.030 6                  26663089.214
        37.700
 108034006.457 8  84182530.15548  20558106.884    20558106.2634   20558107.1434
        49.400          50.4004
 198974370.437 7                  37863571.355
        45.700
 200895854.475 7                  38229221.682
        44.200
 136139178.756 7                  25906352.665
        43.600
 136285361.321 7                  25934223.421
        43.200
 413006725.637 5                  78592352.432
        32.200
 202131943.059 7                  38464412.627
        45.000
 122076359.683 7  95124448.45246  23230367.894    23230367.0454   23230376.6544
        42.200          37.5004
 135124652.279 6 105292010.30942  25713361.581    25713361.1844   25713377.5774
        36.300          17.1004
 135213660.390 6                  25730255.700
        39.200
 132115981.202 7                  25140785.298
        44.200
 113897408.461 7                  21329320.885    21329320.180
        44.000
 117049251.869 7  91207347.87847  22273683.045    22273682.6434   22273689.4234
        43.000          42.4004
 123933076.408 6  96571263.39946  23583676.513    23583676.0844   23583680.6324
        40.300          36.6004
 125885945.590 7                  23955221.718
        45.400
 110385250.744 8                  20635302.863    20635302.773
        48.900
 127430502.673 8                  24249150.919
        48.000
 115176643.960 7  89581986.934 7  21553694.587    21553695.340    21553704.172
        47.300          45.900
 136956356.599 6 106719405.03742  26061862.770    26061861.3574   26061862.8194
        36.300          15.7004
 123817364.325 6  96481171.21045  23561622.940    23561622.6454   23561628.8594
        39.400          34.7004
 124469690.434 8                  23685729.665
        48.700
 118967816.716 8  92530743.100 7  22231915.925    22231915.890    22231922.510
        49.400          44.600
 130662507.348 6 101814913.22243  24864276.586    24864275.9744   24864287.5634
        39.500          18.9004
 106932028.254 8  83323820.38546  20348425.762    20348425.4234   20348426.8294
        48.100          40.0004
 126894278.770 7  98878821.84444  24147109.172    24147107.9564   24147107.6334
        44.100          28.6004
 102303575.187 8  79569500.343 8  19151432.142    19151432.318    19151439.235
        52.400          48.800
 109165568.380 8  85064267.10446  20773432.211    20773430.7054   20773431.4994
        48.500          41.2004
 102373802.766 8  79624283.262 8  19177989.627    19177990.034    19177994.942
        52.600          50.300
 25  1  1 23 20 45.0000000  0 30E03E05G17S31S35E33E25S48S33G30G11E11
                                E31R13G06G24E12R23E10R11G21G03E24R21
                                G13G14G02R12G19R22
 147648177.323 6                  28096507.826
        36.900
 140151092.413 6                  26669896.221
        37.100
 108044843.414 8  84190974.54848  20560169.160    20560168.5434   20560169.3354
        49.700          50.5004
 198974379.920 7                  37863572.741
        45.500
 200895881.883 7                  38229229.825
        44.000
 136171946.788 7                  25912588.409
        43.700
 136252633.745 7                  25927995.253
        43.000
 413006936.267 5                  78592353.805
        32.300
 202131943.536 7                  38464411.272
        44.800
 122129759.735 7  95166058.78946  23240529.705    23240528.8514   23240538.4114
        42.300          37.4004
 135068069.269 6 105247919.93042  25702593.494    25702593.0884   25702609.8704
        36.600          17.2004
 135170267.244 6                  25721998.180
        38.300
 132141080.511 7                  25145561.382
        43.400
 113845776.383 7                  21319651.556    21319651.262
        44.300
 117000115.209 7  91169059.64447  22264332.823    22264332.4304   22264338.8494
        43.400          42.7004
 123900298.337 6  96545722.06146  23577438.652    23577438.2324   23577443.0454
        40.300          36.5004
 125876780.167 7                  23953477.831
        45.100
 110342962.549 8                  20627397.345    20627397.289
        48.800
 127401951.796 7                  24243717.913
        47.700
 115226577.719 7  89620824.271 7  21563039.453    21563039.600    21563047.753
        47.700          45.800
 137012097.441 6 106762839.57942  26072469.938    26072468.5394   26072469.6424
        36.400          16.3004
 123791646.514 6  96461131.44845  23556729.475    23556729.1894   23556734.7844
        39.800          34.9004
 124463339.877 8                  23684521.180
        48.600
 119025106.448 8  92575301.787 7  22242621.507    22242621.759    22242628.437
        50.000          44.800
 130703857.672 6 101847134.08143  24872145.478    24872144.8754   24872156.0584
        40.600          20.2004
 106946514.889 8  83335108.67646  20351182.349    20351182.0104   20351183.5754
        48.200          40.1004
 126942728.402 7  98916574.81844  24156329.059    24156327.8344   24156327.6984
        43.000          28.9004
 102295200.201 8  79562986.469 8  19149864.458    19149864.612    19149871.417
        52.600          48.800
 109145258.146 8  85048440.97446  20769567.441    20769565.9264   20769566.5914
        48.200          41.2004
 102383694.652 8  79631976.978 8  19179842.630    19179843.003    19179847.982
        52.500          50.100
 25  1  1 23 21  0.0000000  0 30E03E05G17S31S35E33E25S48S33G30G11E11
                                E31R13G06G24E12R23E10R11G21G03E24R21
                                G13G14G02R12G19R22
 147666071.987 6                  28099913.092
        36.600
 140186865.902 6                  26676704.142
        37.300
 108055732.245 8  84199459.36648  20562241.305    20562240.6664   20562241.3914
        49.400          50.4004
 198974382.242 7                  37863573.465
        45.500
 200895901.668 7                  38229231.055
        44.100
 136204774.393 7                  25918835.798
        43.400
 136219905.799 7                  25921767.515
        43.200
 413007138.931 5                  78592349.051
        32.000
 202131936.986 7                  38464409.380
        44.900
 122183190.790 6  95207693.28446  23250697.277    23250696.4194   23250706.0234
        41.800          37.3004
 135011476.245 5 105203821.78742  25691824.195    25691823.7984   25691839.7304
        35.200          16.3004
 135126913.831 6                  25713748.131
        39.100
 132166217.555 7                  25150345.036
        43.700
 113794200.623 7                  21309993.525    21309992.924
        44.300
 116951049.563 7  91130826.74147  22254995.710    22254995.3264   22255001.8334
        44.000          42.7004
 123867633.395 6  96520268.87946  23571222.386    23571221.9754   23571226.9894
        40.200          36.5004
 125867714.491 7                  23951752.432
        45.200
 110300798.202 8                  20619515.174    20619515.227
        49.200
 127373481.239 8                  24238299.988
        48.000
 115276604.190 8  89659733.699 7  21572401.508    21572401.058    21572410.150
        48.000          46.000
 137067826.916 5 106806265.25042  26083074.660    26083073.2564   26083074.6234
        34.600          14.6004
 123766028.053 6  96441169.11445  23551854.354    23551854.0864   23551859.5444
        39.800          34.8004
 124457031.251 8                  23683320.554
        48.700
 119082427.606 8  92619884.932 7  22253333.107    22253333.911    22253340.316
        50.000          44.700
 130745210.385 6 101879356.79743  24880014.411    24880013.8084   24880025.2954
        39.700          18.3004
 106961091.072 8  83346466.74846  20353956.172    20353955.8284   20353957.3864
        48.200          40.0004
 126991210.458 7  98954353.07144  24165555.375    24165554.1644   24165553.4794
        42.900          28.3004
 102286975.361 8  79556589.369 8  19148324.848    19148324.943    19148331.699
        52.600          48.800
 109125013.422 8  85032665.88546  20765714.865    20765713.3594   20765714.1364
        48.000          41.2004
 102393743.820 8  79639793.001 8  19181725.086    19181725.511    19181730.567
        52.900          50.100
 25  1  1 23 21 15.0000000  0 30E03E05G17S31S35E33E25S48S33G30G11E11
                                E31R13G06G24E12R23E10R11G21G03E24R21
                                G13G14G02R12G19R22
 147684050.623 6                  28103334.341
        36.800
 140222651.351 6                  26683514.110
        36.900
 108066683.815 8  84207993.07348  20564325.318    20564324.6794   20564325.3914
        49.500          50.4004
 198974388.638 7                  37863575.379
        45.500
 200895925.256 7                  38229236.264
        43.900
 136237672.407 7                  25925095.748
        43.800
 136187188.687 7                  25915541.588
        42.900
 413005745.811 5                  78592351.551
        32.500
 202131933.075 7                  38464410.914
        44.900
 122236663.649 6  95249360.34946  23260873.200    23260872.3424   23260881.5584
        41.900          37.3004
 134954884.535 5 105159724.66242  25681054.666    25681054.2604   25681070.2614
        35.100          15.6004
 135083611.419 6                  25705507.743
        38.400
 132191403.490 7                  25155137.745
        43.900
 113742693.061 7                  21300347.478    21300347.035
        44.300
 116902066.345 7  91092658.06647  22245674.285    22245673.8834   22245680.5794
        44.000          42.8004
 123835092.988 6  96494912.72446  23565030.852    23565030.4414   23565034.7174
        40.100          36.4004
 125858759.659 7                  23950048.268
        45.300
 110258769.133 8                  20611658.591    20611658.528
        49.300
 127345102.277 8                  24232899.758
        48.200
 115326734.546 7  89698723.942 7  21581781.506    21581781.856    21581791.337
        47.800          45.600
 137123555.987 5 106849690.59642  26093680.090    26093678.7134   26093679.2954
        34.900          14.7004
 123740520.470 6  96421293.16645  23547000.330    23547000.0534   23547005.3654
        40.200          34.6004
 124450775.792 8                  23682130.346
        48.700
 119139791.163 8  92664501.045 7  22264052.755    22264052.905    22264060.240
        49.300          44.600
 130786576.378 6 101911589.86643  24887886.318    24887885.7194   24887896.6484
        38.900          18.2004
 106975767.989 8  83357903.31146  20356748.975    20356748.6364   20356750.2634
        48.100          40.0004
 127039735.662 7  98992164.93844  24174788.391    24174787.1844   24174787.2364
        43.900          28.4004
 102278912.241 8  79550318.070 8  19146815.226    19146815.439    19146822.272
        52.200          48.600
 109104845.356 8  85016950.53646  20761877.070    20761875.5684   20761876.2364
        48.100          41.1004
 102403961.297 8  79647739.938 8  19183639.383    19183639.625    19183644.649
        52.500          50.200
 25  1  1 23 21 30.0000000  0 30E03E05G17S31S35E33E25S48S33G30G11E11
                                E31R13G06G24E12R23E10R11G21G03E24R21
                                G13G14G02R12G19R22
 147702109.665 6                  28106770.878
        37.900
 140258445.031 6                  26690326.242
        36.500
 108077694.597 8  84216572.92248  20566420.378    20566419.7354   20566420.6414
        49.200          50.5004
 198974395.812 7                  37863576.457
        45.600
 200895950.056 7                  38229240.302
        44.100
 136270637.229 7                  25931368.534
        44.000
 136154479.072 7                  25909317.238
        43.100
 413005952.010 5                  78592358.433
        32.200
 202131930.265 7                  38464408.285
        45.000
 122290174.560 6  95291057.06846  23271056.059    23271055.1924   23271064.6094
        41.600          37.4004
 134898291.083 5 105115626.17842  25670285.483    25670285.0454   25670300.3894
        35.700          15.9004
 135040356.790 6                  25697276.629
        39.100
 132216634.911 7                  25159938.919
        44.000
 113691250.731 7                  21290714.494    21290714.082
        44.700
 116853162.471 7  91054551.21347  22236368.268    22236367.8664   22236374.5074
        43.500          43.1004
 123802673.943 6  96469651.15046  23558861.695    23558861.2574   23558865.6624
        40.500          36.5004
 125849912.288 7                  23948364.988
        45.200
 110216871.977 8                  20603825.986    20603826.200
        49.400
 127316811.602 7                  24227516.259
        47.800
 115376964.994 8  89737792.046 7  21591183.167    21591182.933    21591191.296
        48.500          45.600
 137179280.944 6 106893112.77542  26104283.655    26104282.2694   26104283.4394
        36.400          15.8004
 123715120.645 6  96401501.20445  23542166.549    23542166.2594   23542171.8864
        40.600          35.0004
 124444570.180 8                  23680949.447
        48.700
 119197193.086 8  92709147.022 7  22274779.638    22274780.269    22274786.782
        49.400          44.300
 130827951.618 6 101943830.12043  24895760.239    24895759.6674   24895770.2814
        39.200          18.9004
 106990542.253 8  83369415.73046  20359560.401    20359560.0534   20359561.6704
        48.100          40.1004
 127088300.282 7  99030007.51344  24184029.883    24184028.6724   24184028.6404
        42.700          28.4004
 102271007.408 8  79544169.878 8  19145335.620    19145335.627    19145342.415
        52.500          48.600
 109084750.382 8  85001292.13646  20758053.000    20758051.4984   20758052.2524
        48.100          41.3004
 102414343.321 8  79655814.875 8  19185584.253    19185584.593    19185589.474
        53.000          50.300
 25  1  1 23 21 45.0000000  0 30E03E05G17S31S35E33E25S48S33G30G11E11
                                E31R13G06G24E12R23E10R11G21G03E24R21
                                G13G14G02R12G19R22
 147720248.099 6                  28110222.353
        37.300
 140294245.980 6                  26697139.100
        36.600
 108088763.868 8  84225198.34648  20568526.885    20568526.2424   20568527.0264
        49.200          50.3004
 198974401.663 7                  37863578.313
        45.700
 200895973.481 7                  38229246.030
        44.100
 136303667.782 7                  25937654.014
        43.800
 136121776.234 7                  25903093.981
        43.200
 413006157.108 5                  78592352.074
        32.300
 202131926.929 7                  38464409.523
        45.100
 122343722.275 6  95332782.46446  23281245.993    23281245.1304   23281254.6234
        40.400          36.9004
 134841695.239 6 105071525.82642  25659514.841    25659514.4484   25659530.3574
        36.700          17.7004
 134997149.324 6                  25689054.317
        39.100
 132241910.985 7                  25164749.065
        44.100
 113639872.887 7                  21281092.937    21281092.416
        44.700
 116804337.415 7  91016505.77747  22227077.253    22227076.8644   22227083.3874
        43.400          42.9004
 123770375.689 6  96444483.70246  23552714.983    23552714.5184   23552719.2434
        40.400          36.3004
 125841171.552 7                  23946701.530
        45.300
 110175106.259 8                  20596018.228    20596018.411
        49.200
 127288608.516 8                  24222149.218
        48.000
 115427294.382 7  89776937.089 7  21600600.647    21600601.185    21600609.543
        47.700          45.500
 137235000.574 6 106936530.79042  26114886.772    26114885.3954   26114886.5824
        36.400          15.8004
 123689828.046 6  96381792.77545  23537353.518    23537353.2374   23537358.6634
        39.900          34.7004
 124438413.686 8                  23679777.885
        48.600
 119254632.219 8  92753821.917 7  22285513.502    22285514.158    22285520.764
        49.300          44.500
 130869335.020 6 101976076.73643  24903634.692    24903634.1294   24903645.8374
        40.000          18.4004
 107005413.077 7  83381003.38546  20362390.388    20362390.0494   20362391.4784
        47.800          39.9004
 127136903.188 7  99067879.91144  24193279.256    24193278.0364   24193277.6324
        43.000          28.0004
 102263260.431 8  79538144.454 8  19143885.048    19143885.422    19143892.228
        52.700          48.700
 109064727.719 7  84985690.08846  20754242.811    20754241.3224   20754242.0594
        47.500          41.0004
 102424888.811 8  79664016.933 8  19187559.635    19187560.049    19187565.037
        53.100          50.300
 25  1  1 23 22  0.0000000  0 30E03E05G17S31S35E33E25S48S33G30G11E11
                                E31R13G06G24E12R23E10R11G21G03E24R21
                                G13G14G02R12G19R22
 147738469.778 6                  28113690.070
        36.700
 140330057.953 6                  26703953.737
        36.900
 108099895.483 8  84233872.34448  20570645.167    20570644.5244   20570645.2744
        49.300          50.3004
 198974411.846 7                  37863580.025
        45.900
 200896001.433 7                  38229252.089
        44.200
 136336767.919 7                  25943952.977
        44.000
 136089084.313 7                  25896873.098
        43.000
 413006364.955 5                  78592355.097
        32.400
 202131926.902 7                  38464407.923
        45.100
 122397310.558 6  95374539.47046  23291444.085    23291443.2314   23291452.0654
        41.300          36.9004
 134785101.325 6 105027426.97642  25648744.837    25648744.5024   25648760.5164
        36.100          16.5004
 134953993.277 6                  25680842.103
        39.100
 132267235.824 7                  25169567.989
        44.200
 113588564.360 7                  21271483.960    21271484.097
        44.800
 116755595.490 7  90978525.12147  22217801.920    22217801.5364   22217807.9774
        44.100          43.1004
 123738202.565 6  96419413.75546  23546593.247    23546592.7874   23546596.6704
        40.800          36.4004
 125832541.523 7                  23945059.314
        45.400
 110133476.248 8                  20588236.193    20588235.780
        49.400
 127260497.207 8                  24216799.658
        48.100
 115477726.615 8  89816162.117 7  21610038.705    21610039.278    21610047.927
        48.000          45.700
 137290718.930 5 106979947.82342  26125489.518    26125488.1734   26125489.0584
        35.500          15.3004
 123664647.143 6  96362171.38445  23532561.992    23532561.7114   23532567.0604
        40.100          34.9004
 124432310.494 8                  23678616.452
        48.600
 119312112.400 8  92798528.741 7  22296255.639    22296255.331    22296261.838
        49.600          44.300
 130910730.311 6 102008332.62643  24911512.333    24911511.7524   24911523.3784
        39.500          18.2004
 107020384.578 7  83392669.49546  20365239.293    20365238.9454   20365240.4254
        47.800          39.8004
 127185548.181 7  99105785.10344  24202535.862    24202534.6374   24202534.1504
        42.800          28.2004
 102255675.726 8  79532245.249 8  19142465.372    19142465.498    19142472.291
        52.400          48.500
 109044781.479 7  84970147.58446  20750447.377    20750445.9024   20750446.4114
        47.800          41.0004
 102435601.661 8  79672349.171 8  19189566.370    19189566.864    19189571.933
        52.900          50.400
 25  1  1 23 22 15.0000000  0 30E03E05G17S31S35E33E25S48S33G30G11E11
                                E31R13G06G24E12R23E10R11G21G03E24R21
                                G13G14G02R12G19R22
 147756765.025 6                  28117171.385
        37.200
 140365871.174 6                  26710769.141
        37.000
 108111079.432 8  84242587.12848  20572773.384    20572772.7414   20572773.4934
        49.300          50.2004
 198974416.454 7                  37863580.043
        45.700
 200896023.884 7                  38229255.644
        44.200
 136369927.864 7                  25950263.004
        43.600
 136056393.880 7                  25890652.227
        42.800
 413006566.468 5                  78592356.859
        32.400
 202131921.982 7                  38464408.817
        45.200
 122450929.498 6  95416320.37246  23301646.878    23301646.0154   23301655.5164
        41.800          36.8004
 134728500.105 5 104983322.46542  25637973.613    25637973.2834   25637989.1424
        35.300          15.9004
 134910879.304 6                  25672637.736
        38.500
 132292599.866 7                  25174394.764
        43.900
 113537315.854 7                  21261886.610    21261886.654
        45.600
 116706927.504 7  90940602.07347  22208540.308    22208539.9154   22208546.6654
        44.300          42.9004
 123706145.258 6  96394434.05746  23540492.288    23540491.8284   23540496.6174
        40.400          36.5004
 125824012.636 7                  23943436.169
        45.300
 110091972.447 8                  20580476.984    20580477.309
        49.800
 127232468.276 8                  24211465.900
        48.100
 115528251.801 8  89855459.458 7  21619493.683    21619493.880    21619502.471
        48.300          46.000
 137346426.275 5 107023356.28842  26136089.667    26136088.3574   26136089.9524
        34.900          15.0004
 123639568.681 6  96342629.81745  23527789.367    23527789.0774   23527794.9314
        39.500          34.6004
 124426251.149 8                  23677463.268
        48.700
 119369623.221 8  92843259.401 7  22307002.271    22307002.741    22307009.334
        49.700          44.200
 130952127.428 6 102040589.93042  24919389.909    24919389.2974   24919401.0804
        40.500          17.6004
 107035447.255 8  83404406.64646  20368105.593    20368105.2454   20368106.7804
        48.100          39.6004
 127234225.468 7  99143715.47344  24211799.137    24211797.9084   24211797.1394
        42.900          27.6004
 102248243.851 8  79526464.920 8  19141073.967    19141074.202    19141080.919
        52.100          48.700
 109024902.096 8  84954657.17946  20746664.170    20746662.6904   20746663.4644
        48.000          40.9004
 102446471.766 8  79680803.712 8  19191602.698    19191603.218    19191608.336
        52.800          50.300
 25  1  1 23 22 30.0000000  0 30E03E05G17S31S35E33E25S48S33G30G11E11
                                E31R13G06G24E12R23E10R11G21G03E24R21
                                G13G14G02R12G19R22
 147775144.264 6                  28120668.885
        36.700
 140401695.912 6                  26717586.263
        36.000
 108122326.339 8  84251350.96648  20574913.514    20574912.8664   20574913.7014
        49.500          50.4004
 198974425.053 7                  37863582.883
        45.500
 200896050.561 7                  38229258.296
        44.000
 136403158.058 7                  25956586.589
        43.900
 136023715.636 7                  25884433.786
        43.200
 413006773.215 5                  78592361.125
        32.500
 202131921.072 7                  38464406.170
        44.900
 122504589.383 6  95458133.18046  23311857.622    23311856.7554   23311866.7394
        41.500          36.6004
 134671902.455 6 104939220.67942  25627203.320    25627202.9904   25627218.8594
        36.400          16.5004
 134867818.220 6                  25664443.748
        38.500
 132318013.773 7                  25179231.081
        44.000
 113486138.668 7                  21252303.132    21252302.549
        44.800
 116658344.408 7  90902745.17147  22199295.491    22199295.0804   22199301.5234
        43.800          43.2004
 123674214.714 6  96369553.14046  23534416.300    23534415.8444   23534420.4734
        39.600          36.5004
 125815595.538 7                  23941834.508
        45.200
 110050605.943 8                  20572744.171    20572744.103
        49.800
 127204532.451 7                  24206149.967
        47.700
 115578880.492 8  89894837.271 7  21628968.350    21628968.586    21628977.097
        48.200          45.800
 137402132.809 5 107066764.09942  26146690.136    26146688.8444   26146690.6134
        35.100          14.7004
 123614603.648 6  96323176.64245  23523039.214    23523038.9284   23523044.3424
        39.800          34.8004
 124420246.405 8                  23676320.793
        48.400
 119427175.076 8  92888021.958 7  22317756.890    22317757.418    22317764.275
        48.500          44.500
 130993536.804 6 102072856.78642  24927270.262    24927269.6364   24927281.0944
        39.700          17.4004
 107050611.795 8  83416223.17946  20370991.364    20370991.0114   20370992.4344
        48.000          39.9004
 127282945.378 7  99181679.05044  24221070.128    24221068.8684   24221068.6644
        43.700          28.3004
 102240975.644 8  79520811.865 8  19139713.356    19139713.604    19139720.347
        52.600          48.700
 109005100.169 8  84939227.12446  20742896.114    20742894.6394   20742895.2724
        48.000          41.1004
 102457509.783 8  79689388.841 8  19193670.758    19193671.026    19193676.162
        53.100          50.400
 25  1  1 23 22 45.0000000  0 30E03E05G17S31S35E33E25S48S33G30G11E11
                                E31R13G06G24E12R23E10R11G21G03E24R21
                                G13G14G02R12G19R22
 147793599.952 6                  28124180.748
        36.900
 140437524.682 6                  26724405.125
        37.100
 108133628.832 8  84260158.11748  20577064.435    20577063.7874   20577064.4624
        49.400          50.3004
 198974431.621 7                  37863583.929
        45.700
 200896074.636 7                  38229263.639
        44.100
 136436450.924 7                  25962921.743
        44.000
 135991042.338 7                  25878215.987
        43.300
 413006977.051 5                  78592357.288
        32.000
 202131916.950 7                  38464404.913
        45.000
 122558282.517 6  95499971.89046  23322075.304    23322074.4284   23322084.3204
        41.400          36.3004
 134615301.277 5 104895116.16542  25616432.158    25616431.8194   25616447.8964
        35.600          16.3004
 134824802.882 6                  25656257.716
        39.300
 132343470.221 7                  25184075.048
        43.700
 113435025.588 7                  21242730.790    21242730.540
        44.300
 116609839.133 7  90864948.92247  22190065.050    22190064.6444   22190071.3204
        44.300          43.3004
 123642403.793 6  96344765.45246  23528363.164    23528362.7174   23528366.8584
        40.600          36.2004
 125807282.901 7                  23940252.732
        45.300
 110009369.385 8                  20565035.160    20565035.348
        50.000
 127176682.545 7                  24200850.298
        47.900
 115629604.876 7  89934289.565 7  21638460.353    21638460.906    21638469.032
        47.100          45.700
 137457831.030 5 107110165.43542  26157289.421    26157288.0584   26157289.5524
        35.600          14.1004
 123589744.994 6  96303806.35245  23518307.868    23518307.5734   23518313.6424
        40.100          34.7004
 124414289.008 8                  23675186.979
        48.600
 119484760.270 8  92932810.435 7  22328518.947    22328519.134    22328525.141
        49.800          44.200
 131034950.630 6 102105127.09342  24935151.086    24935150.4474   24935162.0344
        39.400          17.8004
 107065870.893 7  83428113.39146  20373895.183    20373894.8354   20373896.1504
        47.700          39.7004
 127331700.096 7  99219669.75344  24230347.366    24230346.0744   24230346.5524
        43.800          28.2004
 102233864.099 8  79515280.672 8  19138382.218    19138382.330    19138389.078
        52.800          48.500
 108985368.374 7  84923851.71546  20739141.142    20739139.6624   20739140.4194
        47.700          40.9004
 102468707.942 8  79698098.532 8  19195768.362    19195768.812    19195773.881
        52.900          50.400
 25  1  1 23 23  0.0000000  0 30E03E05G17S31S35E33E25S48S33G30G11E11
                                E31R13G06G24E12R23E10R11G21G03E24R21
                                G13G14G02R12G19R22
 147812133.053 6                  28127707.747
        36.100
 140473358.261 6                  26731223.446
        36.400
 108144987.764 8  84269009.24848  20579225.903    20579225.2644   20579225.9874
        49.200          50.4004
 198974437.067 7                  37863584.188
        45.700
 200896097.694 7                  38229269.609
        44.100
 136469807.355 7                  25969269.324
        43.800
 135958375.192 7                  25871999.686
        43.000
 413007178.962 5                  78592360.530
        32.600
 202131912.530 7                  38464404.824
        45.000
 122612009.682 6  95541837.11646  23332299.273    23332298.4154   23332308.3194
        41.300          36.3004
 134558697.946 6 104851009.96242  25605662.023    25605661.6394   25605676.3704
        36.100          16.5004
 134781834.569 6                  25648081.122
        39.000
 132368970.332 7                  25188927.756
        44.100
 113383978.362 7                  21233172.858    21233171.714
        45.400
 116561413.088 7  90827214.40347  22180849.722    22180849.3114   22180856.1564
        43.900          43.5004
 123610713.883 6  96320072.04046  23522332.757    23522332.2884   23522336.2984
        40.200          36.5004
 125799075.833 7                  23938690.857
        45.200
 109968264.131 8                  20557351.010    20557351.276
        49.900
 127148919.791 8                  24195567.254
        48.100
 115680425.888 7  89973816.974 7  21647971.325    21647971.287    21647979.869
        47.700          45.800
 137513521.759 5 107153560.90942  26167886.650    26167885.3494   26167886.9804
        35.000          14.1004
 123564994.227 6  96284520.12645  23513597.875    23513597.5894   23513603.3514
        40.200          34.8004
 124408380.196 8                  23674062.686
        48.800
 119542379.401 8  92977625.324 7  22339286.415    22339286.059    22339293.170
        49.500          44.500
 131076369.718 6 102137401.49642  24943032.926    24943032.2924   24943044.1724
        39.400          17.5004
 107081225.706 8  83440078.18746  20376817.044    20376816.7004   20376818.0784
        48.000          39.8004
 127380490.578 7  99257688.33144  24239631.926    24239630.6124   24239630.5704
        42.800          27.7004
 102226910.559 8  79509872.362 8  19137080.027    19137080.663    19137087.330
        52.700          48.600
 108965707.786 8  84908531.80146  20735400.092    20735398.6264   20735399.1384
        48.000          41.0004
 102480067.098 8  79706933.441 8  19197896.551    19197896.661    19197901.752
        52.700          50.300
 25  1  1 23 23 15.0000000  0 30E03E05G17S31S35E33E25S48S33G30G11E11
                                E31R13G06G24E12R23E10R11G21G03E24R21
                                G13G14G02R12G19R22
 147830750.113 6                  28131250.038
        37.300
 140509203.313 6                  26738045.053
        37.400
 108156409.838 8  84277909.58348  20581399.549    20581398.9104   20581399.5224
        49.500          50.6004
 198974447.393 7                  37863585.217
        45.700
 200896126.207 7                  38229274.970
        44.100
 136503233.864 7                  25975630.205
        44.200
 135925721.046 7                  25865785.838
        43.600
 413005785.688 5                  78592361.174
        32.100
 202131913.310 7                  38464405.374
        45.000
 122665777.218 6  95583733.80146  23342530.911    23342530.0354   23342540.2184
        40.500          36.4004
 134502099.508 6 104806907.53742  25594890.904    25594890.5474   25594905.9894
        36.900          17.4004
 134738920.229 6                  25639914.647
        39.000
 132394520.880 7                  25193789.629
        44.100
 113333004.197 7                  21223625.843    21223625.699
        45.300
 116513073.354 7  90789547.13847  22171650.904    22171650.4984   22171657.3804
        44.400          43.7004
 123579151.950 6  96295478.35746  23516326.496    23516326.0314   23516330.2034
        40.700          36.9004
 125790981.130 7                  23937150.384
        45.400
 109927297.462 8                  20549692.944    20549692.840
        49.800
 127121251.064 8                  24190302.040
        48.200
 115731350.126 7  90013424.702 7  21657500.731    21657501.106    21657509.751
        47.600          45.800
 137569211.531 6 107196955.64042  26178484.157    26178482.8384   26178484.1224
        36.300          15.5004
 123540358.398 6  96265323.47245  23508909.639    23508909.3584   23508915.0794
        40.300          35.0004
 124402526.817 8                  23672948.780
        48.800
 119600038.978 8  93022471.673 7  22350060.961    22350061.359    22350068.385
        50.000          44.600
 131117800.277 6 102169684.86742  24950917.377    24950916.6804   24950928.1884
        39.200          17.7004
 107096683.002 8  83452122.83746  20379758.196    20379757.8574   20379759.4984
        48.000          39.9004
 127429323.215 7  99295739.75244  24248924.718    24248923.4084   24248922.9554
        43.700          28.0004
 102220122.134 8  79504592.487 8  19135809.673    19135809.824    19135816.540
        52.700          48.600
 108946125.096 8  84893272.57846  20731673.468    20731672.0024   20731672.6404
        48.000          41.2004
 102491593.785 8  79715898.654 8  19200055.862    19200056.003    19200061.058
        52.800          50.300
 25  1  1 23 23 30.0000000  0 30E03E05G17S31S35E33E25S48S33G30G11E11
                                E31R13G06G24E12R23E10R11G21G03E24R21
                                G13G14G02R12G19R22
 147849444.227 6                  28134807.557
        37.900
 140545052.712 6                  26744866.939
        37.600
 108167888.169 8  84286853.75748  20583583.578    20583582.9394   20583583.7574
        49.600          50.5004
 198974456.148 7                  37863586.988
        45.600
 200896152.583 7                  38229278.235
        44.100
 136536723.536 7                  25982002.913
        43.700
 135893073.255 7                  25859573.009
        42.800
 413005989.031 5                  78592359.882
        32.300
 202131911.113 7                  38464405.642
        45.000
 122719578.128 6  95625656.48846  23352769.268    23352768.4054   23352778.0434
        41.400          36.0004
 134445499.438 5 104762803.87742  25584120.341    25584119.9394   25584134.6424
        35.800          16.2004
 134696053.367 6                  25631757.743
        39.000
 132420115.123 7                  25198660.120
        44.300
 113282096.794 7                  21214092.643    21214092.204
        45.200
 116464813.482 7  90751942.10547  22162467.340    22162466.9384   22162473.7044
        44.000          43.6004
 123547711.539 6  96270979.35946  23510343.562    23510343.0804   23510347.2034
        40.400          36.8004
 125782992.012 7                  23935630.306
        45.300
 109886462.346 8                  20542058.595    20542059.011
        49.300
 127093669.764 7                  24185053.402
        47.900
 115782370.530 7  90053107.206 7  21667048.795    21667048.678    21667057.528
        47.200          45.900
 137624893.261 5 107240344.10842  26189080.304    26189078.9544   26189079.6984
        34.700          12.8004
 123515831.096 6  96246211.36945  23504242.296    23504241.9974   23504247.6034
        40.700          34.8004
 124396722.260 8                  23671844.341
        48.500
 119657731.655 8  93067343.774 7  22360841.883    22360842.320    22360849.391
        49.000          44.600
 131159235.241 6 102201971.68642  24958802.603    24958801.9104   24958813.4474
        39.700          17.9004
 107112236.121 7  83464242.15746  20382718.046    20382717.7074   20382719.1574
        47.900          39.7004
 127478191.013 7  99333818.56044  24258223.603    24258222.2844   24258222.5084
        43.500          28.1004
 102213492.172 8  79499435.849 8  19134568.519    19134568.770    19134575.334
        52.400          48.500
 108926613.654 7  84878068.87646  20727960.737    20727959.2714   20727959.7224
        47.700          41.1004
 102503280.922 8  79724988.672 8  19202244.785    19202245.278    19202250.450
        52.800          50.200
 25  1  1 23 23 45.0000000  0 30E03E05G17S31S35E33E25S48S33G30G11E11
                                E31R13G06G24E12R23E10R11G21G03E24R21
                                G13G14G02R12G19R22
 147868213.585 6                  28138379.399
        37.700
 140580904.586 6                  26751689.287
        36.700
 108179420.905 8  84295840.32448  20585778.291    20585777.6524   20585778.3454
        49.500          50.4004
 198974462.323 7                  37863589.693
        45.800
 200896176.688 7                  38229283.238
        44.200
 136570274.507 7                  25988387.566
        43.500
 135860430.290 7                  25853361.612
        42.600
 413006189.430 5                  78592359.823
        32.500
 202131907.805 7                  38464404.819
        45.000
 122773410.364 6  95667603.59446  23363013.044    23363012.1774   23363021.9674
        41.800          36.0004
 134388896.366 5 104718697.84642  25573348.794    25573348.4014   25573362.8524
        35.700          16.6004
 134653232.494 6                  25623608.875
        39.300
 132445751.471 7                  25203538.698
        44.000
 113231254.953 7                  21204571.524    21204571.319
        45.600
 116416632.159 7  90714398.29547  22153298.996    22153298.6074   22153305.0404
        44.300          43.7004
 123516391.266 6  96246573.97346  23504383.536    23504383.0804   23504387.4914
        40.300          37.0004
 125775106.844 7                  23934129.673
        45.100
 109845757.512 8                  20534449.914    20534449.758
        49.900
 127066174.363 7                  24179821.189
        47.700
 115833485.190 7  90092863.018 7  21676614.349    21676614.538    21676622.825
        47.600          45.700
 137680565.285 5 107283725.02042  26199674.162    26199672.8124   26199673.5004
        35.700          12.4004
 123491411.038 6  96227182.83945  23499595.049    23499594.7454   23499600.5774
        40.000          34.8004
 124390964.996 8                  23670748.481
        48.600
 119715455.559 8  93112240.144 7  22371630.001    22371629.953    22371636.452
        49.200          44.600
 131200672.656 6 102234260.38343  24966687.367    24966686.6794   24966699.5654
        39.300          18.3004
 107127883.465 7  83476434.89646  20385695.765    20385695.4264   20385696.6814
        47.800          39.6004
 127527092.043 7  99371923.27344  24267529.247    24267527.9334   24267528.0224
        42.900          27.6004
 102207019.257 8  79494401.353 8  19133356.964    19133357.005    19133363.556
        52.600          48.600
 108907171.727 8  84862919.34146  20724260.835    20724259.3734   20724260.0274
        48.300          41.1004
 102515126.597 8  79734201.985 8  19204464.262    19204464.490    19204469.479
        53.000          50.200
 25  1  1 23 24  0.0000000  0 30E03E05G17S31S35E33E25S48S33G30G11E11
                                E31R13G06G24E12R23E10R11G21G03E24R21
                                G13G14G02R12G19R22
 147887062.439 6                  28141965.994
        36.600
 140616763.096 6                  26758513.438
        36.800
 108191012.365 8  84304872.64848  20587983.790    20587983.1514   20587984.1074
        49.700          50.4004
 198974469.325 7                  37863590.297
        45.900
 200896201.873 7                  38229290.098
        44.100
 136603890.965 7                  25994784.722
        43.600
 135827796.712 7                  25847151.356
        43.200
 413006391.153 5                  78592364.054
        32.000
 202131904.965 7                  38464402.870
        45.000
 122827278.067 6  95709578.33645  23373263.943    23373263.0674   23373272.6744
        40.000          35.6004
 134332295.052 5 104674593.17342  25562578.123    25562577.7084   25562591.4334
        35.800          16.1004
 134610462.266 6                  25615469.922
        39.500
 132471434.356 7                  25208425.725
        44.100
 113180483.488 7                  21195064.186    21195063.277
        45.000
 116368534.095 7  90676919.34747  22144146.332    22144145.9484   22144152.1344
        44.100          43.7004
 123485195.824 6  96222265.85546  23498447.258    23498446.8164   23498451.5114
        39.800          37.1004
 125767330.100 7                  23932649.848
        45.100
 109805187.763 8                  20526865.211    20526865.591
        49.700
 127038769.445 7                  24174606.105
        47.900
 115884698.315 7  90132695.425 7  21686198.627    21686198.245    21686206.908
        47.300          45.600
 137736231.521 5 107327101.41242  26210267.312    26210265.9534   26210266.3184
        35.500          14.7004
 123467102.976 6  96208241.58645  23494969.582    23494969.2654   23494975.0734
        40.800          34.9004
 124385259.562 8                  23669662.907
        48.400
 119773214.722 8  93157163.952 7  22382423.008    22382423.404    22382430.251
        49.700          44.700
 131242116.558 6 102266554.14743  24974574.498    24974573.8054   24974586.7514
        40.400          18.4004
 107143629.504 7  83488704.55046  20388692.054    20388691.7154   20388693.0394
        47.900          39.7004
 127576030.485 7  99410057.14044  24276842.053    24276840.7574   24276840.6724
        42.900          27.7004
 102200708.124 8  79489492.704 8  19132175.161    19132175.482    19132182.010
        52.700          48.600
 108887803.658 8  84847827.36246  20720575.186    20720573.7204   20720574.4124
        48.000          41.0004
 102527134.989 8  79743541.862 8  19206713.724    19206714.016    19206718.996
        52.700          50.100
 25  1  1 23 24 15.0000000  0 30E03E05G17S31S35E33E25S48S33G30G11E11
                                E31R13G06G24E12R23E10R11G21G03E24R21
                                G13G14G02R12G19R22
 147905986.150 6                  28145567.750
        37.800
 140652623.627 6                  26765337.344
        36.700
 108202658.139 8  84313947.29648  20590199.860    20590199.2214   20590200.1894
        49.600          50.4004
 198974473.923 7                  37863590.417
        45.800
 200896224.209 7                  38229292.790
        44.300
 136637568.311 7                  26001193.127
        43.300
 135795168.188 7                  25840942.321
        43.300
 413006588.336 5                  78592361.697
        31.900
 202131898.592 7                  38464401.859
        45.100
 122881176.417 6  95751576.95945  23383521.222    23383520.3684   23383529.2884
        40.600          35.6004
 134275691.303 6 104630486.60842  25551806.083    25551805.6544   25551820.0904
        36.300          16.9004
 134567738.467 6                  25607340.093
        39.400
 132497159.406 7                  25213321.326
        43.900
 113129778.427 7                  21185568.386    21185567.983
        44.900
 116320515.203 7  90639502.10047  22135008.444    22135008.0784   22135014.4724
        44.200          43.8004
 123454121.060 6  96198051.76746  23492534.564    23492534.1224   23492538.1574
        41.000          36.9004
 125759657.373 7                  23931189.672
        45.600
 109764748.776 8                  20519305.953    20519305.947
        50.100
 127011450.715 8                  24169407.331
        48.100
 115936005.249 8  90172600.770 7  21695799.376    21695799.981    21695808.389
        48.100          45.800
 137791887.387 5 107370469.73142  26220858.330    26220856.9674   26220857.0874
        34.200          13.9004
 123442902.832 6  96189384.41645  23490364.556    23490364.2434   23490369.7534
        39.900          34.8004
 124379601.642 8                  23668586.107
        48.900
 119831004.127 8  93202111.275 7  22393222.287    22393222.622    22393229.439
        48.600          44.500
 131283562.133 6 102298849.19742  24982460.962    24982460.2524   24982473.3344
        38.600          17.8004
 107159469.880 7  83501047.70646  20391706.053    20391705.7144   20391707.3604
        47.800          39.6004
 127625001.635 6  99448216.48744  24286160.836    24286159.5494   24286159.4894
        41.800          27.5004
 102194554.492 8  79484706.557 8  19131023.262    19131023.534    19131030.048
        52.700          48.600
 108868505.102 8  84832789.54346  20716902.594    20716901.1234   20716901.9634
        48.000          41.1004
 102539301.359 8  79753004.612 8  19208993.092    19208993.131    19208998.262
        52.900          50.000
 25  1  1 23 24 30.0000000  0 30E03E05G17S31S35E33E25S48S33G30G11E11
                                E31R13G06G24E12R23E10R11G21G03E24R21
                                G13G14G02R12G19R22
 147924991.295 6                  28149183.776
        37.700
 140688492.612 6                  26772163.675
        37.300
 108214364.907 8  84323069.47248  20592427.748    20592427.1054   20592427.8934
        49.800          50.6004
 198974481.900 7                  37863592.890
        45.500
 200896250.007 7                  38229296.291
        43.800
 136671313.003 7                  26007614.576
        43.900
 135762551.506 7                  25834735.257
        43.300
 413006788.575 5                  78592360.946
        32.300
 202131897.324 7                  38464402.042
        44.700
 122935111.798 6  95793604.42645  23393783.896    23393783.0334   23393792.9634
        40.600          35.6004
 134219092.090 6 104586383.55042  25541035.207    25541034.7874   25541049.2304
        36.100          16.5004
 134525067.922 6                  25599220.025
        39.500
 132522933.298 7                  25218226.061
        44.300
 113079147.080 7                  21176087.283    21176086.256
        45.300
 116272582.454 7  90602151.98347  22125886.975    22125886.6184   22125893.1314
        44.000          44.0004
 123423173.904 6  96173937.10746  23486644.851    23486644.3914   23486648.7444
        40.100          37.1004
 125752095.292 7                  23929750.647
        45.400
 109724447.426 8                  20511771.967    20511771.893
        50.400
 126984224.963 8                  24164226.715
        48.300
 115987412.392 7  90212584.075 7  21705419.851    21705419.828    21705428.173
        47.700          45.500
 137847539.767 5 107413835.29542  26231448.201    26231446.7804   26231447.5664
        34.800          13.3004
 123418817.584 6  96170616.77445  23485781.299    23485780.9954   23485786.1884
        40.800          35.1004
 124373998.072 8                  23667519.927
        48.900
 119888830.437 8  93247087.308 7  22404028.577    22404029.260    22404035.830
        49.700          44.700
 131325015.769 6 102331150.54443  24990350.557    24990349.8384   24990361.5494
        38.300          18.0004
 107175411.304 7  83513469.60046  20394739.674    20394739.3354   20394740.9094
        47.900          39.5004
 127674011.695 7  99486406.14444  24295487.451    24295486.1774   24295485.9124
        42.700          27.6004
 102188565.430 8  79480048.396 8  19129901.896    19129902.306    19129908.901
        52.600          48.500
 108849282.798 7  84817811.14246  20713245.032    20713243.5664   20713244.0504
        47.900          41.3004
 102551632.215 8  79762595.293 8  19211302.907    19211303.180    19211308.164
        53.000          49.900
 25  1  1 23 24 45.0000000  0 30E03E05G17S31S35E33E25S48S33G30G11E11
                                E31R13G06G24E12R23E10R11G21G03E24R21
                                G13G14G02R12G19R22
 147944073.531 6                  28152815.482
        37.100
 140724365.730 6                  26778989.807
        37.100
 108226128.013 8  84332235.55148  20594666.150    20594665.5074   20594666.3124
        49.900          50.5004
 198974489.269 7                  37863594.938
        45.300
 200896275.480 7                  38229304.094
        43.800
 136705120.731 7                  26014047.862
        43.700
 135729942.689 7                  25828530.385
        43.000
 413006987.210 5                  78592359.041
        31.900
 202131893.631 7                  38464402.105
        44.600
 122989079.751 6  95835657.27645  23404053.861    23404053.0124   23404062.4294
        41.300          35.3004
 134162493.587 6 104542281.03542  25530264.635    25530264.2694   25530278.6574
        36.300          16.6004
 134482446.813 6                  25591109.537
        39.100
 132548751.961 7                  25223139.167
        44.100
 113028585.579 7                  21166618.199    21166617.653
        45.300
 116224732.061 7  90564866.03847  22116780.953    22116780.5964   22116787.4054
        43.900          44.0004
 123392350.504 6  96149918.89146  23480779.530    23480779.0654   23480783.3124
        40.700          37.4004
 125744639.795 7                  23928331.959
        44.900
 109684280.033 8                  20504262.845    20504262.935
        50.300
 126957088.257 7                  24159062.731
        47.800
 116038915.449 8  90252641.983 7  21715058.054    21715058.379    21715066.867
        48.200          45.600
 137903184.162 5 107457194.65142  26242036.618    26242035.2374   26242036.4044
        35.200          14.3004
 123394843.529 6  96151935.77045  23481219.086    23481218.7784   23481223.8764
        40.200          35.1004
 124368444.855 8                  23666463.092
        48.400
 119946688.763 8  93292088.227 7  22414840.958    22414841.348    22414848.093
        50.100          44.700
 131366472.936 6 102363454.66542  24998239.301    24998238.6354   24998250.6724
        38.300          17.2004
 107191449.748 7  83525967.09946  20397791.839    20397791.4954   20397792.8994
        47.800          39.6004
 127723056.439 7  99524622.84544  24304820.528    24304819.2684   24304819.0024
        42.400          27.7004
 102182737.131 8  79475515.291 8  19128810.987    19128811.225    19128817.798
        52.300          48.400
 108830132.652 8  84802888.97346  20709600.834    20709599.3684   20709599.8614
        48.300          41.3004
 102564123.086 8  79772310.432 8  19213642.725    19213643.095    19213648.088
        52.400          49.900
 25  1  1 23 25  0.0000000  0 30E03E05G17S31S35E33E25S48S33G30G11E11
                                E31R13G06G24E12R23E10R11G21G03E24R21
                                G13G14G02R12G19R22
 147963233.743 6                  28156461.336
        36.800
 140760243.670 6                  26785817.595
        37.500
 108237948.391 8  84341446.25948  20596915.563    20596914.9114   20596915.6184
        49.900          50.6004
 198974497.217 7                  37863594.688
        45.500
 200896302.015 7                  38229308.883
        44.000
 136738992.320 7                  26020493.528
        42.900
 135697342.804 7                  25822326.799
        42.700
 413007186.040 5                  78592369.786
        31.900
 202131891.912 7                  38464402.025
        44.800
 123043080.963 6  95877736.04445  23414330.227    23414329.3694   23414338.5584
        40.400          35.0004
 134105897.070 5 104498180.07142  25519494.283    25519493.8684   25519508.6194
        35.900          16.6004
 134439876.299 6                  25583008.080
        38.900
 132574616.443 7                  25228060.823
        43.800
 112978095.645 7                  21157162.464    21157162.828
        45.500
 116176965.373 7  90527645.31647  22107691.324    22107690.9764   22107697.6474
        44.500          43.9004
 123361652.151 6  96125998.11346  23474937.725    23474937.2604   23474941.4234
        40.200          37.2004
 125737291.902 7                  23926933.496
        45.000
 109644247.516 8                  20496779.359    20496779.326
        50.600
 126930041.714 7                  24153915.545
        47.500
 116090515.126 8  90292775.024 7  21724714.077    21724713.980    21724722.138
        48.100          44.900
 137958821.231 5 107500548.32541  26252622.980    26252621.6084   26252623.6154
        32.300          10.4004
 123370982.000 6  96133342.45445  23476678.381    23476678.0954   23476683.2934
        40.300          35.2004
 124362943.103 8                  23665416.165
        48.300
 120004579.924 8  93337114.705 7  22425659.256    22425659.111    22425666.558
        48.900          44.600
 131407934.410 6 102395762.11242  25006129.156    25006128.5224   25006140.6844
        39.300          17.5004
 107207586.246 7  83538541.00146  20400862.319    20400861.9754   20400863.5934
        47.900          39.6004
 127772136.567 7  99562867.10444  24314159.869    24314158.6174   24314158.6214
        43.000          27.7004
 102177070.550 8  79471107.972 8  19127750.019    19127750.391    19127756.995
        52.000          48.300
 108811055.648 8  84788023.79346  20705970.320    20705968.8494   20705969.6064
        48.200          41.3004
 102576774.766 8  79782150.650 8  19216013.151    19216013.113    19216018.173
        52.500          49.900
 25  1  1 23 25 15.0000000  0 30E03E05G17S31S35E33E25S48S33G30G11E11
                                E31R13G06G24E12R23E10R11G21G03E24R21
                                G13G14G02R12G19R22
 147982471.679 6                  28160121.982
        36.600
 140796126.250 6                  26792645.749
        36.300
 108249825.956 8  84350701.52648  20599175.884    20599175.2324   20599175.8404
        49.800          50.7004
 198974506.136 7                  37863596.624
        45.600
 200896328.653 7                  38229311.901
        44.100
 136772927.497 7                  26026951.214
        43.200
 135664751.973 7                  25816125.029
        42.700
 413005785.968 5                  78592365.766
        32.300
 202131890.807 7                  38464402.248
        45.000
 123097115.051 6  95919840.43145  23424612.509    23424611.6424   23424620.9734
        41.000          35.0004
 134049302.808 6 104454080.85142  25508725.109    25508724.6804   25508738.9494
        36.000          16.8004
 134397356.572 6                  25574916.854
        39.200
 132600526.724 7                  25232991.777
        43.300
 112927677.324 7                  21147721.432    21147720.863
        45.500
 116129282.627 7  90490490.01347  22098617.722    22098617.3654   22098623.7684
        44.200          44.1004
 123331079.081 6  96102174.96446  23469119.751    23469119.3094   23469123.3104
        40.500          37.5004
 125730051.624 7                  23925555.822
        44.600
 109604350.370 8                  20489320.574    20489320.878
        50.100
 126903085.456 7                  24148786.118
        47.500
 116142211.154 8  90332983.001 7  21734388.782    21734388.801    21734397.007
        48.100          45.200
 138014450.825 6 107543896.20442  26263210.511    26263209.1394   26263209.6094
        36.900          16.3004
 123347233.292 6  96114837.04845  23472158.770    23472158.4844   23472164.1194
        40.800          35.6004
 124357492.909 8                  23664379.040
        48.200
 120062503.419 8  93382166.288 7  22436484.078    22436484.426    22436490.791
        50.300          44.500
 131449399.632 6 102428072.49343  25014019.069    25014018.4484   25014031.1444
        39.300          18.2004
 107223820.840 7  83551191.34446  20403951.868    20403951.5244   20403952.9174
        47.900          39.9004
 127821251.864 7  99601138.77744  24323506.552    24323505.3054   24323504.9424
        42.200          27.7004
 102171566.217 8  79466826.815 8  19126719.872    19126719.964    19126726.564
        52.500          48.300
 108792051.696 8  84773215.54046  20702354.224    20702352.7534   20702353.2664
        48.200          41.5004
 102589586.916 8  79792115.667 8  19218413.080    19218413.351    19218418.308
        52.500          49.900
 25  1  1 23 25 30.0000000  0 30E03E05G17S31S35E33E25S48S33G30G11E11
                                E31R13G06G24E12R23E10R11G21G03E24R21
                                G13G14G02R12G19R22
 148001782.722 6                  28163797.578
        36.200
 140832008.652 6                  26799474.238
        37.100
 108261756.196 8  84359997.83548  20601446.019    20601445.3674   20601446.0614
        49.600          50.8004
 198974510.520 7                  37863599.361
        45.800
 200896351.179 7                  38229317.236
        44.100
 136806921.616 7                  26033419.870
        43.500
 135632165.845 7                  25809923.928
        43.200
 413005981.600 5                  78592363.195
        32.200
 202131884.985 7                  38464400.357
        45.000
 123151177.205 6  95961966.68845  23434899.885    23434899.0094   23434908.6924
        41.200          35.1004
 133992706.581 6 104409980.11543  25497954.765    25497954.3634   25497969.3464
        36.800          18.1004
 134354883.334 6                  25566834.540
        39.900
 132626478.367 7                  25237929.968
        44.000
 112877326.880 7                  21138292.451    21138292.017
        45.600
 116081679.662 7  90453396.87547  22089559.083    22089558.7264   22089565.1024
        44.200          44.3004
 123300627.051 6  96078446.12846  23463325.457    23463325.0284   23463328.6064
        40.600          37.9004
 125722914.475 7                  23924197.525
        45.000
 109564583.953 8                  20481886.835    20481887.387
        50.700
 126876215.131 8                  24143672.841
        48.100
 116193998.736 7  90373262.206 7  21744079.632    21744079.880    21744087.877
        47.500          45.200
 138070068.055 5 107587234.37041  26273793.400    26273792.0194   26273792.9424
        34.600          10.4004
 123323593.242 6  96096416.30845  23467660.379    23467660.1024   23467665.3674
        40.200          35.6004
 124352089.934 8                  23663350.876
        48.400
 120120454.235 8  93427239.171 7  22447312.236    22447312.956    22447320.224
        49.500          44.500
 131490863.851 6 102460382.08442  25021909.792    25021909.1714   25021921.6404
        38.600          17.4004
 107240149.084 7  83563914.65946  20407059.056    20407058.7124   20407060.0414
        47.800          40.0004
 127870397.450 7  99639434.04444  24332858.301    24332857.0544   24332857.0324
        42.700          27.8004
 102166219.655 8  79462668.399 8  19125719.018    19125719.134    19125725.662
        52.600          48.300
 108773116.386 8  84758460.77146  20698750.816    20698749.3454   20698749.9744
        48.100          41.6004
 102602554.729 8  79802201.771 8  19220842.417    19220842.582    19220847.562
        52.400          49.900
 25  1  1 23 25 45.0000000  0 30E03E05G17S31S35E33E25S48S33G30G11E11
                                E31R13G06G24E12R23E10R11G21G03E24R21
                                G13G14G02R12G19R22
 148021169.191 6                  28167486.109
        37.100
 140867893.182 6                  26806303.123
        37.400
 108273741.412 8  84369336.98448  20603726.864    20603726.2124   20603726.7544
        49.600          50.5004
 198974513.775 7                  37863600.112
        45.500
 200896373.323 7                  38229322.338
        44.200
 136840976.877 7                  26039900.362
        43.400
 135599586.982 7                  25803724.168
        43.200
 413006174.499 5                  78592364.943
        32.500
 202131878.311 7                  38464399.060
        45.000
 123205269.597 6  96004116.51445  23445193.982    23445193.0974   23445202.0144
        41.000          34.8004
 133936111.188 5 104365879.98242  25487184.617    25487184.2874   25487199.4744
        35.000          16.8004
 134312459.295 6                  25558761.450
        39.300
 132652473.874 7                  25242876.735
        43.900
 112827047.100 7                  21128875.836    21128876.242
        45.500
 116034159.308 7  90416368.11647  22080516.361    22080516.0084   22080522.1574
        44.900          44.1004
 123270298.839 6  96054813.77246  23457553.987    23457553.5814   23457557.5794
        40.500          38.0004
 125715882.915 7                  23922859.498
        45.200
 109524951.150 8                  20474478.065    20474478.213
        50.800
 126849433.335 8                  24138576.306
        48.100
 116245880.192 8  90413614.410 7  21753788.986    21753789.731    21753797.339
        48.000          45.200
 138125675.139 5 107630564.71841  26284374.973    26284373.5114   26284374.3624
        35.000          11.9004
 123300064.698 6  96078082.44945  23463183.336    23463183.0644   23463187.9364
        40.100          35.4004
 124346736.774 8                  23662332.085
        48.400
 120178434.559 8  93472334.977 7  22458147.790    22458148.471    22458155.449
        49.100          44.600
 131532329.172 6 102492692.54542  25029801.106    25029800.4944   25029812.6904
        39.700          17.7004
 107256573.516 7  83576712.92346  20410184.632    20410184.2934   20410185.4604
        47.900          39.6004
 127919575.633 7  99677754.71844  24342215.970    24342214.7054   24342215.3964
        42.700          27.3004
 102161033.673 8  79458634.848 8  19124747.969    19124748.314    19124754.851
        52.700          48.300
 108754252.291 7  84743761.49746  20695161.008    20695159.5514   20695160.2324
        47.900          41.3004
 102615680.451 8  79812410.678 8  19223301.063    19223301.295    19223306.449
        52.000          49.900
 25  1  1 23 26  0.0000000  0 29E03E05G17S31S35E33E25S48S33G30G11E11
                                E31R13G06G24E12R23E10R11G03E24R21G13
                                G14G02R12G19R22
 148040634.191 6                  28171190.027
        37.300
 140903782.898 6                  26813132.328
        36.600
 108285784.738 8  84378721.40948  20606018.408    20606017.7604   20606018.5094
        49.600          50.3004
 198974519.327 7                  37863599.423
        45.800
 200896396.569 7                  38229327.977
        44.200
 136875096.474 7                  26046393.190
        43.200
 135567018.834 7                  25797527.008
        43.200
 413006368.654 5                  78592362.117
        32.700
 202131873.353 7                  38464396.896
        45.100
 123259395.183 6  96046292.19445  23455493.781    23455492.8964   23455501.9494
        39.900          34.4004
 133879520.223 6 104321783.31242  25476415.784    25476415.5034   25476430.1124
        36.300          16.8004
 134270087.979 6                  25550698.427
        39.800
 132678516.588 7                  25247832.426
        43.900
 112776842.107 7                  21119474.525    21119474.419
        45.700
 115986725.168 7  90379406.53047  22071489.673    22071489.3254   22071495.5974
        44.300          43.8004
 123240097.994 6  96031280.66746  23451807.156    23451806.7724   23451810.6194
        41.100          37.3004
 125708960.313 7                  23921542.229
        45.100
 109485455.487 8                  20467094.146    20467094.831
        51.000
 126822743.552 8                  24133497.466
        48.100
 116297858.559 7  90454041.989 7  21763515.081    21763515.537    21763524.441
        47.400          45.100
 123276651.334 6  96059838.34745  23458727.193    23458726.9304   23458732.4474
        40.700          35.2004
 124341436.879 8                  23661323.586
        48.500
 120236447.543 8  93517456.198 7  22468989.981    22468989.357    22468996.540
        49.200          44.500
 131573798.624 6 102525006.21042  25037692.278    25037691.6574   25037704.1064
        38.300          16.4004
 107273097.535 8  83589588.78846  20413328.936    20413328.6014   20413329.9054
        48.000          39.4004
 127968789.328 7  99716103.05944  24351581.141    24351579.8764   24351580.3874
        42.800          27.1004
 102156011.982 8  79454729.103 8  19123808.018    19123808.231    19123814.795
        52.300          48.400
 108735462.507 8  84729120.12746  20691585.686    20691584.2384   20691584.5974
        48.300          41.1004
 102628967.167 8  79822744.823 8  19225790.632    19225790.482    19225795.461
        52.600          49.900
